country,state,city,station,last_update,latitude,longitude,pollutant_id,pollutant_min,pollutant_max,pollutant_avg
India,Andhra_Pradesh,Amaravati,"Secretariat, Amaravati - APPCB",11-02-2024 13:00:00,16.5150833,80.5181667,PM10,67,100,86
India,Andhra_Pradesh,Anantapur,"Gulzarpet, Anantapur - APPCB",11-02-2024 13:00:00,14.675886,77.593027,PM10,43,104,63
India,Andhra_Pradesh,Anantapur,"Gulzarpet, Anantapur - APPCB",11-02-2024 13:00:00,14.675886,77.593027,NH3,NA,NA,NA
India,Andhra_Pradesh,Chittoor,"Gangineni Cheruvu, Chittoor - APPCB",11-02-2024 13:00:00,13.204880,79.097889,PM2.5,44,83,68
India,Andhra_Pradesh,Chittoor,"Gangineni Cheruvu, Chittoor - APPCB",11-02-2024 13:00:00,13.204880,79.097889,PM10,48,89,72
India,Andhra_Pradesh,Chittoor,"Gangineni Cheruvu, Chittoor - APPCB",11-02-2024 13:00:00,13.204880,79.097889,NO2,NA,NA,NA
India,Andhra_Pradesh,Kadapa,"Yerramukkapalli, Kadapa - APPCB",11-02-2024 13:00:00,14.465052,78.824187,OZONE,6,51,20
India,Andhra_Pradesh,Rajamahendravaram,"Anand Kala Kshetram, Rajamahendravaram - APPCB",11-02-2024 13:00:00,16.9872867,81.7363176,CO,9,42,33
India,Andhra_Pradesh,Tirupati,"Tirumala, Tirupati - APPCB",11-02-2024 13:00:00,13.67,79.35,PM2.5,69,125,87
India,Andhra_Pradesh,Tirupati,"Tirumala, Tirupati - APPCB",11-02-2024 13:00:00,13.67,79.35,CO,42,64,47
India,Andhra_Pradesh,Vijayawada,"HB Colony, Vijayawada - APPCB",11-02-2024 13:00:00,16.536107,80.594233,PM2.5,46,82,66
India,Andhra_Pradesh,Vijayawada,"HB Colony, Vijayawada - APPCB",11-02-2024 13:00:00,16.536107,80.594233,PM10,52,93,74
India,Andhra_Pradesh,Vijayawada,"Kanuru, Vijayawada - APPCB",11-02-2024 13:00:00,16.486692,80.699436,NO2,14,19,15
India,Andhra_Pradesh,Vijayawada,"Kanuru, Vijayawada - APPCB",11-02-2024 13:00:00,16.486692,80.699436,NH3,1,1,1
India,Andhra_Pradesh,Vijayawada,"Kanuru, Vijayawada - APPCB",11-02-2024 13:00:00,16.486692,80.699436,SO2,5,10,7
India,Andhra_Pradesh,Vijayawada,"Kanuru, Vijayawada - APPCB",11-02-2024 13:00:00,16.486692,80.699436,CO,22,48,41
India,Andhra_Pradesh,Vijayawada,"Kanuru, Vijayawada - APPCB",11-02-2024 13:00:00,16.486692,80.699436,OZONE,25,25,25
India,Andhra_Pradesh,Vijayawada,"Rajiv Gandhi Park, Vijayawada - APPCB",11-02-2024 13:00:00,16.509717,80.612222,CO,34,34,34
India,Andhra_Pradesh,Vijayawada,"Rajiv Nagar, Vijayawada - APPCB",11-02-2024 13:00:00,16.554731,80.649110,CO,23,61,43
India,Andhra_Pradesh,Visakhapatnam,"GVM Corporation, Visakhapatnam - APPCB",11-02-2024 13:00:00,17.72,83.3,NO2,23,58,37
India,Arunachal_Pradesh,Naharlagun,"Naharlagun, Naharlagun - APSPCB",11-02-2024 13:00:00,27.103358,93.679645,PM2.5,16,322,92
India,Arunachal_Pradesh,Naharlagun,"Naharlagun, Naharlagun - APSPCB",11-02-2024 13:00:00,27.103358,93.679645,NO2,2,2,2
India,Assam,Guwahati,"LGBI Airport, Guwahati - PCBA",11-02-2024 13:00:00,26.10887,91.589544,NH3,1,8,4
India,Assam,Guwahati,"Pan Bazaar, Guwahati - PCBA",11-02-2024 13:00:00,26.187500,91.744194,NO2,1,14,6
India,Assam,Guwahati,"Railway Colony, Guwahati - PCBA",11-02-2024 13:00:00,26.181742,91.78063,PM10,57,402,181
India,Assam,Nagaon,"Christianpatty, Nagaon - PCBA",11-02-2024 13:00:00,26.349082,92.68449,PM2.5,85,500,227
India,Assam,Nagaon,"Christianpatty, Nagaon - PCBA",11-02-2024 13:00:00,26.349082,92.68449,PM10,73,461,155
India,Assam,Nalbari,"Bata Chowk, Nalbari - PCBA",11-02-2024 13:00:00,26.446912,91.439057,PM2.5,63,500,242
India,Assam,Nalbari,"Bata Chowk, Nalbari - PCBA",11-02-2024 13:00:00,26.446912,91.439057,CO,62,146,81
India,Assam,Sivasagar,"Girls College, Sivasagar - PCBA",11-02-2024 13:00:00,26.987634,94.636574,OZONE,1,5,1
India,Bihar,Araria,"Kharahiya Basti, Araria - BSPCB",11-02-2024 13:00:00,26.146529,87.454184,NO2,6,8,7
India,Bihar,Aurangabad,"Gurdeo Nagar, Aurangabad - BSPCB",11-02-2024 13:00:00,24.75746,84.366208,PM2.5,110,410,222
India,Bihar,Aurangabad,"Gurdeo Nagar, Aurangabad - BSPCB",11-02-2024 13:00:00,24.75746,84.366208,CO,31,79,70
India,Bihar,Bettiah,"Kamalnath Nagar, Bettiah - BSPCB",11-02-2024 13:00:00,26.80365,84.51954,PM10,47,99,72
India,Bihar,Bettiah,"Kamalnath Nagar, Bettiah - BSPCB",11-02-2024 13:00:00,26.80365,84.51954,CO,76,78,78
India,Bihar,Bihar Sharif,"D M Colony, Bihar Sharif - BSPCB",11-02-2024 13:00:00,25.204762,85.514960,NO2,9,11,10
India,Bihar,Bihar Sharif,"D M Colony, Bihar Sharif - BSPCB",11-02-2024 13:00:00,25.204762,85.514960,NH3,2,2,2
India,Bihar,Buxar,"Charitra Van, Buxar - BSPCB (Formerly known as Central Jail)",11-02-2024 13:00:00,25.567520,83.966379,PM10,153,500,347
India,Bihar,Buxar,"Charitra Van, Buxar - BSPCB (Formerly known as Central Jail)",11-02-2024 13:00:00,25.567520,83.966379,NO2,10,141,43
India,Bihar,Chhapra,"Darshan Nagar, Chhapra - BSPCB",11-02-2024 13:00:00,25.7808257,84.7446768,NH3,10,15,12
India,Bihar,Gaya,"Kareemganj, Gaya - BSPCB",11-02-2024 13:00:00,24.792403,84.992416,NO2,30,31,30
India,Bihar,Gaya,"SFTI Kusdihra, Gaya - BSPCB",11-02-2024 13:00:00,24.762518,84.982348,PM2.5,50,170,95
India,Bihar,Gaya,"SFTI Kusdihra, Gaya - BSPCB",11-02-2024 13:00:00,24.762518,84.982348,CO,66,106,95
India,Bihar,Gaya,"SFTI Kusdihra, Gaya - BSPCB",11-02-2024 13:00:00,24.762518,84.982348,OZONE,2,48,14
India,Bihar,Hajipur,"Industrial Area, Hajipur - BSPCB",11-02-2024 13:00:00,25.697189,85.245900,PM10,119,500,258
India,Bihar,Hajipur,"Industrial Area, Hajipur - BSPCB",11-02-2024 13:00:00,25.697189,85.245900,OZONE,44,205,107
India,Bihar,Katihar,"Mirchaibari, Katihar - BSPCB",11-02-2024 13:00:00,25.560083,87.553265,PM2.5,67,323,154
India,Bihar,Katihar,"Mirchaibari, Katihar - BSPCB",11-02-2024 13:00:00,25.560083,87.553265,PM10,99,273,151
India,Bihar,Katihar,"Mirchaibari, Katihar - BSPCB",11-02-2024 13:00:00,25.560083,87.553265,SO2,15,19,17
India,Bihar,Kishanganj,"SDM Office_Khagra, Kishanganj - BSPCB",11-02-2024 13:00:00,26.0881305,87.93840336,PM10,131,276,201
India,Bihar,Kishanganj,"SDM Office_Khagra, Kishanganj - BSPCB",11-02-2024 13:00:00,26.0881305,87.93840336,NH3,15,17,16
India,Bihar,Manguraha,"Forest Rest House, Manguraha - BSPCB",11-02-2024 13:00:00,27.308328,84.531742,PM2.5,67,309,100
India,Bihar,Motihari,"Gandak Colony, Motihari - BSPCB",11-02-2024 13:00:00,26.63086,84.90051,SO2,1,5,3
India,Bihar,Muzaffarpur,"Buddha Colony, Muzaffarpur - BSPCB",11-02-2024 13:00:00,26.11442,85.39813,PM10,145,307,206
India,Bihar,Muzaffarpur,"Buddha Colony, Muzaffarpur - BSPCB",11-02-2024 13:00:00,26.11442,85.39813,NH3,2,12,8
India,Bihar,Muzaffarpur,"Muzaffarpur Collectorate, Muzaffarpur - BSPCB",11-02-2024 13:00:00,26.1209,85.3647,NO2,11,13,12
India,Bihar,Patna,"Govt. High School Shikarpur, Patna - BSPCB",11-02-2024 13:00:00,25.592539,85.227158,PM2.5,72,330,255
India,Bihar,Patna,"IGSC Planetarium Complex, Patna - BSPCB",11-02-2024 13:00:00,25.610369,85.132568,PM2.5,65,385,204
India,Bihar,Patna,"Muradpur, Patna - BSPCB",11-02-2024 13:00:00,25.619651,85.147382,PM10,155,500,328
India,Bihar,Patna,"Muradpur, Patna - BSPCB",11-02-2024 13:00:00,25.619651,85.147382,SO2,9,28,16
India,Bihar,Patna,"Rajbansi Nagar, Patna - BSPCB",11-02-2024 13:00:00,25.599486,85.113666,PM10,123,446,237
India,Bihar,Patna,"Samanpura, Patna - BSPCB",11-02-2024 13:00:00,25.596727,85.085624,PM2.5,94,500,312
India,Bihar,Patna,"Samanpura, Patna - BSPCB",11-02-2024 13:00:00,25.596727,85.085624,NO2,24,121,61
India,Bihar,Patna,"Samanpura, Patna - BSPCB",11-02-2024 13:00:00,25.596727,85.085624,NH3,3,19,8
India,Bihar,Patna,"Samanpura, Patna - BSPCB",11-02-2024 13:00:00,25.596727,85.085624,SO2,15,18,16
India,Bihar,Patna,"Samanpura, Patna - BSPCB",11-02-2024 13:00:00,25.596727,85.085624,CO,32,178,104
India,Bihar,Patna,"Samanpura, Patna - BSPCB",11-02-2024 13:00:00,25.596727,85.085624,OZONE,1,61,30
India,Bihar,Rajgir,"Dangi Tola, Rajgir - BSPCB",11-02-2024 13:00:00,25.03280,85.41948,PM2.5,65,345,174
India,Bihar,Rajgir,"Dangi Tola, Rajgir - BSPCB",11-02-2024 13:00:00,25.03280,85.41948,OZONE,21,24,23
India,Bihar,Saharsa,"Police Line, Saharsa - BSPCB",11-02-2024 13:00:00,25.892357,86.590325,PM10,106,233,136
India,Bihar,Saharsa,"Police Line, Saharsa - BSPCB",11-02-2024 13:00:00,25.892357,86.590325,NH3,9,9,9
India,Bihar,Samastipur,"DM Office_Kasipur, Samastipur - BSPCB",11-02-2024 13:00:00,25.859655,85.77944,PM10,101,153,123
India,Bihar,Samastipur,"DM Office_Kasipur, Samastipur - BSPCB",11-02-2024 13:00:00,25.859655,85.77944,SO2,1,13,10
India,Bihar,Sasaram,"Dada Peer, Sasaram - BSPCB",11-02-2024 13:00:00,24.952822,84.002396,CO,NA,NA,NA
India,Chandigarh,Chandigarh,"Sector 22, Chandigarh - CPCC",11-02-2024 13:00:00,30.735567,76.775714,NO2,27,136,62
India,Chandigarh,Chandigarh,"Sector-25, Chandigarh - CPCC",11-02-2024 13:00:00,30.751462,76.762879,PM2.5,209,293,247
India,Chandigarh,Chandigarh,"Sector-53, Chandigarh - CPCC",11-02-2024 13:00:00,30.719859,76.738637,SO2,NA,NA,NA
India,Chhattisgarh,Bhilai,"32Bungalows, Bhilai - CECB",11-02-2024 13:00:00,21.194815,81.314770,PM10,77,121,95
India,Chhattisgarh,Bhilai,"32Bungalows, Bhilai - CECB",11-02-2024 13:00:00,21.194815,81.314770,SO2,4,8,6
India,Chhattisgarh,Bhilai,"32Bungalows, Bhilai - CECB",11-02-2024 13:00:00,21.194815,81.314770,CO,34,54,39
India,Chhattisgarh,Bhilai,"32Bungalows, Bhilai - CECB",11-02-2024 13:00:00,21.194815,81.314770,OZONE,4,9,5
India,Chhattisgarh,Bhilai,"Hathkhoj, Bhilai - CECB",11-02-2024 13:00:00,21.224231,81.408350,PM2.5,72,162,102
India,Chhattisgarh,Bhilai,"Hathkhoj, Bhilai - CECB",11-02-2024 13:00:00,21.224231,81.408350,PM10,109,152,122
India,Chhattisgarh,Bhilai,"Hathkhoj, Bhilai - CECB",11-02-2024 13:00:00,21.224231,81.408350,OZONE,12,23,15
India,Chhattisgarh,Bilaspur,"Mangala, Bilaspur - NTPC",11-02-2024 13:00:00,22.08815,82.13737,PM10,38,116,76
India,Chhattisgarh,Chhal,"Nawapara SECL Colony, Chhal - CECB",11-02-2024 13:00:00,22.118125,83.140608,PM2.5,52,109,73
India,Chhattisgarh,Kunjemura,"OP Jindal School, Kunjemura - CECB",11-02-2024 13:00:00,22.126650,83.483212,NH3,1,4,2
India,Chhattisgarh,Milupara,"Govt. Higher Secondary School, Milupara - CECB",11-02-2024 13:00:00,22.1910172,83.5197009,SO2,10,62,21
India,Chhattisgarh,Raipur,"AIIMS, Raipur - CECB",11-02-2024 13:00:00,21.258815,81.578979,PM2.5,45,179,79
India,Chhattisgarh,Raipur,"AIIMS, Raipur - CECB",11-02-2024 13:00:00,21.258815,81.578979,PM10,50,193,113
India,Chhattisgarh,Raipur,"Bhatagaon New ISBT, Raipur - CECB",11-02-2024 13:00:00,21.219665,81.630094,PM10,52,104,82
India,Chhattisgarh,Raipur,"Bhatagaon New ISBT, Raipur - CECB",11-02-2024 13:00:00,21.219665,81.630094,NH3,1,2,2
India,Chhattisgarh,Raipur,"Bhatagaon New ISBT, Raipur - CECB",11-02-2024 13:00:00,21.219665,81.630094,OZONE,3,10,3
India,Chhattisgarh,Raipur,"Krishak Nagar, Raipur - CECB",11-02-2024 13:00:00,21.237755,81.705301,CO,22,46,42
India,Chhattisgarh,Raipur,"Siltara Phase-II, Raipur - CECB",11-02-2024 13:00:00,21.371751,81.664929,NH3,2,3,3
India,Chhattisgarh,Tumidih,"OP Jindal Industrial Park, Tumidih - CECB",11-02-2024 13:00:00,22.06631475,83.33820077,PM10,NA,NA,NA
India,Chhattisgarh,Tumidih,"OP Jindal Industrial Park, Tumidih - CECB",11-02-2024 13:00:00,22.06631475,83.33820077,NO2,NA,NA,NA
India,Chhattisgarh,Tumidih,"OP Jindal Industrial Park, Tumidih - CECB",11-02-2024 13:00:00,22.06631475,83.33820077,NH3,NA,NA,NA
India,Chhattisgarh,Tumidih,"OP Jindal Industrial Park, Tumidih - CECB",11-02-2024 13:00:00,22.06631475,83.33820077,SO2,NA,NA,NA
India,Delhi,Delhi,"Alipur, Delhi - DPCC",11-02-2024 13:00:00,28.815329,77.153010,SO2,6,43,11
India,Delhi,Delhi,"Ashok Vihar, Delhi - DPCC",11-02-2024 13:00:00,28.695381,77.181665,PM2.5,172,387,323
India,Delhi,Delhi,"Ashok Vihar, Delhi - DPCC",11-02-2024 13:00:00,28.695381,77.181665,NH3,8,10,9
India,Delhi,Delhi,"Ashok Vihar, Delhi - DPCC",11-02-2024 13:00:00,28.695381,77.181665,SO2,24,42,28
India,Delhi,Delhi,"Aya Nagar, Delhi - IMD",11-02-2024 13:00:00,28.4706914,77.1099364,PM2.5,91,375,301
India,Delhi,Delhi,"Bawana, Delhi - DPCC",11-02-2024 13:00:00,28.776200,77.051074,PM2.5,304,409,350
India,Delhi,Delhi,"CRRI Mathura Road, Delhi - IMD",11-02-2024 13:00:00,28.5512005,77.2735737,CO,116,154,132
India,Delhi,Delhi,"DTU, Delhi - CPCB",11-02-2024 13:00:00,28.7500499,77.1112615,PM10,139,380,247
India,Delhi,Delhi,"DTU, Delhi - CPCB",11-02-2024 13:00:00,28.7500499,77.1112615,SO2,26,28,27
India,Delhi,Delhi,"IGI Airport (T3), Delhi - IMD",11-02-2024 13:00:00,28.5627763,77.1180053,PM2.5,218,371,323
India,Delhi,Delhi,"IHBAS, Dilshad Garden, Delhi - CPCB",11-02-2024 13:00:00,28.6811736,77.3025234,SO2,2,31,8
India,Delhi,Delhi,"IHBAS, Dilshad Garden, Delhi - CPCB",11-02-2024 13:00:00,28.6811736,77.3025234,CO,16,100,54
India,Delhi,Delhi,"Jahangirpuri, Delhi - DPCC",11-02-2024 13:00:00,28.732820,77.170633,SO2,10,34,17
India,Delhi,Delhi,"Jahangirpuri, Delhi - DPCC",11-02-2024 13:00:00,28.732820,77.170633,OZONE,6,192,23
India,Delhi,Delhi,"Lodhi Road, Delhi - IITM",11-02-2024 13:00:00,28.588333,77.221667,SO2,21,35,30
India,Delhi,Delhi,"Lodhi Road, Delhi - IMD",11-02-2024 13:00:00,28.5918245,77.2273074,PM10,159,221,185
India,Delhi,Delhi,"Lodhi Road, Delhi - IMD",11-02-2024 13:00:00,28.5918245,77.2273074,CO,54,87,71
India,Delhi,Delhi,"Lodhi Road, Delhi - IMD",11-02-2024 13:00:00,28.5918245,77.2273074,OZONE,14,110,21
India,Delhi,Delhi,"Major Dhyan Chand National Stadium, Delhi - DPCC",11-02-2024 13:00:00,28.611281,77.237738,PM2.5,278,408,352
India,Delhi,Delhi,"Major Dhyan Chand National Stadium, Delhi - DPCC",11-02-2024 13:00:00,28.611281,77.237738,NH3,10,15,12
India,Delhi,Delhi,"Major Dhyan Chand National Stadium, Delhi - DPCC",11-02-2024 13:00:00,28.611281,77.237738,SO2,7,28,15
India,Delhi,Delhi,"Mandir Marg, Delhi - DPCC",11-02-2024 13:00:00,28.636429,77.201067,NH3,17,19,18
India,Delhi,Delhi,"Mundka, Delhi - DPCC",11-02-2024 13:00:00,28.684678,77.076574,NO2,40,121,80
India,Delhi,Delhi,"Mundka, Delhi - DPCC",11-02-2024 13:00:00,28.684678,77.076574,NH3,8,14,11
India,Delhi,Delhi,"Mundka, Delhi - DPCC",11-02-2024 13:00:00,28.684678,77.076574,OZONE,1,13,2
India,Delhi,Delhi,"NSIT Dwarka, Delhi - CPCB",11-02-2024 13:00:00,28.60909,77.0325413,OZONE,12,162,21
India,Delhi,Delhi,"Narela, Delhi - DPCC",11-02-2024 13:00:00,28.822836,77.101981,PM2.5,163,366,315
India,Delhi,Delhi,"Nehru Nagar, Delhi - DPCC",11-02-2024 13:00:00,28.567890,77.250515,PM10,186,422,280
India,Delhi,Delhi,"Nehru Nagar, Delhi - DPCC",11-02-2024 13:00:00,28.567890,77.250515,OZONE,2,273,18
India,Delhi,Delhi,"New Moti Bagh, Delhi - MHUA",11-02-2024 13:00:00,28.57834,77.18400,NO2,1,10,5
India,Delhi,Delhi,"North Campus, DU, Delhi - IMD",11-02-2024 13:00:00,28.6573814,77.1585447,PM10,143,324,227
India,Delhi,Delhi,"Okhla Phase-2, Delhi - DPCC",11-02-2024 13:00:00,28.530785,77.271255,PM10,174,332,272
India,Delhi,Delhi,"Punjabi Bagh, Delhi - DPCC",11-02-2024 13:00:00,28.674045,77.131023,CO,26,108,51
India,Delhi,Delhi,"Pusa, Delhi - DPCC",11-02-2024 13:00:00,28.639652,77.146275,CO,25,122,52
India,Delhi,Delhi,"R K Puram, Delhi - DPCC",11-02-2024 13:00:00,28.563262,77.186937,OZONE,6,220,20
India,Delhi,Delhi,"Shadipur, Delhi - CPCB",11-02-2024 13:00:00,28.6514781,77.1473105,NH3,22,34,30
India,Delhi,Delhi,"Shadipur, Delhi - CPCB",11-02-2024 13:00:00,28.6514781,77.1473105,CO,22,73,49
India,Delhi,Delhi,"Shadipur, Delhi - CPCB",11-02-2024 13:00:00,28.6514781,77.1473105,OZONE,3,270,97
India,Delhi,Delhi,"Sirifort, Delhi - CPCB",11-02-2024 13:00:00,28.5504249,77.2159377,OZONE,9,25,19
India,Delhi,Delhi,"Sonia Vihar, Delhi - DPCC",11-02-2024 13:00:00,28.710508,77.249485,CO,44,101,76
India,Delhi,Delhi,"Sri Aurobindo Marg, Delhi - DPCC",11-02-2024 13:00:00,28.531346,77.190156,OZONE,2,54,7
India,Delhi,Delhi,"Vivek Vihar, Delhi - DPCC",11-02-2024 13:00:00,28.672342,77.315260,CO,13,104,51
India,Delhi,Delhi,"Vivek Vihar, Delhi - DPCC",11-02-2024 13:00:00,28.672342,77.315260,OZONE,2,40,6
India,Delhi,Delhi,"Wazirpur, Delhi - DPCC",11-02-2024 13:00:00,28.699793,77.165453,PM10,161,431,315
India,Delhi,Delhi,"Wazirpur, Delhi - DPCC",11-02-2024 13:00:00,28.699793,77.165453,NH3,5,9,7
India,Delhi,Delhi,"Wazirpur, Delhi - DPCC",11-02-2024 13:00:00,28.699793,77.165453,OZONE,4,144,12
India,Gujarat,Ahmedabad,"Chandkheda, Ahmedabad - IITM",11-02-2024 13:00:00,23.107969,72.574648,PM2.5,41,301,98
India,Gujarat,Ahmedabad,"Chandkheda, Ahmedabad - IITM",11-02-2024 13:00:00,23.107969,72.574648,NH3,NA,NA,NA
India,Gujarat,Ahmedabad,"Chandkheda, Ahmedabad - IITM",11-02-2024 13:00:00,23.107969,72.574648,SO2,9,14,11
India,Gujarat,Ahmedabad,"Chandkheda, Ahmedabad - IITM",11-02-2024 13:00:00,23.107969,72.574648,CO,8,104,68
India,Gujarat,Ahmedabad,"Gyaspur, Ahmedabad - IITM",11-02-2024 13:00:00,22.977134,72.553024,NH3,8,9,8
India,Gujarat,Ahmedabad,"Maninagar, Ahmedabad - GPCB",11-02-2024 13:00:00,23.002657,72.591912,CO,14,50,25
India,Gujarat,Ahmedabad,"Rakhial, Ahmedabad - IITM",11-02-2024 13:00:00,23.016834,72.625775,NH3,4,14,8
India,Gujarat,Ahmedabad,"Rakhial, Ahmedabad - IITM",11-02-2024 13:00:00,23.016834,72.625775,SO2,2,6,4
India,Gujarat,Ahmedabad,"Rakhial, Ahmedabad - IITM",11-02-2024 13:00:00,23.016834,72.625775,CO,34,39,36
India,Gujarat,Ahmedabad,"SAC ISRO Bopal, Ahmedabad - IITM",11-02-2024 13:00:00,23.041137,72.456691,PM2.5,50,117,72
India,Gujarat,Ahmedabad,"SAC ISRO Bopal, Ahmedabad - IITM",11-02-2024 13:00:00,23.041137,72.456691,NO2,24,27,24
India,Gujarat,Ahmedabad,"SVPI Airport Hansol, Ahmedabad - IITM",11-02-2024 13:00:00,23.076793,72.627874,PM2.5,25,283,60
India,Gujarat,Ahmedabad,"SVPI Airport Hansol, Ahmedabad - IITM",11-02-2024 13:00:00,23.076793,72.627874,NO2,NA,NA,NA
India,Gujarat,Ahmedabad,"SVPI Airport Hansol, Ahmedabad - IITM",11-02-2024 13:00:00,23.076793,72.627874,OZONE,10,32,15
India,Gujarat,Ahmedabad,"Sardar Vallabhbhai Patel Stadium, Ahmedabad - IITM",11-02-2024 13:00:00,23.043070,72.562968,PM2.5,58,95,71
India,Gujarat,Ankleshwar,"GIDC, Ankleshwar - GPCB",11-02-2024 13:00:00,21.613267,73.010555,NH3,7,7,7
India,Gujarat,Ankleshwar,"GIDC, Ankleshwar - GPCB",11-02-2024 13:00:00,21.613267,73.010555,OZONE,22,38,25
India,Gujarat,Gandhinagar,"GIFT City, Gandhinagar - IITM",11-02-2024 13:00:00,23.163798,72.677768,SO2,4,6,5
India,Gujarat,Gandhinagar,"GIFT City, Gandhinagar - IITM",11-02-2024 13:00:00,23.163798,72.677768,CO,8,22,18
India,Gujarat,Gandhinagar,"GIFT City, Gandhinagar - IITM",11-02-2024 13:00:00,23.163798,72.677768,OZONE,15,20,16
India,Gujarat,Gandhinagar,"IIPHG Lekawada, Gandhinagar - IITM",11-02-2024 13:00:00,23.243639,72.68994,PM10,93,102,100
India,Gujarat,Gandhinagar,"IIPHG Lekawada, Gandhinagar - IITM",11-02-2024 13:00:00,23.243639,72.68994,OZONE,26,95,61
India,Gujarat,Gandhinagar,"Sector-10, Gandhinagar - GPCB",11-02-2024 13:00:00,23.221714,72.654328,PM2.5,18,42,28
India,Gujarat,Gandhinagar,"Sector-10, Gandhinagar - GPCB",11-02-2024 13:00:00,23.221714,72.654328,NH3,1,2,2
India,Gujarat,Gandhinagar,"Sector-10, Gandhinagar - GPCB",11-02-2024 13:00:00,23.221714,72.654328,CO,8,21,12
India,Gujarat,Surat,"Science Center, Surat - SMC",11-02-2024 13:00:00,21.170046,72.795405,PM10,28,150,70
India,Gujarat,Surat,"Science Center, Surat - SMC",11-02-2024 13:00:00,21.170046,72.795405,NO2,25,39,30
India,Gujarat,Vapi,"Phase-1 GIDC, Vapi - GPCB",11-02-2024 13:00:00,20.362421,72.918013,OZONE,36,47,39
India,Gujarat,Vatva,"Phase-4 GIDC, Vatva - GPCB",11-02-2024 13:00:00,22.969611,72.643500,NH3,1,1,1
India,Gujarat,Vatva,"Phase-4 GIDC, Vatva - GPCB",11-02-2024 13:00:00,22.969611,72.643500,SO2,17,18,17
India,Gujarat,Vatva,"Phase-4 GIDC, Vatva - GPCB",11-02-2024 13:00:00,22.969611,72.643500,OZONE,1,5,3
India,Haryana,Ambala,"Patti Mehar, Ambala - HSPCB",11-02-2024 13:00:00,30.379589,76.778328,NH3,6,6,6
India,Haryana,Bahadurgarh,"Arya Nagar, Bahadurgarh - HSPCB",11-02-2024 13:00:00,28.6701,76.9254,PM10,99,365,146
India,Haryana,Bhiwani,"H.B. Colony, Bhiwani - HSPCB",11-02-2024 13:00:00,28.806223,76.141105,PM10,87,141,113
India,Haryana,Bhiwani,"H.B. Colony, Bhiwani - HSPCB",11-02-2024 13:00:00,28.806223,76.141105,SO2,5,15,10
India,Haryana,Charkhi Dadri,"Mini Secretariat, Charkhi Dadri - HSPCB",11-02-2024 13:00:00,28.593883,76.270653,PM10,90,160,128
India,Haryana,Dharuhera,"Municipal Corporation Office, Dharuhera -  HSPCB",11-02-2024 13:00:00,28.206800,76.799700,CO,14,58,50
India,Haryana,Dharuhera,"Municipal Corporation Office, Dharuhera -  HSPCB",11-02-2024 13:00:00,28.206800,76.799700,OZONE,14,105,21
India,Haryana,Faridabad,"New Industrial Town, Faridabad - HSPCB",11-02-2024 13:00:00,28.39072,77.30059,PM10,155,500,288
India,Haryana,Faridabad,"New Industrial Town, Faridabad - HSPCB",11-02-2024 13:00:00,28.39072,77.30059,NO2,8,19,14
India,Haryana,Faridabad,"New Industrial Town, Faridabad - HSPCB",11-02-2024 13:00:00,28.39072,77.30059,SO2,16,22,19
India,Haryana,Faridabad,"New Industrial Town, Faridabad - HSPCB",11-02-2024 13:00:00,28.39072,77.30059,OZONE,26,243,192
India,Haryana,Faridabad,"Sector 11, Faridabad - HSPCB",11-02-2024 13:00:00,28.376058,77.315741,PM2.5,130,246,178
India,Haryana,Faridabad,"Sector 11, Faridabad - HSPCB",11-02-2024 13:00:00,28.376058,77.315741,PM10,86,237,140
India,Haryana,Fatehabad,"Huda Sector, Fatehabad - HSPCB",11-02-2024 13:00:00,29.503664,75.467934,PM10,74,280,112
India,Haryana,Fatehabad,"Huda Sector, Fatehabad - HSPCB",11-02-2024 13:00:00,29.503664,75.467934,SO2,5,11,8
India,Haryana,Fatehabad,"Huda Sector, Fatehabad - HSPCB",11-02-2024 13:00:00,29.503664,75.467934,OZONE,20,25,22
India,Haryana,Gurugram,"Sector-51, Gurugram - HSPCB",11-02-2024 13:00:00,28.4227,77.0667,CO,47,113,88
India,Haryana,Gurugram,"Teri Gram, Gurugram - HSPCB",11-02-2024 13:00:00,28.4275,77.1465,CO,36,60,55
India,Haryana,Hisar,"Urban Estate-II, Hisar - HSPCB",11-02-2024 13:00:00,29.140560,75.744941,PM10,52,138,107
India,Haryana,Hisar,"Urban Estate-II, Hisar - HSPCB",11-02-2024 13:00:00,29.140560,75.744941,NH3,2,6,4
India,Haryana,Kaithal,"Rishi Nagar, Kaithal - HSPCB",11-02-2024 13:00:00,29.8006,76.4155,SO2,6,30,15
India,Haryana,Karnal,"Sector-12, Karnal - HSPCB",11-02-2024 13:00:00,29.695300,77.002700,NO2,7,12,10
India,Haryana,Karnal,"Sector-12, Karnal - HSPCB",11-02-2024 13:00:00,29.695300,77.002700,OZONE,29,34,30
India,Haryana,Narnaul,"Shastri Nagar, Narnaul - HSPCB",11-02-2024 13:00:00,28.060249,76.113115,NO2,16,58,34
India,Haryana,Narnaul,"Shastri Nagar, Narnaul - HSPCB",11-02-2024 13:00:00,28.060249,76.113115,CO,2,16,10
India,Haryana,Palwal,"Shyam Nagar, Palwal - HSPCB",11-02-2024 13:00:00,28.1485564,77.3320667,NH3,NA,NA,NA
India,Haryana,Panipat,"Sector-18, Panipat - HSPCB",11-02-2024 13:00:00,29.497973,76.993331,NO2,NA,NA,NA
India,Haryana,Rohtak,"MD University, Rohtak - HSPCB",11-02-2024 13:00:00,28.52123,76.37138,NO2,45,59,51
India,Haryana,Sirsa,"F-Block, Sirsa - HSPCB",11-02-2024 13:00:00,29.536400,75.015800,OZONE,21,106,36
India,Haryana,Sonipat,"Murthal, Sonipat - HSPCB",11-02-2024 13:00:00,29.027200,77.062100,CO,28,37,30
India,Haryana,Yamuna Nagar,"Gobind Pura, Yamuna Nagar - HSPCB",11-02-2024 13:00:00,30.1480566,77.2893471,NH3,1,14,3
India,Haryana,Yamuna Nagar,"Gobind Pura, Yamuna Nagar - HSPCB",11-02-2024 13:00:00,30.1480566,77.2893471,SO2,1,75,8
India,Haryana,Yamuna Nagar,"Gobind Pura, Yamuna Nagar - HSPCB",11-02-2024 13:00:00,30.1480566,77.2893471,CO,27,63,54
India,Haryana,Yamuna Nagar,"Gobind Pura, Yamuna Nagar - HSPCB",11-02-2024 13:00:00,30.1480566,77.2893471,OZONE,5,24,6
India,Jharkhand,Dhanbad,"Kalakusuma, Dhanbad - DMC",11-02-2024 13:00:00,23.811548,86.481238,OZONE,42,42,42
India,Jharkhand,Dhanbad,"Sardar Patel Nagar, Dhanbad - JSPCB",11-02-2024 13:00:00,23.80569,86.44268,SO2,9,103,17
India,Jharkhand,Dhanbad,"Sardar Patel Nagar, Dhanbad - JSPCB",11-02-2024 13:00:00,23.80569,86.44268,OZONE,14,30,16
India,Jharkhand,Pathardih,"Mohalbani Ghat, Pathardih - DMC",11-02-2024 13:00:00,23.669880,86.411725,PM2.5,20,214,87
India,Jharkhand,Pathardih,"Mohalbani Ghat, Pathardih - DMC",11-02-2024 13:00:00,23.669880,86.411725,PM10,70,181,113
India,Jharkhand,Pathardih,"Mohalbani Ghat, Pathardih - DMC",11-02-2024 13:00:00,23.669880,86.411725,SO2,19,106,27
India,Karnataka,Belgaum,"Ramteerth Nagar, Belgaum - KSPCB",11-02-2024 13:00:00,15.888653,74.541751,PM2.5,38,88,59
India,Karnataka,Bengaluru,"BTM Layout, Bengaluru - CPCB",11-02-2024 13:00:00,12.9135218,77.5950804,CO,22,22,22
India,Karnataka,Bengaluru,"Bapuji Nagar, Bengaluru - KSPCB",11-02-2024 13:00:00,12.951913,77.539784,PM10,76,113,96
India,Karnataka,Bengaluru,"City Railway Station, Bengaluru - KSPCB",11-02-2024 13:00:00,12.9756843,77.5660749,PM10,65,83,74
India,Karnataka,Bengaluru,"City Railway Station, Bengaluru - KSPCB",11-02-2024 13:00:00,12.9756843,77.5660749,SO2,13,13,13
India,Karnataka,Bengaluru,"Hebbal, Bengaluru - KSPCB",11-02-2024 13:00:00,13.029152,77.585901,SO2,12,24,18
India,Karnataka,Bengaluru,"Hebbal, Bengaluru - KSPCB",11-02-2024 13:00:00,13.029152,77.585901,CO,8,34,19
India,Karnataka,Bengaluru,"Hombegowda Nagar, Bengaluru - KSPCB",11-02-2024 13:00:00,12.938539,77.590100,NH3,2,2,2
India,Karnataka,Bengaluru,"Jigani, Bengaluru - KSPCB",11-02-2024 13:00:00,12.7816279,77.6299145,PM2.5,NA,NA,NA
India,Karnataka,Bengaluru,"Jigani, Bengaluru - KSPCB",11-02-2024 13:00:00,12.7816279,77.6299145,CO,45,71,60
India,Karnataka,Bengaluru,"Peenya, Bengaluru - CPCB",11-02-2024 13:00:00,13.0270199,77.494094,NO2,18,25,22
India,Karnataka,Bengaluru,"Sanegurava Halli, Bengaluru - KSPCB",11-02-2024 13:00:00,12.990328,77.5431385,NO2,22,38,28
India,Karnataka,Bengaluru,"Shivapura_Peenya, Bengaluru - KSPCB",11-02-2024 13:00:00,13.0246342,77.5080115,PM2.5,2,181,39
India,Karnataka,Bengaluru,"Shivapura_Peenya, Bengaluru - KSPCB",11-02-2024 13:00:00,13.0246342,77.5080115,PM10,46,103,81
India,Karnataka,Chamarajanagar,"Urban, Chamarajanagar - KSPCB",11-02-2024 13:00:00,11.55358,76.55521,PM10,34,52,43
India,Karnataka,Chamarajanagar,"Urban, Chamarajanagar - KSPCB",11-02-2024 13:00:00,11.55358,76.55521,NO2,23,43,33
India,Karnataka,Chamarajanagar,"Urban, Chamarajanagar - KSPCB",11-02-2024 13:00:00,11.55358,76.55521,NH3,2,3,2
India,Karnataka,Chamarajanagar,"Urban, Chamarajanagar - KSPCB",11-02-2024 13:00:00,11.55358,76.55521,OZONE,14,30,23
India,Karnataka,Chikkaballapur,"Chikkaballapur Rural, Chikkaballapur - KSPCB",11-02-2024 13:00:00,13.428828,77.731418,NH3,NA,NA,NA
India,Karnataka,Chikkamagaluru,"Kalyana Nagara, Chikkamagaluru - KSPCB",11-02-2024 13:00:00,13.328028,75.797056,PM10,24,107,53
India,Karnataka,Davanagere,"Devaraj Urs Badavane, Davanagere - KSPCB",11-02-2024 13:00:00,14.475800,75.905200,PM10,NA,NA,NA
India,Karnataka,Hassan,"B.Katihalli, Hassan - KSPCB",11-02-2024 13:00:00,13.008556,76.125258,SO2,NA,NA,NA
India,Karnataka,Haveri,"Ashwini Nagar, Haveri - KSPCB",11-02-2024 13:00:00,14.791800,75.389600,PM10,NA,NA,NA
India,Karnataka,Haveri,"Ashwini Nagar, Haveri - KSPCB",11-02-2024 13:00:00,14.791800,75.389600,NO2,23,34,31
India,Karnataka,Haveri,"Ashwini Nagar, Haveri - KSPCB",11-02-2024 13:00:00,14.791800,75.389600,NH3,3,3,3
India,Karnataka,Hubballi,"Lingaraj Nagar, Hubballi - KSPCB",11-02-2024 13:00:00,15.3714823,75.1160168,SO2,1,13,3
India,Karnataka,Hubballi,"Lingaraj Nagar, Hubballi - KSPCB",11-02-2024 13:00:00,15.3714823,75.1160168,CO,36,108,88
India,Karnataka,Kalaburagi,"Lal Bahadur Shastri Nagar, Kalaburagi - KSPCB",11-02-2024 13:00:00,17.321993,76.822628,NO2,11,11,11
India,Karnataka,Kalaburagi,"Mahatma Basaveswar Colony, Kalaburgi - KSPCB",11-02-2024 13:00:00,17.336318,76.847397,PM10,33,62,43
India,Karnataka,Kalaburagi,"Mahatma Basaveswar Colony, Kalaburgi - KSPCB",11-02-2024 13:00:00,17.336318,76.847397,SO2,4,34,7
India,Karnataka,Kalaburagi,"Mahatma Basaveswar Colony, Kalaburgi - KSPCB",11-02-2024 13:00:00,17.336318,76.847397,CO,36,54,38
India,Karnataka,Karwar,"KHB Colony, Karwar - KSPCB",11-02-2024 13:00:00,14.816666,74.141003,CO,8,8,8
India,Karnataka,Kolar,"Tamaka Ind. Area, Kolar - KSPCB",11-02-2024 13:00:00,13.1276288,78.1570122,NO2,3,17,7
India,Karnataka,Koppal,"Diwator Nagar, Koppal - KSPCB",11-02-2024 13:00:00,15.347630,76.181767,PM10,35,92,62
India,Karnataka,Koppal,"Diwator Nagar, Koppal - KSPCB",11-02-2024 13:00:00,15.347630,76.181767,CO,24,38,25
India,Karnataka,Madikeri,"Stuart Hill, Madikeri - KSPCB",11-02-2024 13:00:00,12.415911,75.735050,OZONE,28,45,31
India,Karnataka,Mangalore,"Kadri, Mangalore - KSPCB",11-02-2024 13:00:00,12.889250,74.853000,NH3,2,2,2
India,Karnataka,Mysuru,"Hebbal 1st Stage, Mysuru - KSPCB",11-02-2024 13:00:00,12.21041,76.37376,PM10,56,73,60
India,Karnataka,Raichur,"Haji Colony, Raichur - KSPCB",11-02-2024 13:00:00,16.208139,77.348417,PM10,64,197,102
India,Karnataka,Raichur,"Haji Colony, Raichur - KSPCB",11-02-2024 13:00:00,16.208139,77.348417,NO2,16,47,29
India,Karnataka,Raichur,"Haji Colony, Raichur - KSPCB",11-02-2024 13:00:00,16.208139,77.348417,SO2,61,72,65
India,Karnataka,Ramanagara,"Vijay Nagar, Ramanagara - KSPCB",11-02-2024 13:00:00,12.733409,77.298051,PM10,34,63,48
India,Karnataka,Ramanagara,"Vijay Nagar, Ramanagara - KSPCB",11-02-2024 13:00:00,12.733409,77.298051,NO2,2,11,5
India,Karnataka,Shivamogga,"Vinoba Nagara, Shivamogga - KSPCB",11-02-2024 13:00:00,13.940000,75.555917,PM2.5,32,55,41
India,Karnataka,Shivamogga,"Vinoba Nagara, Shivamogga - KSPCB",11-02-2024 13:00:00,13.940000,75.555917,NH3,2,4,3
India,Karnataka,Udupi,"Brahmagiri, Udupi - KSPCB",11-02-2024 13:00:00,13.34194444,74.74694444,PM10,44,78,60
India,Karnataka,Udupi,"Brahmagiri, Udupi - KSPCB",11-02-2024 13:00:00,13.34194444,74.74694444,NO2,13,14,14
India,Karnataka,Udupi,"Brahmagiri, Udupi - KSPCB",11-02-2024 13:00:00,13.34194444,74.74694444,NH3,1,2,2
India,Karnataka,Udupi,"Brahmagiri, Udupi - KSPCB",11-02-2024 13:00:00,13.34194444,74.74694444,OZONE,23,24,23
India,Karnataka,Vijayapura,"Ibrahimpur, Vijayapura - KSPCB",11-02-2024 13:00:00,16.802639,75.722694,NH3,2,2,2
India,Karnataka,Vijayapura,"Ibrahimpur, Vijayapura - KSPCB",11-02-2024 13:00:00,16.802639,75.722694,CO,NA,NA,NA
India,Karnataka,Yadgir,"Collector Office, Yadgir - KSPCB",11-02-2024 13:00:00,16.7602,77.1428,PM2.5,62,102,79
India,Karnataka,Yadgir,"Collector Office, Yadgir - KSPCB",11-02-2024 13:00:00,16.7602,77.1428,PM10,64,116,84
India,Kerala,Eloor,"Udyogamandal, Eloor - Kerala PCB",11-02-2024 13:00:00,10.073232,76.302765,NH3,1,1,1
India,Kerala,Eloor,"Udyogamandal, Eloor - Kerala PCB",11-02-2024 13:00:00,10.073232,76.302765,CO,8,68,34
India,Kerala,Kannur,"Thavakkara, Kannur - Kerala PCB",11-02-2024 13:00:00,11.875000,75.373200,SO2,5,6,5
India,Kerala,Thiruvananthapuram,"Kariavattom, Thiruvananthapuram - Kerala PCB",11-02-2024 13:00:00,8.563700,76.886500,PM10,76,90,84
India,Kerala,Thiruvananthapuram,"Kariavattom, Thiruvananthapuram - Kerala PCB",11-02-2024 13:00:00,8.563700,76.886500,NH3,1,1,1
India,Kerala,Thiruvananthapuram,"Plammoodu, Thiruvananthapuram - Kerala PCB",11-02-2024 13:00:00,8.5149093,76.9435879,SO2,8,16,11
India,Madhya Pradesh,Bhopal,"Idgah Hills, Bhopal - MPPCB",11-02-2024 13:00:00,23.264759,77.381568,NH3,3,3,3
India,Madhya Pradesh,Bhopal,"T T Nagar, Bhopal - MPPCB",11-02-2024 13:00:00,23.233584,77.400574,NO2,31,61,45
India,Madhya Pradesh,Dewas,"Bhopal Chauraha, Dewas - MPPCB",11-02-2024 13:00:00,22.9682591,76.064118,PM2.5,39,101,67
India,Madhya Pradesh,Dewas,"Bhopal Chauraha, Dewas - MPPCB",11-02-2024 13:00:00,22.9682591,76.064118,CO,16,38,19
India,Madhya Pradesh,Gwalior,"City Center, Gwalior - MPPCB",11-02-2024 13:00:00,26.203442,78.193251,NO2,19,98,46
India,Madhya Pradesh,Gwalior,"City Center, Gwalior - MPPCB",11-02-2024 13:00:00,26.203442,78.193251,CO,8,122,27
India,Madhya Pradesh,Gwalior,"Phool Bagh, Gwalior - Mondelez Ind. Food",11-02-2024 13:00:00,26.210536,78.171,CO,32,53,33
India,Madhya Pradesh,Indore,"Regional Park, Indore - IMC",11-02-2024 13:00:00,22.6780,75.8559,OZONE,8,13,12
India,Madhya Pradesh,Indore,"Residency Area, Indore - IMC",11-02-2024 13:00:00,22.7084,75.8815,PM10,40,75,52
India,Madhya Pradesh,Indore,"Residency Area, Indore - IMC",11-02-2024 13:00:00,22.7084,75.8815,NH3,NA,NA,NA
India,Madhya Pradesh,Jabalpur,"Govindh Bhavan Colony, Jabalpur - JMC",11-02-2024 13:00:00,23.163174,79.973061,NO2,14,27,20
India,Madhya Pradesh,Jabalpur,"Gupteshwar, Jabalpur - JMC",11-02-2024 13:00:00,23.142888,79.916147,NH3,2,3,3
India,Madhya Pradesh,Jabalpur,"Gupteshwar, Jabalpur - JMC",11-02-2024 13:00:00,23.142888,79.916147,OZONE,36,113,47
India,Madhya Pradesh,Jabalpur,"Marhatal, Jabalpur - MPPCB",11-02-2024 13:00:00,23.168606,79.932247,PM10,89,156,117
India,Madhya Pradesh,Jabalpur,"Marhatal, Jabalpur - MPPCB",11-02-2024 13:00:00,23.168606,79.932247,OZONE,22,61,35
India,Madhya Pradesh,Katni,"Gole Bazar, Katni - MPPCB",11-02-2024 13:00:00,23.50016,80.23284,CO,14,80,31
India,Madhya Pradesh,Maihar,"Sahilara, Maihar - KJS Cements",11-02-2024 13:00:00,24.2613009,80.7231783,PM10,27,75,41
India,Madhya Pradesh,Mandideep,"Sector-D Industrial Area, Mandideep - MPPCB",11-02-2024 13:00:00,23.108440,77.511428,NO2,30,79,54
India,Madhya Pradesh,Mandideep,"Sector-D Industrial Area, Mandideep - MPPCB",11-02-2024 13:00:00,23.108440,77.511428,OZONE,34,42,36
India,Madhya Pradesh,Pithampur,"Sector-2 Industrial Area, Pithampur - MPPCB",11-02-2024 13:00:00,22.624758,75.675238,PM10,96,161,129
India,Madhya Pradesh,Pithampur,"Sector-2 Industrial Area, Pithampur - MPPCB",11-02-2024 13:00:00,22.624758,75.675238,NH3,6,8,8
India,Madhya Pradesh,Ratlam,"Shasthri Nagar, Ratlam - IPCA Lab",11-02-2024 13:00:00,23.331731,75.045981,NO2,22,103,48
India,Madhya Pradesh,Sagar,"Civil Lines, Sagar - MPPCB",11-02-2024 13:00:00,23.838586,78.759431,NH3,2,6,3
India,Madhya Pradesh,Sagar,"Deen Dayal Nagar, Sagar - MPPCB",11-02-2024 13:00:00,23.8640158,78.80289321,PM2.5,13,38,24
India,Madhya Pradesh,Sagar,"Deen Dayal Nagar, Sagar - MPPCB",11-02-2024 13:00:00,23.8640158,78.80289321,SO2,8,9,9
India,Madhya Pradesh,Satna,"Bandhavgar Colony, Satna - Birla Cement",11-02-2024 13:00:00,24.58434363,80.8549414,PM2.5,10,25,16
India,Madhya Pradesh,Satna,"Bandhavgar Colony, Satna - Birla Cement",11-02-2024 13:00:00,24.58434363,80.8549414,PM10,26,126,46
India,Maharashtra,Akola,"Ramdaspeth, Akola - MPCB",11-02-2024 13:00:00,20.719516,77.000253,NO2,15,62,29
India,Maharashtra,Amravati,"Shivneri Colony, Amravati - MPCB",11-02-2024 13:00:00,20.9402359,77.7895248,NO2,11,36,20
India,Maharashtra,Amravati,"Shivneri Colony, Amravati - MPCB",11-02-2024 13:00:00,20.9402359,77.7895248,NH3,1,2,2
India,Maharashtra,Amravati,"Shri Shivaji Science College, Amaravati - MPCB",11-02-2024 13:00:00,20.939198,77.765701,CO,52,57,55
India,Maharashtra,Amravati,"Shri Shivaji Science College, Amaravati - MPCB",11-02-2024 13:00:00,20.939198,77.765701,OZONE,38,64,47
India,Maharashtra,Aurangabad,"MIDC Chilkalthana, Aurangabad - MPCB",11-02-2024 13:00:00,19.875620,75.387310,CO,1,50,19
India,Maharashtra,Aurangabad,"More Chowk Waluj, Aurangabad - MPCB",11-02-2024 13:00:00,19.8389439,75.244448,NO2,32,35,33
India,Maharashtra,Aurangabad,"Rachnakar Colony, Aurangabad - MPCB",11-02-2024 13:00:00,19.863756,75.321188,NO2,17,78,36
India,Maharashtra,Belapur,"CBD Belapur, Belapur - MPCB",11-02-2024 13:00:00,19.0243902,73.0406721,CO,17,58,40
India,Maharashtra,Boisar,"Khaira, Boisar - MPCB",11-02-2024 13:00:00,19.786089,72.757971,SO2,NA,NA,NA
India,Maharashtra,Chandrapur,"Chauhan Colony, Chandrapur - MPCB",11-02-2024 13:00:00,19.962900,79.298714,CO,25,27,26
India,Maharashtra,Dhule,"Deopur, Dhule - MPCB",11-02-2024 13:00:00,20.918946,74.776388,OZONE,16,82,30
India,Maharashtra,Jalgaon,"Prabhat Colony, Jalgaon - MPCB",11-02-2024 13:00:00,21.001264,75.565602,PM10,100,191,130
India,Maharashtra,Jalgaon,"Prabhat Colony, Jalgaon - MPCB",11-02-2024 13:00:00,21.001264,75.565602,NO2,21,157,45
India,Maharashtra,Jalgaon,"Prabhat Colony, Jalgaon - MPCB",11-02-2024 13:00:00,21.001264,75.565602,OZONE,6,55,27
India,Maharashtra,Kalyan,"Khadakpada, Kalyan - MPCB",11-02-2024 13:00:00,19.25292,73.142019,SO2,19,80,31
India,Maharashtra,Kolhapur,"Sinchan Bhavan, Kolhapur - MPCB",11-02-2024 13:00:00,16.7143745,74.2426398,PM10,98,166,124
India,Maharashtra,Kolhapur,"Sinchan Bhavan, Kolhapur - MPCB",11-02-2024 13:00:00,16.7143745,74.2426398,NO2,18,64,35
India,Maharashtra,Latur,"Sawe Wadi, Latur - MPCB",11-02-2024 13:00:00,18.39963,76.57452,PM2.5,74,333,162
India,Maharashtra,Latur,"Sawe Wadi, Latur - MPCB",11-02-2024 13:00:00,18.39963,76.57452,SO2,6,19,15
India,Maharashtra,Mahad,"Kamble Tarf Birwadi, Mahad - MPCB",11-02-2024 13:00:00,18.1023399,73.4783687,PM2.5,125,150,134
India,Maharashtra,Mahad,"Kamble Tarf Birwadi, Mahad - MPCB",11-02-2024 13:00:00,18.1023399,73.4783687,NO2,36,40,38
India,Maharashtra,Mahad,"Kamble Tarf Birwadi, Mahad - MPCB",11-02-2024 13:00:00,18.1023399,73.4783687,SO2,11,15,13
India,Maharashtra,Mahad,"Kamble Tarf Birwadi, Mahad - MPCB",11-02-2024 13:00:00,18.1023399,73.4783687,OZONE,17,59,31
India,Maharashtra,Mira-Bhayandar,"Bhayandar West, Mira-Bhayandar - MPCB",11-02-2024 13:00:00,19.296481,72.840923,CO,12,78,50
India,Maharashtra,Mumbai,"Bandra Kurla Complex, Mumbai - MPCB",11-02-2024 13:00:00,19.065931,72.862131,CO,23,100,75
India,Maharashtra,Mumbai,"Borivali East, Mumbai - IITM",11-02-2024 13:00:00,19.23241,72.86895,PM2.5,43,174,93
India,Maharashtra,Mumbai,"Borivali East, Mumbai - IITM",11-02-2024 13:00:00,19.23241,72.86895,NH3,28,36,32
India,Maharashtra,Mumbai,"Byculla, Mumbai - BMC",11-02-2024 13:00:00,18.9767,72.8380,NO2,21,103,52
India,Maharashtra,Mumbai,"Byculla, Mumbai - BMC",11-02-2024 13:00:00,18.9767,72.8380,SO2,1,8,3
India,Maharashtra,Mumbai,"Chakala-Andheri East, Mumbai - IITM",11-02-2024 13:00:00,19.11074,72.86084,NO2,79,149,119
India,Maharashtra,Mumbai,"Chakala-Andheri East, Mumbai - IITM",11-02-2024 13:00:00,19.11074,72.86084,NH3,10,71,22
India,Maharashtra,Mumbai,"Chakala-Andheri East, Mumbai - IITM",11-02-2024 13:00:00,19.11074,72.86084,SO2,14,60,32
India,Maharashtra,Mumbai,"Chembur, Mumbai - MPCB",11-02-2024 13:00:00,19.0364585,72.8954371,CO,10,42,28
India,Maharashtra,Mumbai,"Colaba, Mumbai - MPCB",11-02-2024 13:00:00,18.910000,72.820000,OZONE,5,16,9
India,Maharashtra,Mumbai,"Kandivali East, Mumbai - MPCB",11-02-2024 13:00:00,19.205800,72.868200,CO,128,138,131
India,Maharashtra,Mumbai,"Kherwadi_Bandra East, Mumbai - MPCB",11-02-2024 13:00:00,19.0632143,72.8456324,CO,6,91,58
India,Maharashtra,Mumbai,"Khindipada-Bhandup West, Mumbai - IITM",11-02-2024 13:00:00,19.1653323,72.922099,CO,1,22,5
India,Maharashtra,Mumbai,"Kurla, Mumbai - MPCB",11-02-2024 13:00:00,19.0863,72.8888,PM10,64,145,94
India,Maharashtra,Mumbai,"Kurla, Mumbai - MPCB",11-02-2024 13:00:00,19.0863,72.8888,CO,12,46,41
India,Maharashtra,Mumbai,"Kurla, Mumbai - MPCB",11-02-2024 13:00:00,19.0863,72.8888,OZONE,28,45,30
India,Maharashtra,Mumbai,"Malad West, Mumbai - IITM",11-02-2024 13:00:00,19.19709,72.82204,PM10,89,178,119
India,Maharashtra,Mumbai,"Mazgaon, Mumbai - IITM",11-02-2024 13:00:00,18.96702,72.84214,NH3,32,56,42
India,Maharashtra,Mumbai,"Mazgaon, Mumbai - IITM",11-02-2024 13:00:00,18.96702,72.84214,OZONE,14,135,55
India,Maharashtra,Mumbai,"Mindspace-Malad West, Mumbai - MPCB",11-02-2024 13:00:00,19.1878657,72.8304069,OZONE,2,94,11
India,Maharashtra,Mumbai,"Mulund West, Mumbai - MPCB",11-02-2024 13:00:00,19.1750,72.9419,PM2.5,22,75,36
India,Maharashtra,Mumbai,"Navy Nagar-Colaba, Mumbai - IITM",11-02-2024 13:00:00,18.897756,72.813320,OZONE,5,120,47
India,Maharashtra,Mumbai,"Powai, Mumbai - MPCB",11-02-2024 13:00:00,19.137500,72.915056,NO2,23,40,30
India,Maharashtra,Mumbai,"Siddharth Nagar-Worli, Mumbai - IITM",11-02-2024 13:00:00,19.000083,72.813993,OZONE,5,159,48
India,Maharashtra,Mumbai,"Sion, Mumbai - MPCB",11-02-2024 13:00:00,19.047000,72.874600,CO,6,66,52
India,Maharashtra,Mumbai,"Vasai West, Mumbai - MPCB",11-02-2024 13:00:00,19.383200,72.820400,SO2,16,16,16
India,Maharashtra,Mumbai,"Vasai West, Mumbai - MPCB",11-02-2024 13:00:00,19.383200,72.820400,OZONE,9,66,18
India,Maharashtra,Mumbai,"Vile Parle West, Mumbai - MPCB",11-02-2024 13:00:00,19.10861,72.83622,NH3,6,10,9
India,Maharashtra,Nagpur,"Ambazari, Nagpur - MPCB",11-02-2024 13:00:00,21.121801,79.04952,PM10,118,150,133
India,Maharashtra,Nagpur,"Mahal, Nagpur - MPCB",11-02-2024 13:00:00,21.14472,79.107595,NO2,10,43,22
India,Maharashtra,Nagpur,"Mahal, Nagpur - MPCB",11-02-2024 13:00:00,21.14472,79.107595,CO,26,121,44
India,Maharashtra,Nagpur,"Mahal, Nagpur - MPCB",11-02-2024 13:00:00,21.14472,79.107595,OZONE,20,85,50
India,Maharashtra,Nanded,"Sneh Nagar, Nanded - MPCB",11-02-2024 13:00:00,19.173852,77.296291,SO2,5,15,11
India,Maharashtra,Nashik,"Pandav Nagari, Nashik - MPCB",11-02-2024 13:00:00,19.9591346,73.7788008,PM10,86,124,99
India,Maharashtra,Navi Mumbai,"Kopripada-Vashi, Navi Mumbai - MPCB",11-02-2024 13:00:00,19.090337,73.014232,PM10,71,180,115
India,Maharashtra,Navi Mumbai,"Mahape, Navi Mumbai - MPCB",11-02-2024 13:00:00,19.1135051,73.008978,PM2.5,NA,NA,NA
India,Maharashtra,Navi Mumbai,"Nerul, Navi Mumbai - MPCB",11-02-2024 13:00:00,19.008751,73.016620,PM2.5,31,180,85
India,Maharashtra,Navi Mumbai,"Nerul, Navi Mumbai - MPCB",11-02-2024 13:00:00,19.008751,73.016620,PM10,88,312,140
India,Maharashtra,Navi Mumbai,"Sanpada, Navi Mumbai - MPCB",11-02-2024 13:00:00,19.0575752,73.0151367,SO2,5,43,22
India,Maharashtra,Navi Mumbai,"Sector-19A Nerul, Navi Mumbai - IITM",11-02-2024 13:00:00,19.044,73.0325,NH3,8,22,19
India,Maharashtra,Navi Mumbai,"Sector-2E Kalamboli, Navi Mumbai - MPCB",11-02-2024 13:00:00,19.02579,73.10297,PM10,106,192,144
India,Maharashtra,Navi Mumbai,"Tondare-Taloja, Navi Mumbai - MPCB",11-02-2024 13:00:00,19.0630,73.1209,PM2.5,65,209,124
India,Maharashtra,Navi Mumbai,"Tondare-Taloja, Navi Mumbai - MPCB",11-02-2024 13:00:00,19.0630,73.1209,NO2,35,123,80
India,Maharashtra,Navi Mumbai,"Tondare-Taloja, Navi Mumbai - MPCB",11-02-2024 13:00:00,19.0630,73.1209,NH3,3,11,6
India,Maharashtra,Navi Mumbai,"Tondare-Taloja, Navi Mumbai - MPCB",11-02-2024 13:00:00,19.0630,73.1209,SO2,4,106,37
India,Maharashtra,Parbhani,"Masoom Colony, Parbhani - MPCB",11-02-2024 13:00:00,19.265594,76.761463,CO,31,104,48
India,Maharashtra,Pimpri-Chinchwad,"Gavalinagar, Pimpri Chinchwad - MPCB",11-02-2024 13:00:00,18.63673,73.82487,SO2,4,37,16
India,Maharashtra,Pimpri-Chinchwad,"Gavalinagar, Pimpri Chinchwad - MPCB",11-02-2024 13:00:00,18.63673,73.82487,OZONE,1,234,157
India,Maharashtra,Pimpri-Chinchwad,"Park Street Wakad, Pimpri Chinchwad - MPCB",11-02-2024 13:00:00,18.59051,73.77946,PM2.5,77,255,184
India,Maharashtra,Pimpri-Chinchwad,"Thergaon, Pimpri Chinchwad - MPCB",11-02-2024 13:00:00,18.616318,73.765797,CO,20,82,59
India,Maharashtra,Pune,"Alandi, Pune - IITM",11-02-2024 13:00:00,18.675076,73.892743,PM2.5,NA,NA,NA
India,Maharashtra,Pune,"Alandi, Pune - IITM",11-02-2024 13:00:00,18.675076,73.892743,CO,NA,NA,NA
India,Maharashtra,Pune,"Bhosari, Pune - IITM",11-02-2024 13:00:00,18.640051,73.848956,PM10,59,167,116
India,Maharashtra,Pune,"Katraj Dairy, Pune - MPCB",11-02-2024 13:00:00,18.454450,73.854155,PM10,34,145,111
India,Maharashtra,Pune,"Revenue Colony-Shivajinagar, Pune - IITM",11-02-2024 13:00:00,18.530085,73.849598,NO2,58,179,126
India,Maharashtra,Pune,"Revenue Colony-Shivajinagar, Pune - IITM",11-02-2024 13:00:00,18.530085,73.849598,NH3,8,23,16
India,Maharashtra,Pune,"Revenue Colony-Shivajinagar, Pune - IITM",11-02-2024 13:00:00,18.530085,73.849598,OZONE,3,70,23
India,Maharashtra,Pune,"Savitribai Phule Pune University, Pune - MPCB",11-02-2024 13:00:00,18.547056,73.826908,OZONE,2,301,24
India,Maharashtra,Pune,"Transport Nagar-Nigdi, Pune - IITM",11-02-2024 13:00:00,18.664282,73.763966,PM10,NA,NA,NA
India,Maharashtra,Sangli,"Vijay Nagar, Sangli - MPCB",11-02-2024 13:00:00, 16.5038,74.3623,PM2.5,75,303,171
India,Maharashtra,Sangli,"Vijay Nagar, Sangli - MPCB",11-02-2024 13:00:00, 16.5038,74.3623,NO2,38,125,68
India,Maharashtra,Solapur,"Dnyaneshwar Nagar, Solapur - MPCB",11-02-2024 13:00:00,17.6336264,75.9132495,NH3,21,48,25
India,Maharashtra,Solapur,"Dnyaneshwar Nagar, Solapur - MPCB",11-02-2024 13:00:00,17.6336264,75.9132495,SO2,4,16,8
India,Maharashtra,Solapur,"Ratandeep Housing Society, Solapur - MPCB",11-02-2024 13:00:00,17.65439,75.90649,PM2.5,89,191,114
India,Maharashtra,Solapur,"Ratandeep Housing Society, Solapur - MPCB",11-02-2024 13:00:00,17.65439,75.90649,NO2,15,153,45
India,Maharashtra,Solapur,"Ratandeep Housing Society, Solapur - MPCB",11-02-2024 13:00:00,17.65439,75.90649,NH3,7,9,8
India,Maharashtra,Solapur,"Solapur, Solapur - MPCB",11-02-2024 13:00:00,17.6599188,75.9063906,NO2,55,55,55
India,Maharashtra,Solapur,"Solapur, Solapur - MPCB",11-02-2024 13:00:00,17.6599188,75.9063906,OZONE,30,78,36
India,Maharashtra,Thane,"Kasarvadavali, Thane - MPCB",11-02-2024 13:00:00,19.26777,72.97182,PM10,95,106,101
India,Maharashtra,Thane,"Pimpleshwar Mandir, Thane - MPCB",11-02-2024 13:00:00,19.192056,72.9585188,CO,30,110,94
India,Maharashtra,Ulhasnagar,"Sidhi Vinayak Nagar, Ulhasnagar - MPCB",11-02-2024 13:00:00,19.235581,73.159121,PM10,103,136,114
India,Maharashtra,Ulhasnagar,"Sidhi Vinayak Nagar, Ulhasnagar - MPCB",11-02-2024 13:00:00,19.235581,73.159121,NO2,14,71,29
India,Maharashtra,Virar,"Bolinj, Virar - MPCB",11-02-2024 13:00:00,19.4458210,72.7988231,NO2,10,64,29
India,Maharashtra,Virar,"Bolinj, Virar - MPCB",11-02-2024 13:00:00,19.4458210,72.7988231,NH3,5,6,6
India,Maharashtra,Virar,"Bolinj, Virar - MPCB",11-02-2024 13:00:00,19.4458210,72.7988231,OZONE,19,125,44
India,Manipur,Imphal,"Manipur University, Imphal - Manipur PCB",11-02-2024 13:00:00,24.7524239,93.9286218,PM2.5,24,329,141
India,Manipur,Imphal,"Manipur University, Imphal - Manipur PCB",11-02-2024 13:00:00,24.7524239,93.9286218,SO2,64,70,67
India,Meghalaya,Shillong,"Lumpyngngad, Shillong - Meghalaya PCB",11-02-2024 13:00:00,25.5586,91.8985,OZONE,54,84,71
India,Mizoram,Aizawl,"Sikulpuikawn, Aizawl - Mizoram PCB",11-02-2024 13:00:00,23.7176342,92.7192841,PM2.5,18,94,39
India,Nagaland,Kohima,"PWD Juction, Kohima - NPCB",11-02-2024 13:00:00,25.6635413,94.0989878,PM10,52,150,83
India,Odisha,Angul,"Hakimapada, Angul - OSPCB",11-02-2024 13:00:00,20.832874,85.104082,PM2.5,127,350,263
India,Odisha,Angul,"Hakimapada, Angul - OSPCB",11-02-2024 13:00:00,20.832874,85.104082,CO,8,84,37
India,Odisha,Baripada,"Meher Colony, Baripada - OSPCB",11-02-2024 13:00:00,21.941841,86.728318,PM2.5,121,276,191
India,Odisha,Bhubaneswar,"Patia, Bhubaneswar - OSPCB",11-02-2024 13:00:00,20.34652,85.81630,PM2.5,78,312,184
India,Odisha,Bileipada,"Tata Township, Bileipada - OSPCB",11-02-2024 13:00:00,22.06156703,85.47409613,OZONE,1,7,2
India,Odisha,Brajrajnagar,"GM Office, Brajrajnagar - OSPCB",11-02-2024 13:00:00,21.8004996,83.8396977,NO2,8,282,91
India,Odisha,Brajrajnagar,"GM Office, Brajrajnagar - OSPCB",11-02-2024 13:00:00,21.8004996,83.8396977,NH3,1,28,7
India,Odisha,Cuttack,"CDA Area, Cuttack - OSPCB",11-02-2024 13:00:00,20.48891     ,85.84768     ,SO2,8,28,18
India,Odisha,Nayagarh,"Dabuna, Nayagarh - OSPCB",11-02-2024 13:00:00,21.847279,85.416905,PM10,92,329,178
India,Odisha,Nayagarh,"Dabuna, Nayagarh - OSPCB",11-02-2024 13:00:00,21.847279,85.416905,NO2,31,34,32
India,Odisha,Nayagarh,"Dabuna, Nayagarh - OSPCB",11-02-2024 13:00:00,21.847279,85.416905,SO2,3,7,4
India,Odisha,Rairangpur,"Divisional Forest Office, Rairangpur - OSPCB",11-02-2024 13:00:00,22.265816,86.174829,NO2,7,8,7
India,Odisha,Rairangpur,"Divisional Forest Office, Rairangpur - OSPCB",11-02-2024 13:00:00,22.265816,86.174829,NH3,5,5,5
India,Odisha,Rairangpur,"Divisional Forest Office, Rairangpur - OSPCB",11-02-2024 13:00:00,22.265816,86.174829,CO,16,35,23
India,Odisha,Rourkela,"Raghunathpali, Rourkela - OSPCB",11-02-2024 13:00:00,22.220833,84.809444,NH3,1,1,1
India,Odisha,Suakati,"OMC Colony, Suakati - OSPCB",11-02-2024 13:00:00,21.606865,85.510538,NO2,NA,NA,NA
India,Odisha,Talcher,"Talcher Coalfields,Talcher - OSPCB",11-02-2024 13:00:00,20.9360711,85.1707021,PM2.5,54,322,193
India,Odisha,Talcher,"Talcher Coalfields,Talcher - OSPCB",11-02-2024 13:00:00,20.9360711,85.1707021,CO,3,97,9
India,Odisha,Tensa,"Barsua Iron Ore Mines, Tensa - OSPCB",11-02-2024 13:00:00,21.869985,85.167016,NO2,47,90,61
India,Odisha,Tensa,"Barsua Iron Ore Mines, Tensa - OSPCB",11-02-2024 13:00:00,21.869985,85.167016,CO,19,44,32
India,Puducherry,Puducherry,"Jawahar Nagar, Puducherry - PPCC",11-02-2024 13:00:00,11.9309,79.8027,NO2,6,36,19
India,Punjab,Amritsar,"Golden Temple, Amritsar - PPCB",11-02-2024 13:00:00,31.620000,74.876512,SO2,12,36,21
India,Punjab,Jalandhar,"Civil Line, Jalandhar - PPCB",11-02-2024 13:00:00,31.321907,75.578914,PM10,77,218,140
India,Punjab,Jalandhar,"Civil Line, Jalandhar - PPCB",11-02-2024 13:00:00,31.321907,75.578914,NH3,2,2,2
India,Punjab,Jalandhar,"Civil Line, Jalandhar - PPCB",11-02-2024 13:00:00,31.321907,75.578914,SO2,2,15,5
India,Punjab,Khanna,"Kalal Majra, Khanna - PPCB",11-02-2024 13:00:00,30.736056 ,76.209694,SO2,10,64,24
India,Punjab,Khanna,"Kalal Majra, Khanna - PPCB",11-02-2024 13:00:00,30.736056 ,76.209694,OZONE,18,64,27
India,Punjab,Ludhiana,"Punjab Agricultural University, Ludhiana - PPCB",11-02-2024 13:00:00,30.9028,75.8086,OZONE,8,28,13
India,Punjab,Mandi Gobindgarh,"RIMT University, Mandi Gobindgarh - PPCB",11-02-2024 13:00:00,30.649961,76.331442,SO2,1,22,6
India,Punjab,Patiala,"Model Town, Patiala - PPCB",11-02-2024 13:00:00,30.349388,76.366642,PM2.5,93,159,124
India,Punjab,Rupnagar,"Ratanpura, Rupnagar - Ambuja Cements",11-02-2024 13:00:00,31.0325454,76.5623046,SO2,4,10,7
India,Rajasthan,Ajmer,"Civil Lines,  Ajmer - RSPCB",11-02-2024 13:00:00,26.470859,74.646594,PM10,26,125,70
India,Rajasthan,Ajmer,"Civil Lines,  Ajmer - RSPCB",11-02-2024 13:00:00,26.470859,74.646594,NO2,20,57,32
India,Rajasthan,Alwar,"Moti Doongri, Alwar - RSPCB",11-02-2024 13:00:00,27.554793,76.611536,PM2.5,36,176,81
India,Rajasthan,Alwar,"Moti Doongri, Alwar - RSPCB",11-02-2024 13:00:00,27.554793,76.611536,OZONE,6,30,12
India,Rajasthan,Banswara,"Rati Talai, Banswara - RSPCB",11-02-2024 13:00:00,23.555190,74.440010,PM2.5,26,77,46
India,Rajasthan,Banswara,"Rati Talai, Banswara - RSPCB",11-02-2024 13:00:00,23.555190,74.440010,CO,13,38,19
India,Rajasthan,Baran,"Bamboliya, Baran - RSPCB",11-02-2024 13:00:00,25.106006,76.469948,NH3,4,7,4
India,Rajasthan,Baran,"Bamboliya, Baran - RSPCB",11-02-2024 13:00:00,25.106006,76.469948,SO2,6,11,8
India,Rajasthan,Barmer,"Railway Colony, Barmer - RSPCB",11-02-2024 13:00:00,25.747299,71.393989,NO2,12,53,20
India,Rajasthan,Barmer,"Railway Colony, Barmer - RSPCB",11-02-2024 13:00:00,25.747299,71.393989,NH3,4,14,6
India,Rajasthan,Barmer,"Railway Colony, Barmer - RSPCB",11-02-2024 13:00:00,25.747299,71.393989,SO2,8,13,10
India,Rajasthan,Bharatpur,"Krishna Nagar, Bharatpur - RSPCB",11-02-2024 13:00:00,27.215415,77.50873,NH3,1,20,7
India,Rajasthan,Bhilwara,"Pratap Nagar, Bhilwara - RSPCB",11-02-2024 13:00:00,25.339605,74.618883,PM10,58,157,98
India,Rajasthan,Bhilwara,"Pratap Nagar, Bhilwara - RSPCB",11-02-2024 13:00:00,25.339605,74.618883,OZONE,15,85,43
India,Rajasthan,Bhiwadi,"RIICO Ind. Area III, Bhiwadi - RSPCB",11-02-2024 13:00:00,28.194909,76.862296,PM2.5,169,336,281
India,Rajasthan,Bhiwadi,"RIICO Ind. Area III, Bhiwadi - RSPCB",11-02-2024 13:00:00,28.194909,76.862296,NH3,8,27,18
India,Rajasthan,Bikaner,"MM Ground, Bikaner - RSPCB",11-02-2024 13:00:00,28.018792,73.292658,PM2.5,21,239,98
India,Rajasthan,Bundi,"New Colony, Bundi - RSPCB",11-02-2024 13:00:00,25.435774,75.644272,NH3,3,3,3
India,Rajasthan,Chittorgarh,"Shastri Nagar, Chittorgarh - RSPCB",11-02-2024 13:00:00,24.892047,74.623527,PM10,44,224,111
India,Rajasthan,Chittorgarh,"Shastri Nagar, Chittorgarh - RSPCB",11-02-2024 13:00:00,24.892047,74.623527,NH3,7,12,9
India,Rajasthan,Churu,"Subash Chowk, Churu - RSPCB",11-02-2024 13:00:00,28.296139,74.961696,OZONE,8,146,48
India,Rajasthan,Dausa,"Khatikan Mohalla, Dausa - RSPCB",11-02-2024 13:00:00,26.895552,76.334753,PM2.5,41,350,170
India,Rajasthan,Dausa,"Khatikan Mohalla, Dausa - RSPCB",11-02-2024 13:00:00,26.895552,76.334753,NO2,18,124,65
India,Rajasthan,Dungarpur,"Bhoiwada, Dungarpur - RSPCB",11-02-2024 13:00:00,23.837789,73.714926,PM10,44,123,76
India,Rajasthan,Hanumangarh,"Housing Board, Hanumangarh - RSPCB",11-02-2024 13:00:00,29.610750,74.283608,NO2,21,126,62
India,Rajasthan,Jaipur,"Adarsh Nagar, Jaipur - RSPCB",11-02-2024 13:00:00,26.902909,75.836858,SO2,6,27,16
India,Rajasthan,Jaipur,"Adarsh Nagar, Jaipur - RSPCB",11-02-2024 13:00:00,26.902909,75.836858,CO,11,76,36
India,Rajasthan,Jaipur,"Mansarovar Sector-12, Jaipur - RSPCB",11-02-2024 13:00:00,26.843698,75.766894,OZONE,1,17,2
India,Rajasthan,Jaipur,"Police Commissionerate, Jaipur - RSPCB",11-02-2024 13:00:00,26.9164092,75.7994901,SO2,6,23,16
India,Rajasthan,Jaipur,"RIICO Sitapura, Jaipur - RSPCB",11-02-2024 13:00:00,26.786682,75.827928,PM10,68,276,147
India,Rajasthan,Jaipur,"RIICO Sitapura, Jaipur - RSPCB",11-02-2024 13:00:00,26.786682,75.827928,NH3,2,13,5
India,Rajasthan,Jaipur,"RIICO Sitapura, Jaipur - RSPCB",11-02-2024 13:00:00,26.786682,75.827928,OZONE,2,111,48
India,Rajasthan,Jaipur,"Sector-2 Murlipura, Jaipur - RSPCB",11-02-2024 13:00:00,26.960669,75.771817,NO2,7,21,13
India,Rajasthan,Jaipur,"Shastri Nagar, Jaipur - RSPCB",11-02-2024 13:00:00,26.9502929,75.730943,OZONE,21,173,159
India,Rajasthan,Jaisalmer,"Sadar Bazar, Jaisalmer - RSPCB",11-02-2024 13:00:00,26.912329,70.909168,NO2,2,87,24
India,Rajasthan,Jaisalmer,"Sadar Bazar, Jaisalmer - RSPCB",11-02-2024 13:00:00,26.912329,70.909168,NH3,8,29,13
India,Rajasthan,Jalore,"Mudtra Sili, Jalore - RSPCB",11-02-2024 13:00:00,25.344694,72.626208,PM10,45,175,95
India,Rajasthan,Jalore,"Mudtra Sili, Jalore - RSPCB",11-02-2024 13:00:00,25.344694,72.626208,SO2,6,11,8
India,Rajasthan,Jhalawar,"Rajlaxmi Nagar, Jhalawar - RSPCB",11-02-2024 13:00:00,24.588397,76.172782,CO,13,32,21
India,Rajasthan,Jhalawar,"Rajlaxmi Nagar, Jhalawar - RSPCB",11-02-2024 13:00:00,24.588397,76.172782,OZONE,56,103,71
India,Rajasthan,Jhunjhunu,"Indra Nagar, Jhunjhunu - RSPCB",11-02-2024 13:00:00,28.108988,75.386577,NH3,7,11,9
India,Rajasthan,Jhunjhunu,"Indra Nagar, Jhunjhunu - RSPCB",11-02-2024 13:00:00,28.108988,75.386577,OZONE,5,125,37
India,Rajasthan,Jodhpur,"Digari Kalan, Jodhpur - RSPCB",11-02-2024 13:00:00,26.295810,73.082283,NH3,4,6,5
India,Rajasthan,Jodhpur,"Digari Kalan, Jodhpur - RSPCB",11-02-2024 13:00:00,26.295810,73.082283,SO2,1,7,3
India,Rajasthan,Jodhpur,"Jhalamand, Jodhpur - RSPCB",11-02-2024 13:00:00,26.215415,73.070156,PM10,47,186,97
India,Rajasthan,Jodhpur,"Mandor, Jodhpur - RSPCB",11-02-2024 13:00:00,26.358805,73.047444,PM2.5,12,60,33
India,Rajasthan,Jodhpur,"Mandor, Jodhpur - RSPCB",11-02-2024 13:00:00,26.358805,73.047444,NO2,23,37,28
India,Rajasthan,Jodhpur,"Mandor, Jodhpur - RSPCB",11-02-2024 13:00:00,26.358805,73.047444,CO,22,35,31
India,Rajasthan,Karauli,"Satyawati Vihar, Karauli - RSPCB",11-02-2024 13:00:00,26.506177,77.025989,CO,15,61,32
India,Rajasthan,Kota,"Dhanmandi, Kota - RSPCB",11-02-2024 13:00:00,25.164090,75.858137,PM10,61,318,120
India,Rajasthan,Kota,"Nayapura, Kota - RSPCB",11-02-2024 13:00:00,25.196024,75.855668,PM2.5,20,325,125
India,Rajasthan,Nagaur,"Karni Colony, Nagaur - RSPCB",11-02-2024 13:00:00,27.213494,73.734444,OZONE,38,75,57
India,Rajasthan,Pali,"Indira Colony Vistar, Pali - RSPCB",11-02-2024 13:00:00,25.771061, 73.340227,NH3,6,17,13
India,Rajasthan,Pali,"Indira Colony Vistar, Pali - RSPCB",11-02-2024 13:00:00,25.771061, 73.340227,OZONE,12,60,35
India,Rajasthan,Rajsamand,"Dhoinda, Rajsamand - RSPCB",11-02-2024 13:00:00,25.036360,73.883502,CO,NA,NA,NA
India,Rajasthan,Rajsamand,"Dhoinda, Rajsamand - RSPCB",11-02-2024 13:00:00,25.036360,73.883502,OZONE,NA,NA,NA
India,Rajasthan,Sawai Madhopur,"Sahu Nagar, Sawai Madhopur - RSPCB",11-02-2024 13:00:00,26.031443,76.359327,PM2.5,29,261,95
India,Rajasthan,Sirohi,"Vedhaynath Colony, Sirohi - RSPCB",11-02-2024 13:00:00,24.885261,72.857549,PM2.5,13,113,45
India,Rajasthan,Sirohi,"Vedhaynath Colony, Sirohi - RSPCB",11-02-2024 13:00:00,24.885261,72.857549,OZONE,18,148,83
India,Rajasthan,Sri Ganganagar,"Old City, Sri Ganganagar - RSPCB",11-02-2024 13:00:00,29.931624,73.864511,CO,39,159,70
India,Rajasthan,Tonk,"Shastri Nagar, Tonk - RSPCB",11-02-2024 13:00:00,26.159933,75.780517,PM2.5,54,318,145
India,Sikkim,Gangtok,"Zero Point GICI, Gangtok - SSPCB",11-02-2024 13:00:00,27.338530,88.614099,PM10,5,53,25
India,Sikkim,Gangtok,"Zero Point GICI, Gangtok - SSPCB",11-02-2024 13:00:00,27.338530,88.614099,SO2,9,10,10
India,TamilNadu,Ariyalur,"Keelapalur, Ariyalur - TNPCB",11-02-2024 13:00:00,11.06825,79.07033,NO2,1,22,14
India,TamilNadu,Chengalpattu,"Crescent University, Chengalpattu - TNPCB",11-02-2024 13:00:00,12.8777316,80.0834807,PM10,40,103,66
India,TamilNadu,Chengalpattu,"Crescent University, Chengalpattu - TNPCB",11-02-2024 13:00:00,12.8777316,80.0834807,SO2,23,26,25
India,TamilNadu,Chennai,"Alandur Bus Depot, Chennai - CPCB",11-02-2024 13:00:00,12.9099161,80.1076538,OZONE,3,13,6
India,TamilNadu,Chennai,"Arumbakkam, Chennai - TNPCB",11-02-2024 13:00:00,13.0664,80.2112 ,PM2.5,63,118,87
India,TamilNadu,Chennai,"Gandhi Nagar_Ennore, Chennai - TNPCB",11-02-2024 13:00:00,13.218341,80.32027,OZONE,NA,NA,NA
India,TamilNadu,Chennai,"Kodungaiyur, Chennai - TNPCB",11-02-2024 13:00:00,13.1278,80.2642,PM10,71,111,93
India,TamilNadu,Chennai,"Kodungaiyur, Chennai - TNPCB",11-02-2024 13:00:00,13.1278,80.2642,NO2,6,14,10
India,TamilNadu,Chennai,"Kodungaiyur, Chennai - TNPCB",11-02-2024 13:00:00,13.1278,80.2642,NH3,3,5,4
India,TamilNadu,Chennai,"Kodungaiyur, Chennai - TNPCB",11-02-2024 13:00:00,13.1278,80.2642,CO,25,41,35
India,TamilNadu,Chennai,"Manali, Chennai - CPCB",11-02-2024 13:00:00,13.164544,80.26285,CO,46,90,77
India,TamilNadu,Chennai,"Perungudi, Chennai - TNPCB",11-02-2024 13:00:00,12.9533,80.2357,PM2.5,70,141,94
India,TamilNadu,Chennai,"Perungudi, Chennai - TNPCB",11-02-2024 13:00:00,12.9533,80.2357,PM10,80,124,102
India,TamilNadu,Chennai,"Velachery Res. Area, Chennai - CPCB",11-02-2024 13:00:00,13.0052189,80.2398125,SO2,27,110,31
India,TamilNadu,Coimbatore,"PSG College of Arts and Science, Coimbatore - TNPCB",11-02-2024 13:00:00,11.0328,77.0349,NH3,1,1,1
India,TamilNadu,Cuddalore,"Semmandalam, Cuddalore - TNPCB",11-02-2024 13:00:00,11.7637683,79.7499835,NH3,1,3,2
India,TamilNadu,Gummidipoondi,"Anthoni Pillai Nagar, Gummidipoondi - TNPCB",11-02-2024 13:00:00,13.4127,80.1081,PM2.5,60,315,114
India,TamilNadu,Gummidipoondi,"Anthoni Pillai Nagar, Gummidipoondi - TNPCB",11-02-2024 13:00:00,13.4127,80.1081,NH3,1,2,2
India,TamilNadu,Gummidipoondi,"Anthoni Pillai Nagar, Gummidipoondi - TNPCB",11-02-2024 13:00:00,13.4127,80.1081,SO2,1,18,5
India,TamilNadu,Palkalaiperur,"Bharathidasan University, Palkalaiperur - TNPCB",11-02-2024 13:00:00,10.681158,78.741746,OZONE,1,1,1
India,TamilNadu,Ramanathapuram,"Chalai Bazaar, Ramanathapuram - TNPCB",11-02-2024 13:00:00,9.36399,78.831977,PM10,69,117,91
India,TamilNadu,Ramanathapuram,"Chalai Bazaar, Ramanathapuram - TNPCB",11-02-2024 13:00:00,9.36399,78.831977,NH3,1,1,1
India,TamilNadu,Ramanathapuram,"Chalai Bazaar, Ramanathapuram - TNPCB",11-02-2024 13:00:00,9.36399,78.831977,SO2,4,8,6
India,TamilNadu,Thoothukudi,"Meelavittan, Thoothukudi - TNPCB",11-02-2024 13:00:00,8.816428 ,78.099039,SO2,9,20,13
India,TamilNadu,Tirupur,"Kumaran College, Tirupur - TNPCB",11-02-2024 13:00:00,11.0973603,77.3228673,CO,24,86,46
India,TamilNadu,Vellore,"Vasanthapuram, Vellore - TNPCB",11-02-2024 13:00:00,12.909494,79.131861,PM2.5,NA,NA,NA
India,TamilNadu,Vellore,"Vasanthapuram, Vellore - TNPCB",11-02-2024 13:00:00,12.909494,79.131861,PM10,NA,NA,NA
India,TamilNadu,Virudhunagar,"Collectorate Office, Virudhunagar - TNPCB",11-02-2024 13:00:00,9.559382,77.948828,NO2,13,32,24
India,Telangana,Hyderabad,"Bollaram Industrial Area, Hyderabad - TSPCB",11-02-2024 13:00:00,17.540891,78.358528,SO2,11,22,15
India,Telangana,Hyderabad,"Central University, Hyderabad - TSPCB",11-02-2024 13:00:00,17.460103,78.334361,SO2,1,9,5
India,Telangana,Hyderabad,"ECIL Kapra, Hyderabad - TSPCB",11-02-2024 13:00:00,17.470431,78.566959,PM2.5,38,47,44
India,Telangana,Hyderabad,"IITH Kandi, Hyderabad - TSPCB",11-02-2024 13:00:00,17.585705,78.126199,NH3,3,3,3
India,Telangana,Hyderabad,"Kompally Municipal Office, Hyderabad - TSPCB",11-02-2024 13:00:00,17.544899,78.486949,NH3,4,5,5
India,Telangana,Hyderabad,"Nacharam_TSIIC IALA, Hyderabad - TSPCB",11-02-2024 13:00:00,17.429398,78.569354,NO2,9,10,9
India,Telangana,Hyderabad,"Nacharam_TSIIC IALA, Hyderabad - TSPCB",11-02-2024 13:00:00,17.429398,78.569354,CO,12,16,12
India,Telangana,Hyderabad,"Sanathnagar, Hyderabad - TSPCB",11-02-2024 13:00:00,17.4559458,78.4332152,SO2,1,9,5
India,Telangana,Hyderabad,"Somajiguda, Hyderabad - TSPCB",11-02-2024 13:00:00,17.417094,78.457437,PM2.5,42,72,56
India,Tripura,Agartala,"Bardowali, Agartala - Tripura SPCB",11-02-2024 13:00:00,23.8175497,91.2726974,PM10,NA,NA,NA
India,Tripura,Agartala,"Bardowali, Agartala - Tripura SPCB",11-02-2024 13:00:00,23.8175497,91.2726974,NO2,NA,NA,NA
India,Tripura,Agartala,"Bardowali, Agartala - Tripura SPCB",11-02-2024 13:00:00,23.8175497,91.2726974,CO,NA,NA,NA
India,Uttar_Pradesh,Agra,"Rohta, Agra - UPPCB",11-02-2024 13:00:00,27.106972,78.000111,PM2.5,8,270,107
India,Uttar_Pradesh,Agra,"Rohta, Agra - UPPCB",11-02-2024 13:00:00,27.106972,78.000111,CO,6,40,20
India,Uttar_Pradesh,Agra,"Rohta, Agra - UPPCB",11-02-2024 13:00:00,27.106972,78.000111,OZONE,13,14,14
India,Uttar_Pradesh,Agra,"Sanjay Palace, Agra - UPPCB",11-02-2024 13:00:00,27.19865833,78.00598056,PM2.5,16,154,81
India,Uttar_Pradesh,Agra,"Sector-3B Avas Vikas Colony, Agra - UPPCB",11-02-2024 13:00:00,27.19412,77.96237,CO,6,48,20
India,Uttar_Pradesh,Agra,"Shahjahan Garden, Agra - UPPCB",11-02-2024 13:00:00,27.169338,78.03582,SO2,37,46,41
India,Uttar_Pradesh,Agra,"Shastripuram, Agra - UPPCB",11-02-2024 13:00:00,27.19862,77.92066,NO2,22,81,31
India,Uttar_Pradesh,Baghpat,"Sardar Patel Inter College, Baghpat - UPPCB",11-02-2024 13:00:00,28.964949,77.278761,PM2.5,87,313,211
India,Uttar_Pradesh,Baghpat,"Sardar Patel Inter College, Baghpat - UPPCB",11-02-2024 13:00:00,28.964949,77.278761,NO2,27,79,54
India,Uttar_Pradesh,Baghpat,"Sardar Patel Inter College, Baghpat - UPPCB",11-02-2024 13:00:00,28.964949,77.278761,NH3,2,6,4
India,Uttar_Pradesh,Baghpat,"Sardar Patel Inter College, Baghpat - UPPCB",11-02-2024 13:00:00,28.964949,77.278761,CO,17,84,46
India,Uttar_Pradesh,Bulandshahr,"Yamunapuram, Bulandshahr - UPPCB",11-02-2024 13:00:00,28.406963,77.849831,PM10,104,257,159
India,Uttar_Pradesh,Firozabad,"Nagla Bhau, Firozabad - UPPCB",11-02-2024 13:00:00,27.168897,78.376960,PM10,25,129,68
India,Uttar_Pradesh,Firozabad,"Nagla Bhau, Firozabad - UPPCB",11-02-2024 13:00:00,27.168897,78.376960,CO,10,32,27
India,Uttar_Pradesh,Firozabad,"Vibhab Nagar, Firozabad - UPPCB",11-02-2024 13:00:00,27.1594,78.3953,PM2.5,37,305,108
India,Uttar_Pradesh,Ghaziabad,"Indirapuram, Ghaziabad - UPPCB",11-02-2024 13:00:00,28.646233,77.358075,PM2.5,74,337,243
India,Uttar_Pradesh,Ghaziabad,"Indirapuram, Ghaziabad - UPPCB",11-02-2024 13:00:00,28.646233,77.358075,OZONE,6,55,11
India,Uttar_Pradesh,Ghaziabad,"Loni, Ghaziabad - UPPCB",11-02-2024 13:00:00,28.757294,77.278792,SO2,10,35,15
India,Uttar_Pradesh,Ghaziabad,"Sanjay Nagar, Ghaziabad - UPPCB",11-02-2024 13:00:00,28.685382,77.453839,PM2.5,137,340,277
India,Uttar_Pradesh,Ghaziabad,"Vasundhara, Ghaziabad - UPPCB",11-02-2024 13:00:00,28.6603346,77.3572563,NH3,1,16,11
India,Uttar_Pradesh,Gorakhpur,"Madan Mohan Malaviya University of Technology, Gorakhpur - UPPCB",11-02-2024 13:00:00,26.730136,83.433859,CO,26,54,49
India,Uttar_Pradesh,Greater Noida,"Knowledge Park - III, Greater Noida - UPPCB",11-02-2024 13:00:00,28.47272,77.482000,PM2.5,222,421,353
India,Uttar_Pradesh,Greater Noida,"Knowledge Park - III, Greater Noida - UPPCB",11-02-2024 13:00:00,28.47272,77.482000,CO,26,112,63
India,Uttar_Pradesh,Greater Noida,"Knowledge Park - V, Greater Noida - UPPCB",11-02-2024 13:00:00,28.557054,77.453663,PM2.5,164,395,313
India,Uttar_Pradesh,Greater Noida,"Knowledge Park - V, Greater Noida - UPPCB",11-02-2024 13:00:00,28.557054,77.453663,SO2,8,27,15
India,Uttar_Pradesh,Greater Noida,"Knowledge Park - V, Greater Noida - UPPCB",11-02-2024 13:00:00,28.557054,77.453663,OZONE,3,175,37
India,Uttar_Pradesh,Hapur,"Anand Vihar, Hapur - UPPCB",11-02-2024 13:00:00,28.725645,77.749675,SO2,2,34,20
India,Uttar_Pradesh,Jhansi,"Shivaji Nagar, Jhansi - UPPCB",11-02-2024 13:00:00,25.4547,78.6039,NH3,6,6,6
India,Uttar_Pradesh,Jhansi,"Shivaji Nagar, Jhansi - UPPCB",11-02-2024 13:00:00,25.4547,78.6039,SO2,10,13,11
India,Uttar_Pradesh,Jhansi,"Shivaji Nagar, Jhansi - UPPCB",11-02-2024 13:00:00,25.4547,78.6039,OZONE,1,35,3
India,Uttar_Pradesh,Kanpur,"FTI Kidwai Nagar, Kanpur - UPPCB",11-02-2024 13:00:00,26.428282,80.327067,PM2.5,NA,NA,NA
India,Uttar_Pradesh,Kanpur,"FTI Kidwai Nagar, Kanpur - UPPCB",11-02-2024 13:00:00,26.428282,80.327067,PM10,61,413,149
India,Uttar_Pradesh,Kanpur,"FTI Kidwai Nagar, Kanpur - UPPCB",11-02-2024 13:00:00,26.428282,80.327067,SO2,22,28,24
India,Uttar_Pradesh,Kanpur,"NSI Kalyanpur, Kanpur - UPPCB",11-02-2024 13:00:00,26.509954,80.249612,PM2.5,47,245,125
India,Uttar_Pradesh,Kanpur,"Nehru Nagar, Kanpur - UPPCB",11-02-2024 13:00:00,26.4703136,80.3229863,CO,20,113,42
India,Uttar_Pradesh,Khurja,"Kalindi Kunj, Khurja - UPPCB",11-02-2024 13:00:00,28.2348927,77.8683002,SO2,34,41,38
India,Uttar_Pradesh,Khurja,"Kalindi Kunj, Khurja - UPPCB",11-02-2024 13:00:00,28.2348927,77.8683002,OZONE,21,25,24
India,Uttar_Pradesh,Lucknow,"B R Ambedkar University, Lucknow - UPPCB",11-02-2024 13:00:00,26.766433,80.927299,NH3,6,12,9
India,Uttar_Pradesh,Lucknow,"B R Ambedkar University, Lucknow - UPPCB",11-02-2024 13:00:00,26.766433,80.927299,SO2,36,55,45
India,Uttar_Pradesh,Lucknow,"B R Ambedkar University, Lucknow - UPPCB",11-02-2024 13:00:00,26.766433,80.927299,CO,30,64,44
India,Uttar_Pradesh,Lucknow,"Gomti Nagar, Lucknow - UPPCB",11-02-2024 13:00:00,26.868120,81.005119,SO2,1,30,12
India,Uttar_Pradesh,Lucknow,"Kendriya Vidyalaya, Lucknow - CPCB",11-02-2024 13:00:00,26.906111,80.948222,PM2.5,58,202,112
India,Uttar_Pradesh,Lucknow,"Kukrail Picnic Spot-1, Lucknow - UPPCB",11-02-2024 13:00:00,26.90723,80.98579,PM10,49,114,83
India,Uttar_Pradesh,Lucknow,"Lalbagh, Lucknow - CPCB",11-02-2024 13:00:00,26.8458805,80.9365541,SO2,1,14,8
India,Uttar_Pradesh,Lucknow,"Lalbagh, Lucknow - CPCB",11-02-2024 13:00:00,26.8458805,80.9365541,OZONE,11,125,47
India,Uttar_Pradesh,Lucknow,"Talkatora District Industries Center, Lucknow - CPCB",11-02-2024 13:00:00,26.83399722,80.8917361,PM10,112,159,135
India,Uttar_Pradesh,Lucknow,"Talkatora District Industries Center, Lucknow - CPCB",11-02-2024 13:00:00,26.83399722,80.8917361,CO,18,57,37
India,Uttar_Pradesh,Meerut,"Ganga Nagar, Meerut - UPPCB",11-02-2024 13:00:00,28.999264,77.7590354,CO,7,70,22
India,Uttar_Pradesh,Meerut,"Jai Bhim Nagar, Meerut - UPPCB",11-02-2024 13:00:00,28.9535882,77.7622941,CO,14,126,41
India,Uttar_Pradesh,Meerut,"Jai Bhim Nagar, Meerut - UPPCB",11-02-2024 13:00:00,28.9535882,77.7622941,OZONE,11,15,14
India,Uttar_Pradesh,Meerut,"Pallavpuram Phase 2, Meerut - UPPCB",11-02-2024 13:00:00,29.063510,77.709723,PM2.5,NA,NA,NA
India,Uttar_Pradesh,Meerut,"Pallavpuram Phase 2, Meerut - UPPCB",11-02-2024 13:00:00,29.063510,77.709723,NO2,NA,NA,NA
India,Uttar_Pradesh,Moradabad,"Buddhi Vihar, Moradabad - UPPCB",11-02-2024 13:00:00,28.83526,78.74460,OZONE,12,25,14
India,Uttar_Pradesh,Moradabad,"Eco Herbal Park, Moradabad - UPPCB",11-02-2024 13:00:00,28.840739,78.697531,NO2,25,103,50
India,Uttar_Pradesh,Moradabad,"Employment Office, Moradabad - UPPCB",11-02-2024 13:00:00,28.88528,78.73880,SO2,24,26,25
India,Uttar_Pradesh,Moradabad,"Kashiram Nagar, Moradabad - UPPCB",11-02-2024 13:00:00,28.849399,78.742362,CO,33,67,46
India,Uttar_Pradesh,Moradabad,"Kashiram Nagar, Moradabad - UPPCB",11-02-2024 13:00:00,28.849399,78.742362,OZONE,14,17,15
India,Uttar_Pradesh,Moradabad,"Transport Nagar, Moradabad - UPPCB",11-02-2024 13:00:00,28.802625,78.753728,NH3,6,6,6
India,Uttar_Pradesh,Noida,"Sector - 125, Noida - UPPCB",11-02-2024 13:00:00,28.5447608,77.3231257,PM10,119,414,198
India,Uttar_Pradesh,Noida,"Sector - 62, Noida - IMD",11-02-2024 13:00:00,28.6245479,77.3577104,NO2,10,38,20
India,Uttar_Pradesh,Prayagraj,"Jhunsi, Prayagraj - UPPCB",11-02-2024 13:00:00,25.425602,81.917152,NH3,5,5,5
India,Uttar_Pradesh,Prayagraj,"Motilal Nehru NIT, Prayagraj - UPPCB",11-02-2024 13:00:00,25.494,81.863,PM2.5,36,159,85
India,Uttar_Pradesh,Prayagraj,"Nagar Nigam, Prayagraj - UPPCB",11-02-2024 13:00:00,25.44919916 ,81.82735986 ,PM2.5,41,230,115
India,Uttar_Pradesh,Varanasi,"Bhelupur, Varanasi - UPPCB",11-02-2024 13:00:00,25.301778,82.996789,PM2.5,30,202,105
India,Uttar_Pradesh,Varanasi,"Bhelupur, Varanasi - UPPCB",11-02-2024 13:00:00,25.301778,82.996789,NH3,1,2,2
India,Uttar_Pradesh,Varanasi,"IESD Banaras Hindu University, Varanasi - UPPCB",11-02-2024 13:00:00,25.262326,82.995408,PM2.5,50,187,101
India,Uttar_Pradesh,Varanasi,"IESD Banaras Hindu University, Varanasi - UPPCB",11-02-2024 13:00:00,25.262326,82.995408,NH3,1,3,2
India,Uttar_Pradesh,Varanasi,"IESD Banaras Hindu University, Varanasi - UPPCB",11-02-2024 13:00:00,25.262326,82.995408,SO2,14,14,14
India,Uttar_Pradesh,Varanasi,"IESD Banaras Hindu University, Varanasi - UPPCB",11-02-2024 13:00:00,25.262326,82.995408,CO,24,49,37
India,Uttar_Pradesh,Varanasi,"Maldahiya, Varanasi - UPPCB",11-02-2024 13:00:00,25.32393,82.99687,PM2.5,47,304,161
India,Uttar_Pradesh,Varanasi,"Maldahiya, Varanasi - UPPCB",11-02-2024 13:00:00,25.32393,82.99687,PM10,40,150,98
India,Uttar_Pradesh,Varanasi,"Maldahiya, Varanasi - UPPCB",11-02-2024 13:00:00,25.32393,82.99687,SO2,32,33,32
India,Uttar_Pradesh,Vrindavan,"Omex Eternity, Vrindavan - UPPCB",11-02-2024 13:00:00,27.5714090,77.6557570,PM2.5,21,105,65
India,West_Bengal,Durgapur,"Sidhu Kanhu Indoor Stadium, Durgapur - WBPCB",11-02-2024 13:00:00,23.5404352,87.2892225,NO2,24,37,32
India,West_Bengal,Durgapur,"Sidhu Kanhu Indoor Stadium, Durgapur - WBPCB",11-02-2024 13:00:00,23.5404352,87.2892225,SO2,14,29,22
India,West_Bengal,Haldia,"Priyambada Housing Estate, Haldia - WBPCB",11-02-2024 13:00:00,22.06047,88.109737,PM10,84,192,130
India,West_Bengal,Haldia,"Priyambada Housing Estate, Haldia - WBPCB",11-02-2024 13:00:00,22.06047,88.109737,NH3,3,6,4
India,West_Bengal,Howrah,"Belur Math, Howrah - WBPCB",11-02-2024 13:00:00,22.629801,88.352017,NH3,2,8,5
India,West_Bengal,Howrah,"Belur Math, Howrah - WBPCB",11-02-2024 13:00:00,22.629801,88.352017,CO,9,65,21
India,West_Bengal,Howrah,"Ghusuri, Howrah - WBPCB",11-02-2024 13:00:00,22.611968,88.347422,NO2,24,101,44
India,West_Bengal,Howrah,"Ghusuri, Howrah - WBPCB",11-02-2024 13:00:00,22.611968,88.347422,OZONE,10,25,16
India,West_Bengal,Howrah,"Padmapukur, Howrah - WBPCB",11-02-2024 13:00:00,22.5687319,88.2797276,PM10,97,195,149
India,West_Bengal,Howrah,"Padmapukur, Howrah - WBPCB",11-02-2024 13:00:00,22.5687319,88.2797276,NO2,18,74,42
India,West_Bengal,Howrah,"Padmapukur, Howrah - WBPCB",11-02-2024 13:00:00,22.5687319,88.2797276,SO2,7,40,15
India,West_Bengal,Howrah,"Padmapukur, Howrah - WBPCB",11-02-2024 13:00:00,22.5687319,88.2797276,CO,4,62,23
India,West_Bengal,Kolkata,"Bidhannagar, Kolkata - WBPCB",11-02-2024 13:00:00,22.58157048,88.41002457,NH3,9,14,11
India,West_Bengal,Kolkata,"Jadavpur, Kolkata - WBPCB",11-02-2024 13:00:00,22.49929,88.36917,SO2,4,9,6
India,West_Bengal,Kolkata,"Rabindra Bharati University, Kolkata - WBPCB",11-02-2024 13:00:00,22.627847,88.380669,CO,31,76,55
India,West_Bengal,Kolkata,"Victoria, Kolkata - WBPCB",11-02-2024 13:00:00,22.5448082,88.3403691,NO2,11,37,23
India,Andhra_Pradesh,Amaravati,"Secretariat, Amaravati - APPCB",11-02-2024 13:00:00,16.5150833,80.5181667,NO2,5,21,9
India,Andhra_Pradesh,Amaravati,"Secretariat, Amaravati - APPCB",11-02-2024 13:00:00,16.5150833,80.5181667,OZONE,17,58,38
India,Andhra_Pradesh,Anantapur,"Gulzarpet, Anantapur - APPCB",11-02-2024 13:00:00,14.675886,77.593027,PM2.5,32,57,43
India,Andhra_Pradesh,Kadapa,"Yerramukkapalli, Kadapa - APPCB",11-02-2024 13:00:00,14.465052,78.824187,CO,5,33,26
India,Andhra_Pradesh,Rajamahendravaram,"Anand Kala Kshetram, Rajamahendravaram - APPCB",11-02-2024 13:00:00,16.9872867,81.7363176,NO2,13,41,23
India,Andhra_Pradesh,Rajamahendravaram,"Anand Kala Kshetram, Rajamahendravaram - APPCB",11-02-2024 13:00:00,16.9872867,81.7363176,NH3,4,7,5
India,Andhra_Pradesh,Rajamahendravaram,"Anand Kala Kshetram, Rajamahendravaram - APPCB",11-02-2024 13:00:00,16.9872867,81.7363176,SO2,9,12,12
India,Andhra_Pradesh,Tirupati,"Tirumala, Tirupati - APPCB",11-02-2024 13:00:00,13.67,79.35,NO2,22,37,29
India,Andhra_Pradesh,Tirupati,"Vaikuntapuram, Tirupati - APPCB",11-02-2024 13:00:00,13.615387,79.409230,NO2,6,23,18
India,Andhra_Pradesh,Tirupati,"Vaikuntapuram, Tirupati - APPCB",11-02-2024 13:00:00,13.615387,79.409230,NH3,2,5,3
India,Andhra_Pradesh,Tirupati,"Vaikuntapuram, Tirupati - APPCB",11-02-2024 13:00:00,13.615387,79.409230,OZONE,3,36,23
India,Andhra_Pradesh,Vijayawada,"Rajiv Gandhi Park, Vijayawada - APPCB",11-02-2024 13:00:00,16.509717,80.612222,PM10,63,81,74
India,Andhra_Pradesh,Vijayawada,"Rajiv Nagar, Vijayawada - APPCB",11-02-2024 13:00:00,16.554731,80.649110,NO2,6,16,10
India,Andhra_Pradesh,Vijayawada,"Rajiv Nagar, Vijayawada - APPCB",11-02-2024 13:00:00,16.554731,80.649110,SO2,7,30,16
India,Andhra_Pradesh,Visakhapatnam,"GVM Corporation, Visakhapatnam - APPCB",11-02-2024 13:00:00,17.72,83.3,PM10,104,122,112
India,Andhra_Pradesh,Visakhapatnam,"GVM Corporation, Visakhapatnam - APPCB",11-02-2024 13:00:00,17.72,83.3,SO2,8,14,11
India,Andhra_Pradesh,Visakhapatnam,"GVM Corporation, Visakhapatnam - APPCB",11-02-2024 13:00:00,17.72,83.3,OZONE,9,71,20
India,Arunachal_Pradesh,Naharlagun,"Naharlagun, Naharlagun - APSPCB",11-02-2024 13:00:00,27.103358,93.679645,CO,8,46,13
India,Assam,Byrnihat,"Central Academy for SFS, Byrnihat - PCBA",11-02-2024 13:00:00,26.071318,91.87488,PM2.5,60,500,296
India,Assam,Byrnihat,"Central Academy for SFS, Byrnihat - PCBA",11-02-2024 13:00:00,26.071318,91.87488,SO2,10,13,11
India,Assam,Byrnihat,"Central Academy for SFS, Byrnihat - PCBA",11-02-2024 13:00:00,26.071318,91.87488,CO,40,113,69
India,Assam,Byrnihat,"Central Academy for SFS, Byrnihat - PCBA",11-02-2024 13:00:00,26.071318,91.87488,OZONE,11,19,13
India,Assam,Guwahati,"IITG, Guwahati - PCBA",11-02-2024 13:00:00,26.2028636,91.70046436,PM10,80,224,153
India,Assam,Guwahati,"IITG, Guwahati - PCBA",11-02-2024 13:00:00,26.2028636,91.70046436,NO2,1,19,9
India,Assam,Guwahati,"LGBI Airport, Guwahati - PCBA",11-02-2024 13:00:00,26.10887,91.589544,PM10,96,475,168
India,Assam,Guwahati,"LGBI Airport, Guwahati - PCBA",11-02-2024 13:00:00,26.10887,91.589544,CO,14,100,24
India,Assam,Guwahati,"Pan Bazaar, Guwahati - PCBA",11-02-2024 13:00:00,26.187500,91.744194,CO,22,112,50
India,Assam,Guwahati,"Railway Colony, Guwahati - PCBA",11-02-2024 13:00:00,26.181742,91.78063,PM2.5,55,400,240
India,Assam,Guwahati,"Railway Colony, Guwahati - PCBA",11-02-2024 13:00:00,26.181742,91.78063,CO,18,116,48
India,Assam,Nagaon,"Christianpatty, Nagaon - PCBA",11-02-2024 13:00:00,26.349082,92.68449,NH3,2,7,3
India,Assam,Nalbari,"Bata Chowk, Nalbari - PCBA",11-02-2024 13:00:00,26.446912,91.439057,PM10,64,489,167
India,Assam,Nalbari,"Bata Chowk, Nalbari - PCBA",11-02-2024 13:00:00,26.446912,91.439057,OZONE,3,82,28
India,Assam,Silchar,"Tarapur, Silchar - PCBA",11-02-2024 13:00:00,24.82827,92.79525,PM2.5,NA,NA,NA
India,Assam,Silchar,"Tarapur, Silchar - PCBA",11-02-2024 13:00:00,24.82827,92.79525,NO2,35,56,41
India,Assam,Sivasagar,"Girls College, Sivasagar - PCBA",11-02-2024 13:00:00,26.987634,94.636574,NO2,20,37,25
India,Assam,Sivasagar,"Girls College, Sivasagar - PCBA",11-02-2024 13:00:00,26.987634,94.636574,SO2,5,5,5
India,Bihar,Araria,"Kharahiya Basti, Araria - BSPCB",11-02-2024 13:00:00,26.146529,87.454184,CO,24,30,30
India,Bihar,Arrah,"New DM Office, Arrah - BSPCB",11-02-2024 13:00:00,25.5626095,84.663264,NH3,NA,NA,NA
India,Bihar,Arrah,"New DM Office, Arrah - BSPCB",11-02-2024 13:00:00,25.5626095,84.663264,OZONE,NA,NA,NA
India,Bihar,Aurangabad,"Gurdeo Nagar, Aurangabad - BSPCB",11-02-2024 13:00:00,24.75746,84.366208,NH3,4,38,8
India,Bihar,Aurangabad,"Gurdeo Nagar, Aurangabad - BSPCB",11-02-2024 13:00:00,24.75746,84.366208,SO2,10,46,15
India,Bihar,Bettiah,"Kamalnath Nagar, Bettiah - BSPCB",11-02-2024 13:00:00,26.80365,84.51954,NO2,12,18,15
India,Bihar,Bhagalpur,"DM Office_Kachari Chowk, Bhagalpur - BSPCB",11-02-2024 13:00:00,25.251013,86.989001,PM10,137,258,171
India,Bihar,Bhagalpur,"DM Office_Kachari Chowk, Bhagalpur - BSPCB",11-02-2024 13:00:00,25.251013,86.989001,SO2,1,15,7
India,Bihar,Bihar Sharif,"D M Colony, Bihar Sharif - BSPCB",11-02-2024 13:00:00,25.204762,85.514960,PM2.5,30,293,110
India,Bihar,Bihar Sharif,"D M Colony, Bihar Sharif - BSPCB",11-02-2024 13:00:00,25.204762,85.514960,SO2,1,12,6
India,Bihar,Chhapra,"Darshan Nagar, Chhapra - BSPCB",11-02-2024 13:00:00,25.7808257,84.7446768,PM2.5,93,404,264
India,Bihar,Chhapra,"Darshan Nagar, Chhapra - BSPCB",11-02-2024 13:00:00,25.7808257,84.7446768,PM10,92,384,171
India,Bihar,Gaya,"Kareemganj, Gaya - BSPCB",11-02-2024 13:00:00,24.792403,84.992416,PM2.5,35,297,118
India,Bihar,Gaya,"Kareemganj, Gaya - BSPCB",11-02-2024 13:00:00,24.792403,84.992416,PM10,56,276,151
India,Bihar,Gaya,"Kareemganj, Gaya - BSPCB",11-02-2024 13:00:00,24.792403,84.992416,CO,10,94,57
India,Bihar,Gaya,"SFTI Kusdihra, Gaya - BSPCB",11-02-2024 13:00:00,24.762518,84.982348,PM10,58,105,76
India,Bihar,Hajipur,"Industrial Area, Hajipur - BSPCB",11-02-2024 13:00:00,25.697189,85.245900,PM2.5,73,354,185
India,Bihar,Hajipur,"Industrial Area, Hajipur - BSPCB",11-02-2024 13:00:00,25.697189,85.245900,SO2,6,9,7
India,Bihar,Hajipur,"Industrial Area, Hajipur - BSPCB",11-02-2024 13:00:00,25.697189,85.245900,CO,16,70,38
India,Bihar,Kishanganj,"SDM Office_Khagra, Kishanganj - BSPCB",11-02-2024 13:00:00,26.0881305,87.93840336,CO,4,10,9
India,Bihar,Kishanganj,"SDM Office_Khagra, Kishanganj - BSPCB",11-02-2024 13:00:00,26.0881305,87.93840336,OZONE,29,38,31
India,Bihar,Manguraha,"Forest Rest House, Manguraha - BSPCB",11-02-2024 13:00:00,27.308328,84.531742,NO2,11,18,13
India,Bihar,Manguraha,"Forest Rest House, Manguraha - BSPCB",11-02-2024 13:00:00,27.308328,84.531742,SO2,NA,NA,NA
India,Bihar,Motihari,"Gandak Colony, Motihari - BSPCB",11-02-2024 13:00:00,26.63086,84.90051,PM10,73,190,118
India,Bihar,Motihari,"Gandak Colony, Motihari - BSPCB",11-02-2024 13:00:00,26.63086,84.90051,CO,40,81,51
India,Bihar,Munger,"Town Hall, Munger - BSPCB",11-02-2024 13:00:00,25.376776,86.471523,CO,2,32,25
India,Bihar,Muzaffarpur,"Muzaffarpur Collectorate, Muzaffarpur - BSPCB",11-02-2024 13:00:00,26.1209,85.3647,CO,22,45,22
India,Bihar,Patna,"DRM Office Danapur, Patna - BSPCB",11-02-2024 13:00:00,25.586562,85.043586,NO2,15,104,44
India,Bihar,Patna,"Govt. High School Shikarpur, Patna - BSPCB",11-02-2024 13:00:00,25.592539,85.227158,PM10,116,242,186
India,Bihar,Patna,"Govt. High School Shikarpur, Patna - BSPCB",11-02-2024 13:00:00,25.592539,85.227158,SO2,2,6,4
India,Bihar,Patna,"Govt. High School Shikarpur, Patna - BSPCB",11-02-2024 13:00:00,25.592539,85.227158,OZONE,4,43,10
India,Bihar,Patna,"Muradpur, Patna - BSPCB",11-02-2024 13:00:00,25.619651,85.147382,OZONE,21,133,65
India,Bihar,Purnia,"Mariam Nagar, Purnia - BSPCB",11-02-2024 13:00:00,25.366336,87.117468,CO,30,85,60
India,Bihar,Rajgir,"Dangi Tola, Rajgir - BSPCB",11-02-2024 13:00:00,25.03280,85.41948,NO2,1,1,1
India,Bihar,Rajgir,"Dangi Tola, Rajgir - BSPCB",11-02-2024 13:00:00,25.03280,85.41948,CO,10,11,10
India,Bihar,Saharsa,"Police Line, Saharsa - BSPCB",11-02-2024 13:00:00,25.892357,86.590325,SO2,2,88,30
India,Bihar,Saharsa,"Police Line, Saharsa - BSPCB",11-02-2024 13:00:00,25.892357,86.590325,OZONE,15,89,40
India,Bihar,Samastipur,"DM Office_Kasipur, Samastipur - BSPCB",11-02-2024 13:00:00,25.859655,85.77944,NO2,3,9,5
India,Bihar,Sasaram,"Dada Peer, Sasaram - BSPCB",11-02-2024 13:00:00,24.952822,84.002396,NH3,NA,NA,NA
India,Bihar,Siwan,"Chitragupta Nagar, Siwan - BSPCB",11-02-2024 13:00:00,26.2271665,84.3570427,PM2.5,NA,NA,NA
India,Bihar,Siwan,"Chitragupta Nagar, Siwan - BSPCB",11-02-2024 13:00:00,26.2271665,84.3570427,CO,8,188,55
India,Chandigarh,Chandigarh,"Sector 22, Chandigarh - CPCC",11-02-2024 13:00:00,30.735567,76.775714,PM2.5,250,368,303
India,Chandigarh,Chandigarh,"Sector 22, Chandigarh - CPCC",11-02-2024 13:00:00,30.735567,76.775714,NH3,7,10,8
India,Chandigarh,Chandigarh,"Sector 22, Chandigarh - CPCC",11-02-2024 13:00:00,30.735567,76.775714,CO,34,101,40
India,Chandigarh,Chandigarh,"Sector 22, Chandigarh - CPCC",11-02-2024 13:00:00,30.735567,76.775714,OZONE,2,200,32
India,Chandigarh,Chandigarh,"Sector-25, Chandigarh - CPCC",11-02-2024 13:00:00,30.751462,76.762879,SO2,4,20,11
India,Chandigarh,Chandigarh,"Sector-53, Chandigarh - CPCC",11-02-2024 13:00:00,30.719859,76.738637,PM2.5,243,401,333
India,Chhattisgarh,Bhilai,"32Bungalows, Bhilai - CECB",11-02-2024 13:00:00,21.194815,81.314770,NH3,6,6,6
India,Chhattisgarh,Bhilai,"Hathkhoj, Bhilai - CECB",11-02-2024 13:00:00,21.224231,81.408350,SO2,20,49,29
India,Chhattisgarh,Bilaspur,"Mangala, Bilaspur - NTPC",11-02-2024 13:00:00,22.08815,82.13737,NO2,14,16,15
India,Chhattisgarh,Korba,"Rampur, Korba - CECB",11-02-2024 13:00:00,22.368195,82.746431,PM2.5,28,38,33
India,Chhattisgarh,Korba,"Rampur, Korba - CECB",11-02-2024 13:00:00,22.368195,82.746431,SO2,21,88,36
India,Chhattisgarh,Korba,"Rampur, Korba - CECB",11-02-2024 13:00:00,22.368195,82.746431,OZONE,NA,NA,NA
India,Chhattisgarh,Kunjemura,"OP Jindal School, Kunjemura - CECB",11-02-2024 13:00:00,22.126650,83.483212,PM2.5,34,73,54
India,Chhattisgarh,Kunjemura,"OP Jindal School, Kunjemura - CECB",11-02-2024 13:00:00,22.126650,83.483212,PM10,54,179,112
India,Chhattisgarh,Kunjemura,"OP Jindal School, Kunjemura - CECB",11-02-2024 13:00:00,22.126650,83.483212,SO2,9,75,21
India,Chhattisgarh,Raipur,"AIIMS, Raipur - CECB",11-02-2024 13:00:00,21.258815,81.578979,CO,29,57,48
India,Chhattisgarh,Raipur,"AIIMS, Raipur - CECB",11-02-2024 13:00:00,21.258815,81.578979,OZONE,1,11,1
India,Chhattisgarh,Raipur,"Krishak Nagar, Raipur - CECB",11-02-2024 13:00:00,21.237755,81.705301,NH3,1,1,1
India,Chhattisgarh,Raipur,"Krishak Nagar, Raipur - CECB",11-02-2024 13:00:00,21.237755,81.705301,OZONE,3,15,4
India,Chhattisgarh,Raipur,"Siltara Phase-II, Raipur - CECB",11-02-2024 13:00:00,21.371751,81.664929,PM2.5,50,172,106
India,Delhi,Delhi,"Anand Vihar, Delhi - DPCC",11-02-2024 13:00:00,28.647622,77.3158090,CO,5,107,77
India,Delhi,Delhi,"Aya Nagar, Delhi - IMD",11-02-2024 13:00:00,28.4706914,77.1099364,OZONE,1,25,19
India,Delhi,Delhi,"Bawana, Delhi - DPCC",11-02-2024 13:00:00,28.776200,77.051074,NO2,20,95,41
India,Delhi,Delhi,"CRRI Mathura Road, Delhi - IMD",11-02-2024 13:00:00,28.5512005,77.2735737,NO2,23,60,49
India,Delhi,Delhi,"DTU, Delhi - CPCB",11-02-2024 13:00:00,28.7500499,77.1112615,CO,30,42,36
India,Delhi,Delhi,"Dr. Karni Singh Shooting Range, Delhi - DPCC",11-02-2024 13:00:00,28.498571,77.264840,CO,44,123,68
India,Delhi,Delhi,"Dwarka-Sector 8, Delhi - DPCC ",11-02-2024 13:00:00,28.5710274,77.0719006,CO,7,109,59
India,Delhi,Delhi,"Dwarka-Sector 8, Delhi - DPCC ",11-02-2024 13:00:00,28.5710274,77.0719006,OZONE,2,98,4
India,Delhi,Delhi,"IGI Airport (T3), Delhi - IMD",11-02-2024 13:00:00,28.5627763,77.1180053,NO2,NA,NA,NA
India,Delhi,Delhi,"IGI Airport (T3), Delhi - IMD",11-02-2024 13:00:00,28.5627763,77.1180053,CO,101,127,109
India,Delhi,Delhi,"IHBAS, Dilshad Garden, Delhi - CPCB",11-02-2024 13:00:00,28.6811736,77.3025234,PM10,121,199,163
India,Delhi,Delhi,"IHBAS, Dilshad Garden, Delhi - CPCB",11-02-2024 13:00:00,28.6811736,77.3025234,OZONE,11,43,18
India,Delhi,Delhi,"ITO, Delhi - CPCB",11-02-2024 13:00:00,28.628624,77.241060,NO2,13,155,52
India,Delhi,Delhi,"Jahangirpuri, Delhi - DPCC",11-02-2024 13:00:00,28.732820,77.170633,CO,36,110,80
India,Delhi,Delhi,"Jawaharlal Nehru Stadium, Delhi - DPCC",11-02-2024 13:00:00,28.580280,77.233829,NO2,47,167,105
India,Delhi,Delhi,"Jawaharlal Nehru Stadium, Delhi - DPCC",11-02-2024 13:00:00,28.580280,77.233829,NH3,11,17,14
India,Delhi,Delhi,"Jawaharlal Nehru Stadium, Delhi - DPCC",11-02-2024 13:00:00,28.580280,77.233829,CO,16,108,74
India,Delhi,Delhi,"Lodhi Road, Delhi - IITM",11-02-2024 13:00:00,28.588333,77.221667,PM10,109,232,141
India,Delhi,Delhi,"Lodhi Road, Delhi - IITM",11-02-2024 13:00:00,28.588333,77.221667,CO,62,70,68
India,Delhi,Delhi,"Lodhi Road, Delhi - IITM",11-02-2024 13:00:00,28.588333,77.221667,OZONE,15,17,15
India,Delhi,Delhi,"Mundka, Delhi - DPCC",11-02-2024 13:00:00,28.684678,77.076574,PM10,164,435,263
India,Delhi,Delhi,"Mundka, Delhi - DPCC",11-02-2024 13:00:00,28.684678,77.076574,SO2,3,37,11
India,Delhi,Delhi,"NSIT Dwarka, Delhi - CPCB",11-02-2024 13:00:00,28.60909,77.0325413,NO2,27,65,40
India,Delhi,Delhi,"Narela, Delhi - DPCC",11-02-2024 13:00:00,28.822836,77.101981,SO2,3,44,10
India,Delhi,Delhi,"Narela, Delhi - DPCC",11-02-2024 13:00:00,28.822836,77.101981,OZONE,10,208,43
India,Delhi,Delhi,"Nehru Nagar, Delhi - DPCC",11-02-2024 13:00:00,28.567890,77.250515,NH3,9,23,16
India,Delhi,Delhi,"Patparganj, Delhi - DPCC",11-02-2024 13:00:00,28.623763,77.287209,PM2.5,198,383,334
India,Delhi,Delhi,"Patparganj, Delhi - DPCC",11-02-2024 13:00:00,28.623763,77.287209,PM10,168,417,307
India,Delhi,Delhi,"Patparganj, Delhi - DPCC",11-02-2024 13:00:00,28.623763,77.287209,NH3,7,14,10
India,Delhi,Delhi,"Punjabi Bagh, Delhi - DPCC",11-02-2024 13:00:00,28.674045,77.131023,NO2,50,102,74
India,Delhi,Delhi,"Punjabi Bagh, Delhi - DPCC",11-02-2024 13:00:00,28.674045,77.131023,SO2,3,3,3
India,Delhi,Delhi,"Pusa, Delhi - DPCC",11-02-2024 13:00:00,28.639652,77.146275,PM2.5,297,412,348
India,Delhi,Delhi,"Pusa, Delhi - DPCC",11-02-2024 13:00:00,28.639652,77.146275,NO2,70,406,213
India,Delhi,Delhi,"Pusa, Delhi - DPCC",11-02-2024 13:00:00,28.639652,77.146275,NH3,21,33,27
India,Delhi,Delhi,"Pusa, Delhi - DPCC",11-02-2024 13:00:00,28.639652,77.146275,OZONE,15,102,22
India,Delhi,Delhi,"Pusa, Delhi - IMD",11-02-2024 13:00:00,28.636110,77.173332,NO2,29,198,55
India,Delhi,Delhi,"Pusa, Delhi - IMD",11-02-2024 13:00:00,28.636110,77.173332,OZONE,12,30,13
India,Delhi,Delhi,"R K Puram, Delhi - DPCC",11-02-2024 13:00:00,28.563262,77.186937,PM2.5,227,420,357
India,Delhi,Delhi,"R K Puram, Delhi - DPCC",11-02-2024 13:00:00,28.563262,77.186937,NO2,45,153,86
India,Delhi,Delhi,"R K Puram, Delhi - DPCC",11-02-2024 13:00:00,28.563262,77.186937,SO2,5,49,28
India,Delhi,Delhi,"Rohini, Delhi - DPCC",11-02-2024 13:00:00,28.732528,77.119920,NH3,10,14,12
India,Delhi,Delhi,"Sirifort, Delhi - CPCB",11-02-2024 13:00:00,28.5504249,77.2159377,PM10,58,127,92
India,Delhi,Delhi,"Sonia Vihar, Delhi - DPCC",11-02-2024 13:00:00,28.710508,77.249485,NH3,6,10,7
India,Delhi,Delhi,"Sri Aurobindo Marg, Delhi - DPCC",11-02-2024 13:00:00,28.531346,77.190156,PM2.5,304,365,339
India,Delhi,Delhi,"Sri Aurobindo Marg, Delhi - DPCC",11-02-2024 13:00:00,28.531346,77.190156,NH3,7,9,8
India,Delhi,Delhi,"Vivek Vihar, Delhi - DPCC",11-02-2024 13:00:00,28.672342,77.315260,SO2,1,34,29
India,Delhi,Delhi,"Wazirpur, Delhi - DPCC",11-02-2024 13:00:00,28.699793,77.165453,PM2.5,153,426,345
India,Delhi,Delhi,"Wazirpur, Delhi - DPCC",11-02-2024 13:00:00,28.699793,77.165453,NO2,86,291,187
India,Delhi,Delhi,"Wazirpur, Delhi - DPCC",11-02-2024 13:00:00,28.699793,77.165453,SO2,20,49,29
India,Gujarat,Ahmedabad,"Gyaspur, Ahmedabad - IITM",11-02-2024 13:00:00,22.977134,72.553024,SO2,3,4,3
India,Gujarat,Ahmedabad,"Raikhad, Ahmedabad - IITM",11-02-2024 13:00:00,23.020509,72.579261,SO2,2,14,5
India,Gujarat,Ahmedabad,"SAC ISRO Bopal, Ahmedabad - IITM",11-02-2024 13:00:00,23.041137,72.456691,SO2,6,10,10
India,Gujarat,Ahmedabad,"SAC ISRO Bopal, Ahmedabad - IITM",11-02-2024 13:00:00,23.041137,72.456691,CO,26,50,35
India,Gujarat,Ahmedabad,"SAC ISRO Bopal, Ahmedabad - IITM",11-02-2024 13:00:00,23.041137,72.456691,OZONE,9,9,9
India,Gujarat,Ahmedabad,"SAC ISRO Satellite, Ahmedabad - IITM",11-02-2024 13:00:00,23.023389,72.515201,PM10,98,117,106
India,Gujarat,Ahmedabad,"SAC ISRO Satellite, Ahmedabad - IITM",11-02-2024 13:00:00,23.023389,72.515201,NO2,17,17,17
India,Gujarat,Ahmedabad,"SAC ISRO Satellite, Ahmedabad - IITM",11-02-2024 13:00:00,23.023389,72.515201,SO2,11,21,14
India,Gujarat,Ahmedabad,"SVPI Airport Hansol, Ahmedabad - IITM",11-02-2024 13:00:00,23.076793,72.627874,NH3,NA,NA,NA
India,Gujarat,Ankleshwar,"GIDC, Ankleshwar - GPCB",11-02-2024 13:00:00,21.613267,73.010555,PM10,64,112,85
India,Gujarat,Ankleshwar,"GIDC, Ankleshwar - GPCB",11-02-2024 13:00:00,21.613267,73.010555,NO2,36,37,36
India,Gujarat,Gandhinagar,"IIPHG Lekawada, Gandhinagar - IITM",11-02-2024 13:00:00,23.243639,72.68994,NO2,12,20,13
India,Gujarat,Gandhinagar,"IIPHG Lekawada, Gandhinagar - IITM",11-02-2024 13:00:00,23.243639,72.68994,NH3,4,5,4
India,Gujarat,Gandhinagar,"Sector-10, Gandhinagar - GPCB",11-02-2024 13:00:00,23.221714,72.654328,NO2,3,14,8
India,Gujarat,Gandhinagar,"Sector-10, Gandhinagar - GPCB",11-02-2024 13:00:00,23.221714,72.654328,SO2,9,12,10
India,Gujarat,Gandhinagar,"Sector-10, Gandhinagar - GPCB",11-02-2024 13:00:00,23.221714,72.654328,OZONE,6,43,25
India,Gujarat,Vatva,"Phase-4 GIDC, Vatva - GPCB",11-02-2024 13:00:00,22.969611,72.643500,PM10,42,78,59
India,Gujarat,Vatva,"Phase-4 GIDC, Vatva - GPCB",11-02-2024 13:00:00,22.969611,72.643500,NO2,24,105,43
India,Gujarat,Vatva,"Phase-4 GIDC, Vatva - GPCB",11-02-2024 13:00:00,22.969611,72.643500,CO,48,50,49
India,Haryana,Ambala,"Patti Mehar, Ambala - HSPCB",11-02-2024 13:00:00,30.379589,76.778328,PM2.5,70,152,100
India,Haryana,Bahadurgarh,"Arya Nagar, Bahadurgarh - HSPCB",11-02-2024 13:00:00,28.6701,76.9254,CO,38,58,49
India,Haryana,Bahadurgarh,"Arya Nagar, Bahadurgarh - HSPCB",11-02-2024 13:00:00,28.6701,76.9254,OZONE,37,49,44
India,Haryana,Ballabgarh,"Nathu Colony, Ballabgarh - HSPCB",11-02-2024 13:00:00,28.3419248,77.319699,PM2.5,65,356,285
India,Haryana,Ballabgarh,"Nathu Colony, Ballabgarh - HSPCB",11-02-2024 13:00:00,28.3419248,77.319699,OZONE,3,26,8
India,Haryana,Bhiwani,"H.B. Colony, Bhiwani - HSPCB",11-02-2024 13:00:00,28.806223,76.141105,PM2.5,94,251,163
India,Haryana,Bhiwani,"H.B. Colony, Bhiwani - HSPCB",11-02-2024 13:00:00,28.806223,76.141105,NH3,4,6,6
India,Haryana,Bhiwani,"H.B. Colony, Bhiwani - HSPCB",11-02-2024 13:00:00,28.806223,76.141105,CO,7,48,43
India,Haryana,Dharuhera,"Municipal Corporation Office, Dharuhera -  HSPCB",11-02-2024 13:00:00,28.206800,76.799700,PM10,109,358,248
India,Haryana,Dharuhera,"Municipal Corporation Office, Dharuhera -  HSPCB",11-02-2024 13:00:00,28.206800,76.799700,NH3,9,26,19
India,Haryana,Dharuhera,"Municipal Corporation Office, Dharuhera -  HSPCB",11-02-2024 13:00:00,28.206800,76.799700,SO2,5,47,12
India,Haryana,Faridabad,"New Industrial Town, Faridabad - HSPCB",11-02-2024 13:00:00,28.39072,77.30059,NH3,3,6,5
India,Haryana,Faridabad,"Sector 11, Faridabad - HSPCB",11-02-2024 13:00:00,28.376058,77.315741,NH3,6,6,6
India,Haryana,Faridabad,"Sector 11, Faridabad - HSPCB",11-02-2024 13:00:00,28.376058,77.315741,SO2,12,15,13
India,Haryana,Faridabad,"Sector 30, Faridabad - HSPCB",11-02-2024 13:00:00,28.4417,77.3217,OZONE,8,54,16
India,Haryana,Fatehabad,"Huda Sector, Fatehabad - HSPCB",11-02-2024 13:00:00,29.503664,75.467934,PM2.5,70,348,155
India,Haryana,Fatehabad,"Huda Sector, Fatehabad - HSPCB",11-02-2024 13:00:00,29.503664,75.467934,NO2,25,25,25
India,Haryana,Fatehabad,"Huda Sector, Fatehabad - HSPCB",11-02-2024 13:00:00,29.503664,75.467934,NH3,8,9,9
India,Haryana,Gurugram,"Sector-51, Gurugram - HSPCB",11-02-2024 13:00:00,28.4227,77.0667,NH3,7,14,9
India,Haryana,Gurugram,"Sector-51, Gurugram - HSPCB",11-02-2024 13:00:00,28.4227,77.0667,OZONE,27,67,46
India,Haryana,Gurugram,"Teri Gram, Gurugram - HSPCB",11-02-2024 13:00:00,28.4275,77.1465,PM10,NA,NA,NA
India,Haryana,Gurugram,"Vikas Sadan, Gurugram - HSPCB",11-02-2024 13:00:00,28.4501238,77.0263051,PM2.5,135,317,269
India,Haryana,Gurugram,"Vikas Sadan, Gurugram - HSPCB",11-02-2024 13:00:00,28.4501238,77.0263051,CO,54,138,101
India,Haryana,Hisar,"Urban Estate-II, Hisar - HSPCB",11-02-2024 13:00:00,29.140560,75.744941,PM2.5,67,270,158
India,Haryana,Hisar,"Urban Estate-II, Hisar - HSPCB",11-02-2024 13:00:00,29.140560,75.744941,SO2,NA,NA,NA
India,Haryana,Jind,"Police Lines, Jind - HSPCB",11-02-2024 13:00:00,29.307814,76.337619,PM2.5,112,200,159
India,Haryana,Kaithal,"Rishi Nagar, Kaithal - HSPCB",11-02-2024 13:00:00,29.8006,76.4155,PM10,108,139,123
India,Haryana,Kaithal,"Rishi Nagar, Kaithal - HSPCB",11-02-2024 13:00:00,29.8006,76.4155,OZONE,5,13,8
India,Haryana,Karnal,"Sector-12, Karnal - HSPCB",11-02-2024 13:00:00,29.695300,77.002700,PM10,104,133,113
India,Haryana,Kurukshetra,"Sector-7, Kurukshetra - HSPCB",11-02-2024 13:00:00,29.966942,76.875879,PM2.5,145,304,248
India,Haryana,Kurukshetra,"Sector-7, Kurukshetra - HSPCB",11-02-2024 13:00:00,29.966942,76.875879,PM10,119,170,148
India,Haryana,Kurukshetra,"Sector-7, Kurukshetra - HSPCB",11-02-2024 13:00:00,29.966942,76.875879,NH3,3,5,5
India,Haryana,Mandikhera,"General Hospital, Mandikhera - HSPCB",11-02-2024 13:00:00,27.9002,76.9938,PM2.5,25,74,45
India,Haryana,Mandikhera,"General Hospital, Mandikhera - HSPCB",11-02-2024 13:00:00,27.9002,76.9938,NO2,16,23,19
India,Haryana,Manesar,"Sector-2 IMT, Manesar - HSPCB",11-02-2024 13:00:00,28.360699,76.936090,PM2.5,117,328,254
India,Haryana,Manesar,"Sector-2 IMT, Manesar - HSPCB",11-02-2024 13:00:00,28.360699,76.936090,NO2,6,15,10
India,Haryana,Manesar,"Sector-2 IMT, Manesar - HSPCB",11-02-2024 13:00:00,28.360699,76.936090,NH3,1,5,2
India,Haryana,Manesar,"Sector-2 IMT, Manesar - HSPCB",11-02-2024 13:00:00,28.360699,76.936090,CO,24,68,47
India,Haryana,Narnaul,"Shastri Nagar, Narnaul - HSPCB",11-02-2024 13:00:00,28.060249,76.113115,PM10,25,131,76
India,Haryana,Palwal,"Shyam Nagar, Palwal - HSPCB",11-02-2024 13:00:00,28.1485564,77.3320667,PM10,NA,NA,NA
India,Haryana,Palwal,"Shyam Nagar, Palwal - HSPCB",11-02-2024 13:00:00,28.1485564,77.3320667,OZONE,NA,NA,NA
India,Haryana,Panipat,"Sector-18, Panipat - HSPCB",11-02-2024 13:00:00,29.497973,76.993331,SO2,NA,NA,NA
India,Haryana,Rohtak,"MD University, Rohtak - HSPCB",11-02-2024 13:00:00,28.52123,76.37138,SO2,5,8,7
India,Haryana,Rohtak,"MD University, Rohtak - HSPCB",11-02-2024 13:00:00,28.52123,76.37138,OZONE,45,53,50
India,Haryana,Sirsa,"F-Block, Sirsa - HSPCB",11-02-2024 13:00:00,29.536400,75.015800,NO2,10,10,10
India,Haryana,Sonipat,"Murthal, Sonipat - HSPCB",11-02-2024 13:00:00,29.027200,77.062100,PM2.5,188,310,239
India,Haryana,Yamuna Nagar,"Gobind Pura, Yamuna Nagar - HSPCB",11-02-2024 13:00:00,30.1480566,77.2893471,PM2.5,124,303,181
India,Himachal Pradesh,Baddi,"HIMUDA Complex Phase-1, Baddi - HPPCB",11-02-2024 13:00:00,30.943887,76.801991,OZONE,16,140,49
India,Jharkhand,Dhanbad,"Kalakusuma, Dhanbad - DMC",11-02-2024 13:00:00,23.811548,86.481238,SO2,35,36,35
India,Jharkhand,Dhanbad,"Sardar Patel Nagar, Dhanbad - JSPCB",11-02-2024 13:00:00,23.80569,86.44268,PM10,61,169,107
India,Jharkhand,Pathardih,"Mohalbani Ghat, Pathardih - DMC",11-02-2024 13:00:00,23.669880,86.411725,NO2,14,114,69
India,Karnataka,Bagalkot,"Vidayagiri, Bagalkot - KSPCB",11-02-2024 13:00:00,16.172806,75.659694,PM2.5,20,30,29
India,Karnataka,Belgaum,"Ramteerth Nagar, Belgaum - KSPCB",11-02-2024 13:00:00,15.888653,74.541751,PM10,42,92,68
India,Karnataka,Belgaum,"Ramteerth Nagar, Belgaum - KSPCB",11-02-2024 13:00:00,15.888653,74.541751,CO,40,62,57
India,Karnataka,Belgaum,"Ramteerth Nagar, Belgaum - KSPCB",11-02-2024 13:00:00,15.888653,74.541751,OZONE,19,20,20
India,Karnataka,Bengaluru,"BTM Layout, Bengaluru - CPCB",11-02-2024 13:00:00,12.9135218,77.5950804,SO2,NA,NA,NA
India,Karnataka,Bengaluru,"Bapuji Nagar, Bengaluru - KSPCB",11-02-2024 13:00:00,12.951913,77.539784,PM2.5,86,128,102
India,Karnataka,Bengaluru,"City Railway Station, Bengaluru - KSPCB",11-02-2024 13:00:00,12.9756843,77.5660749,CO,52,100,68
India,Karnataka,Bengaluru,"Hebbal, Bengaluru - KSPCB",11-02-2024 13:00:00,13.029152,77.585901,PM2.5,46,141,86
India,Karnataka,Bengaluru,"Hombegowda Nagar, Bengaluru - KSPCB",11-02-2024 13:00:00,12.938539,77.590100,CO,17,20,18
India,Karnataka,Bengaluru,"Jayanagar 5th Block, Bengaluru - KSPCB",11-02-2024 13:00:00,12.920984,77.584908,PM10,78,115,98
India,Karnataka,Bengaluru,"Jayanagar 5th Block, Bengaluru - KSPCB",11-02-2024 13:00:00,12.920984,77.584908,NH3,2,5,4
India,Karnataka,Bengaluru,"Jigani, Bengaluru - KSPCB",11-02-2024 13:00:00,12.7816279,77.6299145,NH3,3,3,3
India,Karnataka,Bengaluru,"Jigani, Bengaluru - KSPCB",11-02-2024 13:00:00,12.7816279,77.6299145,SO2,15,15,15
India,Karnataka,Bengaluru,"Kasturi Nagar, Bengaluru - KSPCB",11-02-2024 13:00:00,13.003872,77.664217,SO2,10,10,10
India,Karnataka,Bengaluru,"Peenya, Bengaluru - CPCB",11-02-2024 13:00:00,13.0270199,77.494094,PM2.5,56,177,109
India,Karnataka,Bengaluru,"Peenya, Bengaluru - CPCB",11-02-2024 13:00:00,13.0270199,77.494094,NH3,3,3,3
India,Karnataka,Bengaluru,"Peenya, Bengaluru - CPCB",11-02-2024 13:00:00,13.0270199,77.494094,SO2,13,19,16
India,Karnataka,Bengaluru,"Peenya, Bengaluru - CPCB",11-02-2024 13:00:00,13.0270199,77.494094,CO,31,46,38
India,Karnataka,Bengaluru,"Peenya, Bengaluru - CPCB",11-02-2024 13:00:00,13.0270199,77.494094,OZONE,45,83,57
India,Karnataka,Bengaluru,"Sanegurava Halli, Bengaluru - KSPCB",11-02-2024 13:00:00,12.990328,77.5431385,PM10,24,55,32
India,Karnataka,Bengaluru,"Sanegurava Halli, Bengaluru - KSPCB",11-02-2024 13:00:00,12.990328,77.5431385,CO,8,26,18
India,Karnataka,Bengaluru,"Shivapura_Peenya, Bengaluru - KSPCB",11-02-2024 13:00:00,13.0246342,77.5080115,NH3,4,4,4
India,Karnataka,Bengaluru,"Silk Board, Bengaluru - KSPCB",11-02-2024 13:00:00,12.917348,77.622813,CO,26,39,33
India,Karnataka,Chikkaballapur,"Chikkaballapur Rural, Chikkaballapur - KSPCB",11-02-2024 13:00:00,13.428828,77.731418,PM2.5,62,129,99
India,Karnataka,Chikkaballapur,"Chikkaballapur Rural, Chikkaballapur - KSPCB",11-02-2024 13:00:00,13.428828,77.731418,NO2,2,6,4
India,Karnataka,Chikkaballapur,"Chikkaballapur Rural, Chikkaballapur - KSPCB",11-02-2024 13:00:00,13.428828,77.731418,OZONE,25,27,26
India,Karnataka,Chikkamagaluru,"Kalyana Nagara, Chikkamagaluru - KSPCB",11-02-2024 13:00:00,13.328028,75.797056,NO2,17,31,24
India,Karnataka,Gadag,"Panchal Nagar, Gadag - KSPCB",11-02-2024 13:00:00,15.411456,75.638133,PM2.5,35,59,44
India,Karnataka,Haveri,"Ashwini Nagar, Haveri - KSPCB",11-02-2024 13:00:00,14.791800,75.389600,OZONE,18,28,18
India,Karnataka,Hubballi,"Lingaraj Nagar, Hubballi - KSPCB",11-02-2024 13:00:00,15.3714823,75.1160168,NH3,2,2,2
India,Karnataka,Kalaburagi,"Lal Bahadur Shastri Nagar, Kalaburagi - KSPCB",11-02-2024 13:00:00,17.321993,76.822628,PM10,7,44,21
India,Karnataka,Kalaburagi,"Lal Bahadur Shastri Nagar, Kalaburagi - KSPCB",11-02-2024 13:00:00,17.321993,76.822628,NH3,2,2,2
India,Karnataka,Kalaburagi,"Lal Bahadur Shastri Nagar, Kalaburagi - KSPCB",11-02-2024 13:00:00,17.321993,76.822628,CO,36,46,37
India,Karnataka,Karwar,"KHB Colony, Karwar - KSPCB",11-02-2024 13:00:00,14.816666,74.141003,SO2,18,19,19
India,Karnataka,Kolar,"Tamaka Ind. Area, Kolar - KSPCB",11-02-2024 13:00:00,13.1276288,78.1570122,SO2,9,10,9
India,Karnataka,Koppal,"Diwator Nagar, Koppal - KSPCB",11-02-2024 13:00:00,15.347630,76.181767,PM2.5,27,57,43
India,Karnataka,Madikeri,"Stuart Hill, Madikeri - KSPCB",11-02-2024 13:00:00,12.415911,75.735050,PM10,30,56,38
India,Karnataka,Mangalore,"Kadri, Mangalore - KSPCB",11-02-2024 13:00:00,12.889250,74.853000,CO,42,46,43
India,Karnataka,Mysuru,"Hebbal 1st Stage, Mysuru - KSPCB",11-02-2024 13:00:00,12.21041,76.37376,PM2.5,36,53,42
India,Karnataka,Ramanagara,"Vijay Nagar, Ramanagara - KSPCB",11-02-2024 13:00:00,12.733409,77.298051,CO,5,19,9
India,Karnataka,Shivamogga,"Vinoba Nagara, Shivamogga - KSPCB",11-02-2024 13:00:00,13.940000,75.555917,PM10,49,88,63
India,Karnataka,Shivamogga,"Vinoba Nagara, Shivamogga - KSPCB",11-02-2024 13:00:00,13.940000,75.555917,NO2,9,17,13
India,Karnataka,Tumakuru,"Thimmalapura, Tumakuru - KSPCB",11-02-2024 13:00:00,13.377516,77.099072,SO2,8,11,9
India,Karnataka,Vijayapura,"Ibrahimpur, Vijayapura - KSPCB",11-02-2024 13:00:00,16.802639,75.722694,PM2.5,25,31,30
India,Karnataka,Vijayapura,"Ibrahimpur, Vijayapura - KSPCB",11-02-2024 13:00:00,16.802639,75.722694,SO2,1,40,12
India,Karnataka,Yadgir,"Collector Office, Yadgir - KSPCB",11-02-2024 13:00:00,16.7602,77.1428,NH3,1,1,1
India,Kerala,Eloor,"Udyogamandal, Eloor - Kerala PCB",11-02-2024 13:00:00,10.073232,76.302765,PM2.5,41,60,50
India,Kerala,Eloor,"Udyogamandal, Eloor - Kerala PCB",11-02-2024 13:00:00,10.073232,76.302765,OZONE,10,28,12
India,Kerala,Kannur,"Thavakkara, Kannur - Kerala PCB",11-02-2024 13:00:00,11.875000,75.373200,PM10,59,69,63
India,Kerala,Kannur,"Thavakkara, Kannur - Kerala PCB",11-02-2024 13:00:00,11.875000,75.373200,NO2,6,7,6
India,Kerala,Kochi,"Vyttila, Kochi - Kerala PCB",11-02-2024 13:00:00,9.969447,76.321186,SO2,NA,NA,NA
