country,state,city,station,last_update,latitude,longitude,pollutant_id,pollutant_min,pollutant_max,pollutant_avg
India,Andhra_Pradesh,Amaravati,"Secretariat, Amaravati - APPCB",29-07-2024 21:00:00,16.5150833,80.5181667,PM2.5,NA,NA,NA
India,Andhra_Pradesh,Amaravati,"Secretariat, Amaravati - APPCB",29-07-2024 21:00:00,16.5150833,80.5181667,PM10,NA,NA,NA
India,Andhra_Pradesh,Amaravati,"Secretariat, Amaravati - APPCB",29-07-2024 21:00:00,16.5150833,80.5181667,SO2,NA,NA,NA
India,Andhra_Pradesh,Amaravati,"Secretariat, Amaravati - APPCB",29-07-2024 21:00:00,16.5150833,80.5181667,OZONE,11,34,27
India,Andhra_Pradesh,Anantapur,"Gulzarpet, Anantapur - APPCB",29-07-2024 21:00:00,14.675886,77.593027,PM2.5,37,63,50
India,Andhra_Pradesh,Kadapa,"Yerramukkapalli, Kadapa - APPCB",29-07-2024 21:00:00,14.465052,78.824187,SO2,2,3,2
India,Andhra_Pradesh,Kadapa,"Yerramukkapalli, Kadapa - APPCB",29-07-2024 21:00:00,14.465052,78.824187,OZONE,4,13,8
India,Andhra_Pradesh,Tirupati,"Tirumala, Tirupati - APPCB",29-07-2024 21:00:00,13.67,79.35,NH3,1,2,1
India,Andhra_Pradesh,Tirupati,"Tirumala, Tirupati - APPCB",29-07-2024 21:00:00,13.67,79.35,OZONE,11,24,20
India,Andhra_Pradesh,Tirupati,"Vaikuntapuram, Tirupati - APPCB",29-07-2024 21:00:00,13.615387,79.409230,NO2,16,32,19
India,Andhra_Pradesh,Tirupati,"Vaikuntapuram, Tirupati - APPCB",29-07-2024 21:00:00,13.615387,79.409230,CO,12,39,22
India,Andhra_Pradesh,Tirupati,"Vaikuntapuram, Tirupati - APPCB",29-07-2024 21:00:00,13.615387,79.409230,OZONE,25,49,44
India,Andhra_Pradesh,Vijayawada,"HB Colony, Vijayawada - APPCB",29-07-2024 21:00:00,16.536107,80.594233,NO2,5,16,10
India,Andhra_Pradesh,Vijayawada,"HB Colony, Vijayawada - APPCB",29-07-2024 21:00:00,16.536107,80.594233,NH3,4,5,4
India,Andhra_Pradesh,Vijayawada,"HB Colony, Vijayawada - APPCB",29-07-2024 21:00:00,16.536107,80.594233,OZONE,8,23,17
India,Andhra_Pradesh,Vijayawada,"Kanuru, Vijayawada - APPCB",29-07-2024 21:00:00,16.486692,80.699436,PM2.5,33,44,37
India,Andhra_Pradesh,Vijayawada,"Kanuru, Vijayawada - APPCB",29-07-2024 21:00:00,16.486692,80.699436,NH3,4,4,4
India,Andhra_Pradesh,Vijayawada,"Rajiv Gandhi Park, Vijayawada - APPCB",29-07-2024 21:00:00,16.509717,80.612222,PM2.5,37,65,51
India,Andhra_Pradesh,Vijayawada,"Rajiv Gandhi Park, Vijayawada - APPCB",29-07-2024 21:00:00,16.509717,80.612222,OZONE,27,27,27
India,Andhra_Pradesh,Vijayawada,"Rajiv Nagar, Vijayawada - APPCB",29-07-2024 21:00:00,16.554731,80.649110,PM10,30,35,31
India,Andhra_Pradesh,Vijayawada,"Rajiv Nagar, Vijayawada - APPCB",29-07-2024 21:00:00,16.554731,80.649110,NO2,10,10,10
India,Andhra_Pradesh,Vijayawada,"Rajiv Nagar, Vijayawada - APPCB",29-07-2024 21:00:00,16.554731,80.649110,NH3,1,2,2
India,Andhra_Pradesh,Visakhapatnam,"GVM Corporation, Visakhapatnam - APPCB",29-07-2024 21:00:00,17.72,83.3,NH3,3,6,3
India,Arunachal_Pradesh,Naharlagun,"Naharlagun, Naharlagun - APSPCB",29-07-2024 21:00:00,27.103358,93.679645,SO2,NA,NA,NA
India,Assam,Guwahati,"IITG, Guwahati - PCBA",29-07-2024 21:00:00,26.2028636,91.70046436,SO2,14,16,14
India,Assam,Guwahati,"LGBI Airport, Guwahati - PCBA",29-07-2024 21:00:00,26.10887,91.589544,PM10,4,430,66
India,Assam,Guwahati,"LGBI Airport, Guwahati - PCBA",29-07-2024 21:00:00,26.10887,91.589544,CO,39,56,44
India,Assam,Guwahati,"LGBI Airport, Guwahati - PCBA",29-07-2024 21:00:00,26.10887,91.589544,OZONE,12,13,12
India,Assam,Guwahati,"Pan Bazaar, Guwahati - PCBA",29-07-2024 21:00:00,26.187500,91.744194,NO2,NA,NA,NA
India,Assam,Nagaon,"Christianpatty, Nagaon - PCBA",29-07-2024 21:00:00,26.349082,92.68449,SO2,10,12,10
India,Assam,Nalbari,"Bata Chowk, Nalbari - PCBA",29-07-2024 21:00:00,26.446912,91.439057,NO2,11,21,16
India,Assam,Nalbari,"Bata Chowk, Nalbari - PCBA",29-07-2024 21:00:00,26.446912,91.439057,CO,14,76,36
India,Assam,Silchar,"Tarapur, Silchar - PCBA",29-07-2024 21:00:00,24.82827,92.79525,CO,19,36,21
India,Bihar,Araria,"Kharahiya Basti, Araria - BSPCB",29-07-2024 21:00:00,26.146529,87.454184,OZONE,1,30,16
India,Bihar,Arrah,"New DM Office, Arrah - BSPCB",29-07-2024 21:00:00,25.5626095,84.663264,PM2.5,NA,NA,NA
India,Bihar,Arrah,"New DM Office, Arrah - BSPCB",29-07-2024 21:00:00,25.5626095,84.663264,NH3,2,2,2
India,Bihar,Aurangabad,"Gurdeo Nagar, Aurangabad - BSPCB",29-07-2024 21:00:00,24.75746,84.366208,PM2.5,27,500,84
India,Bihar,Bhagalpur,"DM Office_Kachari Chowk, Bhagalpur - BSPCB",29-07-2024 21:00:00,25.251013,86.989001,PM10,38,109,60
India,Bihar,Bhagalpur,"DM Office_Kachari Chowk, Bhagalpur - BSPCB",29-07-2024 21:00:00,25.251013,86.989001,CO,36,84,66
India,Bihar,Bhagalpur,"Mayaganj, Bhagalpur - BSPCB",29-07-2024 21:00:00,25.265194,87.012947,PM10,51,310,156
India,Bihar,Bhagalpur,"Mayaganj, Bhagalpur - BSPCB",29-07-2024 21:00:00,25.265194,87.012947,OZONE,10,21,17
India,Bihar,Bihar Sharif,"D M Colony, Bihar Sharif - BSPCB",29-07-2024 21:00:00,25.204762,85.514960,PM10,NA,NA,NA
India,Bihar,Buxar,"Charitra Van, Buxar - BSPCB (Formerly known as Central Jail)",29-07-2024 21:00:00,25.567520,83.966379,NO2,3,7,5
India,Bihar,Buxar,"Charitra Van, Buxar - BSPCB (Formerly known as Central Jail)",29-07-2024 21:00:00,25.567520,83.966379,CO,42,52,45
India,Bihar,Buxar,"Charitra Van, Buxar - BSPCB (Formerly known as Central Jail)",29-07-2024 21:00:00,25.567520,83.966379,OZONE,8,14,10
India,Bihar,Chhapra,"Darshan Nagar, Chhapra - BSPCB",29-07-2024 21:00:00,25.7808257,84.7446768,OZONE,12,38,25
India,Bihar,Gaya,"Collectorate, Gaya - BSPCB",29-07-2024 21:00:00,24.7955,84.9994,NO2,NA,NA,NA
India,Bihar,Gaya,"Collectorate, Gaya - BSPCB",29-07-2024 21:00:00,24.7955,84.9994,CO,58,100,94
India,Bihar,Gaya,"Collectorate, Gaya - BSPCB",29-07-2024 21:00:00,24.7955,84.9994,OZONE,19,28,21
India,Bihar,Gaya,"Kareemganj, Gaya - BSPCB",29-07-2024 21:00:00,24.792403,84.992416,PM2.5,NA,NA,NA
India,Bihar,Gaya,"SFTI Kusdihra, Gaya - BSPCB",29-07-2024 21:00:00,24.762518,84.982348,PM2.5,2,30,18
India,Bihar,Gaya,"SFTI Kusdihra, Gaya - BSPCB",29-07-2024 21:00:00,24.762518,84.982348,SO2,7,10,8
India,Bihar,Hajipur,"Industrial Area, Hajipur - BSPCB",29-07-2024 21:00:00,25.697189,85.245900,PM2.5,36,91,64
India,Bihar,Hajipur,"Industrial Area, Hajipur - BSPCB",29-07-2024 21:00:00,25.697189,85.245900,PM10,52,97,68
India,Bihar,Katihar,"Mirchaibari, Katihar - BSPCB",29-07-2024 21:00:00,25.560083,87.553265,PM10,16,89,39
India,Bihar,Katihar,"Mirchaibari, Katihar - BSPCB",29-07-2024 21:00:00,25.560083,87.553265,SO2,5,13,10
India,Bihar,Kishanganj,"SDM Office_Khagra, Kishanganj - BSPCB",29-07-2024 21:00:00,26.0881305,87.93840336,PM2.5,NA,NA,NA
India,Bihar,Kishanganj,"SDM Office_Khagra, Kishanganj - BSPCB",29-07-2024 21:00:00,26.0881305,87.93840336,SO2,3,24,12
India,Bihar,Manguraha,"Forest Rest House, Manguraha - BSPCB",29-07-2024 21:00:00,27.308328,84.531742,PM10,2,16,9
India,Bihar,Manguraha,"Forest Rest House, Manguraha - BSPCB",29-07-2024 21:00:00,27.308328,84.531742,SO2,2,4,2
India,Bihar,Manguraha,"Forest Rest House, Manguraha - BSPCB",29-07-2024 21:00:00,27.308328,84.531742,CO,23,56,30
India,Bihar,Motihari,"Gandak Colony, Motihari - BSPCB",29-07-2024 21:00:00,26.63086,84.90051,PM10,NA,NA,NA
India,Bihar,Munger,"Town Hall, Munger - BSPCB",29-07-2024 21:00:00,25.376776,86.471523,SO2,12,44,34
India,Bihar,Muzaffarpur,"Buddha Colony, Muzaffarpur - BSPCB",29-07-2024 21:00:00,26.11442,85.39813,OZONE,40,99,70
India,Bihar,Muzaffarpur,"MIT-Daudpur Kothi, Muzaffarpur - BSPCB",29-07-2024 21:00:00,26.1403345,85.3650192,NH3,2,4,2
India,Bihar,Muzaffarpur,"Muzaffarpur Collectorate, Muzaffarpur - BSPCB",29-07-2024 21:00:00,26.1209,85.3647,NO2,33,36,34
India,Bihar,Muzaffarpur,"Muzaffarpur Collectorate, Muzaffarpur - BSPCB",29-07-2024 21:00:00,26.1209,85.3647,SO2,6,19,10
India,Bihar,Patna,"DRM Office Danapur, Patna - BSPCB",29-07-2024 21:00:00,25.586562,85.043586,PM10,45,62,53
India,Bihar,Patna,"DRM Office Danapur, Patna - BSPCB",29-07-2024 21:00:00,25.586562,85.043586,OZONE,7,41,14
India,Bihar,Patna,"Govt. High School Shikarpur, Patna - BSPCB",29-07-2024 21:00:00,25.592539,85.227158,PM10,63,96,79
India,Bihar,Patna,"Govt. High School Shikarpur, Patna - BSPCB",29-07-2024 21:00:00,25.592539,85.227158,NO2,32,35,33
India,Bihar,Patna,"Muradpur, Patna - BSPCB",29-07-2024 21:00:00,25.619651,85.147382,PM2.5,48,100,69
India,Bihar,Patna,"Rajbansi Nagar, Patna - BSPCB",29-07-2024 21:00:00,25.599486,85.113666,SO2,1,11,3
India,Bihar,Patna,"Rajbansi Nagar, Patna - BSPCB",29-07-2024 21:00:00,25.599486,85.113666,OZONE,10,36,15
India,Bihar,Rajgir,"Dangi Tola, Rajgir - BSPCB",29-07-2024 21:00:00,25.03280,85.41948,PM10,NA,NA,NA
India,Bihar,Samastipur,"DM Office_Kasipur, Samastipur - BSPCB",29-07-2024 21:00:00,25.859655,85.77944,SO2,14,19,16
India,Bihar,Sasaram,"Dada Peer, Sasaram - BSPCB",29-07-2024 21:00:00,24.952822,84.002396,NH3,2,2,2
India,Bihar,Sasaram,"Dada Peer, Sasaram - BSPCB",29-07-2024 21:00:00,24.952822,84.002396,CO,27,42,31
India,Bihar,Siwan,"Chitragupta Nagar, Siwan - BSPCB",29-07-2024 21:00:00,26.2271665,84.3570427,NO2,17,73,40
India,Chandigarh,Chandigarh,"Sector 22, Chandigarh - CPCC",29-07-2024 21:00:00,30.735567,76.775714,CO,22,68,39
India,Chandigarh,Chandigarh,"Sector 22, Chandigarh - CPCC",29-07-2024 21:00:00,30.735567,76.775714,OZONE,8,65,33
India,Chandigarh,Chandigarh,"Sector-25, Chandigarh - CPCC",29-07-2024 21:00:00,30.751462,76.762879,SO2,NA,NA,NA
India,Chandigarh,Chandigarh,"Sector-53, Chandigarh - CPCC",29-07-2024 21:00:00,30.719859,76.738637,OZONE,1,40,17
India,Chhattisgarh,Bhilai,"32Bungalows, Bhilai - CECB",29-07-2024 21:00:00,21.194815,81.314770,PM10,6,42,18
India,Chhattisgarh,Bhilai,"32Bungalows, Bhilai - CECB",29-07-2024 21:00:00,21.194815,81.314770,SO2,9,11,10
India,Chhattisgarh,Bhilai,"Civic Center, Bhilai - Bhilai Steel Plant",29-07-2024 21:00:00,21.185571,81.343175,NO2,7,8,8
India,Chhattisgarh,Bhilai,"Civic Center, Bhilai - Bhilai Steel Plant",29-07-2024 21:00:00,21.185571,81.343175,NH3,3,4,4
India,Chhattisgarh,Bilaspur,"Mangala, Bilaspur - NTPC",29-07-2024 21:00:00,22.08815,82.13737,SO2,10,16,13
India,Chhattisgarh,Bilaspur,"Mangala, Bilaspur - NTPC",29-07-2024 21:00:00,22.08815,82.13737,CO,38,45,42
India,Chhattisgarh,Chhal,"Nawapara SECL Colony, Chhal - CECB",29-07-2024 21:00:00,22.118125,83.140608,NO2,18,39,27
India,Chhattisgarh,Chhal,"Nawapara SECL Colony, Chhal - CECB",29-07-2024 21:00:00,22.118125,83.140608,NH3,2,2,2
India,Chhattisgarh,Korba,"Rampur, Korba - CECB",29-07-2024 21:00:00,22.368195,82.746431,PM10,14,39,24
India,Chhattisgarh,Korba,"Urja Nagar, Korba - CECB",29-07-2024 21:00:00,22.348441,82.549611,PM2.5,7,8,8
India,Chhattisgarh,Kunjemura,"OP Jindal School, Kunjemura - CECB",29-07-2024 21:00:00,22.126650,83.483212,PM2.5,7,16,11
India,Chhattisgarh,Kunjemura,"OP Jindal School, Kunjemura - CECB",29-07-2024 21:00:00,22.126650,83.483212,OZONE,6,9,7
India,Chhattisgarh,Raipur,"AIIMS, Raipur - CECB",29-07-2024 21:00:00,21.258815,81.578979,PM10,2,50,17
India,Chhattisgarh,Raipur,"AIIMS, Raipur - CECB",29-07-2024 21:00:00,21.258815,81.578979,SO2,2,8,4
India,Chhattisgarh,Raipur,"AIIMS, Raipur - CECB",29-07-2024 21:00:00,21.258815,81.578979,CO,12,25,22
India,Chhattisgarh,Raipur,"Bhatagaon New ISBT, Raipur - CECB",29-07-2024 21:00:00,21.219665,81.630094,PM10,2,82,27
India,Chhattisgarh,Raipur,"Siltara Phase-II, Raipur - CECB",29-07-2024 21:00:00,21.371751,81.664929,PM10,NA,NA,NA
India,Chhattisgarh,Raipur,"Siltara Phase-II, Raipur - CECB",29-07-2024 21:00:00,21.371751,81.664929,SO2,7,9,8
India,Delhi,Delhi,"Alipur, Delhi - DPCC",29-07-2024 21:00:00,28.815329,77.153010,NH3,6,10,8
India,Delhi,Delhi,"Alipur, Delhi - DPCC",29-07-2024 21:00:00,28.815329,77.153010,OZONE,2,35,26
India,Delhi,Delhi,"Ashok Vihar, Delhi - DPCC",29-07-2024 21:00:00,28.695381,77.181665,PM2.5,23,73,43
India,Delhi,Delhi,"Ashok Vihar, Delhi - DPCC",29-07-2024 21:00:00,28.695381,77.181665,NH3,10,18,15
India,Delhi,Delhi,"Aya Nagar, Delhi - IMD",29-07-2024 21:00:00,28.4706914,77.1099364,PM2.5,2,339,96
India,Delhi,Delhi,"Aya Nagar, Delhi - IMD",29-07-2024 21:00:00,28.4706914,77.1099364,OZONE,2,84,34
India,Delhi,Delhi,"Bawana, Delhi - DPCC",29-07-2024 21:00:00,28.776200,77.051074,SO2,10,17,12
India,Delhi,Delhi,"Chandni Chowk, Delhi - IITM",29-07-2024 21:00:00,28.656756,77.227234,NO2,70,89,81
India,Delhi,Delhi,"Chandni Chowk, Delhi - IITM",29-07-2024 21:00:00,28.656756,77.227234,NH3,9,14,11
India,Delhi,Delhi,"Dr. Karni Singh Shooting Range, Delhi - DPCC",29-07-2024 21:00:00,28.498571,77.264840,PM2.5,23,90,52
India,Delhi,Delhi,"Dr. Karni Singh Shooting Range, Delhi - DPCC",29-07-2024 21:00:00,28.498571,77.264840,CO,30,58,39
India,Delhi,Delhi,"Dwarka-Sector 8, Delhi - DPCC ",29-07-2024 21:00:00,28.5710274,77.0719006,PM2.5,27,70,52
India,Delhi,Delhi,"IGI Airport (T3), Delhi - IMD",29-07-2024 21:00:00,28.5627763,77.1180053,PM10,NA,NA,NA
India,Delhi,Delhi,"ITO, Delhi - CPCB",29-07-2024 21:00:00,28.628624,77.241060,PM2.5,84,142,106
India,Delhi,Delhi,"ITO, Delhi - CPCB",29-07-2024 21:00:00,28.628624,77.241060,NH3,17,100,41
India,Delhi,Delhi,"Jahangirpuri, Delhi - DPCC",29-07-2024 21:00:00,28.732820,77.170633,PM10,51,130,91
India,Delhi,Delhi,"Jahangirpuri, Delhi - DPCC",29-07-2024 21:00:00,28.732820,77.170633,NO2,6,52,22
India,Delhi,Delhi,"Jawaharlal Nehru Stadium, Delhi - DPCC",29-07-2024 21:00:00,28.580280,77.233829,PM2.5,18,45,31
India,Delhi,Delhi,"Jawaharlal Nehru Stadium, Delhi - DPCC",29-07-2024 21:00:00,28.580280,77.233829,SO2,3,10,5
India,Delhi,Delhi,"Jawaharlal Nehru Stadium, Delhi - DPCC",29-07-2024 21:00:00,28.580280,77.233829,CO,34,76,53
India,Delhi,Delhi,"Mandir Marg, Delhi - DPCC",29-07-2024 21:00:00,28.636429,77.201067,PM2.5,NA,NA,NA
India,Delhi,Delhi,"Mandir Marg, Delhi - DPCC",29-07-2024 21:00:00,28.636429,77.201067,NO2,48,67,57
India,Delhi,Delhi,"Mundka, Delhi - DPCC",29-07-2024 21:00:00,28.684678,77.076574,SO2,11,22,14
India,Delhi,Delhi,"NSIT Dwarka, Delhi - CPCB",29-07-2024 21:00:00,28.60909,77.0325413,PM10,53,82,72
India,Delhi,Delhi,"Narela, Delhi - DPCC",29-07-2024 21:00:00,28.822836,77.101981,OZONE,109,179,137
India,Delhi,Delhi,"Nehru Nagar, Delhi - DPCC",29-07-2024 21:00:00,28.567890,77.250515,OZONE,19,87,70
India,Delhi,Delhi,"North Campus, DU, Delhi - IMD",29-07-2024 21:00:00,28.6573814,77.1585447,PM10,NA,NA,NA
India,Delhi,Delhi,"Okhla Phase-2, Delhi - DPCC",29-07-2024 21:00:00,28.530785,77.271255,NO2,22,45,30
India,Delhi,Delhi,"Okhla Phase-2, Delhi - DPCC",29-07-2024 21:00:00,28.530785,77.271255,OZONE,NA,NA,NA
India,Delhi,Delhi,"Patparganj, Delhi - DPCC",29-07-2024 21:00:00,28.623763,77.287209,PM10,46,101,74
India,Delhi,Delhi,"Patparganj, Delhi - DPCC",29-07-2024 21:00:00,28.623763,77.287209,NO2,10,38,19
India,Delhi,Delhi,"Patparganj, Delhi - DPCC",29-07-2024 21:00:00,28.623763,77.287209,SO2,NA,NA,NA
India,Delhi,Delhi,"Punjabi Bagh, Delhi - DPCC",29-07-2024 21:00:00,28.674045,77.131023,PM2.5,20,127,59
India,Delhi,Delhi,"Punjabi Bagh, Delhi - DPCC",29-07-2024 21:00:00,28.674045,77.131023,NO2,8,38,21
India,Delhi,Delhi,"Punjabi Bagh, Delhi - DPCC",29-07-2024 21:00:00,28.674045,77.131023,NH3,4,16,8
India,Delhi,Delhi,"Punjabi Bagh, Delhi - DPCC",29-07-2024 21:00:00,28.674045,77.131023,SO2,NA,NA,NA
India,Delhi,Delhi,"Punjabi Bagh, Delhi - DPCC",29-07-2024 21:00:00,28.674045,77.131023,OZONE,6,52,43
India,Delhi,Delhi,"Pusa, Delhi - IMD",29-07-2024 21:00:00,28.636110,77.173332,PM10,15,137,53
India,Delhi,Delhi,"R K Puram, Delhi - DPCC",29-07-2024 21:00:00,28.563262,77.186937,SO2,1,5,2
India,Delhi,Delhi,"Rohini, Delhi - DPCC",29-07-2024 21:00:00,28.732528,77.119920,PM2.5,13,78,47
India,Delhi,Delhi,"Shadipur, Delhi - CPCB",29-07-2024 21:00:00,28.6514781,77.1473105,CO,12,62,39
India,Delhi,Delhi,"Sirifort, Delhi - CPCB",29-07-2024 21:00:00,28.5504249,77.2159377,CO,36,107,57
India,Delhi,Delhi,"Sonia Vihar, Delhi - DPCC",29-07-2024 21:00:00,28.710508,77.249485,PM2.5,32,133,55
India,Delhi,Delhi,"Sonia Vihar, Delhi - DPCC",29-07-2024 21:00:00,28.710508,77.249485,NH3,9,13,12
India,Delhi,Delhi,"Sonia Vihar, Delhi - DPCC",29-07-2024 21:00:00,28.710508,77.249485,CO,31,66,44
India,Delhi,Delhi,"Sri Aurobindo Marg, Delhi - DPCC",29-07-2024 21:00:00,28.531346,77.190156,PM2.5,28,68,43
India,Delhi,Delhi,"Sri Aurobindo Marg, Delhi - DPCC",29-07-2024 21:00:00,28.531346,77.190156,PM10,54,92,71
India,Delhi,Delhi,"Sri Aurobindo Marg, Delhi - DPCC",29-07-2024 21:00:00,28.531346,77.190156,SO2,4,20,12
India,Delhi,Delhi,"Sri Aurobindo Marg, Delhi - DPCC",29-07-2024 21:00:00,28.531346,77.190156,CO,36,80,57
India,Delhi,Delhi,"Vivek Vihar, Delhi - DPCC",29-07-2024 21:00:00,28.672342,77.315260,CO,46,68,56
India,Delhi,Delhi,"Vivek Vihar, Delhi - DPCC",29-07-2024 21:00:00,28.672342,77.315260,OZONE,8,29,24
India,Delhi,Delhi,"Wazirpur, Delhi - DPCC",29-07-2024 21:00:00,28.699793,77.165453,NH3,9,12,10
India,Delhi,Delhi,"Wazirpur, Delhi - DPCC",29-07-2024 21:00:00,28.699793,77.165453,SO2,4,7,6
India,Delhi,Delhi,"Wazirpur, Delhi - DPCC",29-07-2024 21:00:00,28.699793,77.165453,OZONE,1,27,7
India,Gujarat,Ahmedabad,"Chandkheda, Ahmedabad - IITM",29-07-2024 21:00:00,23.107969,72.574648,NO2,18,33,27
India,Gujarat,Ahmedabad,"Gyaspur, Ahmedabad - IITM",29-07-2024 21:00:00,22.977134,72.553024,SO2,13,18,16
India,Gujarat,Ahmedabad,"Maninagar, Ahmedabad - GPCB",29-07-2024 21:00:00,23.002657,72.591912,CO,26,86,57
India,Gujarat,Ahmedabad,"Rakhial, Ahmedabad - IITM",29-07-2024 21:00:00,23.016834,72.625775,NO2,5,24,11
India,Gujarat,Ahmedabad,"Rakhial, Ahmedabad - IITM",29-07-2024 21:00:00,23.016834,72.625775,NH3,3,5,4
India,Gujarat,Ahmedabad,"Rakhial, Ahmedabad - IITM",29-07-2024 21:00:00,23.016834,72.625775,OZONE,6,28,22
India,Gujarat,Ahmedabad,"SVPI Airport Hansol, Ahmedabad - IITM",29-07-2024 21:00:00,23.076793,72.627874,PM2.5,48,149,93
India,Gujarat,Ahmedabad,"Sardar Vallabhbhai Patel Stadium, Ahmedabad - IITM",29-07-2024 21:00:00,23.043070,72.562968,NO2,NA,NA,NA
India,Gujarat,Ahmedabad,"Sardar Vallabhbhai Patel Stadium, Ahmedabad - IITM",29-07-2024 21:00:00,23.043070,72.562968,SO2,15,20,16
India,Gujarat,Ahmedabad,"Sardar Vallabhbhai Patel Stadium, Ahmedabad - IITM",29-07-2024 21:00:00,23.043070,72.562968,OZONE,6,29,23
India,Gujarat,Ankleshwar,"GIDC, Ankleshwar - GPCB",29-07-2024 21:00:00,21.613267,73.010555,NO2,18,25,21
India,Gujarat,Gandhinagar,"GIFT City, Gandhinagar - IITM",29-07-2024 21:00:00,23.163798,72.677768,PM2.5,28,77,52
India,Gujarat,Gandhinagar,"GIFT City, Gandhinagar - IITM",29-07-2024 21:00:00,23.163798,72.677768,PM10,38,104,72
India,Gujarat,Gandhinagar,"Sector-10, Gandhinagar - GPCB",29-07-2024 21:00:00,23.221714,72.654328,NO2,9,10,10
India,Gujarat,Gandhinagar,"Sector-10, Gandhinagar - GPCB",29-07-2024 21:00:00,23.221714,72.654328,NH3,1,1,1
India,Gujarat,Surat,"Science Center, Surat - SMC",29-07-2024 21:00:00,21.170046,72.795405,SO2,11,13,12
India,Gujarat,Vapi,"Phase-1 GIDC, Vapi - GPCB",29-07-2024 21:00:00,20.362421,72.918013,NH3,10,10,10
India,Gujarat,Vatva,"Phase-4 GIDC, Vatva - GPCB",29-07-2024 21:00:00,22.969611,72.643500,OZONE,4,4,4
India,Haryana,Ambala,"Patti Mehar, Ambala - HSPCB",29-07-2024 21:00:00,30.379589,76.778328,PM10,27,58,40
India,Haryana,Bahadurgarh,"Arya Nagar, Bahadurgarh - HSPCB",29-07-2024 21:00:00,28.6701,76.9254,PM2.5,16,56,39
India,Haryana,Ballabgarh,"Nathu Colony, Ballabgarh - HSPCB",29-07-2024 21:00:00,28.3419248,77.319699,NO2,8,10,9
India,Haryana,Ballabgarh,"Nathu Colony, Ballabgarh - HSPCB",29-07-2024 21:00:00,28.3419248,77.319699,NH3,1,2,2
India,Haryana,Ballabgarh,"Nathu Colony, Ballabgarh - HSPCB",29-07-2024 21:00:00,28.3419248,77.319699,SO2,4,140,11
India,Haryana,Charkhi Dadri,"Mini Secretariat, Charkhi Dadri - HSPCB",29-07-2024 21:00:00,28.593883,76.270653,PM10,23,51,36
India,Haryana,Charkhi Dadri,"Mini Secretariat, Charkhi Dadri - HSPCB",29-07-2024 21:00:00,28.593883,76.270653,CO,16,36,18
India,Haryana,Faridabad,"New Industrial Town, Faridabad - HSPCB",29-07-2024 21:00:00,28.39072,77.30059,PM2.5,NA,NA,NA
India,Haryana,Faridabad,"New Industrial Town, Faridabad - HSPCB",29-07-2024 21:00:00,28.39072,77.30059,PM10,NA,NA,NA
India,Haryana,Faridabad,"New Industrial Town, Faridabad - HSPCB",29-07-2024 21:00:00,28.39072,77.30059,NO2,NA,NA,NA
India,Haryana,Faridabad,"New Industrial Town, Faridabad - HSPCB",29-07-2024 21:00:00,28.39072,77.30059,OZONE,12,22,22
India,Haryana,Faridabad,"Sector 30, Faridabad - HSPCB",29-07-2024 21:00:00,28.4417,77.3217,NH3,3,3,3
India,Haryana,Faridabad,"Sector 30, Faridabad - HSPCB",29-07-2024 21:00:00,28.4417,77.3217,CO,24,54,34
India,Haryana,Faridabad,"Sector- 16A, Faridabad - HSPCB",29-07-2024 21:00:00,28.4088421,77.3099081,NO2,27,74,37
India,Haryana,Gurugram,"Sector-51, Gurugram - HSPCB",29-07-2024 21:00:00,28.4227,77.0667,PM10,102,142,120
India,Haryana,Gurugram,"Teri Gram, Gurugram - HSPCB",29-07-2024 21:00:00,28.4275,77.1465,PM2.5,3,120,44
India,Haryana,Gurugram,"Vikas Sadan, Gurugram - HSPCB",29-07-2024 21:00:00,28.4501238,77.0263051,CO,50,130,105
India,Haryana,Hisar,"Urban Estate-II, Hisar - HSPCB",29-07-2024 21:00:00,29.140560,75.744941,PM2.5,12,86,45
India,Haryana,Hisar,"Urban Estate-II, Hisar - HSPCB",29-07-2024 21:00:00,29.140560,75.744941,PM10,51,79,66
India,Haryana,Hisar,"Urban Estate-II, Hisar - HSPCB",29-07-2024 21:00:00,29.140560,75.744941,SO2,2,97,41
India,Haryana,Hisar,"Urban Estate-II, Hisar - HSPCB",29-07-2024 21:00:00,29.140560,75.744941,CO,25,28,26
India,Haryana,Kaithal,"Rishi Nagar, Kaithal - HSPCB",29-07-2024 21:00:00,29.8006,76.4155,PM2.5,26,54,39
India,Haryana,Karnal,"Sector-12, Karnal - HSPCB",29-07-2024 21:00:00,29.695300,77.002700,PM10,3,46,27
India,Haryana,Mandikhera,"General Hospital, Mandikhera - HSPCB",29-07-2024 21:00:00,27.9002,76.9938,PM10,59,72,64
India,Haryana,Manesar,"Sector-2 IMT, Manesar - HSPCB",29-07-2024 21:00:00,28.360699,76.936090,PM10,17,49,29
India,Haryana,Narnaul,"Shastri Nagar, Narnaul - HSPCB",29-07-2024 21:00:00,28.060249,76.113115,NH3,5,10,8
India,Haryana,Narnaul,"Shastri Nagar, Narnaul - HSPCB",29-07-2024 21:00:00,28.060249,76.113115,CO,16,51,35
India,Haryana,Panchkula,"Sector-6, Panchkula - HSPCB ",29-07-2024 21:00:00,30.7057778,76.8531805555555,NO2,18,21,20
India,Haryana,Panipat,"Sector-18, Panipat - HSPCB",29-07-2024 21:00:00,29.432304,76.972765,NO2,31,32,31
India,Haryana,Panipat,"Sector-18, Panipat - HSPCB",29-07-2024 21:00:00,29.432304,76.972765,OZONE,30,30,30
India,Haryana,Rohtak,"MD University, Rohtak - HSPCB",29-07-2024 21:00:00,28.52123,76.37138,PM2.5,2,481,148
India,Haryana,Rohtak,"MD University, Rohtak - HSPCB",29-07-2024 21:00:00,28.52123,76.37138,SO2,2,51,9
India,Haryana,Sirsa,"F-Block, Sirsa - HSPCB",29-07-2024 21:00:00,29.536400,75.015800,NO2,9,20,11
India,Haryana,Sonipat,"Murthal, Sonipat - HSPCB",29-07-2024 21:00:00,29.027200,77.062100,PM10,NA,NA,NA
India,Haryana,Sonipat,"Murthal, Sonipat - HSPCB",29-07-2024 21:00:00,29.027200,77.062100,OZONE,17,35,30
India,Haryana,Yamuna Nagar,"Gobind Pura, Yamuna Nagar - HSPCB",29-07-2024 21:00:00,30.1480566,77.2893471,PM10,18,55,41
India,Haryana,Yamuna Nagar,"Gobind Pura, Yamuna Nagar - HSPCB",29-07-2024 21:00:00,30.1480566,77.2893471,SO2,4,15,12
India,Haryana,Yamuna Nagar,"Gobind Pura, Yamuna Nagar - HSPCB",29-07-2024 21:00:00,30.1480566,77.2893471,OZONE,3,17,14
India,Himachal Pradesh,Baddi,"HIMUDA Complex Phase-1, Baddi - HPPCB",29-07-2024 21:00:00,30.943887,76.801991,PM2.5,3,103,46
India,Himachal Pradesh,Baddi,"HIMUDA Complex Phase-1, Baddi - HPPCB",29-07-2024 21:00:00,30.943887,76.801991,PM10,3,97,44
India,Himachal Pradesh,Baddi,"HIMUDA Complex Phase-1, Baddi - HPPCB",29-07-2024 21:00:00,30.943887,76.801991,SO2,11,69,28
India,Jharkhand,Dhanbad,"Sardar Patel Nagar, Dhanbad - JSPCB",29-07-2024 21:00:00,23.80569,86.44268,PM10,NA,NA,NA
India,Jharkhand,Jorapokhar,"Tata Stadium, Jorapokhar - JSPCB",29-07-2024 21:00:00,23.707909,86.414670,NO2,NA,NA,NA
India,Jharkhand,Jorapokhar,"Tata Stadium, Jorapokhar - JSPCB",29-07-2024 21:00:00,23.707909,86.414670,SO2,NA,NA,NA
India,Karnataka,Bagalkot,"Vidayagiri, Bagalkot - KSPCB",29-07-2024 21:00:00,16.172806,75.659694,PM2.5,27,41,39
India,Karnataka,Bagalkot,"Vidayagiri, Bagalkot - KSPCB",29-07-2024 21:00:00,16.172806,75.659694,CO,20,59,37
India,Karnataka,Bengaluru,"Bapuji Nagar, Bengaluru - KSPCB",29-07-2024 21:00:00,12.951913,77.539784,PM2.5,9,43,27
India,Karnataka,Bengaluru,"City Railway Station, Bengaluru - KSPCB",29-07-2024 21:00:00,12.9756843,77.5660749,NO2,24,27,25
India,Karnataka,Bengaluru,"City Railway Station, Bengaluru - KSPCB",29-07-2024 21:00:00,12.9756843,77.5660749,CO,52,82,66
India,Karnataka,Bengaluru,"Hombegowda Nagar, Bengaluru - KSPCB",29-07-2024 21:00:00,12.938539,77.590100,SO2,2,4,3
India,Karnataka,Bengaluru,"Jigani, Bengaluru - KSPCB",29-07-2024 21:00:00,12.7816279,77.6299145,PM2.5,31,327,56
India,Karnataka,Bengaluru,"Kasturi Nagar, Bengaluru - KSPCB",29-07-2024 21:00:00,13.003872,77.664217,NH3,4,4,4
India,Karnataka,Bengaluru,"RVCE-Mailasandra, Bengaluru - KSPCB",29-07-2024 21:00:00,12.921418,77.502466,PM2.5,41,88,58
India,Karnataka,Bengaluru,"RVCE-Mailasandra, Bengaluru - KSPCB",29-07-2024 21:00:00,12.921418,77.502466,SO2,10,11,11
India,Karnataka,Bengaluru,"RVCE-Mailasandra, Bengaluru - KSPCB",29-07-2024 21:00:00,12.921418,77.502466,CO,26,45,33
India,Karnataka,Bengaluru,"Sanegurava Halli, Bengaluru - KSPCB",29-07-2024 21:00:00,12.990328,77.5431385,NO2,20,24,22
India,Karnataka,Bengaluru,"Shivapura_Peenya, Bengaluru - KSPCB",29-07-2024 21:00:00,13.0246342,77.5080115,PM10,28,82,50
India,Karnataka,Bengaluru,"Shivapura_Peenya, Bengaluru - KSPCB",29-07-2024 21:00:00,13.0246342,77.5080115,NH3,4,4,4
India,Karnataka,Bengaluru,"Silk Board, Bengaluru - KSPCB",29-07-2024 21:00:00,12.917348,77.622813,PM2.5,2,41,23
India,Karnataka,Bengaluru,"Silk Board, Bengaluru - KSPCB",29-07-2024 21:00:00,12.917348,77.622813,NO2,8,37,20
India,Karnataka,Bidar,"Naubad, Bidar - KSPCB",29-07-2024 21:00:00,17.930306,77.482194,PM2.5,NA,NA,NA
India,Karnataka,Chamarajanagar,"Urban, Chamarajanagar - KSPCB",29-07-2024 21:00:00,11.55358,76.55521,CO,12,33,27
India,Karnataka,Chamarajanagar,"Urban, Chamarajanagar - KSPCB",29-07-2024 21:00:00,11.55358,76.55521,OZONE,15,35,27
India,Karnataka,Chikkaballapur,"Chikkaballapur Rural, Chikkaballapur - KSPCB",29-07-2024 21:00:00,13.428828,77.731418,PM2.5,7,55,23
India,Karnataka,Chikkaballapur,"Chikkaballapur Rural, Chikkaballapur - KSPCB",29-07-2024 21:00:00,13.428828,77.731418,NO2,4,9,6
India,Karnataka,Chikkaballapur,"Chikkaballapur Rural, Chikkaballapur - KSPCB",29-07-2024 21:00:00,13.428828,77.731418,SO2,2,16,10
India,Karnataka,Chikkaballapur,"Chikkaballapur Rural, Chikkaballapur - KSPCB",29-07-2024 21:00:00,13.428828,77.731418,OZONE,24,25,24
India,Karnataka,Davanagere,"Devaraj Urs Badavane, Davanagere - KSPCB",29-07-2024 21:00:00,14.475800,75.905200,NH3,NA,NA,NA
India,Karnataka,Davanagere,"Devaraj Urs Badavane, Davanagere - KSPCB",29-07-2024 21:00:00,14.475800,75.905200,CO,13,22,18
India,Karnataka,Davanagere,"Devaraj Urs Badavane, Davanagere - KSPCB",29-07-2024 21:00:00,14.475800,75.905200,OZONE,20,21,21
India,Karnataka,Hassan,"B.Katihalli, Hassan - KSPCB",29-07-2024 21:00:00,13.008556,76.125258,PM2.5,NA,NA,NA
India,Karnataka,Kalaburagi,"Mahatma Basaveswar Colony, Kalaburgi - KSPCB",29-07-2024 21:00:00,17.336318,76.847397,PM10,27,65,49
India,Karnataka,Kalaburagi,"Mahatma Basaveswar Colony, Kalaburgi - KSPCB",29-07-2024 21:00:00,17.336318,76.847397,SO2,3,5,3
India,Karnataka,Kolar,"Tamaka Ind. Area, Kolar - KSPCB",29-07-2024 21:00:00,13.1276288,78.1570122,PM2.5,NA,NA,NA
India,Karnataka,Kolar,"Tamaka Ind. Area, Kolar - KSPCB",29-07-2024 21:00:00,13.1276288,78.1570122,CO,8,48,45
India,Karnataka,Kolar,"Tamaka Ind. Area, Kolar - KSPCB",29-07-2024 21:00:00,13.1276288,78.1570122,OZONE,19,27,25
India,Karnataka,Koppal,"Diwator Nagar, Koppal - KSPCB",29-07-2024 21:00:00,15.347630,76.181767,PM10,3,19,10
India,Karnataka,Koppal,"Diwator Nagar, Koppal - KSPCB",29-07-2024 21:00:00,15.347630,76.181767,SO2,30,32,30
India,Karnataka,Koppal,"Diwator Nagar, Koppal - KSPCB",29-07-2024 21:00:00,15.347630,76.181767,OZONE,7,20,13
India,Karnataka,Madikeri,"Stuart Hill, Madikeri - KSPCB",29-07-2024 21:00:00,12.415911,75.735050,PM2.5,4,28,14
India,Karnataka,Mangalore,"Kadri, Mangalore - KSPCB",29-07-2024 21:00:00,12.889250,74.853000,PM10,32,61,47
India,Karnataka,Mysuru,"Hebbal 1st Stage, Mysuru - KSPCB",29-07-2024 21:00:00,12.21041,76.37376,PM2.5,12,38,22
India,Karnataka,Mysuru,"Hebbal 1st Stage, Mysuru - KSPCB",29-07-2024 21:00:00,12.21041,76.37376,PM10,27,44,36
India,Karnataka,Raichur,"Haji Colony, Raichur - KSPCB",29-07-2024 21:00:00,16.208139,77.348417,PM2.5,2,12,5
India,Karnataka,Tumakuru,"Thimmalapura, Tumakuru - KSPCB",29-07-2024 21:00:00,13.377516,77.099072,PM2.5,16,99,50
India,Karnataka,Tumakuru,"Thimmalapura, Tumakuru - KSPCB",29-07-2024 21:00:00,13.377516,77.099072,SO2,6,7,7
India,Kerala,Eloor,"Udyogamandal, Eloor - Kerala PCB",29-07-2024 21:00:00,10.073232,76.302765,PM2.5,40,54,44
India,Kerala,Eloor,"Udyogamandal, Eloor - Kerala PCB",29-07-2024 21:00:00,10.073232,76.302765,PM10,39,48,42
India,Kerala,Eloor,"Udyogamandal, Eloor - Kerala PCB",29-07-2024 21:00:00,10.073232,76.302765,OZONE,10,11,11
India,Kerala,Kollam,"Polayathode, Kollam - Kerala PCB",29-07-2024 21:00:00,8.8787,76.6073,NO2,7,9,8
India,Kerala,Thiruvananthapuram,"Kariavattom, Thiruvananthapuram - Kerala PCB",29-07-2024 21:00:00,8.563700,76.886500,NH3,NA,NA,NA
India,Kerala,Thiruvananthapuram,"Kariavattom, Thiruvananthapuram - Kerala PCB",29-07-2024 21:00:00,8.563700,76.886500,OZONE,36,36,36
India,Kerala,Thiruvananthapuram,"Plammoodu, Thiruvananthapuram - Kerala PCB",29-07-2024 21:00:00,8.5149093,76.9435879,PM2.5,NA,NA,NA
India,Kerala,Thiruvananthapuram,"Plammoodu, Thiruvananthapuram - Kerala PCB",29-07-2024 21:00:00,8.5149093,76.9435879,NO2,14,101,51
India,Kerala,Thiruvananthapuram,"Plammoodu, Thiruvananthapuram - Kerala PCB",29-07-2024 21:00:00,8.5149093,76.9435879,NH3,6,10,8
India,Madhya Pradesh,Bhopal,"Idgah Hills, Bhopal - MPPCB",29-07-2024 21:00:00,23.264759,77.381568,NH3,2,2,2
India,Madhya Pradesh,Bhopal,"Idgah Hills, Bhopal - MPPCB",29-07-2024 21:00:00,23.264759,77.381568,OZONE,6,22,16
India,Madhya Pradesh,Bhopal,"Paryavaran Parisar, Bhopal - MPPCB",29-07-2024 21:00:00,23.210494,77.425409,PM10,2,62,28
India,Madhya Pradesh,Bhopal,"T T Nagar, Bhopal - MPPCB",29-07-2024 21:00:00,23.233584,77.400574,NO2,13,31,24
India,Madhya Pradesh,Bhopal,"T T Nagar, Bhopal - MPPCB",29-07-2024 21:00:00,23.233584,77.400574,SO2,2,31,13
India,Madhya Pradesh,Bhopal,"T T Nagar, Bhopal - MPPCB",29-07-2024 21:00:00,23.233584,77.400574,OZONE,23,45,36
India,Madhya Pradesh,Damoh,"Shrivastav Colony, Damoh - MPPCB",29-07-2024 21:00:00,23.81748678,79.446246,CO,12,14,12
India,Madhya Pradesh,Dewas,"Bhopal Chauraha, Dewas - MPPCB",29-07-2024 21:00:00,22.9682591,76.064118,PM2.5,NA,NA,NA
India,Madhya Pradesh,Dewas,"Bhopal Chauraha, Dewas - MPPCB",29-07-2024 21:00:00,22.9682591,76.064118,NH3,NA,NA,NA
India,Madhya Pradesh,Dewas,"Bhopal Chauraha, Dewas - MPPCB",29-07-2024 21:00:00,22.9682591,76.064118,OZONE,1,42,26
India,Madhya Pradesh,Gwalior,"City Center, Gwalior - MPPCB",29-07-2024 21:00:00,26.203442,78.193251,PM2.5,30,58,41
India,Madhya Pradesh,Gwalior,"Deen Dayal Nagar, Gwalior - MPPCB",29-07-2024 21:00:00,26.259242,78.216432,PM10,52,154,102
India,Madhya Pradesh,Gwalior,"Deen Dayal Nagar, Gwalior - MPPCB",29-07-2024 21:00:00,26.259242,78.216432,OZONE,55,114,86
India,Madhya Pradesh,Indore,"Chhoti Gwaltoli, Indore - MPPCB",29-07-2024 21:00:00,22.4310,75.5213,PM2.5,24,67,43
India,Madhya Pradesh,Indore,"Chhoti Gwaltoli, Indore - MPPCB",29-07-2024 21:00:00,22.4310,75.5213,PM10,22,80,43
India,Madhya Pradesh,Indore,"Chhoti Gwaltoli, Indore - MPPCB",29-07-2024 21:00:00,22.4310,75.5213,OZONE,17,32,27
India,Madhya Pradesh,Indore,"Maguda Nagar, Indore - IMC",29-07-2024 21:00:00,22.7524,75.8872,NO2,NA,NA,NA
India,Madhya Pradesh,Indore,"Regional Park, Indore - IMC",29-07-2024 21:00:00,22.6780,75.8559,PM10,NA,NA,NA
India,Madhya Pradesh,Indore,"Regional Park, Indore - IMC",29-07-2024 21:00:00,22.6780,75.8559,OZONE,5,9,6
India,Madhya Pradesh,Indore,"Residency Area, Indore - IMC",29-07-2024 21:00:00,22.7084,75.8815,PM10,NA,NA,NA
India,Madhya Pradesh,Jabalpur,"Gupteshwar, Jabalpur - JMC",29-07-2024 21:00:00,23.142888,79.916147,CO,11,54,26
India,Madhya Pradesh,Jabalpur,"Marhatal, Jabalpur - MPPCB",29-07-2024 21:00:00,23.168606,79.932247,OZONE,9,22,18
India,Madhya Pradesh,Katni,"Gole Bazar, Katni - MPPCB",29-07-2024 21:00:00,23.50016,80.23284,NO2,15,22,19
India,Madhya Pradesh,Maihar,"Sahilara, Maihar - KJS Cements",29-07-2024 21:00:00,24.2613009,80.7231783,SO2,NA,NA,NA
India,Madhya Pradesh,Mandideep,"Sector-D Industrial Area, Mandideep - MPPCB",29-07-2024 21:00:00,23.108440,77.511428,SO2,9,100,43
India,Madhya Pradesh,Mandideep,"Sector-D Industrial Area, Mandideep - MPPCB",29-07-2024 21:00:00,23.108440,77.511428,OZONE,21,29,28
India,Madhya Pradesh,Pithampur,"Sector-2 Industrial Area, Pithampur - MPPCB",29-07-2024 21:00:00,22.624758,75.675238,PM2.5,16,65,36
India,Madhya Pradesh,Pithampur,"Sector-2 Industrial Area, Pithampur - MPPCB",29-07-2024 21:00:00,22.624758,75.675238,PM10,19,64,38
India,Madhya Pradesh,Sagar,"Deen Dayal Nagar, Sagar - MPPCB",29-07-2024 21:00:00,23.8640158,78.80289321,SO2,8,14,12
India,Madhya Pradesh,Satna,"Bandhavgar Colony, Satna - Birla Cement",29-07-2024 21:00:00,24.58434363,80.8549414,CO,16,104,47
India,Madhya Pradesh,Singrauli,"Suryakiran Bhawan NCL, Singrauli - MPPCB",29-07-2024 21:00:00,24.108970,82.645580,SO2,60,107,92
India,Madhya Pradesh,Singrauli,"Suryakiran Bhawan NCL, Singrauli - MPPCB",29-07-2024 21:00:00,24.108970,82.645580,CO,25,72,49
India,Madhya Pradesh,Ujjain,"Mahakaleshwar Temple, Ujjain - MPPCB",29-07-2024 21:00:00,23.182719 ,75.768218 ,CO,7,13,12
India,Madhya Pradesh,Ujjain,"Mahakaleshwar Temple, Ujjain - MPPCB",29-07-2024 21:00:00,23.182719 ,75.768218 ,OZONE,60,62,61
India,Maharashtra,Ahmednagar,"Tarakpur, Ahmednagar - MPCB",29-07-2024 21:00:00,19.10122,74.73339,PM2.5,NA,NA,NA
India,Maharashtra,Ahmednagar,"Tarakpur, Ahmednagar - MPCB",29-07-2024 21:00:00,19.10122,74.73339,NH3,NA,NA,NA
India,Maharashtra,Ahmednagar,"Tarakpur, Ahmednagar - MPCB",29-07-2024 21:00:00,19.10122,74.73339,OZONE,16,39,32
India,Maharashtra,Akola,"Ramdaspeth, Akola - MPCB",29-07-2024 21:00:00,20.719516,77.000253,PM2.5,16,44,28
India,Maharashtra,Amravati,"Shivneri Colony, Amravati - MPCB",29-07-2024 21:00:00,20.9402359,77.7895248,OZONE,10,22,16
India,Maharashtra,Amravati,"Shri Shivaji Science College, Amaravati - MPCB",29-07-2024 21:00:00,20.939198,77.765701,CO,14,46,23
India,Maharashtra,Aurangabad,"MIDC Chilkalthana, Aurangabad - MPCB",29-07-2024 21:00:00,19.875620,75.387310,NO2,2,21,9
India,Maharashtra,Aurangabad,"MIDC Chilkalthana, Aurangabad - MPCB",29-07-2024 21:00:00,19.875620,75.387310,NH3,5,6,5
India,Maharashtra,Aurangabad,"MIDC Chilkalthana, Aurangabad - MPCB",29-07-2024 21:00:00,19.875620,75.387310,CO,11,30,22
India,Maharashtra,Aurangabad,"More Chowk Waluj, Aurangabad - MPCB",29-07-2024 21:00:00,19.8389439,75.244448,NO2,15,25,19
India,Maharashtra,Aurangabad,"More Chowk Waluj, Aurangabad - MPCB",29-07-2024 21:00:00,19.8389439,75.244448,NH3,2,3,2
India,Maharashtra,Badlapur,"Katrap, Badlapur - MPCB",29-07-2024 21:00:00,19.16485,73.23409,NH3,2,4,3
India,Maharashtra,Belapur,"CBD Belapur, Belapur - MPCB",29-07-2024 21:00:00,19.0243902,73.0406721,NH3,1,1,1
India,Maharashtra,Bhiwandi,"Gokul Nagar, Bhiwandi - MPCB",29-07-2024 21:00:00,19.309073,73.057223,PM10,54,96,72
India,Maharashtra,Bhiwandi,"Gokul Nagar, Bhiwandi - MPCB",29-07-2024 21:00:00,19.309073,73.057223,NO2,6,21,12
India,Maharashtra,Boisar,"Khaira, Boisar - MPCB",29-07-2024 21:00:00,19.786089,72.757971,PM2.5,39,79,54
India,Maharashtra,Chandrapur,"Chauhan Colony, Chandrapur - MPCB",29-07-2024 21:00:00,19.962900,79.298714,NH3,1,5,4
India,Maharashtra,Dhule,"Deopur, Dhule - MPCB",29-07-2024 21:00:00,20.918946,74.776388,PM10,24,95,47
India,Maharashtra,Dhule,"Deopur, Dhule - MPCB",29-07-2024 21:00:00,20.918946,74.776388,SO2,1,3,2
India,Maharashtra,Jalgaon,"Prabhat Colony, Jalgaon - MPCB",29-07-2024 21:00:00,21.001264,75.565602,PM10,24,49,38
India,Maharashtra,Jalgaon,"Prabhat Colony, Jalgaon - MPCB",29-07-2024 21:00:00,21.001264,75.565602,SO2,2,11,7
India,Maharashtra,Jalna,"Old MIDC, Jalna - MPCB",29-07-2024 21:00:00,19.854616,75.905894,OZONE,10,25,22
India,Maharashtra,Kalyan,"Khadakpada, Kalyan - MPCB",29-07-2024 21:00:00,19.25292,73.142019,PM2.5,8,25,16
India,Maharashtra,Kalyan,"Khadakpada, Kalyan - MPCB",29-07-2024 21:00:00,19.25292,73.142019,SO2,7,13,11
India,Maharashtra,Kolhapur,"Shivaji University, Kolhapur - MPCB",29-07-2024 21:00:00,16.6870449,74.2505872,CO,4,24,17
India,Maharashtra,Kolhapur,"Sinchan Bhavan, Kolhapur - MPCB",29-07-2024 21:00:00,16.7143745,74.2426398,SO2,NA,NA,NA
India,Maharashtra,Mahad,"Kamble Tarf Birwadi, Mahad - MPCB",29-07-2024 21:00:00,18.1023399,73.4783687,CO,11,30,17
India,Maharashtra,Mahad,"Kamble Tarf Birwadi, Mahad - MPCB",29-07-2024 21:00:00,18.1023399,73.4783687,OZONE,9,25,19
India,Maharashtra,Malegaon,"Mahesh Nagar, Malegaon - MPCB",29-07-2024 21:00:00,20.555712,74.529236,NH3,2,4,3
India,Maharashtra,Malegaon,"Mahesh Nagar, Malegaon - MPCB",29-07-2024 21:00:00,20.555712,74.529236,CO,16,34,29
India,Maharashtra,Malegaon,"Mahesh Nagar, Malegaon - MPCB",29-07-2024 21:00:00,20.555712,74.529236,OZONE,6,19,13
India,Maharashtra,Mira-Bhayandar,"Bhayandar West, Mira-Bhayandar - MPCB",29-07-2024 21:00:00,19.296481,72.840923,PM10,15,54,42
India,Maharashtra,Mira-Bhayandar,"Bhayandar West, Mira-Bhayandar - MPCB",29-07-2024 21:00:00,19.296481,72.840923,NO2,2,5,3
India,Maharashtra,Mira-Bhayandar,"Bhayandar West, Mira-Bhayandar - MPCB",29-07-2024 21:00:00,19.296481,72.840923,SO2,3,4,4
India,Maharashtra,Mumbai,"Borivali East, Mumbai - IITM",29-07-2024 21:00:00,19.23241,72.86895,PM10,42,66,52
India,Maharashtra,Mumbai,"Borivali East, Mumbai - IITM",29-07-2024 21:00:00,19.23241,72.86895,NO2,60,84,76
India,Maharashtra,Mumbai,"Borivali East, Mumbai - IITM",29-07-2024 21:00:00,19.23241,72.86895,CO,30,72,47
India,Maharashtra,Mumbai,"Byculla, Mumbai - BMC",29-07-2024 21:00:00,18.9767,72.8380,NH3,2,2,2
India,Maharashtra,Mumbai,"Byculla, Mumbai - BMC",29-07-2024 21:00:00,18.9767,72.8380,SO2,1,3,2
India,Maharashtra,Mumbai,"Byculla, Mumbai - BMC",29-07-2024 21:00:00,18.9767,72.8380,OZONE,11,20,13
India,Maharashtra,Mumbai,"Chembur, Mumbai - MPCB",29-07-2024 21:00:00,19.0364585,72.8954371,NO2,11,29,20
India,Maharashtra,Mumbai,"Chhatrapati Shivaji Intl. Airport (T2), Mumbai - MPCB",29-07-2024 21:00:00,19.10078,72.87462,PM10,45,89,65
India,Maharashtra,Mumbai,"Colaba, Mumbai - MPCB",29-07-2024 21:00:00,18.910000,72.820000,PM10,13,47,26
India,Maharashtra,Mumbai,"Colaba, Mumbai - MPCB",29-07-2024 21:00:00,18.910000,72.820000,NH3,1,1,1
India,Maharashtra,Mumbai,"Colaba, Mumbai - MPCB",29-07-2024 21:00:00,18.910000,72.820000,SO2,11,11,11
India,Maharashtra,Mumbai,"Ghatkopar, Mumbai - BMC",29-07-2024 21:00:00,19.083694,72.920967,PM10,19,37,28
India,Maharashtra,Mumbai,"Kandivali East, Mumbai - MPCB",29-07-2024 21:00:00,19.205800,72.868200,NH3,NA,NA,NA
India,Maharashtra,Mumbai,"Kandivali East, Mumbai - MPCB",29-07-2024 21:00:00,19.205800,72.868200,OZONE,30,31,30
India,Maharashtra,Mumbai,"Kherwadi_Bandra East, Mumbai - MPCB",29-07-2024 21:00:00,19.0632143,72.8456324,PM10,36,57,47
India,Maharashtra,Mumbai,"Kherwadi_Bandra East, Mumbai - MPCB",29-07-2024 21:00:00,19.0632143,72.8456324,NO2,4,10,6
India,Maharashtra,Mumbai,"Kherwadi_Bandra East, Mumbai - MPCB",29-07-2024 21:00:00,19.0632143,72.8456324,SO2,3,3,3
India,Maharashtra,Mumbai,"Kherwadi_Bandra East, Mumbai - MPCB",29-07-2024 21:00:00,19.0632143,72.8456324,OZONE,5,28,18
India,Maharashtra,Mumbai,"Kurla, Mumbai - MPCB",29-07-2024 21:00:00,19.0863,72.8888,PM2.5,16,58,28
India,Maharashtra,Mumbai,"Kurla, Mumbai - MPCB",29-07-2024 21:00:00,19.0863,72.8888,CO,4,17,10
India,Maharashtra,Mumbai,"Malad West, Mumbai - IITM",29-07-2024 21:00:00,19.19709,72.82204,CO,2,2,2
India,Maharashtra,Mumbai,"Mindspace-Malad West, Mumbai - MPCB",29-07-2024 21:00:00,19.1878657,72.8304069,PM2.5,27,51,42
India,Maharashtra,Mumbai,"Mindspace-Malad West, Mumbai - MPCB",29-07-2024 21:00:00,19.1878657,72.8304069,SO2,3,5,4
India,Maharashtra,Mumbai,"Mindspace-Malad West, Mumbai - MPCB",29-07-2024 21:00:00,19.1878657,72.8304069,OZONE,10,21,17
India,Maharashtra,Mumbai,"Mulund West, Mumbai - MPCB",29-07-2024 21:00:00,19.1750,72.9419,PM10,32,58,46
India,Maharashtra,Mumbai,"Navy Nagar-Colaba, Mumbai - IITM",29-07-2024 21:00:00,18.897756,72.813320,NO2,40,66,47
India,Maharashtra,Mumbai,"Navy Nagar-Colaba, Mumbai - IITM",29-07-2024 21:00:00,18.897756,72.813320,CO,23,29,24
India,Maharashtra,Mumbai,"Powai, Mumbai - MPCB",29-07-2024 21:00:00,19.137500,72.915056,PM10,28,52,42
India,Maharashtra,Mumbai,"Sewri, Mumbai - BMC",29-07-2024 21:00:00,19.000084,72.856730,OZONE,8,16,11
India,Maharashtra,Mumbai,"Shivaji Nagar, Mumbai - BMC",29-07-2024 21:00:00,19.060498,72.923356,PM2.5,17,56,40
India,Maharashtra,Mumbai,"Shivaji Nagar, Mumbai - BMC",29-07-2024 21:00:00,19.060498,72.923356,NO2,2,30,14
India,Maharashtra,Mumbai,"Shivaji Nagar, Mumbai - BMC",29-07-2024 21:00:00,19.060498,72.923356,SO2,1,7,4
India,Maharashtra,Mumbai,"Shivaji Nagar, Mumbai - BMC",29-07-2024 21:00:00,19.060498,72.923356,CO,4,85,50
India,Maharashtra,Mumbai,"Sion, Mumbai - MPCB",29-07-2024 21:00:00,19.047000,72.874600,SO2,27,28,27
India,Maharashtra,Mumbai,"Sion, Mumbai - MPCB",29-07-2024 21:00:00,19.047000,72.874600,CO,11,17,15
India,Maharashtra,Mumbai,"Vasai West, Mumbai - MPCB",29-07-2024 21:00:00,19.383200,72.820400,NO2,26,30,27
India,Maharashtra,Mumbai,"Vile Parle West, Mumbai - MPCB",29-07-2024 21:00:00,19.10861,72.83622,PM2.5,17,30,24
India,Maharashtra,Mumbai,"Vile Parle West, Mumbai - MPCB",29-07-2024 21:00:00,19.10861,72.83622,PM10,37,85,54
India,Maharashtra,Mumbai,"Vile Parle West, Mumbai - MPCB",29-07-2024 21:00:00,19.10861,72.83622,OZONE,14,17,15
India,Maharashtra,Mumbai,"Worli, Mumbai - MPCB",29-07-2024 21:00:00,18.9936162,72.8128113,CO,54,56,55
India,Maharashtra,Nagpur,"Ambazari, Nagpur - MPCB",29-07-2024 21:00:00,21.121801,79.04952,NO2,8,28,17
India,Maharashtra,Nagpur,"Ambazari, Nagpur - MPCB",29-07-2024 21:00:00,21.121801,79.04952,SO2,5,11,9
India,Maharashtra,Nagpur,"Ram Nagar, Nagpur - MPCB",29-07-2024 21:00:00,21.143383,79.048912,PM10,14,29,23
India,Maharashtra,Nagpur,"Ram Nagar, Nagpur - MPCB",29-07-2024 21:00:00,21.143383,79.048912,NO2,2,15,6
India,Maharashtra,Nashik,"Gangapur Road, Nashik - MPCB",29-07-2024 21:00:00,20.0073285,73.7762427,OZONE,24,41,35
India,Maharashtra,Nashik,"Hirawadi, Nashik - MPCB",29-07-2024 21:00:00,20.021503,73.813844,CO,18,52,32
India,Maharashtra,Nashik,"MIDC Ambad, Nashik - MPCB",29-07-2024 21:00:00,19.950220,73.731480,NO2,7,14,9
India,Maharashtra,Nashik,"Pandav Nagari, Nashik - MPCB",29-07-2024 21:00:00,19.9591346,73.7788008,CO,13,30,20
India,Maharashtra,Navi Mumbai,"Kopripada-Vashi, Navi Mumbai - MPCB",29-07-2024 21:00:00,19.090337,73.014232,NH3,1,1,1
India,Maharashtra,Navi Mumbai,"Kopripada-Vashi, Navi Mumbai - MPCB",29-07-2024 21:00:00,19.090337,73.014232,SO2,5,7,6
India,Maharashtra,Navi Mumbai,"Sanpada, Navi Mumbai - MPCB",29-07-2024 21:00:00,19.0575752,73.0151367,PM2.5,12,37,23
India,Maharashtra,Navi Mumbai,"Sanpada, Navi Mumbai - MPCB",29-07-2024 21:00:00,19.0575752,73.0151367,NH3,4,5,4
India,Maharashtra,Navi Mumbai,"Sanpada, Navi Mumbai - MPCB",29-07-2024 21:00:00,19.0575752,73.0151367,SO2,1,3,2
India,Maharashtra,Navi Mumbai,"Sector-19A Nerul, Navi Mumbai - IITM",29-07-2024 21:00:00,19.044,73.0325,PM10,10,43,26
India,Maharashtra,Navi Mumbai,"Sector-19A Nerul, Navi Mumbai - IITM",29-07-2024 21:00:00,19.044,73.0325,CO,41,60,54
India,Maharashtra,Navi Mumbai,"Sector-2E Kalamboli, Navi Mumbai - MPCB",29-07-2024 21:00:00,19.02579,73.10297,SO2,2,4,3
India,Maharashtra,Navi Mumbai,"Tondare-Taloja, Navi Mumbai - MPCB",29-07-2024 21:00:00,19.0630,73.1209,NO2,10,22,16
India,Maharashtra,Pimpri-Chinchwad,"Thergaon, Pimpri Chinchwad - MPCB",29-07-2024 21:00:00,18.616318,73.765797,OZONE,1,7,4
India,Maharashtra,Pune,"Bhosari, Pune - IITM",29-07-2024 21:00:00,18.640051,73.848956,PM2.5,15,43,25
India,Maharashtra,Pune,"Bhosari, Pune - IITM",29-07-2024 21:00:00,18.640051,73.848956,NO2,13,16,14
India,Maharashtra,Pune,"Bhumkar Nagar, Pune - IITM",29-07-2024 21:00:00,18.605770,73.749976,NO2,26,59,36
India,Maharashtra,Pune,"Hadapsar, Pune - IITM",29-07-2024 21:00:00,18.501793,73.927532,CO,10,100,57
India,Maharashtra,Pune,"Karve Road, Pune - MPCB",29-07-2024 21:00:00,18.5011743,73.8165527,CO,1,38,20
India,Maharashtra,Pune,"Karve Road, Pune - MPCB",29-07-2024 21:00:00,18.5011743,73.8165527,OZONE,1,41,22
India,Maharashtra,Pune,"Katraj Dairy, Pune - MPCB",29-07-2024 21:00:00,18.454450,73.854155,PM10,NA,NA,NA
India,Maharashtra,Pune,"Katraj Dairy, Pune - MPCB",29-07-2024 21:00:00,18.454450,73.854155,SO2,NA,NA,NA
India,Maharashtra,Pune,"Revenue Colony-Shivajinagar, Pune - IITM",29-07-2024 21:00:00,18.530085,73.849598,OZONE,11,23,15
India,Maharashtra,Pune,"Savitribai Phule Pune University, Pune - MPCB",29-07-2024 21:00:00,18.547056,73.826908,SO2,1,3,2
India,Maharashtra,Pune,"Transport Nagar-Nigdi, Pune - IITM",29-07-2024 21:00:00,18.664282,73.763966,PM2.5,NA,NA,NA
India,Maharashtra,Pune,"Transport Nagar-Nigdi, Pune - IITM",29-07-2024 21:00:00,18.664282,73.763966,OZONE,27,27,27
India,Maharashtra,Sangli,"Vijay Nagar, Sangli - MPCB",29-07-2024 21:00:00, 16.5038,74.3623,NO2,2,7,5
India,Maharashtra,Sangli,"Vijay Nagar, Sangli - MPCB",29-07-2024 21:00:00, 16.5038,74.3623,CO,6,15,10
India,Maharashtra,Solapur,"Dnyaneshwar Nagar, Solapur - MPCB",29-07-2024 21:00:00,17.6336264,75.9132495,PM10,30,68,50
India,Maharashtra,Solapur,"Dnyaneshwar Nagar, Solapur - MPCB",29-07-2024 21:00:00,17.6336264,75.9132495,NO2,1,10,5
India,Maharashtra,Solapur,"Dnyaneshwar Nagar, Solapur - MPCB",29-07-2024 21:00:00,17.6336264,75.9132495,CO,9,27,19
India,Maharashtra,Solapur,"Ratandeep Housing Society, Solapur - MPCB",29-07-2024 21:00:00,17.65439,75.90649,OZONE,5,28,18
India,Maharashtra,Thane,"Kasarvadavali, Thane - MPCB",29-07-2024 21:00:00,19.26777,72.97182,PM10,36,70,54
India,Maharashtra,Thane,"Pimpleshwar Mandir, Thane - MPCB",29-07-2024 21:00:00,19.192056,72.9585188,NO2,12,13,13
India,Maharashtra,Thane,"Pimpleshwar Mandir, Thane - MPCB",29-07-2024 21:00:00,19.192056,72.9585188,CO,8,78,49
India,Maharashtra,Thane,"Pimpleshwar Mandir, Thane - MPCB",29-07-2024 21:00:00,19.192056,72.9585188,OZONE,13,20,16
India,Maharashtra,Thane,"Upvan Fort, Thane - MPCB",29-07-2024 21:00:00,19.222279,72.957979,OZONE,5,7,6
India,Maharashtra,Ulhasnagar,"Sidhi Vinayak Nagar, Ulhasnagar - MPCB",29-07-2024 21:00:00,19.235581,73.159121,PM2.5,33,69,47
India,Maharashtra,Ulhasnagar,"Sidhi Vinayak Nagar, Ulhasnagar - MPCB",29-07-2024 21:00:00,19.235581,73.159121,NO2,13,37,22
India,Maharashtra,Virar,"Bolinj, Virar - MPCB",29-07-2024 21:00:00,19.4458210,72.7988231,PM2.5,43,68,55
India,Maharashtra,Virar,"Bolinj, Virar - MPCB",29-07-2024 21:00:00,19.4458210,72.7988231,CO,11,84,51
India,Maharashtra,Virar,"Bolinj, Virar - MPCB",29-07-2024 21:00:00,19.4458210,72.7988231,OZONE,15,67,39
India,Manipur,Imphal,"Manipur University, Imphal - Manipur PCB",29-07-2024 21:00:00,24.7524239,93.9286218,NH3,NA,NA,NA
India,Manipur,Imphal,"Manipur University, Imphal - Manipur PCB",29-07-2024 21:00:00,24.7524239,93.9286218,OZONE,1,4,2
India,Meghalaya,Shillong,"Lumpyngngad, Shillong - Meghalaya PCB",29-07-2024 21:00:00,25.5586,91.8985,CO,4,14,11
India,Mizoram,Aizawl,"Sikulpuikawn, Aizawl - Mizoram PCB",29-07-2024 21:00:00,23.7176342,92.7192841,PM10,NA,NA,NA
India,Mizoram,Aizawl,"Sikulpuikawn, Aizawl - Mizoram PCB",29-07-2024 21:00:00,23.7176342,92.7192841,NH3,1,2,1
India,Mizoram,Aizawl,"Sikulpuikawn, Aizawl - Mizoram PCB",29-07-2024 21:00:00,23.7176342,92.7192841,SO2,3,3,3
India,Mizoram,Aizawl,"Sikulpuikawn, Aizawl - Mizoram PCB",29-07-2024 21:00:00,23.7176342,92.7192841,CO,8,13,12
India,Nagaland,Kohima,"PWD Juction, Kohima - NPCB",29-07-2024 21:00:00,25.6635413,94.0989878,NH3,1,1,1
India,Nagaland,Kohima,"PWD Juction, Kohima - NPCB",29-07-2024 21:00:00,25.6635413,94.0989878,OZONE,3,13,6
India,Odisha,Balasore,"Kalidaspur, Balasore - OSPCB",29-07-2024 21:00:00,21.51161,86.89088,PM10,21,122,58
India,Odisha,Balasore,"Kalidaspur, Balasore - OSPCB",29-07-2024 21:00:00,21.51161,86.89088,OZONE,4,54,17
India,Odisha,Barbil,"Forest Office, Barbil - OSPCB",29-07-2024 21:00:00,22.1166054,85.3945546,PM2.5,8,52,25
India,Odisha,Bhubaneswar,"Patia, Bhubaneswar - OSPCB",29-07-2024 21:00:00,20.34652,85.81630,NH3,1,3,1
India,Odisha,Bhubaneswar,"Patia, Bhubaneswar - OSPCB",29-07-2024 21:00:00,20.34652,85.81630,SO2,1,3,2
India,Odisha,Bileipada,"Tata Township, Bileipada - OSPCB",29-07-2024 21:00:00,22.06156703,85.47409613,PM10,43,92,60
India,Odisha,Bileipada,"Tata Township, Bileipada - OSPCB",29-07-2024 21:00:00,22.06156703,85.47409613,OZONE,23,25,24
India,Odisha,Cuttack,"CDA Area, Cuttack - OSPCB",29-07-2024 21:00:00,20.48891     ,85.84768     ,PM2.5,7,73,30
India,Odisha,Keonjhar,"Jagamohanpur, Keonjhar - OSPCB",29-07-2024 21:00:00,21.643900,85.599355,PM2.5,NA,NA,NA
India,Odisha,Keonjhar,"Jagamohanpur, Keonjhar - OSPCB",29-07-2024 21:00:00,21.643900,85.599355,PM10,NA,NA,NA
India,Odisha,Keonjhar,"Jagamohanpur, Keonjhar - OSPCB",29-07-2024 21:00:00,21.643900,85.599355,NH3,NA,NA,NA
India,Odisha,Nayagarh,"Dabuna, Nayagarh - OSPCB",29-07-2024 21:00:00,21.847279,85.416905,PM10,21,23,22
India,Odisha,Rairangpur,"Divisional Forest Office, Rairangpur - OSPCB",29-07-2024 21:00:00,22.265816,86.174829,OZONE,3,16,9
India,Odisha,Rourkela,"Raghunathpali, Rourkela - OSPCB",29-07-2024 21:00:00,22.220833,84.809444,NH3,1,2,2
India,Odisha,Rourkela,"Raghunathpali, Rourkela - OSPCB",29-07-2024 21:00:00,22.220833,84.809444,SO2,1,2,2
India,Odisha,Rourkela,"Sector-2, Rourkela - OSPCB",29-07-2024 21:00:00,22.24500000,84.88111111,PM2.5,NA,NA,NA
India,Odisha,Suakati,"OMC Colony, Suakati - OSPCB",29-07-2024 21:00:00,21.606865,85.510538,SO2,2,6,3
India,Odisha,Suakati,"OMC Colony, Suakati - OSPCB",29-07-2024 21:00:00,21.606865,85.510538,CO,8,18,11
India,Odisha,Tensa,"Barsua Iron Ore Mines, Tensa - OSPCB",29-07-2024 21:00:00,21.869985,85.167016,PM2.5,NA,NA,NA
India,Odisha,Tensa,"Barsua Iron Ore Mines, Tensa - OSPCB",29-07-2024 21:00:00,21.869985,85.167016,NO2,NA,NA,NA
India,Odisha,Tensa,"Barsua Iron Ore Mines, Tensa - OSPCB",29-07-2024 21:00:00,21.869985,85.167016,NH3,NA,NA,NA
India,Odisha,Tensa,"Barsua Iron Ore Mines, Tensa - OSPCB",29-07-2024 21:00:00,21.869985,85.167016,SO2,NA,NA,NA
India,Odisha,Tensa,"Barsua Iron Ore Mines, Tensa - OSPCB",29-07-2024 21:00:00,21.869985,85.167016,CO,18,20,19
India,Puducherry,Puducherry,"Jawahar Nagar, Puducherry - PPCC",29-07-2024 21:00:00,11.9309,79.8027,SO2,9,15,12
India,Puducherry,Puducherry,"Jawahar Nagar, Puducherry - PPCC",29-07-2024 21:00:00,11.9309,79.8027,CO,12,31,25
India,Punjab,Amritsar,"Golden Temple, Amritsar - PPCB",29-07-2024 21:00:00,31.620000,74.876512,PM10,38,109,57
India,Punjab,Amritsar,"Golden Temple, Amritsar - PPCB",29-07-2024 21:00:00,31.620000,74.876512,NO2,17,83,21
India,Punjab,Bathinda,"Hardev Nagar, Bathinda - PPCB",29-07-2024 21:00:00,30.233011,74.907758,CO,6,103,65
India,Punjab,Jalandhar,"Civil Line, Jalandhar - PPCB",29-07-2024 21:00:00,31.321907,75.578914,OZONE,19,72,51
India,Punjab,Ludhiana,"Punjab Agricultural University, Ludhiana - PPCB",29-07-2024 21:00:00,30.9028,75.8086,PM2.5,22,86,52
India,Punjab,Ludhiana,"Punjab Agricultural University, Ludhiana - PPCB",29-07-2024 21:00:00,30.9028,75.8086,NH3,6,8,7
India,Punjab,Mandi Gobindgarh,"RIMT University, Mandi Gobindgarh - PPCB",29-07-2024 21:00:00,30.649961,76.331442,NO2,NA,NA,NA
India,Punjab,Mandi Gobindgarh,"RIMT University, Mandi Gobindgarh - PPCB",29-07-2024 21:00:00,30.649961,76.331442,CO,46,56,54
India,Punjab,Mandi Gobindgarh,"RIMT University, Mandi Gobindgarh - PPCB",29-07-2024 21:00:00,30.649961,76.331442,OZONE,39,42,40
India,Punjab,Patiala,"Model Town, Patiala - PPCB",29-07-2024 21:00:00,30.349388,76.366642,SO2,2,17,9
India,Punjab,Rupnagar,"Ratanpura, Rupnagar - Ambuja Cements",29-07-2024 21:00:00,31.0325454,76.5623046,PM2.5,NA,NA,NA
India,Rajasthan,Ajmer,"Civil Lines,  Ajmer - RSPCB",29-07-2024 21:00:00,26.470859,74.646594,CO,18,64,34
India,Rajasthan,Alwar,"Moti Doongri, Alwar - RSPCB",29-07-2024 21:00:00,27.554793,76.611536,OZONE,12,30,26
India,Rajasthan,Banswara,"Rati Talai, Banswara - RSPCB",29-07-2024 21:00:00,23.555190,74.440010,NO2,5,19,12
India,Rajasthan,Baran,"Bamboliya, Baran - RSPCB",29-07-2024 21:00:00,25.106006,76.469948,OZONE,39,71,60
India,Rajasthan,Barmer,"Railway Colony, Barmer - RSPCB",29-07-2024 21:00:00,25.747299,71.393989,NO2,3,8,6
India,Rajasthan,Barmer,"Railway Colony, Barmer - RSPCB",29-07-2024 21:00:00,25.747299,71.393989,NH3,2,5,3
India,Rajasthan,Barmer,"Railway Colony, Barmer - RSPCB",29-07-2024 21:00:00,25.747299,71.393989,SO2,1,7,2
India,Rajasthan,Bharatpur,"Krishna Nagar, Bharatpur - RSPCB",29-07-2024 21:00:00,27.215415,77.50873,PM2.5,20,88,36
India,Rajasthan,Bharatpur,"Krishna Nagar, Bharatpur - RSPCB",29-07-2024 21:00:00,27.215415,77.50873,PM10,24,82,45
India,Rajasthan,Bhilwara,"Pratap Nagar, Bhilwara - RSPCB",29-07-2024 21:00:00,25.339605,74.618883,PM2.5,22,59,46
India,Rajasthan,Bhilwara,"Pratap Nagar, Bhilwara - RSPCB",29-07-2024 21:00:00,25.339605,74.618883,SO2,9,14,12
India,Rajasthan,Bhilwara,"Pratap Nagar, Bhilwara - RSPCB",29-07-2024 21:00:00,25.339605,74.618883,CO,18,38,25
India,Rajasthan,Bhiwadi,"RIICO Ind. Area III, Bhiwadi - RSPCB",29-07-2024 21:00:00,28.194909,76.862296,CO,6,110,34
India,Rajasthan,Bhiwadi,"Vasundhara Nagar_UIT, Bhiwadi - RSPCB",29-07-2024 21:00:00,28.207266,76.829265,NO2,NA,NA,NA
India,Rajasthan,Bhiwadi,"Vasundhara Nagar_UIT, Bhiwadi - RSPCB",29-07-2024 21:00:00,28.207266,76.829265,NH3,NA,NA,NA
India,Rajasthan,Bikaner,"MM Ground, Bikaner - RSPCB",29-07-2024 21:00:00,28.018792,73.292658,PM2.5,11,70,40
India,Rajasthan,Bikaner,"MM Ground, Bikaner - RSPCB",29-07-2024 21:00:00,28.018792,73.292658,PM10,24,138,85
India,Rajasthan,Bundi,"New Colony, Bundi - RSPCB",29-07-2024 21:00:00,25.435774,75.644272,NH3,1,4,2
India,Rajasthan,Bundi,"New Colony, Bundi - RSPCB",29-07-2024 21:00:00,25.435774,75.644272,SO2,3,5,4
India,Rajasthan,Chittorgarh,"Shastri Nagar, Chittorgarh - RSPCB",29-07-2024 21:00:00,24.892047,74.623527,PM10,66,432,147
India,Rajasthan,Chittorgarh,"Shastri Nagar, Chittorgarh - RSPCB",29-07-2024 21:00:00,24.892047,74.623527,NO2,8,30,17
India,Rajasthan,Churu,"Subash Chowk, Churu - RSPCB",29-07-2024 21:00:00,28.296139,74.961696,CO,14,28,22
India,Rajasthan,Dausa,"Khatikan Mohalla, Dausa - RSPCB",29-07-2024 21:00:00,26.895552,76.334753,PM2.5,32,90,47
India,Rajasthan,Dausa,"Khatikan Mohalla, Dausa - RSPCB",29-07-2024 21:00:00,26.895552,76.334753,PM10,54,151,83
India,Rajasthan,Dholpur,"Raja Ganj, Dholpur - RSPCB",29-07-2024 21:00:00,26.699557,77.898881,PM2.5,NA,NA,NA
India,Rajasthan,Dholpur,"Raja Ganj, Dholpur - RSPCB",29-07-2024 21:00:00,26.699557,77.898881,NH3,3,9,5
India,Rajasthan,Dholpur,"Raja Ganj, Dholpur - RSPCB",29-07-2024 21:00:00,26.699557,77.898881,SO2,1,13,7
India,Rajasthan,Dholpur,"Raja Ganj, Dholpur - RSPCB",29-07-2024 21:00:00,26.699557,77.898881,CO,5,24,18
India,Rajasthan,Dungarpur,"Bhoiwada, Dungarpur - RSPCB",29-07-2024 21:00:00,23.837789,73.714926,OZONE,2,38,29
India,Rajasthan,Jaipur,"Adarsh Nagar, Jaipur - RSPCB",29-07-2024 21:00:00,26.902909,75.836858,PM10,NA,NA,NA
India,Rajasthan,Jaipur,"Adarsh Nagar, Jaipur - RSPCB",29-07-2024 21:00:00,26.902909,75.836858,NO2,9,34,15
India,Rajasthan,Jaipur,"Adarsh Nagar, Jaipur - RSPCB",29-07-2024 21:00:00,26.902909,75.836858,CO,1,40,28
India,Rajasthan,Jaipur,"Mansarovar Sector-12, Jaipur - RSPCB",29-07-2024 21:00:00,26.843698,75.766894,PM10,26,94,63
India,Rajasthan,Jaipur,"Police Commissionerate, Jaipur - RSPCB",29-07-2024 21:00:00,26.9164092,75.7994901,NO2,4,26,12
India,Rajasthan,Jaipur,"RIICO Sitapura, Jaipur - RSPCB",29-07-2024 21:00:00,26.786682,75.827928,PM2.5,3,72,36
India,Rajasthan,Jaipur,"Sector-2 Murlipura, Jaipur - RSPCB",29-07-2024 21:00:00,26.960669,75.771817,CO,8,54,35
India,Rajasthan,Jaipur,"Shastri Nagar, Jaipur - RSPCB",29-07-2024 21:00:00,26.9502929,75.730943,NO2,3,36,17
India,Rajasthan,Jaipur,"Shastri Nagar, Jaipur - RSPCB",29-07-2024 21:00:00,26.9502929,75.730943,NH3,3,8,4
India,Rajasthan,Jaipur,"Shastri Nagar, Jaipur - RSPCB",29-07-2024 21:00:00,26.9502929,75.730943,SO2,NA,NA,NA
India,Rajasthan,Jaipur,"Shastri Nagar, Jaipur - RSPCB",29-07-2024 21:00:00,26.9502929,75.730943,CO,16,50,42
India,Rajasthan,Jaisalmer,"Sadar Bazar, Jaisalmer - RSPCB",29-07-2024 21:00:00,26.912329,70.909168,OZONE,5,303,81
India,Rajasthan,Jalore,"Mudtra Sili, Jalore - RSPCB",29-07-2024 21:00:00,25.344694,72.626208,SO2,3,5,4
India,Rajasthan,Jhunjhunu,"Indra Nagar, Jhunjhunu - RSPCB",29-07-2024 21:00:00,28.108988,75.386577,PM2.5,18,47,35
India,Rajasthan,Jhunjhunu,"Indra Nagar, Jhunjhunu - RSPCB",29-07-2024 21:00:00,28.108988,75.386577,CO,12,58,31
India,Rajasthan,Jhunjhunu,"Indra Nagar, Jhunjhunu - RSPCB",29-07-2024 21:00:00,28.108988,75.386577,OZONE,11,77,55
India,Rajasthan,Jodhpur,"Collectorate, Jodhpur - RSPCB",29-07-2024 21:00:00,26.268249,73.0193853,NO2,4,20,10
India,Rajasthan,Jodhpur,"Collectorate, Jodhpur - RSPCB",29-07-2024 21:00:00,26.268249,73.0193853,SO2,2,16,7
India,Rajasthan,Jodhpur,"Digari Kalan, Jodhpur - RSPCB",29-07-2024 21:00:00,26.295810,73.082283,PM2.5,16,68,32
India,Rajasthan,Jodhpur,"Digari Kalan, Jodhpur - RSPCB",29-07-2024 21:00:00,26.295810,73.082283,CO,15,32,22
India,Rajasthan,Jodhpur,"Jhalamand, Jodhpur - RSPCB",29-07-2024 21:00:00,26.215415,73.070156,PM10,40,101,67
India,Rajasthan,Karauli,"Satyawati Vihar, Karauli - RSPCB",29-07-2024 21:00:00,26.506177,77.025989,SO2,1,21,15
India,Rajasthan,Kota,"Dhanmandi, Kota - RSPCB",29-07-2024 21:00:00,25.164090,75.858137,PM10,23,81,52
India,Rajasthan,Kota,"Dhanmandi, Kota - RSPCB",29-07-2024 21:00:00,25.164090,75.858137,SO2,2,5,3
India,Rajasthan,Kota,"Shrinath Puram, Kota - RSPCB",29-07-2024 21:00:00,25.14389,75.821256,PM2.5,12,287,84
India,Rajasthan,Nagaur,"Karni Colony, Nagaur - RSPCB",29-07-2024 21:00:00,27.213494,73.734444,PM2.5,24,56,34
India,Rajasthan,Nagaur,"Karni Colony, Nagaur - RSPCB",29-07-2024 21:00:00,27.213494,73.734444,PM10,61,474,134
India,Rajasthan,Nagaur,"Karni Colony, Nagaur - RSPCB",29-07-2024 21:00:00,27.213494,73.734444,NH3,5,13,8
India,Rajasthan,Nagaur,"Karni Colony, Nagaur - RSPCB",29-07-2024 21:00:00,27.213494,73.734444,SO2,5,7,6
India,Rajasthan,Pali,"Indira Colony Vistar, Pali - RSPCB",29-07-2024 21:00:00,25.771061, 73.340227,SO2,6,11,8
India,Rajasthan,Pali,"Indira Colony Vistar, Pali - RSPCB",29-07-2024 21:00:00,25.771061, 73.340227,CO,3,64,30
India,Rajasthan,Pali,"Indira Colony Vistar, Pali - RSPCB",29-07-2024 21:00:00,25.771061, 73.340227,OZONE,22,40,28
India,Rajasthan,Pratapgarh,"Pragati Nagar, Pratapgarh - RSPCB",29-07-2024 21:00:00,24.041198,74.780702,PM2.5,3,48,19
India,Rajasthan,Pratapgarh,"Pragati Nagar, Pratapgarh - RSPCB",29-07-2024 21:00:00,24.041198,74.780702,PM10,9,49,23
India,Rajasthan,Pratapgarh,"Pragati Nagar, Pratapgarh - RSPCB",29-07-2024 21:00:00,24.041198,74.780702,CO,8,28,23
India,Rajasthan,Rajsamand,"Dhoinda, Rajsamand - RSPCB",29-07-2024 21:00:00,25.036360,73.883502,SO2,5,10,7
India,Rajasthan,Sawai Madhopur,"Sahu Nagar, Sawai Madhopur - RSPCB",29-07-2024 21:00:00,26.031443,76.359327,NO2,1,3,1
India,Rajasthan,Sawai Madhopur,"Sahu Nagar, Sawai Madhopur - RSPCB",29-07-2024 21:00:00,26.031443,76.359327,NH3,1,2,2
India,Rajasthan,Sikar,"Radhakishan Pura, Sikar - RSPCB",29-07-2024 21:00:00,27.608912,75.153302,SO2,1,3,2
India,Rajasthan,Sirohi,"Vedhaynath Colony, Sirohi - RSPCB",29-07-2024 21:00:00,24.885261,72.857549,PM2.5,NA,NA,NA
India,Rajasthan,Sirohi,"Vedhaynath Colony, Sirohi - RSPCB",29-07-2024 21:00:00,24.885261,72.857549,PM10,NA,NA,NA
India,Rajasthan,Sirohi,"Vedhaynath Colony, Sirohi - RSPCB",29-07-2024 21:00:00,24.885261,72.857549,NH3,2,4,3
India,Rajasthan,Tonk,"Shastri Nagar, Tonk - RSPCB",29-07-2024 21:00:00,26.159933,75.780517,NO2,3,16,8
India,Rajasthan,Tonk,"Shastri Nagar, Tonk - RSPCB",29-07-2024 21:00:00,26.159933,75.780517,NH3,6,18,10
India,Rajasthan,Tonk,"Shastri Nagar, Tonk - RSPCB",29-07-2024 21:00:00,26.159933,75.780517,SO2,1,5,2
India,Rajasthan,Udaipur,"Ashok Nagar, Udaipur - RSPCB",29-07-2024 21:00:00,24.5886166,73.6321397,NO2,8,40,23
India,Rajasthan,Udaipur,"Ashok Nagar, Udaipur - RSPCB",29-07-2024 21:00:00,24.5886166,73.6321397,NH3,5,18,11
India,Rajasthan,Udaipur,"Ashok Nagar, Udaipur - RSPCB",29-07-2024 21:00:00,24.5886166,73.6321397,CO,5,80,52
India,Sikkim,Gangtok,"Zero Point GICI, Gangtok - SSPCB",29-07-2024 21:00:00,27.338530,88.614099,PM10,5,15,10
India,Sikkim,Gangtok,"Zero Point GICI, Gangtok - SSPCB",29-07-2024 21:00:00,27.338530,88.614099,SO2,12,13,13
India,Sikkim,Gangtok,"Zero Point GICI, Gangtok - SSPCB",29-07-2024 21:00:00,27.338530,88.614099,OZONE,10,27,22
India,TamilNadu,Ariyalur,"Keelapalur, Ariyalur - TNPCB",29-07-2024 21:00:00,11.06825,79.07033,SO2,12,13,12
India,TamilNadu,Chennai,"Alandur Bus Depot, Chennai - CPCB",29-07-2024 21:00:00,12.9099161,80.1076538,NO2,6,11,7
India,TamilNadu,Chennai,"Kodungaiyur, Chennai - TNPCB",29-07-2024 21:00:00,13.1278,80.2642,CO,16,42,29
India,TamilNadu,Chennai,"Kodungaiyur, Chennai - TNPCB",29-07-2024 21:00:00,13.1278,80.2642,OZONE,27,69,54
India,TamilNadu,Chennai,"Manali, Chennai - CPCB",29-07-2024 21:00:00,13.164544,80.26285,PM2.5,13,69,36
India,TamilNadu,Chennai,"Manali, Chennai - CPCB",29-07-2024 21:00:00,13.164544,80.26285,NO2,6,8,7
India,TamilNadu,Chennai,"Perungudi, Chennai - TNPCB",29-07-2024 21:00:00,12.9533,80.2357,PM10,21,129,72
India,TamilNadu,Chennai,"Perungudi, Chennai - TNPCB",29-07-2024 21:00:00,12.9533,80.2357,OZONE,4,16,9
India,TamilNadu,Chennai,"Royapuram, Chennai - TNPCB",29-07-2024 21:00:00,13.1036,80.2909,NH3,NA,NA,NA
India,TamilNadu,Chennai,"Velachery Res. Area, Chennai - CPCB",29-07-2024 21:00:00,13.0052189,80.2398125,PM2.5,18,50,31
India,TamilNadu,Chennai,"Velachery Res. Area, Chennai - CPCB",29-07-2024 21:00:00,13.0052189,80.2398125,NH3,16,21,19
India,TamilNadu,Cuddalore,"Kudikadu, Cuddalore - TNPCB",29-07-2024 21:00:00,11.6829898,79.7532099,PM10,NA,NA,NA
India,TamilNadu,Thoothukudi,"Meelavittan, Thoothukudi - TNPCB",29-07-2024 21:00:00,8.816428 ,78.099039,PM10,15,122,49
India,TamilNadu,Tirupur,"Kumaran College, Tirupur - TNPCB",29-07-2024 21:00:00,11.0973603,77.3228673,OZONE,6,7,7
India,TamilNadu,Vellore,"Vasanthapuram, Vellore - TNPCB",29-07-2024 21:00:00,12.909494,79.131861,PM2.5,NA,NA,NA
India,Telangana,Hyderabad,"Central University, Hyderabad - TSPCB",29-07-2024 21:00:00,17.460103,78.334361,NH3,NA,NA,NA
India,Telangana,Hyderabad,"Central University, Hyderabad - TSPCB",29-07-2024 21:00:00,17.460103,78.334361,OZONE,NA,NA,NA
India,Telangana,Hyderabad,"ECIL Kapra, Hyderabad - TSPCB",29-07-2024 21:00:00,17.470431,78.566959,OZONE,15,32,27
India,Telangana,Hyderabad,"ICRISAT Patancheru, Hyderabad - TSPCB",29-07-2024 21:00:00,17.518400,78.278777,PM2.5,NA,NA,NA
India,Telangana,Hyderabad,"ICRISAT Patancheru, Hyderabad - TSPCB",29-07-2024 21:00:00,17.518400,78.278777,NO2,NA,NA,NA
India,Telangana,Hyderabad,"ICRISAT Patancheru, Hyderabad - TSPCB",29-07-2024 21:00:00,17.518400,78.278777,CO,2,41,24
India,Telangana,Hyderabad,"IDA Pashamylaram, Hyderabad - TSPCB",29-07-2024 21:00:00,17.5316895,78.218939,PM10,NA,NA,NA
India,Telangana,Hyderabad,"IITH Kandi, Hyderabad - TSPCB",29-07-2024 21:00:00,17.585705,78.126199,PM10,NA,NA,NA
India,Telangana,Hyderabad,"IITH Kandi, Hyderabad - TSPCB",29-07-2024 21:00:00,17.585705,78.126199,NO2,NA,NA,NA
India,Telangana,Hyderabad,"IITH Kandi, Hyderabad - TSPCB",29-07-2024 21:00:00,17.585705,78.126199,CO,20,33,24
India,Telangana,Hyderabad,"Kokapet, Hyderabad - TSPCB",29-07-2024 21:00:00,17.393559,78.339194,NO2,NA,NA,NA
India,Telangana,Hyderabad,"Kokapet, Hyderabad - TSPCB",29-07-2024 21:00:00,17.393559,78.339194,CO,29,38,34
India,Telangana,Hyderabad,"Nacharam_TSIIC IALA, Hyderabad - TSPCB",29-07-2024 21:00:00,17.429398,78.569354,NO2,10,15,12
India,Telangana,Hyderabad,"Nacharam_TSIIC IALA, Hyderabad - TSPCB",29-07-2024 21:00:00,17.429398,78.569354,CO,29,32,31
India,Telangana,Hyderabad,"New Malakpet, Hyderabad - TSPCB",29-07-2024 21:00:00,17.37206,78.50864,OZONE,10,55,21
India,Telangana,Hyderabad,"Ramachandrapuram, Hyderabad - TSPCB",29-07-2024 21:00:00,17.528544,78.286195,PM10,67,93,74
India,Telangana,Hyderabad,"Ramachandrapuram, Hyderabad - TSPCB",29-07-2024 21:00:00,17.528544,78.286195,CO,18,26,22
India,Telangana,Hyderabad,"Ramachandrapuram, Hyderabad - TSPCB",29-07-2024 21:00:00,17.528544,78.286195,OZONE,29,55,41
India,Telangana,Hyderabad,"Sanathnagar, Hyderabad - TSPCB",29-07-2024 21:00:00,17.4559458,78.4332152,SO2,4,28,11
India,Telangana,Hyderabad,"Zoo Park, Hyderabad - TSPCB",29-07-2024 21:00:00,17.349694,78.451437,PM2.5,2,22,8
India,Telangana,Hyderabad,"Zoo Park, Hyderabad - TSPCB",29-07-2024 21:00:00,17.349694,78.451437,PM10,7,19,14
India,Telangana,Hyderabad,"Zoo Park, Hyderabad - TSPCB",29-07-2024 21:00:00,17.349694,78.451437,NO2,12,15,13
India,Telangana,Hyderabad,"Zoo Park, Hyderabad - TSPCB",29-07-2024 21:00:00,17.349694,78.451437,OZONE,15,19,19
India,Tripura,Agartala,"Bardowali, Agartala - Tripura SPCB",29-07-2024 21:00:00,23.8175497,91.2726974,NH3,2,7,5
India,Uttar_Pradesh,Agra,"Rohta, Agra - UPPCB",29-07-2024 21:00:00,27.106972,78.000111,NO2,2,4,4
India,Uttar_Pradesh,Agra,"Sector-3B Avas Vikas Colony, Agra - UPPCB",29-07-2024 21:00:00,27.19412,77.96237,NH3,1,9,4
India,Uttar_Pradesh,Agra,"Shahjahan Garden, Agra - UPPCB",29-07-2024 21:00:00,27.169338,78.03582,SO2,NA,NA,NA
India,Uttar_Pradesh,Baghpat,"Sardar Patel Inter College, Baghpat - UPPCB",29-07-2024 21:00:00,28.964949,77.278761,NH3,1,1,1
India,Uttar_Pradesh,Baghpat,"Sardar Patel Inter College, Baghpat - UPPCB",29-07-2024 21:00:00,28.964949,77.278761,OZONE,5,23,20
India,Uttar_Pradesh,Bareilly,"Civil Lines, Bareilly - UPPCB",29-07-2024 21:00:00,28.359581,79.414455,PM2.5,6,12,10
India,Uttar_Pradesh,Bareilly,"Rajendra Nagar, Bareilly - UPPCB",29-07-2024 21:00:00,28.38910936,79.42963708,PM10,12,21,17
India,Uttar_Pradesh,Bulandshahr,"Yamunapuram, Bulandshahr - UPPCB",29-07-2024 21:00:00,28.406963,77.849831,PM10,37,128,65
India,Uttar_Pradesh,Bulandshahr,"Yamunapuram, Bulandshahr - UPPCB",29-07-2024 21:00:00,28.406963,77.849831,NH3,10,18,13
India,Uttar_Pradesh,Firozabad,"Nagla Bhau, Firozabad - UPPCB",29-07-2024 21:00:00,27.168897,78.376960,PM2.5,NA,NA,NA
India,Uttar_Pradesh,Firozabad,"Nagla Bhau, Firozabad - UPPCB",29-07-2024 21:00:00,27.168897,78.376960,NH3,2,2,2
India,Uttar_Pradesh,Firozabad,"Nagla Bhau, Firozabad - UPPCB",29-07-2024 21:00:00,27.168897,78.376960,SO2,15,26,20
India,Uttar_Pradesh,Firozabad,"Vibhab Nagar, Firozabad - UPPCB",29-07-2024 21:00:00,27.1594,78.3953,PM10,30,55,42
India,Uttar_Pradesh,Firozabad,"Vibhab Nagar, Firozabad - UPPCB",29-07-2024 21:00:00,27.1594,78.3953,NO2,11,14,14
India,Uttar_Pradesh,Firozabad,"Vibhab Nagar, Firozabad - UPPCB",29-07-2024 21:00:00,27.1594,78.3953,CO,14,28,19
India,Uttar_Pradesh,Firozabad,"Vibhab Nagar, Firozabad - UPPCB",29-07-2024 21:00:00,27.1594,78.3953,OZONE,9,15,13
India,Uttar_Pradesh,Ghaziabad,"Indirapuram, Ghaziabad - UPPCB",29-07-2024 21:00:00,28.646233,77.358075,CO,24,76,48
India,Uttar_Pradesh,Ghaziabad,"Indirapuram, Ghaziabad - UPPCB",29-07-2024 21:00:00,28.646233,77.358075,OZONE,14,44,32
India,Uttar_Pradesh,Ghaziabad,"Loni, Ghaziabad - UPPCB",29-07-2024 21:00:00,28.757294,77.278792,PM2.5,40,98,65
India,Uttar_Pradesh,Ghaziabad,"Sanjay Nagar, Ghaziabad - UPPCB",29-07-2024 21:00:00,28.685382,77.453839,PM10,55,113,80
India,Uttar_Pradesh,Ghaziabad,"Sanjay Nagar, Ghaziabad - UPPCB",29-07-2024 21:00:00,28.685382,77.453839,NO2,14,55,25
India,Uttar_Pradesh,Ghaziabad,"Vasundhara, Ghaziabad - UPPCB",29-07-2024 21:00:00,28.6603346,77.3572563,NO2,13,36,23
India,Uttar_Pradesh,Ghaziabad,"Vasundhara, Ghaziabad - UPPCB",29-07-2024 21:00:00,28.6603346,77.3572563,NH3,4,7,5
India,Uttar_Pradesh,Greater Noida,"Knowledge Park - III, Greater Noida - UPPCB",29-07-2024 21:00:00,28.47272,77.482000,PM2.5,22,66,45
India,Uttar_Pradesh,Greater Noida,"Knowledge Park - V, Greater Noida - UPPCB",29-07-2024 21:00:00,28.557054,77.453663,NO2,13,28,18
India,Uttar_Pradesh,Greater Noida,"Knowledge Park - V, Greater Noida - UPPCB",29-07-2024 21:00:00,28.557054,77.453663,SO2,6,16,10
India,Uttar_Pradesh,Greater Noida,"Knowledge Park - V, Greater Noida - UPPCB",29-07-2024 21:00:00,28.557054,77.453663,OZONE,13,61,47
India,Uttar_Pradesh,Hapur,"Anand Vihar, Hapur - UPPCB",29-07-2024 21:00:00,28.725645,77.749675,SO2,19,36,26
India,Uttar_Pradesh,Jhansi,"Shivaji Nagar, Jhansi - UPPCB",29-07-2024 21:00:00,25.4547,78.6039,NH3,4,6,5
India,Uttar_Pradesh,Kanpur,"NSI Kalyanpur, Kanpur - UPPCB",29-07-2024 21:00:00,26.509954,80.249612,NH3,1,1,1
India,Uttar_Pradesh,Kanpur,"Nehru Nagar, Kanpur - UPPCB",29-07-2024 21:00:00,26.4703136,80.3229863,PM10,24,90,52
India,Uttar_Pradesh,Kanpur,"Nehru Nagar, Kanpur - UPPCB",29-07-2024 21:00:00,26.4703136,80.3229863,CO,37,84,71
India,Uttar_Pradesh,Khurja,"Kalindi Kunj, Khurja - UPPCB",29-07-2024 21:00:00,28.2348927,77.8683002,PM10,59,197,93
India,Uttar_Pradesh,Khurja,"Kalindi Kunj, Khurja - UPPCB",29-07-2024 21:00:00,28.2348927,77.8683002,SO2,40,50,46
India,Uttar_Pradesh,Khurja,"Kalindi Kunj, Khurja - UPPCB",29-07-2024 21:00:00,28.2348927,77.8683002,CO,18,23,21
India,Uttar_Pradesh,Lucknow,"B R Ambedkar University, Lucknow - UPPCB",29-07-2024 21:00:00,26.766433,80.927299,CO,10,12,11
India,Uttar_Pradesh,Lucknow,"B R Ambedkar University, Lucknow - UPPCB",29-07-2024 21:00:00,26.766433,80.927299,OZONE,30,43,37
India,Uttar_Pradesh,Lucknow,"Gomti Nagar, Lucknow - UPPCB",29-07-2024 21:00:00,26.868120,81.005119,PM2.5,60,120,81
India,Uttar_Pradesh,Lucknow,"Kendriya Vidyalaya, Lucknow - CPCB",29-07-2024 21:00:00,26.906111,80.948222,PM10,14,74,57
India,Uttar_Pradesh,Lucknow,"Kukrail Picnic Spot-1, Lucknow - UPPCB",29-07-2024 21:00:00,26.90723,80.98579,NH3,3,3,3
India,Uttar_Pradesh,Lucknow,"Lalbagh, Lucknow - CPCB",29-07-2024 21:00:00,26.8458805,80.9365541,SO2,1,20,8
India,Uttar_Pradesh,Lucknow,"Lalbagh, Lucknow - CPCB",29-07-2024 21:00:00,26.8458805,80.9365541,CO,10,156,55
India,Uttar_Pradesh,Meerut,"Ganga Nagar, Meerut - UPPCB",29-07-2024 21:00:00,28.999264,77.7590354,PM10,25,68,44
India,Uttar_Pradesh,Meerut,"Ganga Nagar, Meerut - UPPCB",29-07-2024 21:00:00,28.999264,77.7590354,NH3,16,22,18
India,Uttar_Pradesh,Meerut,"Jai Bhim Nagar, Meerut - UPPCB",29-07-2024 21:00:00,28.9535882,77.7622941,NO2,10,18,14
India,Uttar_Pradesh,Meerut,"Jai Bhim Nagar, Meerut - UPPCB",29-07-2024 21:00:00,28.9535882,77.7622941,OZONE,16,69,61
India,Uttar_Pradesh,Meerut,"Pallavpuram Phase 2, Meerut - UPPCB",29-07-2024 21:00:00,29.063510,77.709723,OZONE,3,48,28
India,Uttar_Pradesh,Moradabad,"Employment Office, Moradabad - UPPCB",29-07-2024 21:00:00,28.88528,78.73880,PM10,40,68,53
India,Uttar_Pradesh,Moradabad,"Employment Office, Moradabad - UPPCB",29-07-2024 21:00:00,28.88528,78.73880,SO2,17,25,18
India,Uttar_Pradesh,Moradabad,"Jigar Colony, Moradabad - UPPCB",29-07-2024 21:00:00,28.856664,78.772638,SO2,12,28,22
India,Uttar_Pradesh,Moradabad,"Kashiram Nagar, Moradabad - UPPCB",29-07-2024 21:00:00,28.849399,78.742362,PM2.5,18,109,40
India,Uttar_Pradesh,Moradabad,"Kashiram Nagar, Moradabad - UPPCB",29-07-2024 21:00:00,28.849399,78.742362,NH3,NA,NA,NA
India,Uttar_Pradesh,Moradabad,"Kashiram Nagar, Moradabad - UPPCB",29-07-2024 21:00:00,28.849399,78.742362,SO2,12,57,34
India,Uttar_Pradesh,Moradabad,"Kashiram Nagar, Moradabad - UPPCB",29-07-2024 21:00:00,28.849399,78.742362,CO,16,24,19
India,Uttar_Pradesh,Moradabad,"Transport Nagar, Moradabad - UPPCB",29-07-2024 21:00:00,28.802625,78.753728,PM2.5,13,39,27
India,Uttar_Pradesh,Muzaffarnagar,"New Mandi, Muzaffarnagar - UPPCB",29-07-2024 21:00:00,29.4723508,77.7194031,PM2.5,20,137,55
India,Uttar_Pradesh,Muzaffarnagar,"New Mandi, Muzaffarnagar - UPPCB",29-07-2024 21:00:00,29.4723508,77.7194031,PM10,23,116,61
India,Uttar_Pradesh,Noida,"Sector - 62, Noida - IMD",29-07-2024 21:00:00,28.6245479,77.3577104,PM10,46,90,64
India,Uttar_Pradesh,Noida,"Sector-1, Noida - UPPCB",29-07-2024 21:00:00,28.5898,77.3101,SO2,10,20,12
India,Uttar_Pradesh,Prayagraj,"Jhunsi, Prayagraj - UPPCB",29-07-2024 21:00:00,25.425602,81.917152,PM10,15,72,42
India,Uttar_Pradesh,Prayagraj,"Jhunsi, Prayagraj - UPPCB",29-07-2024 21:00:00,25.425602,81.917152,CO,8,22,17
India,Uttar_Pradesh,Prayagraj,"Motilal Nehru NIT, Prayagraj - UPPCB",29-07-2024 21:00:00,25.494,81.863,NO2,11,12,12
India,Uttar_Pradesh,Prayagraj,"Nagar Nigam, Prayagraj - UPPCB",29-07-2024 21:00:00,25.44919916 ,81.82735986 ,NO2,5,5,5
India,Uttar_Pradesh,Prayagraj,"Nagar Nigam, Prayagraj - UPPCB",29-07-2024 21:00:00,25.44919916 ,81.82735986 ,CO,2,24,16
India,Uttar_Pradesh,Prayagraj,"Nagar Nigam, Prayagraj - UPPCB",29-07-2024 21:00:00,25.44919916 ,81.82735986 ,OZONE,10,14,12
India,Uttar_Pradesh,Varanasi,"Ardhali Bazar, Varanasi - UPPCB",29-07-2024 21:00:00,25.3505986,82.9083074,NO2,33,39,36
India,Uttar_Pradesh,Varanasi,"Ardhali Bazar, Varanasi - UPPCB",29-07-2024 21:00:00,25.3505986,82.9083074,OZONE,14,30,20
India,Uttar_Pradesh,Varanasi,"Bhelupur, Varanasi - UPPCB",29-07-2024 21:00:00,25.301778,82.996789,NO2,7,8,8
India,Uttar_Pradesh,Varanasi,"Bhelupur, Varanasi - UPPCB",29-07-2024 21:00:00,25.301778,82.996789,NH3,1,1,1
India,Uttar_Pradesh,Varanasi,"IESD Banaras Hindu University, Varanasi - UPPCB",29-07-2024 21:00:00,25.262326,82.995408,NH3,1,1,1
India,Uttar_Pradesh,Varanasi,"IESD Banaras Hindu University, Varanasi - UPPCB",29-07-2024 21:00:00,25.262326,82.995408,CO,1,4,1
India,Uttar_Pradesh,Varanasi,"Maldahiya, Varanasi - UPPCB",29-07-2024 21:00:00,25.32393,82.99687,PM10,28,70,50
India,Uttar_Pradesh,Vrindavan,"Omex Eternity, Vrindavan - UPPCB",29-07-2024 21:00:00,27.5714090,77.6557570,PM2.5,12,20,15
India,Uttarakhand,Dehradun,"Doon University, Dehradun - UKPCB",29-07-2024 21:00:00,30.269444,78.044167,NO2,NA,NA,NA
India,Uttarakhand,Dehradun,"Doon University, Dehradun - UKPCB",29-07-2024 21:00:00,30.269444,78.044167,OZONE,5,109,80
India,Uttarakhand,Kashipur,"Govt. Girls Inter College, Kashipur - UKPCB",29-07-2024 21:00:00,29.2124114,78.9611753,PM10,46,90,72
India,Uttarakhand,Kashipur,"Govt. Girls Inter College, Kashipur - UKPCB",29-07-2024 21:00:00,29.2124114,78.9611753,NO2,8,16,11
India,West_Bengal,Asansol,"Asansol Court Area, Asansol - WBPCB",29-07-2024 21:00:00,23.685297,86.945968,PM2.5,27,59,41
India,West_Bengal,Asansol,"Asansol Court Area, Asansol - WBPCB",29-07-2024 21:00:00,23.685297,86.945968,NO2,24,42,30
India,West_Bengal,Asansol,"Trivenidevi Bhalotia College, Asansol - WBPCB",29-07-2024 21:00:00,23.616515,87.119133,CO,16,46,19
India,West_Bengal,Barrackpore,"SVSPA Campus, Barrackpore - WBPCB",29-07-2024 21:00:00,22.7605581,88.3617589,NH3,1,1,1
India,West_Bengal,Barrackpore,"SVSPA Campus, Barrackpore - WBPCB",29-07-2024 21:00:00,22.7605581,88.3617589,SO2,3,5,4
India,West_Bengal,Barrackpore,"SVSPA Campus, Barrackpore - WBPCB",29-07-2024 21:00:00,22.7605581,88.3617589,CO,14,26,22
India,West_Bengal,Durgapur,"PCBL Residential Complex, Durgapur - WBPCB",29-07-2024 21:00:00,23.5087640,87.3544400,SO2,2,12,8
India,West_Bengal,Durgapur,"Sidhu Kanhu Indoor Stadium, Durgapur - WBPCB",29-07-2024 21:00:00,23.5404352,87.2892225,PM10,7,89,48
India,West_Bengal,Durgapur,"Sidhu Kanhu Indoor Stadium, Durgapur - WBPCB",29-07-2024 21:00:00,23.5404352,87.2892225,NH3,4,4,4
India,West_Bengal,Haldia,"Priyambada Housing Estate, Haldia - WBPCB",29-07-2024 21:00:00,22.06047,88.109737,PM10,9,38,21
India,West_Bengal,Haldia,"Priyambada Housing Estate, Haldia - WBPCB",29-07-2024 21:00:00,22.06047,88.109737,NH3,1,4,3
India,West_Bengal,Howrah,"Belur Math, Howrah - WBPCB",29-07-2024 21:00:00,22.629801,88.352017,CO,6,24,15
India,West_Bengal,Howrah,"Botanical Garden, Howrah - WBPCB",29-07-2024 21:00:00,22.554954,88.292568,PM10,8,79,32
India,West_Bengal,Howrah,"Ghusuri, Howrah - WBPCB",29-07-2024 21:00:00,22.611968,88.347422,PM10,12,37,21
India,West_Bengal,Howrah,"Ghusuri, Howrah - WBPCB",29-07-2024 21:00:00,22.611968,88.347422,OZONE,10,15,13
India,West_Bengal,Howrah,"Padmapukur, Howrah - WBPCB",29-07-2024 21:00:00,22.5687319,88.2797276,PM2.5,20,46,31
India,West_Bengal,Howrah,"Padmapukur, Howrah - WBPCB",29-07-2024 21:00:00,22.5687319,88.2797276,NO2,7,32,20
India,West_Bengal,Howrah,"Padmapukur, Howrah - WBPCB",29-07-2024 21:00:00,22.5687319,88.2797276,NH3,4,6,5
India,West_Bengal,Howrah,"Padmapukur, Howrah - WBPCB",29-07-2024 21:00:00,22.5687319,88.2797276,SO2,5,7,5
India,West_Bengal,Kolkata,"Ballygunge, Kolkata - WBPCB",29-07-2024 21:00:00,22.5367507,88.3638022,OZONE,20,32,25
India,West_Bengal,Kolkata,"Bidhannagar, Kolkata - WBPCB",29-07-2024 21:00:00,22.58157048,88.41002457,PM2.5,8,26,15
India,West_Bengal,Kolkata,"Fort William, Kolkata - WBPCB",29-07-2024 21:00:00,22.556640,88.342674,PM10,24,44,31
India,West_Bengal,Kolkata,"Fort William, Kolkata - WBPCB",29-07-2024 21:00:00,22.556640,88.342674,CO,17,32,22
India,West_Bengal,Kolkata,"Jadavpur, Kolkata - WBPCB",29-07-2024 21:00:00,22.49929,88.36917,SO2,NA,NA,NA
India,West_Bengal,Kolkata,"Jadavpur, Kolkata - WBPCB",29-07-2024 21:00:00,22.49929,88.36917,OZONE,19,30,24
India,West_Bengal,Kolkata,"Rabindra Bharati University, Kolkata - WBPCB",29-07-2024 21:00:00,22.627847,88.380669,PM10,14,27,21
India,West_Bengal,Kolkata,"Rabindra Bharati University, Kolkata - WBPCB",29-07-2024 21:00:00,22.627847,88.380669,CO,20,36,28
India,West_Bengal,Kolkata,"Rabindra Sarobar, Kolkata - WBPCB",29-07-2024 21:00:00,22.51106,88.35142,PM2.5,18,20,19
India,West_Bengal,Kolkata,"Victoria, Kolkata - WBPCB",29-07-2024 21:00:00,22.5448082,88.3403691,PM10,31,66,41
India,West_Bengal,Kolkata,"Victoria, Kolkata - WBPCB",29-07-2024 21:00:00,22.5448082,88.3403691,CO,14,35,22
India,West_Bengal,Siliguri,"Ward-32 Bapupara, Siliguri - WBPCB",29-07-2024 21:00:00,26.6879226,88.4152495,NO2,17,20,19
India,Andhra_Pradesh,Amaravati,"Secretariat, Amaravati - APPCB",29-07-2024 21:00:00,16.5150833,80.5181667,NO2,NA,NA,NA
India,Andhra_Pradesh,Anantapur,"Gulzarpet, Anantapur - APPCB",29-07-2024 21:00:00,14.675886,77.593027,PM10,61,100,82
India,Andhra_Pradesh,Chittoor,"Gangineni Cheruvu, Chittoor - APPCB",29-07-2024 21:00:00,13.204880,79.097889,CO,18,32,28
India,Andhra_Pradesh,Kadapa,"Yerramukkapalli, Kadapa - APPCB",29-07-2024 21:00:00,14.465052,78.824187,NH3,1,1,1
India,Andhra_Pradesh,Rajamahendravaram,"Anand Kala Kshetram, Rajamahendravaram - APPCB",29-07-2024 21:00:00,16.9872867,81.7363176,NH3,1,4,2
India,Andhra_Pradesh,Rajamahendravaram,"Anand Kala Kshetram, Rajamahendravaram - APPCB",29-07-2024 21:00:00,16.9872867,81.7363176,OZONE,5,6,5
India,Andhra_Pradesh,Tirupati,"Tirumala, Tirupati - APPCB",29-07-2024 21:00:00,13.67,79.35,PM2.5,15,43,26
India,Andhra_Pradesh,Tirupati,"Tirumala, Tirupati - APPCB",29-07-2024 21:00:00,13.67,79.35,NO2,12,34,20
India,Andhra_Pradesh,Tirupati,"Tirumala, Tirupati - APPCB",29-07-2024 21:00:00,13.67,79.35,CO,14,32,22
India,Andhra_Pradesh,Tirupati,"Vaikuntapuram, Tirupati - APPCB",29-07-2024 21:00:00,13.615387,79.409230,PM10,NA,NA,NA
India,Andhra_Pradesh,Vijayawada,"HB Colony, Vijayawada - APPCB",29-07-2024 21:00:00,16.536107,80.594233,PM2.5,40,70,49
India,Andhra_Pradesh,Vijayawada,"Kanuru, Vijayawada - APPCB",29-07-2024 21:00:00,16.486692,80.699436,CO,12,20,15
India,Andhra_Pradesh,Vijayawada,"Rajiv Gandhi Park, Vijayawada - APPCB",29-07-2024 21:00:00,16.509717,80.612222,NH3,5,6,6
India,Assam,Guwahati,"IITG, Guwahati - PCBA",29-07-2024 21:00:00,26.2028636,91.70046436,CO,6,12,8
India,Assam,Guwahati,"LGBI Airport, Guwahati - PCBA",29-07-2024 21:00:00,26.10887,91.589544,PM2.5,5,477,86
India,Assam,Guwahati,"LGBI Airport, Guwahati - PCBA",29-07-2024 21:00:00,26.10887,91.589544,SO2,1,9,4
India,Assam,Guwahati,"Railway Colony, Guwahati - PCBA",29-07-2024 21:00:00,26.181742,91.78063,PM2.5,11,49,25
India,Assam,Guwahati,"Railway Colony, Guwahati - PCBA",29-07-2024 21:00:00,26.181742,91.78063,SO2,3,3,3
India,Assam,Guwahati,"Railway Colony, Guwahati - PCBA",29-07-2024 21:00:00,26.181742,91.78063,OZONE,3,12,7
India,Assam,Nagaon,"Christianpatty, Nagaon - PCBA",29-07-2024 21:00:00,26.349082,92.68449,PM2.5,22,47,28
India,Assam,Nagaon,"Christianpatty, Nagaon - PCBA",29-07-2024 21:00:00,26.349082,92.68449,PM10,15,41,23
India,Assam,Nalbari,"Bata Chowk, Nalbari - PCBA",29-07-2024 21:00:00,26.446912,91.439057,PM10,33,92,58
India,Assam,Nalbari,"Bata Chowk, Nalbari - PCBA",29-07-2024 21:00:00,26.446912,91.439057,OZONE,12,20,15
India,Assam,Silchar,"Tarapur, Silchar - PCBA",29-07-2024 21:00:00,24.82827,92.79525,SO2,2,12,5
India,Assam,Sivasagar,"Girls College, Sivasagar - PCBA",29-07-2024 21:00:00,26.987634,94.636574,CO,18,28,21
India,Bihar,Araria,"Kharahiya Basti, Araria - BSPCB",29-07-2024 21:00:00,26.146529,87.454184,PM10,NA,NA,NA
India,Bihar,Araria,"Kharahiya Basti, Araria - BSPCB",29-07-2024 21:00:00,26.146529,87.454184,SO2,NA,NA,NA
India,Bihar,Arrah,"New DM Office, Arrah - BSPCB",29-07-2024 21:00:00,25.5626095,84.663264,SO2,7,11,9
India,Bihar,Arrah,"New DM Office, Arrah - BSPCB",29-07-2024 21:00:00,25.5626095,84.663264,OZONE,9,11,10
India,Bihar,Aurangabad,"Gurdeo Nagar, Aurangabad - BSPCB",29-07-2024 21:00:00,24.75746,84.366208,PM10,46,145,103
India,Bihar,Aurangabad,"Gurdeo Nagar, Aurangabad - BSPCB",29-07-2024 21:00:00,24.75746,84.366208,OZONE,7,63,48
India,Bihar,Bettiah,"Kamalnath Nagar, Bettiah - BSPCB",29-07-2024 21:00:00,26.80365,84.51954,SO2,10,18,14
India,Bihar,Bhagalpur,"DM Office_Kachari Chowk, Bhagalpur - BSPCB",29-07-2024 21:00:00,25.251013,86.989001,SO2,10,68,30
India,Bihar,Bihar Sharif,"D M Colony, Bihar Sharif - BSPCB",29-07-2024 21:00:00,25.204762,85.514960,NO2,14,47,31
India,Bihar,Chhapra,"Darshan Nagar, Chhapra - BSPCB",29-07-2024 21:00:00,25.7808257,84.7446768,NH3,7,18,11
India,Bihar,Chhapra,"Darshan Nagar, Chhapra - BSPCB",29-07-2024 21:00:00,25.7808257,84.7446768,CO,35,74,55
India,Bihar,Gaya,"Collectorate, Gaya - BSPCB",29-07-2024 21:00:00,24.7955,84.9994,SO2,NA,NA,NA
India,Bihar,Gaya,"Kareemganj, Gaya - BSPCB",29-07-2024 21:00:00,24.792403,84.992416,NO2,16,24,20
India,Bihar,Hajipur,"Industrial Area, Hajipur - BSPCB",29-07-2024 21:00:00,25.697189,85.245900,NO2,5,12,8
India,Bihar,Hajipur,"Industrial Area, Hajipur - BSPCB",29-07-2024 21:00:00,25.697189,85.245900,SO2,6,8,7
India,Bihar,Katihar,"Mirchaibari, Katihar - BSPCB",29-07-2024 21:00:00,25.560083,87.553265,NH3,1,5,3
India,Bihar,Kishanganj,"SDM Office_Khagra, Kishanganj - BSPCB",29-07-2024 21:00:00,26.0881305,87.93840336,NH3,6,9,7
India,Bihar,Motihari,"Gandak Colony, Motihari - BSPCB",29-07-2024 21:00:00,26.63086,84.90051,NO2,NA,NA,NA
India,Bihar,Munger,"Town Hall, Munger - BSPCB",29-07-2024 21:00:00,25.376776,86.471523,PM2.5,8,32,20
India,Bihar,Muzaffarpur,"Buddha Colony, Muzaffarpur - BSPCB",29-07-2024 21:00:00,26.11442,85.39813,NO2,14,22,18
India,Bihar,Muzaffarpur,"MIT-Daudpur Kothi, Muzaffarpur - BSPCB",29-07-2024 21:00:00,26.1403345,85.3650192,PM2.5,NA,NA,NA
India,Bihar,Muzaffarpur,"Muzaffarpur Collectorate, Muzaffarpur - BSPCB",29-07-2024 21:00:00,26.1209,85.3647,CO,34,82,61
India,Bihar,Muzaffarpur,"Muzaffarpur Collectorate, Muzaffarpur - BSPCB",29-07-2024 21:00:00,26.1209,85.3647,OZONE,25,163,105
India,Bihar,Patna,"Govt. High School Shikarpur, Patna - BSPCB",29-07-2024 21:00:00,25.592539,85.227158,PM2.5,41,64,52
India,Bihar,Patna,"Govt. High School Shikarpur, Patna - BSPCB",29-07-2024 21:00:00,25.592539,85.227158,NH3,4,5,5
India,Bihar,Patna,"Govt. High School Shikarpur, Patna - BSPCB",29-07-2024 21:00:00,25.592539,85.227158,SO2,10,12,11
India,Bihar,Patna,"Govt. High School Shikarpur, Patna - BSPCB",29-07-2024 21:00:00,25.592539,85.227158,OZONE,29,37,33
India,Bihar,Patna,"Muradpur, Patna - BSPCB",29-07-2024 21:00:00,25.619651,85.147382,NO2,15,22,18
India,Bihar,Patna,"Muradpur, Patna - BSPCB",29-07-2024 21:00:00,25.619651,85.147382,SO2,4,8,5
India,Bihar,Patna,"Rajbansi Nagar, Patna - BSPCB",29-07-2024 21:00:00,25.599486,85.113666,PM2.5,30,70,47
India,Bihar,Patna,"Rajbansi Nagar, Patna - BSPCB",29-07-2024 21:00:00,25.599486,85.113666,PM10,40,80,59
India,Bihar,Patna,"Rajbansi Nagar, Patna - BSPCB",29-07-2024 21:00:00,25.599486,85.113666,NH3,2,4,3
India,Bihar,Patna,"Samanpura, Patna - BSPCB",29-07-2024 21:00:00,25.596727,85.085624,PM2.5,37,88,67
India,Bihar,Purnia,"Mariam Nagar, Purnia - BSPCB",29-07-2024 21:00:00,25.366336,87.117468,SO2,7,9,8
India,Bihar,Purnia,"Mariam Nagar, Purnia - BSPCB",29-07-2024 21:00:00,25.366336,87.117468,OZONE,1,24,5
India,Bihar,Rajgir,"Dangi Tola, Rajgir - BSPCB",29-07-2024 21:00:00,25.03280,85.41948,NO2,NA,NA,NA
India,Bihar,Rajgir,"Dangi Tola, Rajgir - BSPCB",29-07-2024 21:00:00,25.03280,85.41948,NH3,1,2,1
India,Bihar,Rajgir,"Dangi Tola, Rajgir - BSPCB",29-07-2024 21:00:00,25.03280,85.41948,SO2,NA,NA,NA
India,Bihar,Rajgir,"Dangi Tola, Rajgir - BSPCB",29-07-2024 21:00:00,25.03280,85.41948,CO,38,38,38
India,Bihar,Sasaram,"Dada Peer, Sasaram - BSPCB",29-07-2024 21:00:00,24.952822,84.002396,PM2.5,13,35,23
India,Bihar,Siwan,"Chitragupta Nagar, Siwan - BSPCB",29-07-2024 21:00:00,26.2271665,84.3570427,PM10,NA,NA,NA
India,Bihar,Siwan,"Chitragupta Nagar, Siwan - BSPCB",29-07-2024 21:00:00,26.2271665,84.3570427,OZONE,2,9,4
India,Chandigarh,Chandigarh,"Sector 22, Chandigarh - CPCC",29-07-2024 21:00:00,30.735567,76.775714,PM2.5,NA,NA,NA
India,Chandigarh,Chandigarh,"Sector-53, Chandigarh - CPCC",29-07-2024 21:00:00,30.719859,76.738637,NH3,1,16,7
India,Chandigarh,Chandigarh,"Sector-53, Chandigarh - CPCC",29-07-2024 21:00:00,30.719859,76.738637,CO,24,78,58
India,Chhattisgarh,Bhilai,"32Bungalows, Bhilai - CECB",29-07-2024 21:00:00,21.194815,81.314770,NH3,8,8,8
India,Chhattisgarh,Bhilai,"Civic Center, Bhilai - Bhilai Steel Plant",29-07-2024 21:00:00,21.185571,81.343175,PM2.5,2,40,15
India,Chhattisgarh,Chhal,"Nawapara SECL Colony, Chhal - CECB",29-07-2024 21:00:00,22.118125,83.140608,PM2.5,3,12,5
India,Chhattisgarh,Chhal,"Nawapara SECL Colony, Chhal - CECB",29-07-2024 21:00:00,22.118125,83.140608,PM10,8,37,17
India,Chhattisgarh,Chhal,"Nawapara SECL Colony, Chhal - CECB",29-07-2024 21:00:00,22.118125,83.140608,CO,18,46,34
India,Chhattisgarh,Korba,"Rampur, Korba - CECB",29-07-2024 21:00:00,22.368195,82.746431,SO2,5,17,9
India,Chhattisgarh,Korba,"Urja Nagar, Korba - CECB",29-07-2024 21:00:00,22.348441,82.549611,NH3,2,5,4
India,Chhattisgarh,Korba,"Urja Nagar, Korba - CECB",29-07-2024 21:00:00,22.348441,82.549611,OZONE,1,79,2
India,Chhattisgarh,Kunjemura,"OP Jindal School, Kunjemura - CECB",29-07-2024 21:00:00,22.126650,83.483212,NH3,2,3,2
India,Chhattisgarh,Raipur,"AIIMS, Raipur - CECB",29-07-2024 21:00:00,21.258815,81.578979,PM2.5,2,31,10
India,Chhattisgarh,Raipur,"AIIMS, Raipur - CECB",29-07-2024 21:00:00,21.258815,81.578979,NH3,6,6,6
India,Chhattisgarh,Raipur,"Bhatagaon New ISBT, Raipur - CECB",29-07-2024 21:00:00,21.219665,81.630094,CO,13,24,20
India,Chhattisgarh,Raipur,"Krishak Nagar, Raipur - CECB",29-07-2024 21:00:00,21.237755,81.705301,PM2.5,3,39,11
India,Chhattisgarh,Raipur,"Krishak Nagar, Raipur - CECB",29-07-2024 21:00:00,21.237755,81.705301,CO,10,20,18
India,Chhattisgarh,Raipur,"Siltara Phase-II, Raipur - CECB",29-07-2024 21:00:00,21.371751,81.664929,OZONE,3,4,3
India,Delhi,Delhi,"Anand Vihar, Delhi - DPCC",29-07-2024 21:00:00,28.647622,77.3158090,PM10,19,126,56
India,Delhi,Delhi,"Anand Vihar, Delhi - DPCC",29-07-2024 21:00:00,28.647622,77.3158090,NO2,12,93,34
India,Delhi,Delhi,"Anand Vihar, Delhi - DPCC",29-07-2024 21:00:00,28.647622,77.3158090,NH3,6,14,9
India,Delhi,Delhi,"Ashok Vihar, Delhi - DPCC",29-07-2024 21:00:00,28.695381,77.181665,CO,13,52,37
India,Delhi,Delhi,"Bawana, Delhi - DPCC",29-07-2024 21:00:00,28.776200,77.051074,PM2.5,NA,NA,NA
India,Delhi,Delhi,"Burari Crossing, Delhi - IMD",29-07-2024 21:00:00,28.7256504,77.2011573,CO,2,10,3
India,Delhi,Delhi,"DTU, Delhi - CPCB",29-07-2024 21:00:00,28.7500499,77.1112615,NO2,40,53,44
India,Delhi,Delhi,"ITO, Delhi - CPCB",29-07-2024 21:00:00,28.628624,77.241060,PM10,59,100,77
India,Delhi,Delhi,"ITO, Delhi - CPCB",29-07-2024 21:00:00,28.628624,77.241060,SO2,1,16,10
India,Delhi,Delhi,"Jawaharlal Nehru Stadium, Delhi - DPCC",29-07-2024 21:00:00,28.580280,77.233829,PM10,34,72,52
India,Delhi,Delhi,"Lodhi Road, Delhi - IMD",29-07-2024 21:00:00,28.5918245,77.2273074,OZONE,35,74,68
India,Delhi,Delhi,"Mandir Marg, Delhi - DPCC",29-07-2024 21:00:00,28.636429,77.201067,NH3,8,14,10
India,Delhi,Delhi,"Mandir Marg, Delhi - DPCC",29-07-2024 21:00:00,28.636429,77.201067,CO,2,48,43
India,Delhi,Delhi,"Mundka, Delhi - DPCC",29-07-2024 21:00:00,28.684678,77.076574,NH3,8,19,12
India,Delhi,Delhi,"NSIT Dwarka, Delhi - CPCB",29-07-2024 21:00:00,28.60909,77.0325413,PM2.5,57,89,78
India,Delhi,Delhi,"NSIT Dwarka, Delhi - CPCB",29-07-2024 21:00:00,28.60909,77.0325413,NO2,23,34,28
India,Delhi,Delhi,"NSIT Dwarka, Delhi - CPCB",29-07-2024 21:00:00,28.60909,77.0325413,SO2,11,20,16
India,Delhi,Delhi,"Najafgarh, Delhi - DPCC",29-07-2024 21:00:00,28.570173,76.933762,NO2,6,10,7
India,Delhi,Delhi,"Narela, Delhi - DPCC",29-07-2024 21:00:00,28.822836,77.101981,NO2,12,52,31
India,Delhi,Delhi,"Nehru Nagar, Delhi - DPCC",29-07-2024 21:00:00,28.567890,77.250515,NH3,3,6,5
India,Delhi,Delhi,"Nehru Nagar, Delhi - DPCC",29-07-2024 21:00:00,28.567890,77.250515,SO2,2,8,5
India,Delhi,Delhi,"Okhla Phase-2, Delhi - DPCC",29-07-2024 21:00:00,28.530785,77.271255,NH3,11,22,15
India,Delhi,Delhi,"Patparganj, Delhi - DPCC",29-07-2024 21:00:00,28.623763,77.287209,OZONE,7,47,39
India,Delhi,Delhi,"Punjabi Bagh, Delhi - DPCC",29-07-2024 21:00:00,28.674045,77.131023,PM10,53,131,82
India,Delhi,Delhi,"Punjabi Bagh, Delhi - DPCC",29-07-2024 21:00:00,28.674045,77.131023,CO,24,40,28
India,Delhi,Delhi,"Pusa, Delhi - DPCC",29-07-2024 21:00:00,28.639652,77.146275,PM10,14,92,48
India,Delhi,Delhi,"Pusa, Delhi - DPCC",29-07-2024 21:00:00,28.639652,77.146275,CO,18,110,57
India,Delhi,Delhi,"Pusa, Delhi - IMD",29-07-2024 21:00:00,28.636110,77.173332,PM2.5,7,87,44
India,Delhi,Delhi,"Pusa, Delhi - IMD",29-07-2024 21:00:00,28.636110,77.173332,OZONE,1,24,9
India,Delhi,Delhi,"R K Puram, Delhi - DPCC",29-07-2024 21:00:00,28.563262,77.186937,PM2.5,42,88,64
India,Delhi,Delhi,"Rohini, Delhi - DPCC",29-07-2024 21:00:00,28.732528,77.119920,NH3,9,20,13
India,Delhi,Delhi,"Sirifort, Delhi - CPCB",29-07-2024 21:00:00,28.5504249,77.2159377,PM10,41,169,81
India,Delhi,Delhi,"Sirifort, Delhi - CPCB",29-07-2024 21:00:00,28.5504249,77.2159377,SO2,50,52,51
India,Delhi,Delhi,"Sonia Vihar, Delhi - DPCC",29-07-2024 21:00:00,28.710508,77.249485,PM10,57,116,91
India,Delhi,Delhi,"Sonia Vihar, Delhi - DPCC",29-07-2024 21:00:00,28.710508,77.249485,NO2,22,46,29
India,Delhi,Delhi,"Sonia Vihar, Delhi - DPCC",29-07-2024 21:00:00,28.710508,77.249485,OZONE,22,47,43
India,Delhi,Delhi,"Vivek Vihar, Delhi - DPCC",29-07-2024 21:00:00,28.672342,77.315260,PM2.5,NA,NA,NA
India,Delhi,Delhi,"Vivek Vihar, Delhi - DPCC",29-07-2024 21:00:00,28.672342,77.315260,PM10,NA,NA,NA
India,Delhi,Delhi,"Wazirpur, Delhi - DPCC",29-07-2024 21:00:00,28.699793,77.165453,CO,4,58,29
India,Gujarat,Ahmedabad,"Gyaspur, Ahmedabad - IITM",29-07-2024 21:00:00,22.977134,72.553024,CO,18,26,22
India,Gujarat,Ahmedabad,"Maninagar, Ahmedabad - GPCB",29-07-2024 21:00:00,23.002657,72.591912,PM10,44,135,96
India,Gujarat,Ahmedabad,"Raikhad, Ahmedabad - IITM",29-07-2024 21:00:00,23.020509,72.579261,NH3,4,8,7
India,Gujarat,Ahmedabad,"SVPI Airport Hansol, Ahmedabad - IITM",29-07-2024 21:00:00,23.076793,72.627874,PM10,45,111,82
India,Gujarat,Ahmedabad,"SVPI Airport Hansol, Ahmedabad - IITM",29-07-2024 21:00:00,23.076793,72.627874,CO,18,34,24
India,Gujarat,Ahmedabad,"SVPI Airport Hansol, Ahmedabad - IITM",29-07-2024 21:00:00,23.076793,72.627874,OZONE,7,29,24
India,Gujarat,Ahmedabad,"Sardar Vallabhbhai Patel Stadium, Ahmedabad - IITM",29-07-2024 21:00:00,23.043070,72.562968,PM2.5,22,90,53
India,Gujarat,Ahmedabad,"Sardar Vallabhbhai Patel Stadium, Ahmedabad - IITM",29-07-2024 21:00:00,23.043070,72.562968,NH3,NA,NA,NA
India,Gujarat,Ahmedabad,"Sardar Vallabhbhai Patel Stadium, Ahmedabad - IITM",29-07-2024 21:00:00,23.043070,72.562968,CO,12,55,34
India,Gujarat,Ankleshwar,"GIDC, Ankleshwar - GPCB",29-07-2024 21:00:00,21.613267,73.010555,CO,32,92,44
India,Gujarat,Gandhinagar,"GIFT City, Gandhinagar - IITM",29-07-2024 21:00:00,23.163798,72.677768,NH3,1,29,10
India,Gujarat,Gandhinagar,"GIFT City, Gandhinagar - IITM",29-07-2024 21:00:00,23.163798,72.677768,SO2,9,16,12
India,Gujarat,Gandhinagar,"Sector-10, Gandhinagar - GPCB",29-07-2024 21:00:00,23.221714,72.654328,PM2.5,31,88,60
India,Gujarat,Gandhinagar,"Sector-10, Gandhinagar - GPCB",29-07-2024 21:00:00,23.221714,72.654328,OZONE,17,18,17
India,Gujarat,Surat,"Science Center, Surat - SMC",29-07-2024 21:00:00,21.170046,72.795405,PM2.5,NA,NA,NA
India,Gujarat,Vapi,"Phase-1 GIDC, Vapi - GPCB",29-07-2024 21:00:00,20.362421,72.918013,NO2,13,14,14
India,Haryana,Ambala,"Patti Mehar, Ambala - HSPCB",29-07-2024 21:00:00,30.379589,76.778328,PM2.5,29,62,43
India,Haryana,Ambala,"Patti Mehar, Ambala - HSPCB",29-07-2024 21:00:00,30.379589,76.778328,NO2,7,22,14
India,Haryana,Ambala,"Patti Mehar, Ambala - HSPCB",29-07-2024 21:00:00,30.379589,76.778328,NH3,5,12,8
India,Haryana,Ambala,"Patti Mehar, Ambala - HSPCB",29-07-2024 21:00:00,30.379589,76.778328,SO2,2,26,9
India,Haryana,Bhiwani,"H.B. Colony, Bhiwani - HSPCB",29-07-2024 21:00:00,28.806223,76.141105,NO2,3,19,9
India,Haryana,Bhiwani,"H.B. Colony, Bhiwani - HSPCB",29-07-2024 21:00:00,28.806223,76.141105,NH3,3,6,6
India,Haryana,Bhiwani,"H.B. Colony, Bhiwani - HSPCB",29-07-2024 21:00:00,28.806223,76.141105,SO2,2,43,12
India,Haryana,Charkhi Dadri,"Mini Secretariat, Charkhi Dadri - HSPCB",29-07-2024 21:00:00,28.593883,76.270653,NO2,14,21,17
India,Haryana,Dharuhera,"Municipal Corporation Office, Dharuhera -  HSPCB",29-07-2024 21:00:00,28.206800,76.799700,SO2,4,16,9
India,Haryana,Dharuhera,"Municipal Corporation Office, Dharuhera -  HSPCB",29-07-2024 21:00:00,28.206800,76.799700,CO,22,52,27
India,Haryana,Dharuhera,"Municipal Corporation Office, Dharuhera -  HSPCB",29-07-2024 21:00:00,28.206800,76.799700,OZONE,26,95,73
India,Haryana,Faridabad,"New Industrial Town, Faridabad - HSPCB",29-07-2024 21:00:00,28.39072,77.30059,NH3,NA,NA,NA
India,Haryana,Faridabad,"Sector- 16A, Faridabad - HSPCB",29-07-2024 21:00:00,28.4088421,77.3099081,CO,2,102,59
India,Haryana,Fatehabad,"Huda Sector, Fatehabad - HSPCB",29-07-2024 21:00:00,29.503664,75.467934,PM10,38,57,46
India,Haryana,Fatehabad,"Huda Sector, Fatehabad - HSPCB",29-07-2024 21:00:00,29.503664,75.467934,OZONE,34,66,47
India,Haryana,Gurugram,"Sector-51, Gurugram - HSPCB",29-07-2024 21:00:00,28.4227,77.0667,PM2.5,44,106,70
India,Haryana,Gurugram,"Teri Gram, Gurugram - HSPCB",29-07-2024 21:00:00,28.4275,77.1465,NH3,9,15,14
India,Haryana,Gurugram,"Teri Gram, Gurugram - HSPCB",29-07-2024 21:00:00,28.4275,77.1465,SO2,2,6,4
India,Haryana,Gurugram,"Teri Gram, Gurugram - HSPCB",29-07-2024 21:00:00,28.4275,77.1465,OZONE,13,48,28
India,Haryana,Gurugram,"Vikas Sadan, Gurugram - HSPCB",29-07-2024 21:00:00,28.4501238,77.0263051,OZONE,8,68,44
India,Haryana,Jind,"Police Lines, Jind - HSPCB",29-07-2024 21:00:00,29.307814,76.337619,PM2.5,15,40,27
India,Haryana,Jind,"Police Lines, Jind - HSPCB",29-07-2024 21:00:00,29.307814,76.337619,CO,4,122,17
India,Haryana,Kaithal,"Rishi Nagar, Kaithal - HSPCB",29-07-2024 21:00:00,29.8006,76.4155,PM10,26,64,46
India,Haryana,Karnal,"Sector-12, Karnal - HSPCB",29-07-2024 21:00:00,29.695300,77.002700,NO2,7,12,10
India,Haryana,Kurukshetra,"Sector-7, Kurukshetra - HSPCB",29-07-2024 21:00:00,29.966942,76.875879,NH3,6,6,6
India,Haryana,Mandikhera,"General Hospital, Mandikhera - HSPCB",29-07-2024 21:00:00,27.9002,76.9938,NH3,17,19,18
India,Haryana,Mandikhera,"General Hospital, Mandikhera - HSPCB",29-07-2024 21:00:00,27.9002,76.9938,SO2,32,39,35
India,Haryana,Mandikhera,"General Hospital, Mandikhera - HSPCB",29-07-2024 21:00:00,27.9002,76.9938,OZONE,24,34,27
India,Haryana,Manesar,"Sector-2 IMT, Manesar - HSPCB",29-07-2024 21:00:00,28.360699,76.936090,PM2.5,17,49,29
India,Haryana,Manesar,"Sector-2 IMT, Manesar - HSPCB",29-07-2024 21:00:00,28.360699,76.936090,NH3,2,5,3
India,Haryana,Manesar,"Sector-2 IMT, Manesar - HSPCB",29-07-2024 21:00:00,28.360699,76.936090,OZONE,86,91,89
India,Haryana,Narnaul,"Shastri Nagar, Narnaul - HSPCB",29-07-2024 21:00:00,28.060249,76.113115,PM2.5,19,58,39
India,Haryana,Narnaul,"Shastri Nagar, Narnaul - HSPCB",29-07-2024 21:00:00,28.060249,76.113115,NO2,15,32,26
India,Haryana,Narnaul,"Shastri Nagar, Narnaul - HSPCB",29-07-2024 21:00:00,28.060249,76.113115,SO2,7,13,11
India,Haryana,Palwal,"Shyam Nagar, Palwal - HSPCB",29-07-2024 21:00:00,28.1485564,77.3320667,NO2,23,25,24
India,Haryana,Palwal,"Shyam Nagar, Palwal - HSPCB",29-07-2024 21:00:00,28.1485564,77.3320667,NH3,8,9,9
India,Haryana,Palwal,"Shyam Nagar, Palwal - HSPCB",29-07-2024 21:00:00,28.1485564,77.3320667,CO,6,27,18
India,Haryana,Panchkula,"Sector-6, Panchkula - HSPCB ",29-07-2024 21:00:00,30.7057778,76.8531805555555,PM2.5,7,77,34
India,Haryana,Sirsa,"F-Block, Sirsa - HSPCB",29-07-2024 21:00:00,29.536400,75.015800,SO2,6,26,21
India,Haryana,Sirsa,"F-Block, Sirsa - HSPCB",29-07-2024 21:00:00,29.536400,75.015800,OZONE,21,92,71
India,Haryana,Sonipat,"Murthal, Sonipat - HSPCB",29-07-2024 21:00:00,29.027200,77.062100,PM2.5,NA,NA,NA
India,Haryana,Sonipat,"Murthal, Sonipat - HSPCB",29-07-2024 21:00:00,29.027200,77.062100,SO2,NA,NA,NA
India,Haryana,Yamuna Nagar,"Gobind Pura, Yamuna Nagar - HSPCB",29-07-2024 21:00:00,30.1480566,77.2893471,NH3,1,6,3
India,Haryana,Yamuna Nagar,"Gobind Pura, Yamuna Nagar - HSPCB",29-07-2024 21:00:00,30.1480566,77.2893471,CO,NA,NA,NA
India,Himachal Pradesh,Baddi,"HIMUDA Complex Phase-1, Baddi - HPPCB",29-07-2024 21:00:00,30.943887,76.801991,CO,10,36,19
India,Himachal Pradesh,Baddi,"HIMUDA Complex Phase-1, Baddi - HPPCB",29-07-2024 21:00:00,30.943887,76.801991,OZONE,6,83,55
India,Jammu_and_Kashmir,Srinagar,"Rajbagh, Srinagar - JKSPCB",29-07-2024 21:00:00,34.066206,74.819820,CO,13,22,15
India,Jharkhand,Dhanbad,"Sardar Patel Nagar, Dhanbad - JSPCB",29-07-2024 21:00:00,23.80569,86.44268,OZONE,20,50,26
India,Jharkhand,Jorapokhar,"Tata Stadium, Jorapokhar - JSPCB",29-07-2024 21:00:00,23.707909,86.414670,PM10,NA,NA,NA
India,Karnataka,Bagalkot,"Vidayagiri, Bagalkot - KSPCB",29-07-2024 21:00:00,16.172806,75.659694,NH3,2,2,2
India,Karnataka,Bengaluru,"BTM Layout, Bengaluru - CPCB",29-07-2024 21:00:00,12.9135218,77.5950804,SO2,9,16,11
India,Karnataka,Bengaluru,"BTM Layout, Bengaluru - CPCB",29-07-2024 21:00:00,12.9135218,77.5950804,OZONE,17,32,26
India,Karnataka,Bengaluru,"Bapuji Nagar, Bengaluru - KSPCB",29-07-2024 21:00:00,12.951913,77.539784,NO2,14,16,15
India,Karnataka,Bengaluru,"Bapuji Nagar, Bengaluru - KSPCB",29-07-2024 21:00:00,12.951913,77.539784,NH3,1,1,1
India,Karnataka,Bengaluru,"Bapuji Nagar, Bengaluru - KSPCB",29-07-2024 21:00:00,12.951913,77.539784,CO,20,28,25
India,Karnataka,Bengaluru,"Hebbal, Bengaluru - KSPCB",29-07-2024 21:00:00,13.029152,77.585901,SO2,8,13,10
India,Karnataka,Bengaluru,"Hombegowda Nagar, Bengaluru - KSPCB",29-07-2024 21:00:00,12.938539,77.590100,PM2.5,7,31,19
India,Karnataka,Bengaluru,"Hombegowda Nagar, Bengaluru - KSPCB",29-07-2024 21:00:00,12.938539,77.590100,NO2,6,14,10
India,Karnataka,Bengaluru,"Jayanagar 5th Block, Bengaluru - KSPCB",29-07-2024 21:00:00,12.920984,77.584908,OZONE,26,28,27
India,Karnataka,Bengaluru,"Jigani, Bengaluru - KSPCB",29-07-2024 21:00:00,12.7816279,77.6299145,NO2,30,47,34
India,Karnataka,Bengaluru,"Kasturi Nagar, Bengaluru - KSPCB",29-07-2024 21:00:00,13.003872,77.664217,CO,24,25,25
India,Karnataka,Bengaluru,"RVCE-Mailasandra, Bengaluru - KSPCB",29-07-2024 21:00:00,12.921418,77.502466,OZONE,42,42,42
India,Karnataka,Bengaluru,"Sanegurava Halli, Bengaluru - KSPCB",29-07-2024 21:00:00,12.990328,77.5431385,SO2,2,3,3
India,Karnataka,Bengaluru,"Shivapura_Peenya, Bengaluru - KSPCB",29-07-2024 21:00:00,13.0246342,77.5080115,PM2.5,27,78,48
India,Karnataka,Bengaluru,"Shivapura_Peenya, Bengaluru - KSPCB",29-07-2024 21:00:00,13.0246342,77.5080115,CO,14,32,19
India,Karnataka,Bengaluru,"Silk Board, Bengaluru - KSPCB",29-07-2024 21:00:00,12.917348,77.622813,OZONE,2,9,5
India,Karnataka,Bidar,"Naubad, Bidar - KSPCB",29-07-2024 21:00:00,17.930306,77.482194,NO2,NA,NA,NA
India,Karnataka,Bidar,"Naubad, Bidar - KSPCB",29-07-2024 21:00:00,17.930306,77.482194,NH3,NA,NA,NA
India,Karnataka,Bidar,"Naubad, Bidar - KSPCB",29-07-2024 21:00:00,17.930306,77.482194,SO2,NA,NA,NA
