country,state,city,station,last_update,latitude,longitude,pollutant_id,pollutant_min,pollutant_max,pollutant_avg
India,Andhra_Pradesh,Anantapur,"Gulzarpet, Anantapur - APPCB",10-06-2024 07:00:00,14.675886,77.593027,SO2,NA,NA,NA
India,Andhra_Pradesh,Chittoor,"Gangineni Cheruvu, Chittoor - APPCB",10-06-2024 07:00:00,13.204880,79.097889,PM2.5,7,27,12
India,Andhra_Pradesh,Chittoor,"Gangineni Cheruvu, Chittoor - APPCB",10-06-2024 07:00:00,13.204880,79.097889,SO2,6,8,7
India,Andhra_Pradesh,Chittoor,"Gangineni Cheruvu, Chittoor - APPCB",10-06-2024 07:00:00,13.204880,79.097889,OZONE,67,67,67
India,Andhra_Pradesh,Kadapa,"Yerramukkapalli, Kadapa - APPCB",10-06-2024 07:00:00,14.465052,78.824187,NO2,NA,NA,NA
India,Andhra_Pradesh,Kadapa,"Yerramukkapalli, Kadapa - APPCB",10-06-2024 07:00:00,14.465052,78.824187,CO,NA,NA,NA
India,Andhra_Pradesh,Rajamahendravaram,"Anand Kala Kshetram, Rajamahendravaram - APPCB",10-06-2024 07:00:00,16.9872867,81.7363176,PM2.5,3,46,17
India,Andhra_Pradesh,Rajamahendravaram,"Anand Kala Kshetram, Rajamahendravaram - APPCB",10-06-2024 07:00:00,16.9872867,81.7363176,NH3,1,6,3
India,Andhra_Pradesh,Tirupati,"Tirumala, Tirupati - APPCB",10-06-2024 07:00:00,13.67,79.35,NH3,1,2,1
India,Andhra_Pradesh,Tirupati,"Tirumala, Tirupati - APPCB",10-06-2024 07:00:00,13.67,79.35,OZONE,20,37,26
India,Andhra_Pradesh,Tirupati,"Vaikuntapuram, Tirupati - APPCB",10-06-2024 07:00:00,13.615387,79.409230,PM10,NA,NA,NA
India,Andhra_Pradesh,Vijayawada,"HB Colony, Vijayawada - APPCB",10-06-2024 07:00:00,16.536107,80.594233,NO2,11,15,13
India,Andhra_Pradesh,Vijayawada,"HB Colony, Vijayawada - APPCB",10-06-2024 07:00:00,16.536107,80.594233,NH3,4,5,4
India,Andhra_Pradesh,Vijayawada,"HB Colony, Vijayawada - APPCB",10-06-2024 07:00:00,16.536107,80.594233,OZONE,15,30,22
India,Andhra_Pradesh,Vijayawada,"Kanuru, Vijayawada - APPCB",10-06-2024 07:00:00,16.486692,80.699436,SO2,6,8,7
India,Andhra_Pradesh,Vijayawada,"Kanuru, Vijayawada - APPCB",10-06-2024 07:00:00,16.486692,80.699436,OZONE,40,40,40
India,Andhra_Pradesh,Vijayawada,"Rajiv Gandhi Park, Vijayawada - APPCB",10-06-2024 07:00:00,16.509717,80.612222,OZONE,29,53,32
India,Andhra_Pradesh,Vijayawada,"Rajiv Nagar, Vijayawada - APPCB",10-06-2024 07:00:00,16.554731,80.649110,PM10,53,75,57
India,Andhra_Pradesh,Visakhapatnam,"GVM Corporation, Visakhapatnam - APPCB",10-06-2024 07:00:00,17.72,83.3,NH3,1,9,3
India,Andhra_Pradesh,Visakhapatnam,"GVM Corporation, Visakhapatnam - APPCB",10-06-2024 07:00:00,17.72,83.3,OZONE,8,61,24
India,Arunachal_Pradesh,Naharlagun,"Naharlagun, Naharlagun - APSPCB",10-06-2024 07:00:00,27.103358,93.679645,PM10,NA,NA,NA
India,Assam,Guwahati,"IITG, Guwahati - PCBA",10-06-2024 07:00:00,26.2028636,91.70046436,NH3,5,5,5
India,Assam,Guwahati,"LGBI Airport, Guwahati - PCBA",10-06-2024 07:00:00,26.10887,91.589544,PM2.5,13,379,113
India,Assam,Guwahati,"LGBI Airport, Guwahati - PCBA",10-06-2024 07:00:00,26.10887,91.589544,CO,40,72,54
India,Assam,Guwahati,"Pan Bazaar, Guwahati - PCBA",10-06-2024 07:00:00,26.187500,91.744194,OZONE,16,17,16
India,Assam,Guwahati,"Railway Colony, Guwahati - PCBA",10-06-2024 07:00:00,26.181742,91.78063,PM10,23,132,76
India,Assam,Guwahati,"Railway Colony, Guwahati - PCBA",10-06-2024 07:00:00,26.181742,91.78063,NO2,3,3,3
India,Assam,Guwahati,"Railway Colony, Guwahati - PCBA",10-06-2024 07:00:00,26.181742,91.78063,CO,22,82,57
India,Assam,Guwahati,"Railway Colony, Guwahati - PCBA",10-06-2024 07:00:00,26.181742,91.78063,OZONE,1,12,8
India,Assam,Nagaon,"Christianpatty, Nagaon - PCBA",10-06-2024 07:00:00,26.349082,92.68449,NO2,2,21,7
India,Assam,Nagaon,"Christianpatty, Nagaon - PCBA",10-06-2024 07:00:00,26.349082,92.68449,SO2,10,11,10
India,Assam,Nagaon,"Christianpatty, Nagaon - PCBA",10-06-2024 07:00:00,26.349082,92.68449,CO,34,56,39
India,Assam,Nalbari,"Bata Chowk, Nalbari - PCBA",10-06-2024 07:00:00,26.446912,91.439057,PM10,10,189,88
India,Assam,Nalbari,"Bata Chowk, Nalbari - PCBA",10-06-2024 07:00:00,26.446912,91.439057,SO2,4,10,6
India,Assam,Nalbari,"Bata Chowk, Nalbari - PCBA",10-06-2024 07:00:00,26.446912,91.439057,CO,16,54,24
India,Assam,Nalbari,"Bata Chowk, Nalbari - PCBA",10-06-2024 07:00:00,26.446912,91.439057,OZONE,30,43,38
India,Assam,Sivasagar,"Girls College, Sivasagar - PCBA",10-06-2024 07:00:00,26.987634,94.636574,PM2.5,31,53,38
India,Bihar,Arrah,"New DM Office, Arrah - BSPCB",10-06-2024 07:00:00,25.5626095,84.663264,SO2,NA,NA,NA
India,Bihar,Aurangabad,"Gurdeo Nagar, Aurangabad - BSPCB",10-06-2024 07:00:00,24.75746,84.366208,PM2.5,NA,NA,NA
India,Bihar,Aurangabad,"Gurdeo Nagar, Aurangabad - BSPCB",10-06-2024 07:00:00,24.75746,84.366208,PM10,NA,NA,NA
India,Bihar,Aurangabad,"Gurdeo Nagar, Aurangabad - BSPCB",10-06-2024 07:00:00,24.75746,84.366208,NH3,4,28,15
India,Bihar,Aurangabad,"Gurdeo Nagar, Aurangabad - BSPCB",10-06-2024 07:00:00,24.75746,84.366208,SO2,9,22,15
India,Bihar,Bhagalpur,"DM Office_Kachari Chowk, Bhagalpur - BSPCB",10-06-2024 07:00:00,25.251013,86.989001,NH3,3,6,4
India,Bihar,Bhagalpur,"Mayaganj, Bhagalpur - BSPCB",10-06-2024 07:00:00,25.265194,87.012947,NH3,NA,NA,NA
India,Bihar,Bihar Sharif,"D M Colony, Bihar Sharif - BSPCB",10-06-2024 07:00:00,25.204762,85.514960,SO2,2,3,3
India,Bihar,Buxar,"Charitra Van, Buxar - BSPCB (Formerly known as Central Jail)",10-06-2024 07:00:00,25.567520,83.966379,PM10,171,438,327
India,Bihar,Buxar,"Charitra Van, Buxar - BSPCB (Formerly known as Central Jail)",10-06-2024 07:00:00,25.567520,83.966379,NH3,3,3,3
India,Bihar,Chhapra,"Darshan Nagar, Chhapra - BSPCB",10-06-2024 07:00:00,25.7808257,84.7446768,CO,26,48,36
India,Bihar,Gaya,"Kareemganj, Gaya - BSPCB",10-06-2024 07:00:00,24.792403,84.992416,NH3,3,19,7
India,Bihar,Gaya,"SFTI Kusdihra, Gaya - BSPCB",10-06-2024 07:00:00,24.762518,84.982348,PM10,65,117,100
India,Bihar,Gaya,"SFTI Kusdihra, Gaya - BSPCB",10-06-2024 07:00:00,24.762518,84.982348,OZONE,26,130,37
India,Bihar,Katihar,"Mirchaibari, Katihar - BSPCB",10-06-2024 07:00:00,25.560083,87.553265,NO2,NA,NA,NA
India,Bihar,Katihar,"Mirchaibari, Katihar - BSPCB",10-06-2024 07:00:00,25.560083,87.553265,NH3,1,1,1
India,Bihar,Kishanganj,"SDM Office_Khagra, Kishanganj - BSPCB",10-06-2024 07:00:00,26.0881305,87.93840336,PM2.5,20,55,35
India,Bihar,Kishanganj,"SDM Office_Khagra, Kishanganj - BSPCB",10-06-2024 07:00:00,26.0881305,87.93840336,OZONE,19,32,20
India,Bihar,Motihari,"Gandak Colony, Motihari - BSPCB",10-06-2024 07:00:00,26.63086,84.90051,PM10,NA,NA,NA
India,Bihar,Motihari,"Gandak Colony, Motihari - BSPCB",10-06-2024 07:00:00,26.63086,84.90051,NO2,6,44,20
India,Bihar,Motihari,"Gandak Colony, Motihari - BSPCB",10-06-2024 07:00:00,26.63086,84.90051,NH3,2,14,4
India,Bihar,Munger,"Town Hall, Munger - BSPCB",10-06-2024 07:00:00,25.376776,86.471523,CO,40,175,77
India,Bihar,Muzaffarpur,"Buddha Colony, Muzaffarpur - BSPCB",10-06-2024 07:00:00,26.11442,85.39813,CO,18,41,25
India,Bihar,Muzaffarpur,"Muzaffarpur Collectorate, Muzaffarpur - BSPCB",10-06-2024 07:00:00,26.1209,85.3647,PM2.5,NA,NA,NA
India,Bihar,Patna,"DRM Office Danapur, Patna - BSPCB",10-06-2024 07:00:00,25.586562,85.043586,PM2.5,115,338,256
India,Bihar,Patna,"IGSC Planetarium Complex, Patna - BSPCB",10-06-2024 07:00:00,25.610369,85.132568,SO2,4,6,5
India,Bihar,Patna,"IGSC Planetarium Complex, Patna - BSPCB",10-06-2024 07:00:00,25.610369,85.132568,CO,10,14,12
India,Bihar,Patna,"Muradpur, Patna - BSPCB",10-06-2024 07:00:00,25.619651,85.147382,OZONE,5,62,6
India,Bihar,Patna,"Samanpura, Patna - BSPCB",10-06-2024 07:00:00,25.596727,85.085624,PM10,164,358,235
India,Bihar,Patna,"Samanpura, Patna - BSPCB",10-06-2024 07:00:00,25.596727,85.085624,NO2,6,25,11
India,Bihar,Patna,"Samanpura, Patna - BSPCB",10-06-2024 07:00:00,25.596727,85.085624,OZONE,30,157,42
India,Bihar,Rajgir,"Dangi Tola, Rajgir - BSPCB",10-06-2024 07:00:00,25.03280,85.41948,NH3,1,2,1
India,Bihar,Rajgir,"Dangi Tola, Rajgir - BSPCB",10-06-2024 07:00:00,25.03280,85.41948,CO,32,47,38
India,Bihar,Samastipur,"DM Office_Kasipur, Samastipur - BSPCB",10-06-2024 07:00:00,25.859655,85.77944,NO2,4,5,4
India,Bihar,Sasaram,"Dada Peer, Sasaram - BSPCB",10-06-2024 07:00:00,24.952822,84.002396,CO,42,102,65
India,Chandigarh,Chandigarh,"Sector 22, Chandigarh - CPCC",10-06-2024 07:00:00,30.735567,76.775714,PM2.5,17,85,53
India,Chandigarh,Chandigarh,"Sector 22, Chandigarh - CPCC",10-06-2024 07:00:00,30.735567,76.775714,PM10,55,128,90
India,Chandigarh,Chandigarh,"Sector 22, Chandigarh - CPCC",10-06-2024 07:00:00,30.735567,76.775714,NH3,6,15,8
India,Chandigarh,Chandigarh,"Sector 22, Chandigarh - CPCC",10-06-2024 07:00:00,30.735567,76.775714,SO2,6,42,17
India,Chandigarh,Chandigarh,"Sector-25, Chandigarh - CPCC",10-06-2024 07:00:00,30.751462,76.762879,PM2.5,NA,NA,NA
India,Chandigarh,Chandigarh,"Sector-53, Chandigarh - CPCC",10-06-2024 07:00:00,30.719859,76.738637,NO2,11,75,33
India,Chandigarh,Chandigarh,"Sector-53, Chandigarh - CPCC",10-06-2024 07:00:00,30.719859,76.738637,NH3,4,6,5
India,Chhattisgarh,Bhilai,"32Bungalows, Bhilai - CECB",10-06-2024 07:00:00,21.194815,81.314770,NH3,6,7,6
India,Chhattisgarh,Bhilai,"Civic Center, Bhilai - Bhilai Steel Plant",10-06-2024 07:00:00,21.185571,81.343175,SO2,9,12,10
India,Chhattisgarh,Bhilai,"Civic Center, Bhilai - Bhilai Steel Plant",10-06-2024 07:00:00,21.185571,81.343175,CO,21,101,33
India,Chhattisgarh,Bilaspur,"Mangala, Bilaspur - NTPC",10-06-2024 07:00:00,22.08815,82.13737,PM10,33,82,55
India,Chhattisgarh,Bilaspur,"Mangala, Bilaspur - NTPC",10-06-2024 07:00:00,22.08815,82.13737,NO2,13,17,15
India,Chhattisgarh,Chhal,"Nawapara SECL Colony, Chhal - CECB",10-06-2024 07:00:00,22.118125,83.140608,CO,16,94,58
India,Chhattisgarh,Korba,"Urja Nagar, Korba - CECB",10-06-2024 07:00:00,22.348441,82.549611,OZONE,NA,NA,NA
India,Chhattisgarh,Kunjemura,"OP Jindal School, Kunjemura - CECB",10-06-2024 07:00:00,22.126650,83.483212,NO2,19,119,55
India,Chhattisgarh,Raipur,"AIIMS, Raipur - CECB",10-06-2024 07:00:00,21.258815,81.578979,PM2.5,18,52,36
India,Chhattisgarh,Raipur,"AIIMS, Raipur - CECB",10-06-2024 07:00:00,21.258815,81.578979,PM10,27,66,46
India,Chhattisgarh,Raipur,"AIIMS, Raipur - CECB",10-06-2024 07:00:00,21.258815,81.578979,SO2,3,11,6
India,Chhattisgarh,Raipur,"AIIMS, Raipur - CECB",10-06-2024 07:00:00,21.258815,81.578979,CO,18,32,26
India,Chhattisgarh,Raipur,"Bhatagaon New ISBT, Raipur - CECB",10-06-2024 07:00:00,21.219665,81.630094,PM2.5,14,32,24
India,Chhattisgarh,Raipur,"Krishak Nagar, Raipur - CECB",10-06-2024 07:00:00,21.237755,81.705301,NH3,NA,NA,NA
India,Chhattisgarh,Raipur,"Siltara Phase-II, Raipur - CECB",10-06-2024 07:00:00,21.371751,81.664929,CO,24,87,55
India,Delhi,Delhi,"Alipur, Delhi - DPCC",10-06-2024 07:00:00,28.815329,77.153010,NO2,4,43,14
India,Delhi,Delhi,"Anand Vihar, Delhi - DPCC",10-06-2024 07:00:00,28.647622,77.3158090,SO2,16,45,27
India,Delhi,Delhi,"Ashok Vihar, Delhi - DPCC",10-06-2024 07:00:00,28.695381,77.181665,NO2,12,103,38
India,Delhi,Delhi,"Ashok Vihar, Delhi - DPCC",10-06-2024 07:00:00,28.695381,77.181665,NH3,9,18,14
India,Delhi,Delhi,"Aya Nagar, Delhi - IMD",10-06-2024 07:00:00,28.4706914,77.1099364,PM10,66,155,113
India,Delhi,Delhi,"Aya Nagar, Delhi - IMD",10-06-2024 07:00:00,28.4706914,77.1099364,OZONE,16,47,19
India,Delhi,Delhi,"Bawana, Delhi - DPCC",10-06-2024 07:00:00,28.776200,77.051074,PM2.5,20,323,129
India,Delhi,Delhi,"Bawana, Delhi - DPCC",10-06-2024 07:00:00,28.776200,77.051074,OZONE,29,174,65
India,Delhi,Delhi,"Burari Crossing, Delhi - IMD",10-06-2024 07:00:00,28.7256504,77.2011573,PM10,114,233,158
India,Delhi,Delhi,"Burari Crossing, Delhi - IMD",10-06-2024 07:00:00,28.7256504,77.2011573,OZONE,6,83,20
India,Delhi,Delhi,"CRRI Mathura Road, Delhi - IMD",10-06-2024 07:00:00,28.5512005,77.2735737,NO2,11,43,27
India,Delhi,Delhi,"DTU, Delhi - CPCB",10-06-2024 07:00:00,28.7500499,77.1112615,NH3,17,18,18
India,Delhi,Delhi,"DTU, Delhi - CPCB",10-06-2024 07:00:00,28.7500499,77.1112615,SO2,40,52,45
India,Delhi,Delhi,"DTU, Delhi - CPCB",10-06-2024 07:00:00,28.7500499,77.1112615,CO,26,54,43
India,Delhi,Delhi,"Dr. Karni Singh Shooting Range, Delhi - DPCC",10-06-2024 07:00:00,28.498571,77.264840,PM2.5,30,100,64
India,Delhi,Delhi,"Dwarka-Sector 8, Delhi - DPCC ",10-06-2024 07:00:00,28.5710274,77.0719006,SO2,11,68,24
India,Delhi,Delhi,"Dwarka-Sector 8, Delhi - DPCC ",10-06-2024 07:00:00,28.5710274,77.0719006,CO,13,101,37
India,Delhi,Delhi,"IGI Airport (T3), Delhi - IMD",10-06-2024 07:00:00,28.5627763,77.1180053,NO2,16,64,34
India,Delhi,Delhi,"IHBAS, Dilshad Garden, Delhi - CPCB",10-06-2024 07:00:00,28.6811736,77.3025234,PM10,105,154,130
India,Delhi,Delhi,"IHBAS, Dilshad Garden, Delhi - CPCB",10-06-2024 07:00:00,28.6811736,77.3025234,SO2,3,77,34
India,Delhi,Delhi,"ITO, Delhi - CPCB",10-06-2024 07:00:00,28.628624,77.241060,PM10,64,111,88
India,Delhi,Delhi,"ITO, Delhi - CPCB",10-06-2024 07:00:00,28.628624,77.241060,NO2,53,70,61
India,Delhi,Delhi,"Major Dhyan Chand National Stadium, Delhi - DPCC",10-06-2024 07:00:00,28.611281,77.237738,NO2,11,146,54
India,Delhi,Delhi,"Major Dhyan Chand National Stadium, Delhi - DPCC",10-06-2024 07:00:00,28.611281,77.237738,SO2,10,41,21
India,Delhi,Delhi,"Mandir Marg, Delhi - DPCC",10-06-2024 07:00:00,28.636429,77.201067,NH3,3,4,4
India,Delhi,Delhi,"Mandir Marg, Delhi - DPCC",10-06-2024 07:00:00,28.636429,77.201067,CO,16,59,36
India,Delhi,Delhi,"Mundka, Delhi - DPCC",10-06-2024 07:00:00,28.684678,77.076574,NH3,5,8,6
India,Delhi,Delhi,"Mundka, Delhi - DPCC",10-06-2024 07:00:00,28.684678,77.076574,CO,31,60,51
India,Delhi,Delhi,"NSIT Dwarka, Delhi - CPCB",10-06-2024 07:00:00,28.60909,77.0325413,SO2,13,34,22
India,Delhi,Delhi,"Najafgarh, Delhi - DPCC",10-06-2024 07:00:00,28.570173,76.933762,PM2.5,5,314,89
India,Delhi,Delhi,"Najafgarh, Delhi - DPCC",10-06-2024 07:00:00,28.570173,76.933762,SO2,4,37,20
India,Delhi,Delhi,"Nehru Nagar, Delhi - DPCC",10-06-2024 07:00:00,28.567890,77.250515,PM2.5,27,230,91
India,Delhi,Delhi,"Okhla Phase-2, Delhi - DPCC",10-06-2024 07:00:00,28.530785,77.271255,PM2.5,22,107,60
India,Delhi,Delhi,"Patparganj, Delhi - DPCC",10-06-2024 07:00:00,28.623763,77.287209,PM2.5,40,170,86
India,Delhi,Delhi,"Patparganj, Delhi - DPCC",10-06-2024 07:00:00,28.623763,77.287209,CO,14,103,55
India,Delhi,Delhi,"Punjabi Bagh, Delhi - DPCC",10-06-2024 07:00:00,28.674045,77.131023,SO2,9,50,30
India,Delhi,Delhi,"R K Puram, Delhi - DPCC",10-06-2024 07:00:00,28.563262,77.186937,PM10,100,203,149
India,Delhi,Delhi,"R K Puram, Delhi - DPCC",10-06-2024 07:00:00,28.563262,77.186937,NO2,17,171,70
India,Delhi,Delhi,"Sirifort, Delhi - CPCB",10-06-2024 07:00:00,28.5504249,77.2159377,PM10,95,395,166
India,Delhi,Delhi,"Sonia Vihar, Delhi - DPCC",10-06-2024 07:00:00,28.710508,77.249485,PM2.5,22,197,74
India,Delhi,Delhi,"Sonia Vihar, Delhi - DPCC",10-06-2024 07:00:00,28.710508,77.249485,PM10,94,248,148
India,Delhi,Delhi,"Sri Aurobindo Marg, Delhi - DPCC",10-06-2024 07:00:00,28.531346,77.190156,OZONE,5,67,30
India,Delhi,Delhi,"Vivek Vihar, Delhi - DPCC",10-06-2024 07:00:00,28.672342,77.315260,PM10,129,208,163
India,Delhi,Delhi,"Vivek Vihar, Delhi - DPCC",10-06-2024 07:00:00,28.672342,77.315260,OZONE,13,107,45
India,Delhi,Delhi,"Wazirpur, Delhi - DPCC",10-06-2024 07:00:00,28.699793,77.165453,OZONE,9,58,25
India,Gujarat,Ahmedabad,"Chandkheda, Ahmedabad - IITM",10-06-2024 07:00:00,23.107969,72.574648,PM10,21,171,77
India,Gujarat,Ahmedabad,"Chandkheda, Ahmedabad - IITM",10-06-2024 07:00:00,23.107969,72.574648,OZONE,3,25,10
India,Gujarat,Ahmedabad,"Gyaspur, Ahmedabad - IITM",10-06-2024 07:00:00,22.977134,72.553024,SO2,18,23,20
India,Gujarat,Ahmedabad,"Maninagar, Ahmedabad - GPCB",10-06-2024 07:00:00,23.002657,72.591912,PM2.5,20,107,62
India,Gujarat,Ahmedabad,"Maninagar, Ahmedabad - GPCB",10-06-2024 07:00:00,23.002657,72.591912,CO,12,70,43
India,Gujarat,Ahmedabad,"Rakhial, Ahmedabad - IITM",10-06-2024 07:00:00,23.016834,72.625775,PM10,22,404,72
India,Gujarat,Ahmedabad,"SVPI Airport Hansol, Ahmedabad - IITM",10-06-2024 07:00:00,23.076793,72.627874,PM10,46,280,96
India,Gujarat,Ahmedabad,"SVPI Airport Hansol, Ahmedabad - IITM",10-06-2024 07:00:00,23.076793,72.627874,NH3,3,4,4
India,Gujarat,Ahmedabad,"Sardar Vallabhbhai Patel Stadium, Ahmedabad - IITM",10-06-2024 07:00:00,23.043070,72.562968,NH3,6,6,6
India,Gujarat,Ahmedabad,"Sardar Vallabhbhai Patel Stadium, Ahmedabad - IITM",10-06-2024 07:00:00,23.043070,72.562968,SO2,26,40,32
India,Gujarat,Ankleshwar,"GIDC, Ankleshwar - GPCB",10-06-2024 07:00:00,21.613267,73.010555,NO2,17,43,30
India,Gujarat,Gandhinagar,"GIFT City, Gandhinagar - IITM",10-06-2024 07:00:00,23.163798,72.677768,CO,30,36,32
India,Gujarat,Nandesari,"GIDC, Nandesari - Nandesari Ind. Association",10-06-2024 07:00:00,22.410802,73.097923,SO2,NA,NA,NA
India,Gujarat,Surat,"Science Center, Surat - SMC",10-06-2024 07:00:00,21.170046,72.795405,CO,68,75,72
India,Gujarat,Vatva,"Phase-4 GIDC, Vatva - GPCB",10-06-2024 07:00:00,22.969611,72.643500,PM2.5,13,70,37
India,Haryana,Ambala,"Patti Mehar, Ambala - HSPCB",10-06-2024 07:00:00,30.379589,76.778328,PM10,35,98,66
India,Haryana,Bahadurgarh,"Arya Nagar, Bahadurgarh - HSPCB",10-06-2024 07:00:00,28.6701,76.9254,NH3,8,9,9
India,Haryana,Bahadurgarh,"Arya Nagar, Bahadurgarh - HSPCB",10-06-2024 07:00:00,28.6701,76.9254,SO2,2,31,13
India,Haryana,Bahadurgarh,"Arya Nagar, Bahadurgarh - HSPCB",10-06-2024 07:00:00,28.6701,76.9254,CO,88,103,97
India,Haryana,Bhiwani,"H.B. Colony, Bhiwani - HSPCB",10-06-2024 07:00:00,28.806223,76.141105,PM2.5,47,127,78
India,Haryana,Bhiwani,"H.B. Colony, Bhiwani - HSPCB",10-06-2024 07:00:00,28.806223,76.141105,SO2,4,14,8
India,Haryana,Dharuhera,"Municipal Corporation Office, Dharuhera -  HSPCB",10-06-2024 07:00:00,28.206800,76.799700,SO2,6,15,10
India,Haryana,Dharuhera,"Municipal Corporation Office, Dharuhera -  HSPCB",10-06-2024 07:00:00,28.206800,76.799700,CO,2,33,28
India,Haryana,Dharuhera,"Municipal Corporation Office, Dharuhera -  HSPCB",10-06-2024 07:00:00,28.206800,76.799700,OZONE,12,53,12
India,Haryana,Faridabad,"Sector 11, Faridabad - HSPCB",10-06-2024 07:00:00,28.376058,77.315741,NH3,6,6,6
India,Haryana,Fatehabad,"Huda Sector, Fatehabad - HSPCB",10-06-2024 07:00:00,29.503664,75.467934,NO2,29,31,30
India,Haryana,Fatehabad,"Huda Sector, Fatehabad - HSPCB",10-06-2024 07:00:00,29.503664,75.467934,OZONE,12,35,30
India,Haryana,Gurugram,"Sector-51, Gurugram - HSPCB",10-06-2024 07:00:00,28.4227,77.0667,PM10,NA,NA,NA
India,Haryana,Gurugram,"Sector-51, Gurugram - HSPCB",10-06-2024 07:00:00,28.4227,77.0667,CO,NA,NA,NA
India,Haryana,Gurugram,"Teri Gram, Gurugram - HSPCB",10-06-2024 07:00:00,28.4275,77.1465,PM10,77,139,109
India,Haryana,Hisar,"Urban Estate-II, Hisar - HSPCB",10-06-2024 07:00:00,29.140560,75.744941,CO,25,40,29
India,Haryana,Jind,"Police Lines, Jind - HSPCB",10-06-2024 07:00:00,29.307814,76.337619,PM2.5,48,79,62
India,Haryana,Jind,"Police Lines, Jind - HSPCB",10-06-2024 07:00:00,29.307814,76.337619,NH3,1,7,2
India,Haryana,Kaithal,"Rishi Nagar, Kaithal - HSPCB",10-06-2024 07:00:00,29.8006,76.4155,PM10,92,148,116
India,Haryana,Kaithal,"Rishi Nagar, Kaithal - HSPCB",10-06-2024 07:00:00,29.8006,76.4155,NO2,24,26,25
India,Haryana,Kaithal,"Rishi Nagar, Kaithal - HSPCB",10-06-2024 07:00:00,29.8006,76.4155,NH3,8,8,8
India,Haryana,Karnal,"Sector-12, Karnal - HSPCB",10-06-2024 07:00:00,29.695300,77.002700,PM10,60,99,73
India,Haryana,Mandikhera,"General Hospital, Mandikhera - HSPCB",10-06-2024 07:00:00,27.9002,76.9938,PM2.5,7,44,25
India,Haryana,Manesar,"Sector-2 IMT, Manesar - HSPCB",10-06-2024 07:00:00,28.360699,76.936090,NO2,18,25,22
India,Haryana,Manesar,"Sector-2 IMT, Manesar - HSPCB",10-06-2024 07:00:00,28.360699,76.936090,SO2,NA,NA,NA
India,Haryana,Palwal,"Shyam Nagar, Palwal - HSPCB",10-06-2024 07:00:00,28.1485564,77.3320667,OZONE,16,123,34
India,Haryana,Panipat,"Sector-18, Panipat - HSPCB",10-06-2024 07:00:00,29.432304,76.972765,CO,24,26,25
India,Haryana,Sirsa,"F-Block, Sirsa - HSPCB",10-06-2024 07:00:00,29.536400,75.015800,NH3,10,13,12
India,Himachal Pradesh,Baddi,"HIMUDA Complex Phase-1, Baddi - HPPCB",10-06-2024 07:00:00,30.943887,76.801991,PM2.5,13,253,113
India,Himachal Pradesh,Baddi,"HIMUDA Complex Phase-1, Baddi - HPPCB",10-06-2024 07:00:00,30.943887,76.801991,NO2,7,47,26
India,Himachal Pradesh,Baddi,"HIMUDA Complex Phase-1, Baddi - HPPCB",10-06-2024 07:00:00,30.943887,76.801991,NH3,3,7,5
India,Himachal Pradesh,Baddi,"HIMUDA Complex Phase-1, Baddi - HPPCB",10-06-2024 07:00:00,30.943887,76.801991,OZONE,36,231,68
India,Jammu_and_Kashmir,Srinagar,"Rajbagh, Srinagar - JKSPCB",10-06-2024 07:00:00,34.066206,74.819820,PM10,NA,NA,NA
India,Jammu_and_Kashmir,Srinagar,"Rajbagh, Srinagar - JKSPCB",10-06-2024 07:00:00,34.066206,74.819820,OZONE,12,12,12
India,Jharkhand,Dhanbad,"Kalakusuma, Dhanbad - DMC",10-06-2024 07:00:00,23.811548,86.481238,SO2,9,23,17
India,Jharkhand,Dhanbad,"Sardar Patel Nagar, Dhanbad - JSPCB",10-06-2024 07:00:00,23.80569,86.44268,NO2,NA,NA,NA
India,Jharkhand,Dhanbad,"Sardar Patel Nagar, Dhanbad - JSPCB",10-06-2024 07:00:00,23.80569,86.44268,SO2,NA,NA,NA
India,Karnataka,Belgaum,"Ramteerth Nagar, Belgaum - KSPCB",10-06-2024 07:00:00,15.888653,74.541751,NH3,7,9,8
India,Karnataka,Bengaluru,"Bapuji Nagar, Bengaluru - KSPCB",10-06-2024 07:00:00,12.951913,77.539784,PM10,11,42,28
India,Karnataka,Bengaluru,"Jayanagar 5th Block, Bengaluru - KSPCB",10-06-2024 07:00:00,12.920984,77.584908,PM2.5,3,33,14
India,Karnataka,Bengaluru,"Jayanagar 5th Block, Bengaluru - KSPCB",10-06-2024 07:00:00,12.920984,77.584908,NH3,1,2,2
India,Karnataka,Bengaluru,"Jayanagar 5th Block, Bengaluru - KSPCB",10-06-2024 07:00:00,12.920984,77.584908,OZONE,18,19,18
India,Karnataka,Bengaluru,"Jigani, Bengaluru - KSPCB",10-06-2024 07:00:00,12.7816279,77.6299145,CO,24,34,29
India,Karnataka,Bengaluru,"Jigani, Bengaluru - KSPCB",10-06-2024 07:00:00,12.7816279,77.6299145,OZONE,25,36,27
India,Karnataka,Bengaluru,"Kasturi Nagar, Bengaluru - KSPCB",10-06-2024 07:00:00,13.003872,77.664217,NH3,3,4,4
India,Karnataka,Bengaluru,"Peenya, Bengaluru - CPCB",10-06-2024 07:00:00,13.0270199,77.494094,PM2.5,33,45,39
India,Karnataka,Bengaluru,"RVCE-Mailasandra, Bengaluru - KSPCB",10-06-2024 07:00:00,12.921418,77.502466,PM2.5,7,21,14
India,Karnataka,Bengaluru,"Shivapura_Peenya, Bengaluru - KSPCB",10-06-2024 07:00:00,13.0246342,77.5080115,NO2,15,16,15
India,Karnataka,Bengaluru,"Shivapura_Peenya, Bengaluru - KSPCB",10-06-2024 07:00:00,13.0246342,77.5080115,OZONE,53,56,54
India,Karnataka,Bengaluru,"Silk Board, Bengaluru - KSPCB",10-06-2024 07:00:00,12.917348,77.622813,NO2,9,17,14
India,Karnataka,Chamarajanagar,"Urban, Chamarajanagar - KSPCB",10-06-2024 07:00:00,11.55358,76.55521,PM10,47,49,48
India,Karnataka,Chamarajanagar,"Urban, Chamarajanagar - KSPCB",10-06-2024 07:00:00,11.55358,76.55521,NH3,2,2,2
India,Karnataka,Chikkaballapur,"Chikkaballapur Rural, Chikkaballapur - KSPCB",10-06-2024 07:00:00,13.428828,77.731418,PM10,9,34,21
India,Karnataka,Chikkaballapur,"Chikkaballapur Rural, Chikkaballapur - KSPCB",10-06-2024 07:00:00,13.428828,77.731418,NH3,1,1,1
India,Karnataka,Chikkaballapur,"Chikkaballapur Rural, Chikkaballapur - KSPCB",10-06-2024 07:00:00,13.428828,77.731418,OZONE,25,27,25
India,Karnataka,Chikkamagaluru,"Kalyana Nagara, Chikkamagaluru - KSPCB",10-06-2024 07:00:00,13.328028,75.797056,SO2,1,16,3
India,Karnataka,Davanagere,"Devaraj Urs Badavane, Davanagere - KSPCB",10-06-2024 07:00:00,14.475800,75.905200,SO2,4,7,6
India,Karnataka,Dharwad,"Kalabhavan, Dharwad - KSPCB",10-06-2024 07:00:00,15.459706,75.008381,PM10,21,48,34
India,Karnataka,Dharwad,"Kalabhavan, Dharwad - KSPCB",10-06-2024 07:00:00,15.459706,75.008381,CO,12,56,21
India,Karnataka,Hassan,"B.Katihalli, Hassan - KSPCB",10-06-2024 07:00:00,13.008556,76.125258,PM10,NA,NA,NA
India,Karnataka,Hassan,"B.Katihalli, Hassan - KSPCB",10-06-2024 07:00:00,13.008556,76.125258,SO2,NA,NA,NA
India,Karnataka,Hassan,"B.Katihalli, Hassan - KSPCB",10-06-2024 07:00:00,13.008556,76.125258,OZONE,NA,NA,NA
India,Karnataka,Haveri,"Ashwini Nagar, Haveri - KSPCB",10-06-2024 07:00:00,14.791800,75.389600,NH3,2,3,3
India,Karnataka,Kalaburagi,"Lal Bahadur Shastri Nagar, Kalaburagi - KSPCB",10-06-2024 07:00:00,17.321993,76.822628,SO2,NA,NA,NA
India,Karnataka,Kalaburagi,"Mahatma Basaveswar Colony, Kalaburgi - KSPCB",10-06-2024 07:00:00,17.336318,76.847397,PM10,15,34,25
India,Karnataka,Kalaburagi,"Mahatma Basaveswar Colony, Kalaburgi - KSPCB",10-06-2024 07:00:00,17.336318,76.847397,NO2,8,13,11
India,Karnataka,Kolar,"Tamaka Ind. Area, Kolar - KSPCB",10-06-2024 07:00:00,13.1276288,78.1570122,SO2,10,18,11
India,Karnataka,Koppal,"Diwator Nagar, Koppal - KSPCB",10-06-2024 07:00:00,15.347630,76.181767,NO2,19,67,42
India,Karnataka,Madikeri,"Stuart Hill, Madikeri - KSPCB",10-06-2024 07:00:00,12.415911,75.735050,PM2.5,9,24,16
India,Karnataka,Madikeri,"Stuart Hill, Madikeri - KSPCB",10-06-2024 07:00:00,12.415911,75.735050,NH3,NA,NA,NA
India,Karnataka,Madikeri,"Stuart Hill, Madikeri - KSPCB",10-06-2024 07:00:00,12.415911,75.735050,CO,6,54,38
India,Karnataka,Mangalore,"Kadri, Mangalore - KSPCB",10-06-2024 07:00:00,12.889250,74.853000,SO2,10,10,10
India,Karnataka,Mysuru,"Hebbal 1st Stage, Mysuru - KSPCB",10-06-2024 07:00:00,12.21041,76.37376,NH3,1,2,2
India,Karnataka,Raichur,"Haji Colony, Raichur - KSPCB",10-06-2024 07:00:00,16.208139,77.348417,PM2.5,3,13,7
India,Karnataka,Raichur,"Haji Colony, Raichur - KSPCB",10-06-2024 07:00:00,16.208139,77.348417,PM10,14,49,27
India,Karnataka,Raichur,"Haji Colony, Raichur - KSPCB",10-06-2024 07:00:00,16.208139,77.348417,NO2,9,27,19
India,Karnataka,Raichur,"Haji Colony, Raichur - KSPCB",10-06-2024 07:00:00,16.208139,77.348417,SO2,68,74,70
India,Karnataka,Raichur,"Haji Colony, Raichur - KSPCB",10-06-2024 07:00:00,16.208139,77.348417,CO,96,106,100
India,Karnataka,Ramanagara,"Vijay Nagar, Ramanagara - KSPCB",10-06-2024 07:00:00,12.733409,77.298051,PM2.5,2,45,12
India,Karnataka,Ramanagara,"Vijay Nagar, Ramanagara - KSPCB",10-06-2024 07:00:00,12.733409,77.298051,NH3,1,3,2
India,Karnataka,Ramanagara,"Vijay Nagar, Ramanagara - KSPCB",10-06-2024 07:00:00,12.733409,77.298051,CO,1,32,11
India,Karnataka,Udupi,"Brahmagiri, Udupi - KSPCB",10-06-2024 07:00:00,13.34194444,74.74694444,PM10,4,28,13
India,Karnataka,Udupi,"Brahmagiri, Udupi - KSPCB",10-06-2024 07:00:00,13.34194444,74.74694444,NH3,1,1,1
India,Karnataka,Udupi,"Brahmagiri, Udupi - KSPCB",10-06-2024 07:00:00,13.34194444,74.74694444,OZONE,23,23,23
India,Karnataka,Vijayapura,"Ibrahimpur, Vijayapura - KSPCB",10-06-2024 07:00:00,16.802639,75.722694,PM2.5,26,31,30
India,Karnataka,Yadgir,"Collector Office, Yadgir - KSPCB",10-06-2024 07:00:00,16.7602,77.1428,CO,14,18,15
India,Kerala,Kannur,"Thavakkara, Kannur - Kerala PCB",10-06-2024 07:00:00,11.875000,75.373200,NO2,5,5,5
India,Kerala,Kollam,"Polayathode, Kollam - Kerala PCB",10-06-2024 07:00:00,8.8787,76.6073,CO,14,17,15
India,Kerala,Thiruvananthapuram,"Kariavattom, Thiruvananthapuram - Kerala PCB",10-06-2024 07:00:00,8.563700,76.886500,SO2,1,9,4
India,Kerala,Thiruvananthapuram,"Kariavattom, Thiruvananthapuram - Kerala PCB",10-06-2024 07:00:00,8.563700,76.886500,CO,18,50,22
India,Kerala,Thiruvananthapuram,"Kariavattom, Thiruvananthapuram - Kerala PCB",10-06-2024 07:00:00,8.563700,76.886500,OZONE,36,36,36
India,Kerala,Thrissur,"Corporation Ground, Thrissur - Kerala PCB",10-06-2024 07:00:00,10.532400,76.215900,PM2.5,42,50,47
India,Kerala,Thrissur,"Corporation Ground, Thrissur - Kerala PCB",10-06-2024 07:00:00,10.532400,76.215900,PM10,56,68,63
India,Kerala,Thrissur,"Corporation Ground, Thrissur - Kerala PCB",10-06-2024 07:00:00,10.532400,76.215900,OZONE,26,31,29
India,Madhya Pradesh,Bhopal,"Idgah Hills, Bhopal - MPPCB",10-06-2024 07:00:00,23.264759,77.381568,NH3,5,6,6
India,Madhya Pradesh,Bhopal,"Idgah Hills, Bhopal - MPPCB",10-06-2024 07:00:00,23.264759,77.381568,SO2,1,3,2
India,Madhya Pradesh,Bhopal,"Idgah Hills, Bhopal - MPPCB",10-06-2024 07:00:00,23.264759,77.381568,OZONE,39,109,57
India,Madhya Pradesh,Dewas,"Bhopal Chauraha, Dewas - MPPCB",10-06-2024 07:00:00,22.9682591,76.064118,PM2.5,30,59,40
India,Madhya Pradesh,Gwalior,"City Center, Gwalior - MPPCB",10-06-2024 07:00:00,26.203442,78.193251,NH3,1,3,2
India,Madhya Pradesh,Gwalior,"Deen Dayal Nagar, Gwalior - MPPCB",10-06-2024 07:00:00,26.259242,78.216432,PM2.5,39,180,72
India,Madhya Pradesh,Gwalior,"Deen Dayal Nagar, Gwalior - MPPCB",10-06-2024 07:00:00,26.259242,78.216432,CO,23,94,49
India,Madhya Pradesh,Gwalior,"Maharaj Bada, Gwalior - MPPCB",10-06-2024 07:00:00,26.200388,78.147714,OZONE,24,179,72
India,Madhya Pradesh,Gwalior,"Phool Bagh, Gwalior - Mondelez Ind. Food",10-06-2024 07:00:00,26.210536,78.171,CO,76,97,85
India,Madhya Pradesh,Indore,"Chhoti Gwaltoli, Indore - MPPCB",10-06-2024 07:00:00,22.4310,75.5213,PM10,44,123,88
India,Madhya Pradesh,Indore,"Chhoti Gwaltoli, Indore - MPPCB",10-06-2024 07:00:00,22.4310,75.5213,CO,18,92,43
India,Madhya Pradesh,Indore,"Regional Park, Indore - IMC",10-06-2024 07:00:00,22.6780,75.8559,PM2.5,29,73,48
India,Madhya Pradesh,Indore,"Regional Park, Indore - IMC",10-06-2024 07:00:00,22.6780,75.8559,OZONE,6,23,7
India,Madhya Pradesh,Indore,"Residency Area, Indore - IMC",10-06-2024 07:00:00,22.7084,75.8815,PM2.5,NA,NA,NA
India,Madhya Pradesh,Jabalpur,"Govindh Bhavan Colony, Jabalpur - JMC",10-06-2024 07:00:00,23.163174,79.973061,NO2,3,17,8
India,Madhya Pradesh,Jabalpur,"Govindh Bhavan Colony, Jabalpur - JMC",10-06-2024 07:00:00,23.163174,79.973061,SO2,13,30,17
India,Madhya Pradesh,Jabalpur,"Marhatal, Jabalpur - MPPCB",10-06-2024 07:00:00,23.168606,79.932247,PM10,67,129,100
India,Madhya Pradesh,Jabalpur,"Marhatal, Jabalpur - MPPCB",10-06-2024 07:00:00,23.168606,79.932247,NO2,8,48,20
India,Madhya Pradesh,Jabalpur,"Marhatal, Jabalpur - MPPCB",10-06-2024 07:00:00,23.168606,79.932247,CO,2,74,23
India,Madhya Pradesh,Jabalpur,"Suhagi, Jabalpur - JMC",10-06-2024 07:00:00,23.218135,79.957770,OZONE,NA,NA,NA
India,Madhya Pradesh,Katni,"Gole Bazar, Katni - MPPCB",10-06-2024 07:00:00,23.50016,80.23284,NH3,2,5,4
India,Madhya Pradesh,Maihar,"Sahilara, Maihar - KJS Cements",10-06-2024 07:00:00,24.2613009,80.7231783,PM2.5,6,153,76
India,Madhya Pradesh,Maihar,"Sahilara, Maihar - KJS Cements",10-06-2024 07:00:00,24.2613009,80.7231783,SO2,12,13,13
India,Madhya Pradesh,Maihar,"Sahilara, Maihar - KJS Cements",10-06-2024 07:00:00,24.2613009,80.7231783,CO,38,54,46
India,Madhya Pradesh,Mandideep,"Sector-D Industrial Area, Mandideep - MPPCB",10-06-2024 07:00:00,23.108440,77.511428,NH3,6,9,7
India,Madhya Pradesh,Mandideep,"Sector-D Industrial Area, Mandideep - MPPCB",10-06-2024 07:00:00,23.108440,77.511428,SO2,1,25,14
India,Madhya Pradesh,Mandideep,"Sector-D Industrial Area, Mandideep - MPPCB",10-06-2024 07:00:00,23.108440,77.511428,OZONE,22,48,27
India,Madhya Pradesh,Ratlam,"Shasthri Nagar, Ratlam - IPCA Lab",10-06-2024 07:00:00,23.331731,75.045981,PM2.5,13,199,52
India,Madhya Pradesh,Ratlam,"Shasthri Nagar, Ratlam - IPCA Lab",10-06-2024 07:00:00,23.331731,75.045981,SO2,28,30,29
India,Madhya Pradesh,Sagar,"Civil Lines, Sagar - MPPCB",10-06-2024 07:00:00,23.838586,78.759431,NH3,4,6,5
India,Madhya Pradesh,Sagar,"Deen Dayal Nagar, Sagar - MPPCB",10-06-2024 07:00:00,23.8640158,78.80289321,PM2.5,18,40,30
India,Madhya Pradesh,Satna,"Bandhavgar Colony, Satna - Birla Cement",10-06-2024 07:00:00,24.58434363,80.8549414,PM2.5,15,41,22
India,Madhya Pradesh,Singrauli,"Suryakiran Bhawan NCL, Singrauli - MPPCB",10-06-2024 07:00:00,24.108970,82.645580,SO2,45,120,88
India,Madhya Pradesh,Ujjain,"Mahakaleshwar Temple, Ujjain - MPPCB",10-06-2024 07:00:00,23.182719 ,75.768218 ,PM10,58,128,96
India,Maharashtra,Akola,"Ramdaspeth, Akola - MPCB",10-06-2024 07:00:00,20.719516,77.000253,PM2.5,21,86,47
India,Maharashtra,Amravati,"Shivneri Colony, Amravati - MPCB",10-06-2024 07:00:00,20.9402359,77.7895248,PM10,48,124,79
India,Maharashtra,Amravati,"Shivneri Colony, Amravati - MPCB",10-06-2024 07:00:00,20.9402359,77.7895248,NO2,3,45,17
India,Maharashtra,Amravati,"Shri Shivaji Science College, Amaravati - MPCB",10-06-2024 07:00:00,20.939198,77.765701,PM2.5,40,64,50
India,Maharashtra,Amravati,"Shri Shivaji Science College, Amaravati - MPCB",10-06-2024 07:00:00,20.939198,77.765701,NH3,5,5,5
India,Maharashtra,Aurangabad,"MIDC Chilkalthana, Aurangabad - MPCB",10-06-2024 07:00:00,19.875620,75.387310,NO2,4,32,10
India,Maharashtra,Aurangabad,"MIDC Chilkalthana, Aurangabad - MPCB",10-06-2024 07:00:00,19.875620,75.387310,OZONE,6,72,19
India,Maharashtra,Aurangabad,"More Chowk Waluj, Aurangabad - MPCB",10-06-2024 07:00:00,19.8389439,75.244448,PM10,NA,NA,NA
India,Maharashtra,Aurangabad,"More Chowk Waluj, Aurangabad - MPCB",10-06-2024 07:00:00,19.8389439,75.244448,SO2,NA,NA,NA
India,Maharashtra,Badlapur,"Katrap, Badlapur - MPCB",10-06-2024 07:00:00,19.16485,73.23409,PM2.5,20,207,73
India,Maharashtra,Badlapur,"Katrap, Badlapur - MPCB",10-06-2024 07:00:00,19.16485,73.23409,NO2,4,26,9
India,Maharashtra,Badlapur,"Katrap, Badlapur - MPCB",10-06-2024 07:00:00,19.16485,73.23409,CO,22,60,28
India,Maharashtra,Belapur,"CBD Belapur, Belapur - MPCB",10-06-2024 07:00:00,19.0243902,73.0406721,PM10,18,70,45
India,Maharashtra,Bhiwandi,"Gokul Nagar, Bhiwandi - MPCB",10-06-2024 07:00:00,19.309073,73.057223,NH3,1,3,2
India,Maharashtra,Bhiwandi,"Gokul Nagar, Bhiwandi - MPCB",10-06-2024 07:00:00,19.309073,73.057223,SO2,5,16,11
India,Maharashtra,Boisar,"Khaira, Boisar - MPCB",10-06-2024 07:00:00,19.786089,72.757971,SO2,33,83,39
India,Maharashtra,Boisar,"Khaira, Boisar - MPCB",10-06-2024 07:00:00,19.786089,72.757971,CO,2,28,8
India,Maharashtra,Chandrapur,"Chauhan Colony, Chandrapur - MPCB",10-06-2024 07:00:00,19.962900,79.298714,SO2,2,5,3
India,Maharashtra,Chandrapur,"Chauhan Colony, Chandrapur - MPCB",10-06-2024 07:00:00,19.962900,79.298714,OZONE,1,7,5
India,Maharashtra,Chandrapur,"MIDC Khutala, Chandrapur - MPCB",10-06-2024 07:00:00,19.9775302,79.2337086,NO2,5,41,14
India,Maharashtra,Chandrapur,"MIDC Khutala, Chandrapur - MPCB",10-06-2024 07:00:00,19.9775302,79.2337086,CO,18,44,34
India,Maharashtra,Dhule,"Deopur, Dhule - MPCB",10-06-2024 07:00:00,20.918946,74.776388,NH3,5,9,7
India,Maharashtra,Jalgaon,"Prabhat Colony, Jalgaon - MPCB",10-06-2024 07:00:00,21.001264,75.565602,PM10,25,417,105
India,Maharashtra,Jalgaon,"Prabhat Colony, Jalgaon - MPCB",10-06-2024 07:00:00,21.001264,75.565602,NH3,1,11,6
India,Maharashtra,Jalna,"Old MIDC, Jalna - MPCB",10-06-2024 07:00:00,19.854616,75.905894,PM2.5,12,58,32
India,Maharashtra,Jalna,"Old MIDC, Jalna - MPCB",10-06-2024 07:00:00,19.854616,75.905894,PM10,12,66,37
India,Maharashtra,Jalna,"Old MIDC, Jalna - MPCB",10-06-2024 07:00:00,19.854616,75.905894,NH3,1,1,1
India,Maharashtra,Jalna,"Old MIDC, Jalna - MPCB",10-06-2024 07:00:00,19.854616,75.905894,SO2,6,7,6
India,Maharashtra,Kalyan,"Khadakpada, Kalyan - MPCB",10-06-2024 07:00:00,19.25292,73.142019,NH3,1,1,1
India,Maharashtra,Kolhapur,"Sinchan Bhavan, Kolhapur - MPCB",10-06-2024 07:00:00,16.7143745,74.2426398,PM10,18,40,32
India,Maharashtra,Kolhapur,"Sinchan Bhavan, Kolhapur - MPCB",10-06-2024 07:00:00,16.7143745,74.2426398,SO2,1,2,1
India,Maharashtra,Latur,"Sawe Wadi, Latur - MPCB",10-06-2024 07:00:00,18.39963,76.57452,OZONE,36,88,66
India,Maharashtra,Mahad,"Kamble Tarf Birwadi, Mahad - MPCB",10-06-2024 07:00:00,18.1023399,73.4783687,NO2,7,31,18
India,Maharashtra,Mahad,"Kamble Tarf Birwadi, Mahad - MPCB",10-06-2024 07:00:00,18.1023399,73.4783687,CO,2,21,8
India,Maharashtra,Malegaon,"Mahesh Nagar, Malegaon - MPCB",10-06-2024 07:00:00,20.555712,74.529236,NO2,13,48,27
India,Maharashtra,Malegaon,"Mahesh Nagar, Malegaon - MPCB",10-06-2024 07:00:00,20.555712,74.529236,SO2,6,23,13
India,Maharashtra,Mira-Bhayandar,"Bhayandar West, Mira-Bhayandar - MPCB",10-06-2024 07:00:00,19.296481,72.840923,SO2,3,4,4
India,Maharashtra,Mira-Bhayandar,"Bhayandar West, Mira-Bhayandar - MPCB",10-06-2024 07:00:00,19.296481,72.840923,CO,18,38,23
India,Maharashtra,Mira-Bhayandar,"Bhayandar West, Mira-Bhayandar - MPCB",10-06-2024 07:00:00,19.296481,72.840923,OZONE,14,57,33
India,Maharashtra,Mumbai,"Borivali East, Mumbai - IITM",10-06-2024 07:00:00,19.23241,72.86895,NH3,8,11,10
India,Maharashtra,Mumbai,"Borivali East, Mumbai - MPCB",10-06-2024 07:00:00,19.2243333,72.8658113,NO2,NA,NA,NA
India,Maharashtra,Mumbai,"Borivali East, Mumbai - MPCB",10-06-2024 07:00:00,19.2243333,72.8658113,NH3,NA,NA,NA
India,Maharashtra,Mumbai,"Borivali East, Mumbai - MPCB",10-06-2024 07:00:00,19.2243333,72.8658113,OZONE,14,16,16
India,Maharashtra,Mumbai,"Byculla, Mumbai - BMC",10-06-2024 07:00:00,18.9767,72.8380,SO2,1,2,1
India,Maharashtra,Mumbai,"Chakala-Andheri East, Mumbai - IITM",10-06-2024 07:00:00,19.11074,72.86084,PM10,18,59,39
India,Maharashtra,Mumbai,"Chakala-Andheri East, Mumbai - IITM",10-06-2024 07:00:00,19.11074,72.86084,OZONE,8,57,22
India,Maharashtra,Mumbai,"Chembur, Mumbai - MPCB",10-06-2024 07:00:00,19.0364585,72.8954371,PM2.5,16,45,30
India,Maharashtra,Mumbai,"Chembur, Mumbai - MPCB",10-06-2024 07:00:00,19.0364585,72.8954371,CO,16,30,18
India,Maharashtra,Mumbai,"Chembur, Mumbai - MPCB",10-06-2024 07:00:00,19.0364585,72.8954371,OZONE,6,98,36
India,Maharashtra,Mumbai,"Colaba, Mumbai - MPCB",10-06-2024 07:00:00,18.910000,72.820000,SO2,10,11,11
India,Maharashtra,Mumbai,"Deonar, Mumbai - IITM",10-06-2024 07:00:00,19.04946,72.9230,PM10,14,74,47
India,Maharashtra,Mumbai,"Deonar, Mumbai - IITM",10-06-2024 07:00:00,19.04946,72.9230,OZONE,1,40,13
India,Maharashtra,Mumbai,"Ghatkopar, Mumbai - BMC",10-06-2024 07:00:00,19.083694,72.920967,NO2,3,46,20
India,Maharashtra,Mumbai,"Kandivali West, Mumbai - BMC",10-06-2024 07:00:00,19.215859,72.831718,PM2.5,5,23,11
India,Maharashtra,Mumbai,"Kandivali West, Mumbai - BMC",10-06-2024 07:00:00,19.215859,72.831718,OZONE,12,77,31
India,Maharashtra,Mumbai,"Kherwadi_Bandra East, Mumbai - MPCB",10-06-2024 07:00:00,19.0632143,72.8456324,NO2,6,27,16
India,Maharashtra,Mumbai,"Kurla, Mumbai - MPCB",10-06-2024 07:00:00,19.0863,72.8888,PM2.5,6,67,23
India,Maharashtra,Mumbai,"Kurla, Mumbai - MPCB",10-06-2024 07:00:00,19.0863,72.8888,NO2,12,16,13
India,Maharashtra,Mumbai,"Kurla, Mumbai - MPCB",10-06-2024 07:00:00,19.0863,72.8888,CO,10,27,21
India,Maharashtra,Mumbai,"Mazgaon, Mumbai - IITM",10-06-2024 07:00:00,18.96702,72.84214,SO2,NA,NA,NA
India,Maharashtra,Mumbai,"Mulund West, Mumbai - MPCB",10-06-2024 07:00:00,19.1750,72.9419,NO2,19,22,20
India,Maharashtra,Mumbai,"Mulund West, Mumbai - MPCB",10-06-2024 07:00:00,19.1750,72.9419,CO,34,34,34
India,Maharashtra,Mumbai,"Powai, Mumbai - MPCB",10-06-2024 07:00:00,19.137500,72.915056,NO2,12,32,18
India,Maharashtra,Mumbai,"Powai, Mumbai - MPCB",10-06-2024 07:00:00,19.137500,72.915056,CO,34,43,40
India,Maharashtra,Mumbai,"Powai, Mumbai - MPCB",10-06-2024 07:00:00,19.137500,72.915056,OZONE,NA,NA,NA
India,Maharashtra,Mumbai,"Sewri, Mumbai - BMC",10-06-2024 07:00:00,19.000084,72.856730,NO2,5,44,13
India,Maharashtra,Mumbai,"Sewri, Mumbai - BMC",10-06-2024 07:00:00,19.000084,72.856730,OZONE,6,76,25
India,Maharashtra,Mumbai,"Siddharth Nagar-Worli, Mumbai - IITM",10-06-2024 07:00:00,19.000083,72.813993,CO,NA,NA,NA
India,Maharashtra,Mumbai,"Sion, Mumbai - MPCB",10-06-2024 07:00:00,19.047000,72.874600,NH3,7,8,8
India,Maharashtra,Mumbai,"Vile Parle West, Mumbai - MPCB",10-06-2024 07:00:00,19.10861,72.83622,PM10,NA,NA,NA
India,Maharashtra,Mumbai,"Vile Parle West, Mumbai - MPCB",10-06-2024 07:00:00,19.10861,72.83622,OZONE,NA,NA,NA
India,Maharashtra,Nagpur,"Ambazari, Nagpur - MPCB",10-06-2024 07:00:00,21.121801,79.04952,SO2,11,105,26
India,Maharashtra,Nagpur,"Ambazari, Nagpur - MPCB",10-06-2024 07:00:00,21.121801,79.04952,CO,14,50,21
India,Maharashtra,Nanded,"Sneh Nagar, Nanded - MPCB",10-06-2024 07:00:00,19.173852,77.296291,NH3,1,2,2
India,Maharashtra,Nashik,"Gangapur Road, Nashik - MPCB",10-06-2024 07:00:00,20.0073285,73.7762427,SO2,8,14,11
India,Maharashtra,Nashik,"Hirawadi, Nashik - MPCB",10-06-2024 07:00:00,20.021503,73.813844,NO2,7,27,16
India,Maharashtra,Navi Mumbai,"Mahape, Navi Mumbai - MPCB",10-06-2024 07:00:00,19.1135051,73.008978,PM2.5,7,26,16
India,Maharashtra,Navi Mumbai,"Mahape, Navi Mumbai - MPCB",10-06-2024 07:00:00,19.1135051,73.008978,PM10,10,64,35
India,Maharashtra,Navi Mumbai,"Nerul, Navi Mumbai - MPCB",10-06-2024 07:00:00,19.008751,73.016620,NH3,3,4,4
India,Maharashtra,Navi Mumbai,"Nerul, Navi Mumbai - MPCB",10-06-2024 07:00:00,19.008751,73.016620,SO2,11,11,11
India,Maharashtra,Navi Mumbai,"Nerul, Navi Mumbai - MPCB",10-06-2024 07:00:00,19.008751,73.016620,OZONE,19,27,23
India,Maharashtra,Navi Mumbai,"Sanpada, Navi Mumbai - MPCB",10-06-2024 07:00:00,19.0575752,73.0151367,OZONE,6,103,32
India,Maharashtra,Navi Mumbai,"Sector-2E Kalamboli, Navi Mumbai - MPCB",10-06-2024 07:00:00,19.02579,73.10297,NH3,1,4,2
India,Maharashtra,Parbhani,"Masoom Colony, Parbhani - MPCB",10-06-2024 07:00:00,19.265594,76.761463,CO,18,40,21
India,Maharashtra,Pimpri-Chinchwad,"Gavalinagar, Pimpri Chinchwad - MPCB",10-06-2024 07:00:00,18.63673,73.82487,CO,10,24,18
India,Maharashtra,Pune,"Alandi, Pune - IITM",10-06-2024 07:00:00,18.675076,73.892743,PM10,15,453,73
India,Maharashtra,Pune,"Alandi, Pune - IITM",10-06-2024 07:00:00,18.675076,73.892743,CO,23,57,33
India,Maharashtra,Pune,"Bhosari, Pune - IITM",10-06-2024 07:00:00,18.640051,73.848956,PM2.5,17,41,25
India,Maharashtra,Pune,"Bhosari, Pune - IITM",10-06-2024 07:00:00,18.640051,73.848956,PM10,14,61,34
India,Maharashtra,Pune,"Bhosari, Pune - IITM",10-06-2024 07:00:00,18.640051,73.848956,CO,28,58,40
India,Maharashtra,Pune,"Hadapsar, Pune - IITM",10-06-2024 07:00:00,18.501793,73.927532,OZONE,11,22,13
India,Maharashtra,Pune,"Karve Road, Pune - MPCB",10-06-2024 07:00:00,18.5011743,73.8165527,OZONE,NA,NA,NA
India,Maharashtra,Pune,"Revenue Colony-Shivajinagar, Pune - IITM",10-06-2024 07:00:00,18.530085,73.849598,PM10,18,61,38
India,Maharashtra,Pune,"Revenue Colony-Shivajinagar, Pune - IITM",10-06-2024 07:00:00,18.530085,73.849598,SO2,4,14,7
India,Maharashtra,Pune,"Revenue Colony-Shivajinagar, Pune - IITM",10-06-2024 07:00:00,18.530085,73.849598,CO,28,45,36
India,Maharashtra,Pune,"Savitribai Phule Pune University, Pune - MPCB",10-06-2024 07:00:00,18.547056,73.826908,NH3,2,7,5
India,Maharashtra,Sangli,"Vijay Nagar, Sangli - MPCB",10-06-2024 07:00:00, 16.5038,74.3623,PM10,18,41,29
India,Maharashtra,Solapur,"Dnyaneshwar Nagar, Solapur - MPCB",10-06-2024 07:00:00,17.6336264,75.9132495,CO,NA,NA,NA
India,Maharashtra,Solapur,"Ratandeep Housing Society, Solapur - MPCB",10-06-2024 07:00:00,17.65439,75.90649,PM2.5,12,43,28
India,Maharashtra,Solapur,"Ratandeep Housing Society, Solapur - MPCB",10-06-2024 07:00:00,17.65439,75.90649,NH3,13,14,14
India,Maharashtra,Solapur,"Ratandeep Housing Society, Solapur - MPCB",10-06-2024 07:00:00,17.65439,75.90649,OZONE,38,78,56
India,Maharashtra,Solapur,"Solapur, Solapur - MPCB",10-06-2024 07:00:00,17.6599188,75.9063906,PM2.5,47,53,52
India,Maharashtra,Solapur,"Solapur, Solapur - MPCB",10-06-2024 07:00:00,17.6599188,75.9063906,SO2,105,109,106
India,Maharashtra,Thane,"Kasarvadavali, Thane - MPCB",10-06-2024 07:00:00,19.26777,72.97182,PM2.5,NA,NA,NA
India,Maharashtra,Thane,"Kasarvadavali, Thane - MPCB",10-06-2024 07:00:00,19.26777,72.97182,CO,18,40,21
India,Maharashtra,Thane,"Upvan Fort, Thane - MPCB",10-06-2024 07:00:00,19.222279,72.957979,PM10,13,53,33
India,Maharashtra,Ulhasnagar,"Sidhi Vinayak Nagar, Ulhasnagar - MPCB",10-06-2024 07:00:00,19.235581,73.159121,PM2.5,39,80,58
India,Manipur,Imphal,"Manipur University, Imphal - Manipur PCB",10-06-2024 07:00:00,24.7524239,93.9286218,OZONE,1,38,3
India,Meghalaya,Shillong,"Lumpyngngad, Shillong - Meghalaya PCB",10-06-2024 07:00:00,25.5586,91.8985,PM10,NA,NA,NA
India,Mizoram,Aizawl,"Sikulpuikawn, Aizawl - Mizoram PCB",10-06-2024 07:00:00,23.7176342,92.7192841,CO,8,10,9
India,Nagaland,Kohima,"PWD Juction, Kohima - NPCB",10-06-2024 07:00:00,25.6635413,94.0989878,PM2.5,1,117,57
India,Nagaland,Kohima,"PWD Juction, Kohima - NPCB",10-06-2024 07:00:00,25.6635413,94.0989878,PM10,50,103,74
India,Nagaland,Kohima,"PWD Juction, Kohima - NPCB",10-06-2024 07:00:00,25.6635413,94.0989878,NO2,3,5,3
India,Nagaland,Kohima,"PWD Juction, Kohima - NPCB",10-06-2024 07:00:00,25.6635413,94.0989878,CO,4,18,10
India,Nagaland,Kohima,"PWD Juction, Kohima - NPCB",10-06-2024 07:00:00,25.6635413,94.0989878,OZONE,5,24,7
India,Odisha,Angul,"Hakimapada, Angul - OSPCB",10-06-2024 07:00:00,20.832874,85.104082,SO2,NA,NA,NA
India,Odisha,Balasore,"Kalidaspur, Balasore - OSPCB",10-06-2024 07:00:00,21.51161,86.89088,PM2.5,10,82,44
India,Odisha,Balasore,"Kalidaspur, Balasore - OSPCB",10-06-2024 07:00:00,21.51161,86.89088,NO2,5,36,14
India,Odisha,Barbil,"Forest Office, Barbil - OSPCB",10-06-2024 07:00:00,22.1166054,85.3945546,PM2.5,65,153,90
India,Odisha,Baripada,"Meher Colony, Baripada - OSPCB",10-06-2024 07:00:00,21.941841,86.728318,OZONE,48,177,69
India,Odisha,Bhubaneswar,"Lingraj Mandir, Bhubaneswar - OSPCB",10-06-2024 07:00:00,20.240790,85.836784,CO,47,67,53
India,Odisha,Bhubaneswar,"Patia, Bhubaneswar - OSPCB",10-06-2024 07:00:00,20.34652,85.81630,OZONE,37,194,50
India,Odisha,Bileipada,"Tata Township, Bileipada - OSPCB",10-06-2024 07:00:00,22.06156703,85.47409613,NO2,6,12,8
India,Odisha,Brajrajnagar,"GM Office, Brajrajnagar - OSPCB",10-06-2024 07:00:00,21.8004996,83.8396977,NH3,11,11,11
India,Odisha,Brajrajnagar,"GM Office, Brajrajnagar - OSPCB",10-06-2024 07:00:00,21.8004996,83.8396977,OZONE,14,79,27
India,Odisha,Byasanagar,"Ferro Chrome Colony, Byasanagar - OSPCB",10-06-2024 07:00:00,20.94185,86.11510,PM2.5,22,82,50
India,Odisha,Byasanagar,"Ferro Chrome Colony, Byasanagar - OSPCB",10-06-2024 07:00:00,20.94185,86.11510,SO2,6,24,11
India,Odisha,Cuttack,"CDA Area, Cuttack - OSPCB",10-06-2024 07:00:00,20.48891     ,85.84768     ,PM10,8,155,63
India,Odisha,Cuttack,"CDA Area, Cuttack - OSPCB",10-06-2024 07:00:00,20.48891     ,85.84768     ,SO2,1,25,7
India,Odisha,Keonjhar,"Jagamohanpur, Keonjhar - OSPCB",10-06-2024 07:00:00,21.643900,85.599355,PM2.5,51,91,67
India,Odisha,Keonjhar,"Jagamohanpur, Keonjhar - OSPCB",10-06-2024 07:00:00,21.643900,85.599355,PM10,56,111,84
India,Odisha,Nayagarh,"Dabuna, Nayagarh - OSPCB",10-06-2024 07:00:00,21.847279,85.416905,CO,15,28,25
India,Odisha,Rairangpur,"Divisional Forest Office, Rairangpur - OSPCB",10-06-2024 07:00:00,22.265816,86.174829,PM10,82,126,105
India,Odisha,Rairangpur,"Divisional Forest Office, Rairangpur - OSPCB",10-06-2024 07:00:00,22.265816,86.174829,SO2,15,19,17
India,Odisha,Rairangpur,"Divisional Forest Office, Rairangpur - OSPCB",10-06-2024 07:00:00,22.265816,86.174829,OZONE,9,41,16
India,Odisha,Rourkela,"Fertilizer Township, Rourkela - OSPCB",10-06-2024 07:00:00,22.18972222,84.86277778,PM10,100,145,123
India,Odisha,Rourkela,"Fertilizer Township, Rourkela - OSPCB",10-06-2024 07:00:00,22.18972222,84.86277778,SO2,11,16,13
India,Odisha,Rourkela,"Raghunathpali, Rourkela - OSPCB",10-06-2024 07:00:00,22.220833,84.809444,NH3,1,3,2
India,Odisha,Rourkela,"Raghunathpali, Rourkela - OSPCB",10-06-2024 07:00:00,22.220833,84.809444,CO,26,55,37
India,Odisha,Suakati,"OMC Colony, Suakati - OSPCB",10-06-2024 07:00:00,21.606865,85.510538,NO2,14,17,15
India,Odisha,Suakati,"OMC Colony, Suakati - OSPCB",10-06-2024 07:00:00,21.606865,85.510538,SO2,12,67,29
India,Odisha,Talcher,"Talcher Coalfields,Talcher - OSPCB",10-06-2024 07:00:00,20.9360711,85.1707021,NO2,19,28,22
India,Odisha,Tensa,"Barsua Iron Ore Mines, Tensa - OSPCB",10-06-2024 07:00:00,21.869985,85.167016,SO2,NA,NA,NA
India,Puducherry,Puducherry,"Jawahar Nagar, Puducherry - PPCC",10-06-2024 07:00:00,11.9309,79.8027,NH3,2,4,3
India,Puducherry,Puducherry,"Jawahar Nagar, Puducherry - PPCC",10-06-2024 07:00:00,11.9309,79.8027,OZONE,24,68,30
India,Punjab,Amritsar,"Golden Temple, Amritsar - PPCB",10-06-2024 07:00:00,31.620000,74.876512,NO2,6,135,54
India,Punjab,Amritsar,"Golden Temple, Amritsar - PPCB",10-06-2024 07:00:00,31.620000,74.876512,OZONE,47,61,54
India,Punjab,Jalandhar,"Civil Line, Jalandhar - PPCB",10-06-2024 07:00:00,31.321907,75.578914,CO,10,42,33
India,Punjab,Khanna,"Kalal Majra, Khanna - PPCB",10-06-2024 07:00:00,30.736056 ,76.209694,NO2,31,33,32
India,Punjab,Khanna,"Kalal Majra, Khanna - PPCB",10-06-2024 07:00:00,30.736056 ,76.209694,NH3,12,13,13
India,Punjab,Mandi Gobindgarh,"RIMT University, Mandi Gobindgarh - PPCB",10-06-2024 07:00:00,30.649961,76.331442,OZONE,26,27,26
India,Punjab,Patiala,"Model Town, Patiala - PPCB",10-06-2024 07:00:00,30.349388,76.366642,OZONE,46,144,66
India,Punjab,Rupnagar,"Ratanpura, Rupnagar - Ambuja Cements",10-06-2024 07:00:00,31.0325454,76.5623046,PM10,49,330,153
India,Rajasthan,Alwar,"Moti Doongri, Alwar - RSPCB",10-06-2024 07:00:00,27.554793,76.611536,NO2,17,39,29
India,Rajasthan,Banswara,"Rati Talai, Banswara - RSPCB",10-06-2024 07:00:00,23.555190,74.440010,PM10,39,151,97
India,Rajasthan,Banswara,"Rati Talai, Banswara - RSPCB",10-06-2024 07:00:00,23.555190,74.440010,NO2,7,28,14
India,Rajasthan,Banswara,"Rati Talai, Banswara - RSPCB",10-06-2024 07:00:00,23.555190,74.440010,CO,27,44,31
India,Rajasthan,Baran,"Bamboliya, Baran - RSPCB",10-06-2024 07:00:00,25.106006,76.469948,PM10,59,135,89
India,Rajasthan,Barmer,"Railway Colony, Barmer - RSPCB",10-06-2024 07:00:00,25.747299,71.393989,NH3,8,23,15
India,Rajasthan,Barmer,"Railway Colony, Barmer - RSPCB",10-06-2024 07:00:00,25.747299,71.393989,CO,4,18,8
India,Rajasthan,Barmer,"Railway Colony, Barmer - RSPCB",10-06-2024 07:00:00,25.747299,71.393989,OZONE,43,88,78
India,Rajasthan,Bhiwadi,"RIICO Ind. Area III, Bhiwadi - RSPCB",10-06-2024 07:00:00,28.194909,76.862296,PM10,85,179,116
India,Rajasthan,Bikaner,"MM Ground, Bikaner - RSPCB",10-06-2024 07:00:00,28.018792,73.292658,PM2.5,53,418,148
India,Rajasthan,Bikaner,"MM Ground, Bikaner - RSPCB",10-06-2024 07:00:00,28.018792,73.292658,CO,12,67,16
India,Rajasthan,Bundi,"New Colony, Bundi - RSPCB",10-06-2024 07:00:00,25.435774,75.644272,SO2,4,11,6
India,Rajasthan,Bundi,"New Colony, Bundi - RSPCB",10-06-2024 07:00:00,25.435774,75.644272,CO,16,103,21
India,Rajasthan,Churu,"Subash Chowk, Churu - RSPCB",10-06-2024 07:00:00,28.296139,74.961696,SO2,3,5,4
India,Rajasthan,Dausa,"Khatikan Mohalla, Dausa - RSPCB",10-06-2024 07:00:00,26.895552,76.334753,CO,20,137,88
India,Rajasthan,Dholpur,"Raja Ganj, Dholpur - RSPCB",10-06-2024 07:00:00,26.699557,77.898881,PM10,113,225,155
India,Rajasthan,Dungarpur,"Bhoiwada, Dungarpur - RSPCB",10-06-2024 07:00:00,23.837789,73.714926,PM2.5,17,87,44
India,Rajasthan,Dungarpur,"Bhoiwada, Dungarpur - RSPCB",10-06-2024 07:00:00,23.837789,73.714926,CO,7,76,37
India,Rajasthan,Hanumangarh,"Housing Board, Hanumangarh - RSPCB",10-06-2024 07:00:00,29.610750,74.283608,PM10,NA,NA,NA
India,Rajasthan,Hanumangarh,"Housing Board, Hanumangarh - RSPCB",10-06-2024 07:00:00,29.610750,74.283608,NH3,5,16,9
India,Rajasthan,Jaipur,"Adarsh Nagar, Jaipur - RSPCB",10-06-2024 07:00:00,26.902909,75.836858,PM10,72,115,96
India,Rajasthan,Jaipur,"Mansarovar Sector-12, Jaipur - RSPCB",10-06-2024 07:00:00,26.843698,75.766894,PM2.5,30,154,65
India,Rajasthan,Jaipur,"Mansarovar Sector-12, Jaipur - RSPCB",10-06-2024 07:00:00,26.843698,75.766894,NH3,1,3,2
India,Rajasthan,Jaipur,"Mansarovar Sector-12, Jaipur - RSPCB",10-06-2024 07:00:00,26.843698,75.766894,OZONE,139,308,237
India,Rajasthan,Jaipur,"Police Commissionerate, Jaipur - RSPCB",10-06-2024 07:00:00,26.9164092,75.7994901,PM2.5,50,98,74
India,Rajasthan,Jaipur,"Sector-2 Murlipura, Jaipur - RSPCB",10-06-2024 07:00:00,26.960669,75.771817,NO2,9,48,23
India,Rajasthan,Jaipur,"Shastri Nagar, Jaipur - RSPCB",10-06-2024 07:00:00,26.9502929,75.730943,PM10,105,473,171
India,Rajasthan,Jaipur,"Shastri Nagar, Jaipur - RSPCB",10-06-2024 07:00:00,26.9502929,75.730943,NH3,4,15,8
India,Rajasthan,Jalore,"Mudtra Sili, Jalore - RSPCB",10-06-2024 07:00:00,25.344694,72.626208,PM2.5,36,92,50
India,Rajasthan,Jalore,"Mudtra Sili, Jalore - RSPCB",10-06-2024 07:00:00,25.344694,72.626208,CO,8,34,12
India,Rajasthan,Jhalawar,"Rajlaxmi Nagar, Jhalawar - RSPCB",10-06-2024 07:00:00,24.588397,76.172782,OZONE,46,111,61
India,Rajasthan,Jhunjhunu,"Indra Nagar, Jhunjhunu - RSPCB",10-06-2024 07:00:00,28.108988,75.386577,PM10,83,212,123
India,Rajasthan,Jhunjhunu,"Indra Nagar, Jhunjhunu - RSPCB",10-06-2024 07:00:00,28.108988,75.386577,CO,12,28,17
India,Rajasthan,Jodhpur,"Collectorate, Jodhpur - RSPCB",10-06-2024 07:00:00,26.268249,73.0193853,PM10,47,298,138
India,Rajasthan,Jodhpur,"Collectorate, Jodhpur - RSPCB",10-06-2024 07:00:00,26.268249,73.0193853,NO2,1,22,11
India,Rajasthan,Jodhpur,"Digari Kalan, Jodhpur - RSPCB",10-06-2024 07:00:00,26.295810,73.082283,PM10,99,402,158
India,Rajasthan,Jodhpur,"Jhalamand, Jodhpur - RSPCB",10-06-2024 07:00:00,26.215415,73.070156,NO2,3,28,13
India,Rajasthan,Kota,"Nayapura, Kota - RSPCB",10-06-2024 07:00:00,25.196024,75.855668,CO,11,88,29
India,Rajasthan,Kota,"Nayapura, Kota - RSPCB",10-06-2024 07:00:00,25.196024,75.855668,OZONE,4,126,31
India,Rajasthan,Pali,"Indira Colony Vistar, Pali - RSPCB",10-06-2024 07:00:00,25.771061, 73.340227,PM2.5,57,253,115
India,Rajasthan,Pratapgarh,"Pragati Nagar, Pratapgarh - RSPCB",10-06-2024 07:00:00,24.041198,74.780702,PM2.5,NA,NA,NA
India,Rajasthan,Pratapgarh,"Pragati Nagar, Pratapgarh - RSPCB",10-06-2024 07:00:00,24.041198,74.780702,PM10,NA,NA,NA
India,Rajasthan,Pratapgarh,"Pragati Nagar, Pratapgarh - RSPCB",10-06-2024 07:00:00,24.041198,74.780702,NH3,NA,NA,NA
India,Rajasthan,Rajsamand,"Dhoinda, Rajsamand - RSPCB",10-06-2024 07:00:00,25.036360,73.883502,NO2,7,63,21
India,Rajasthan,Rajsamand,"Dhoinda, Rajsamand - RSPCB",10-06-2024 07:00:00,25.036360,73.883502,SO2,1,6,3
India,Rajasthan,Sawai Madhopur,"Sahu Nagar, Sawai Madhopur - RSPCB",10-06-2024 07:00:00,26.031443,76.359327,NH3,3,6,4
India,Rajasthan,Sawai Madhopur,"Sahu Nagar, Sawai Madhopur - RSPCB",10-06-2024 07:00:00,26.031443,76.359327,CO,40,79,52
India,Rajasthan,Sawai Madhopur,"Sahu Nagar, Sawai Madhopur - RSPCB",10-06-2024 07:00:00,26.031443,76.359327,OZONE,21,114,28
India,Rajasthan,Sirohi,"Vedhaynath Colony, Sirohi - RSPCB",10-06-2024 07:00:00,24.885261,72.857549,PM2.5,11,28,21
India,Rajasthan,Sri Ganganagar,"Old City, Sri Ganganagar - RSPCB",10-06-2024 07:00:00,29.931624,73.864511,PM10,110,280,161
India,Rajasthan,Sri Ganganagar,"Old City, Sri Ganganagar - RSPCB",10-06-2024 07:00:00,29.931624,73.864511,OZONE,39,89,51
India,Rajasthan,Tonk,"Shastri Nagar, Tonk - RSPCB",10-06-2024 07:00:00,26.159933,75.780517,NO2,NA,NA,NA
India,Rajasthan,Tonk,"Shastri Nagar, Tonk - RSPCB",10-06-2024 07:00:00,26.159933,75.780517,NH3,2,14,6
India,Rajasthan,Udaipur,"Ashok Nagar, Udaipur - RSPCB",10-06-2024 07:00:00,24.5886166,73.6321397,NO2,24,108,46
India,Rajasthan,Udaipur,"Ashok Nagar, Udaipur - RSPCB",10-06-2024 07:00:00,24.5886166,73.6321397,NH3,4,11,7
India,Rajasthan,Udaipur,"Ashok Nagar, Udaipur - RSPCB",10-06-2024 07:00:00,24.5886166,73.6321397,SO2,5,11,9
India,TamilNadu,Chennai,"Alandur Bus Depot, Chennai - CPCB",10-06-2024 07:00:00,12.9099161,80.1076538,PM2.5,23,23,23
India,TamilNadu,Chennai,"Alandur Bus Depot, Chennai - CPCB",10-06-2024 07:00:00,12.9099161,80.1076538,NO2,8,32,12
India,TamilNadu,Chennai,"Alandur Bus Depot, Chennai - CPCB",10-06-2024 07:00:00,12.9099161,80.1076538,CO,60,64,62
India,TamilNadu,Chennai,"Arumbakkam, Chennai - TNPCB",10-06-2024 07:00:00,13.0664,80.2112 ,PM2.5,2,86,22
India,TamilNadu,Chennai,"Kodungaiyur, Chennai - TNPCB",10-06-2024 07:00:00,13.1278,80.2642,PM10,29,60,44
India,TamilNadu,Chennai,"Kodungaiyur, Chennai - TNPCB",10-06-2024 07:00:00,13.1278,80.2642,NO2,11,23,16
India,TamilNadu,Chennai,"Kodungaiyur, Chennai - TNPCB",10-06-2024 07:00:00,13.1278,80.2642,CO,23,60,40
India,TamilNadu,Chennai,"Manali, Chennai - CPCB",10-06-2024 07:00:00,13.164544,80.26285,OZONE,6,7,6
India,TamilNadu,Chennai,"Royapuram, Chennai - TNPCB",10-06-2024 07:00:00,13.1036,80.2909,CO,42,42,42
India,TamilNadu,Chennai,"Royapuram, Chennai - TNPCB",10-06-2024 07:00:00,13.1036,80.2909,OZONE,7,7,7
India,TamilNadu,Chennai,"Velachery Res. Area, Chennai - CPCB",10-06-2024 07:00:00,13.0052189,80.2398125,PM2.5,21,59,35
India,TamilNadu,Chennai,"Velachery Res. Area, Chennai - CPCB",10-06-2024 07:00:00,13.0052189,80.2398125,NO2,17,27,23
India,TamilNadu,Coimbatore,"PSG College of Arts and Science, Coimbatore - TNPCB",10-06-2024 07:00:00,11.0328,77.0349,PM2.5,12,32,22
India,TamilNadu,Cuddalore,"Semmandalam, Cuddalore - TNPCB",10-06-2024 07:00:00,11.7637683,79.7499835,NO2,NA,NA,NA
India,TamilNadu,Gummidipoondi,"Anthoni Pillai Nagar, Gummidipoondi - TNPCB",10-06-2024 07:00:00,13.4127,80.1081,PM2.5,2,172,42
India,TamilNadu,Gummidipoondi,"Anthoni Pillai Nagar, Gummidipoondi - TNPCB",10-06-2024 07:00:00,13.4127,80.1081,PM10,24,124,56
India,TamilNadu,Gummidipoondi,"Anthoni Pillai Nagar, Gummidipoondi - TNPCB",10-06-2024 07:00:00,13.4127,80.1081,SO2,1,23,10
India,TamilNadu,Ramanathapuram,"Chalai Bazaar, Ramanathapuram - TNPCB",10-06-2024 07:00:00,9.36399,78.831977,SO2,8,12,10
India,TamilNadu,Tirupur,"Kumaran College, Tirupur - TNPCB",10-06-2024 07:00:00,11.0973603,77.3228673,CO,NA,NA,NA
India,TamilNadu,Tirupur,"Kumaran College, Tirupur - TNPCB",10-06-2024 07:00:00,11.0973603,77.3228673,OZONE,NA,NA,NA
India,Telangana,Hyderabad,"Central University, Hyderabad - TSPCB",10-06-2024 07:00:00,17.460103,78.334361,PM2.5,5,25,14
India,Telangana,Hyderabad,"ICRISAT Patancheru, Hyderabad - TSPCB",10-06-2024 07:00:00,17.518400,78.278777,PM10,3,24,12
India,Telangana,Hyderabad,"ICRISAT Patancheru, Hyderabad - TSPCB",10-06-2024 07:00:00,17.518400,78.278777,NO2,3,12,8
India,Telangana,Hyderabad,"IITH Kandi, Hyderabad - TSPCB",10-06-2024 07:00:00,17.585705,78.126199,PM2.5,17,20,18
India,Telangana,Hyderabad,"IITH Kandi, Hyderabad - TSPCB",10-06-2024 07:00:00,17.585705,78.126199,PM10,46,64,51
India,Telangana,Hyderabad,"IITH Kandi, Hyderabad - TSPCB",10-06-2024 07:00:00,17.585705,78.126199,NO2,7,9,7
India,Telangana,Hyderabad,"IITH Kandi, Hyderabad - TSPCB",10-06-2024 07:00:00,17.585705,78.126199,CO,3,14,8
India,Telangana,Hyderabad,"Kompally Municipal Office, Hyderabad - TSPCB",10-06-2024 07:00:00,17.544899,78.486949,PM10,NA,NA,NA
India,Telangana,Hyderabad,"Kompally Municipal Office, Hyderabad - TSPCB",10-06-2024 07:00:00,17.544899,78.486949,NO2,NA,NA,NA
India,Telangana,Hyderabad,"Nacharam_TSIIC IALA, Hyderabad - TSPCB",10-06-2024 07:00:00,17.429398,78.569354,PM2.5,35,56,51
India,Telangana,Hyderabad,"Nacharam_TSIIC IALA, Hyderabad - TSPCB",10-06-2024 07:00:00,17.429398,78.569354,PM10,58,76,72
India,Telangana,Hyderabad,"Nacharam_TSIIC IALA, Hyderabad - TSPCB",10-06-2024 07:00:00,17.429398,78.569354,OZONE,25,54,28
India,Telangana,Hyderabad,"New Malakpet, Hyderabad - TSPCB",10-06-2024 07:00:00,17.37206,78.50864,PM2.5,27,81,44
India,Telangana,Hyderabad,"New Malakpet, Hyderabad - TSPCB",10-06-2024 07:00:00,17.37206,78.50864,NO2,15,20,17
India,Telangana,Hyderabad,"Ramachandrapuram, Hyderabad - TSPCB",10-06-2024 07:00:00,17.528544,78.286195,PM10,NA,NA,NA
India,Telangana,Hyderabad,"Ramachandrapuram, Hyderabad - TSPCB",10-06-2024 07:00:00,17.528544,78.286195,OZONE,NA,NA,NA
India,Telangana,Hyderabad,"Sanathnagar, Hyderabad - TSPCB",10-06-2024 07:00:00,17.4559458,78.4332152,OZONE,3,198,108
India,Telangana,Hyderabad,"Zoo Park, Hyderabad - TSPCB",10-06-2024 07:00:00,17.349694,78.451437,PM10,4,52,21
India,Telangana,Hyderabad,"Zoo Park, Hyderabad - TSPCB",10-06-2024 07:00:00,17.349694,78.451437,OZONE,16,20,17
India,Uttar_Pradesh,Agra,"Rohta, Agra - UPPCB",10-06-2024 07:00:00,27.106972,78.000111,PM2.5,3,69,41
India,Uttar_Pradesh,Agra,"Rohta, Agra - UPPCB",10-06-2024 07:00:00,27.106972,78.000111,NO2,6,7,7
India,Uttar_Pradesh,Agra,"Rohta, Agra - UPPCB",10-06-2024 07:00:00,27.106972,78.000111,SO2,3,18,8
India,Uttar_Pradesh,Agra,"Sanjay Palace, Agra - UPPCB",10-06-2024 07:00:00,27.19865833,78.00598056,SO2,2,15,7
India,Uttar_Pradesh,Agra,"Sanjay Palace, Agra - UPPCB",10-06-2024 07:00:00,27.19865833,78.00598056,OZONE,13,38,26
India,Uttar_Pradesh,Agra,"Sector-3B Avas Vikas Colony, Agra - UPPCB",10-06-2024 07:00:00,27.19412,77.96237,NH3,6,22,13
India,Uttar_Pradesh,Agra,"Shastripuram, Agra - UPPCB",10-06-2024 07:00:00,27.19862,77.92066,CO,8,30,22
India,Uttar_Pradesh,Baghpat,"Sardar Patel Inter College, Baghpat - UPPCB",10-06-2024 07:00:00,28.964949,77.278761,NH3,2,9,3
India,Uttar_Pradesh,Bareilly,"Civil Lines, Bareilly - UPPCB",10-06-2024 07:00:00,28.359581,79.414455,PM10,14,26,20
India,Uttar_Pradesh,Bareilly,"Civil Lines, Bareilly - UPPCB",10-06-2024 07:00:00,28.359581,79.414455,NO2,2,3,2
India,Uttar_Pradesh,Bulandshahr,"Yamunapuram, Bulandshahr - UPPCB",10-06-2024 07:00:00,28.406963,77.849831,PM2.5,21,193,67
India,Uttar_Pradesh,Ghaziabad,"Indirapuram, Ghaziabad - UPPCB",10-06-2024 07:00:00,28.646233,77.358075,NO2,36,122,61
India,Uttar_Pradesh,Ghaziabad,"Indirapuram, Ghaziabad - UPPCB",10-06-2024 07:00:00,28.646233,77.358075,CO,34,80,51
India,Uttar_Pradesh,Ghaziabad,"Loni, Ghaziabad - UPPCB",10-06-2024 07:00:00,28.757294,77.278792,NH3,1,5,2
India,Uttar_Pradesh,Ghaziabad,"Loni, Ghaziabad - UPPCB",10-06-2024 07:00:00,28.757294,77.278792,CO,2,48,32
India,Uttar_Pradesh,Ghaziabad,"Sanjay Nagar, Ghaziabad - UPPCB",10-06-2024 07:00:00,28.685382,77.453839,PM2.5,13,147,52
India,Uttar_Pradesh,Ghaziabad,"Sanjay Nagar, Ghaziabad - UPPCB",10-06-2024 07:00:00,28.685382,77.453839,CO,4,101,26
India,Uttar_Pradesh,Ghaziabad,"Vasundhara, Ghaziabad - UPPCB",10-06-2024 07:00:00,28.6603346,77.3572563,SO2,2,39,12
India,Uttar_Pradesh,Gorakhpur,"Madan Mohan Malaviya University of Technology, Gorakhpur - UPPCB",10-06-2024 07:00:00,26.730136,83.433859,CO,6,26,13
India,Uttar_Pradesh,Greater Noida,"Knowledge Park - III, Greater Noida - UPPCB",10-06-2024 07:00:00,28.47272,77.482000,PM10,141,361,203
India,Uttar_Pradesh,Greater Noida,"Knowledge Park - III, Greater Noida - UPPCB",10-06-2024 07:00:00,28.47272,77.482000,NH3,1,8,4
India,Uttar_Pradesh,Greater Noida,"Knowledge Park - V, Greater Noida - UPPCB",10-06-2024 07:00:00,28.557054,77.453663,PM10,142,264,189
India,Uttar_Pradesh,Greater Noida,"Knowledge Park - V, Greater Noida - UPPCB",10-06-2024 07:00:00,28.557054,77.453663,SO2,3,37,15
India,Uttar_Pradesh,Jhansi,"Shivaji Nagar, Jhansi - UPPCB",10-06-2024 07:00:00,25.4547,78.6039,PM10,NA,NA,NA
India,Uttar_Pradesh,Jhansi,"Shivaji Nagar, Jhansi - UPPCB",10-06-2024 07:00:00,25.4547,78.6039,NH3,5,6,6
India,Uttar_Pradesh,Kanpur,"FTI Kidwai Nagar, Kanpur - UPPCB",10-06-2024 07:00:00,26.428282,80.327067,PM10,64,195,107
India,Uttar_Pradesh,Kanpur,"FTI Kidwai Nagar, Kanpur - UPPCB",10-06-2024 07:00:00,26.428282,80.327067,CO,26,46,38
India,Uttar_Pradesh,Kanpur,"NSI Kalyanpur, Kanpur - UPPCB",10-06-2024 07:00:00,26.509954,80.249612,PM2.5,47,168,87
India,Uttar_Pradesh,Kanpur,"NSI Kalyanpur, Kanpur - UPPCB",10-06-2024 07:00:00,26.509954,80.249612,PM10,87,150,120
India,Uttar_Pradesh,Kanpur,"NSI Kalyanpur, Kanpur - UPPCB",10-06-2024 07:00:00,26.509954,80.249612,NO2,26,27,27
India,Uttar_Pradesh,Kanpur,"Nehru Nagar, Kanpur - UPPCB",10-06-2024 07:00:00,26.4703136,80.3229863,PM10,22,74,48
India,Uttar_Pradesh,Lucknow,"Gomti Nagar, Lucknow - UPPCB",10-06-2024 07:00:00,26.868120,81.005119,PM2.5,52,98,76
India,Uttar_Pradesh,Lucknow,"Gomti Nagar, Lucknow - UPPCB",10-06-2024 07:00:00,26.868120,81.005119,SO2,5,16,11
India,Uttar_Pradesh,Lucknow,"Kendriya Vidyalaya, Lucknow - CPCB",10-06-2024 07:00:00,26.906111,80.948222,PM2.5,69,306,181
India,Uttar_Pradesh,Lucknow,"Kendriya Vidyalaya, Lucknow - CPCB",10-06-2024 07:00:00,26.906111,80.948222,CO,18,41,25
India,Uttar_Pradesh,Lucknow,"Kukrail Picnic Spot-1, Lucknow - UPPCB",10-06-2024 07:00:00,26.90723,80.98579,NH3,2,2,2
India,Uttar_Pradesh,Lucknow,"Lalbagh, Lucknow - CPCB",10-06-2024 07:00:00,26.8458805,80.9365541,SO2,1,25,8
India,Uttar_Pradesh,Lucknow,"Talkatora District Industries Center, Lucknow - CPCB",10-06-2024 07:00:00,26.83399722,80.8917361,CO,5,67,39
India,Uttar_Pradesh,Meerut,"Ganga Nagar, Meerut - UPPCB",10-06-2024 07:00:00,28.999264,77.7590354,PM10,85,140,113
India,Uttar_Pradesh,Meerut,"Pallavpuram Phase 2, Meerut - UPPCB",10-06-2024 07:00:00,29.063510,77.709723,NH3,4,5,5
India,Uttar_Pradesh,Moradabad,"Employment Office, Moradabad - UPPCB",10-06-2024 07:00:00,28.88528,78.73880,NO2,17,17,17
India,Uttar_Pradesh,Moradabad,"Jigar Colony, Moradabad - UPPCB",10-06-2024 07:00:00,28.856664,78.772638,CO,22,42,40
India,Uttar_Pradesh,Moradabad,"Kashiram Nagar, Moradabad - UPPCB",10-06-2024 07:00:00,28.849399,78.742362,PM2.5,21,95,59
India,Uttar_Pradesh,Moradabad,"Kashiram Nagar, Moradabad - UPPCB",10-06-2024 07:00:00,28.849399,78.742362,NH3,4,4,4
India,Uttar_Pradesh,Moradabad,"Transport Nagar, Moradabad - UPPCB",10-06-2024 07:00:00,28.802625,78.753728,SO2,68,91,80
India,Uttar_Pradesh,Muzaffarnagar,"New Mandi, Muzaffarnagar - UPPCB",10-06-2024 07:00:00,29.4723508,77.7194031,PM2.5,42,172,101
India,Uttar_Pradesh,Muzaffarnagar,"New Mandi, Muzaffarnagar - UPPCB",10-06-2024 07:00:00,29.4723508,77.7194031,NO2,10,77,21
India,Uttar_Pradesh,Noida,"Sector - 125, Noida - UPPCB",10-06-2024 07:00:00,28.5447608,77.3231257,NH3,1,7,5
India,Uttar_Pradesh,Noida,"Sector - 125, Noida - UPPCB",10-06-2024 07:00:00,28.5447608,77.3231257,SO2,4,24,14
India,Uttar_Pradesh,Noida,"Sector - 62, Noida - IMD",10-06-2024 07:00:00,28.6245479,77.3577104,PM10,101,223,149
India,Uttar_Pradesh,Noida,"Sector - 62, Noida - IMD",10-06-2024 07:00:00,28.6245479,77.3577104,NO2,7,23,11
India,Uttar_Pradesh,Noida,"Sector-1, Noida - UPPCB",10-06-2024 07:00:00,28.5898,77.3101,PM2.5,20,118,59
India,Uttar_Pradesh,Noida,"Sector-116, Noida - UPPCB",10-06-2024 07:00:00,28.569230,77.393848,OZONE,13,131,53
India,Uttar_Pradesh,Prayagraj,"Jhunsi, Prayagraj - UPPCB",10-06-2024 07:00:00,25.425602,81.917152,CO,1,34,15
India,Uttar_Pradesh,Prayagraj,"Motilal Nehru NIT, Prayagraj - UPPCB",10-06-2024 07:00:00,25.494,81.863,OZONE,11,91,22
India,Uttar_Pradesh,Prayagraj,"Nagar Nigam, Prayagraj - UPPCB",10-06-2024 07:00:00,25.44919916 ,81.82735986 ,PM2.5,71,153,100
India,Uttar_Pradesh,Varanasi,"Ardhali Bazar, Varanasi - UPPCB",10-06-2024 07:00:00,25.3505986,82.9083074,PM10,24,116,56
India,Uttar_Pradesh,Varanasi,"Ardhali Bazar, Varanasi - UPPCB",10-06-2024 07:00:00,25.3505986,82.9083074,CO,31,56,43
India,Uttar_Pradesh,Varanasi,"Bhelupur, Varanasi - UPPCB",10-06-2024 07:00:00,25.301778,82.996789,NO2,7,8,8
India,Uttar_Pradesh,Varanasi,"Bhelupur, Varanasi - UPPCB",10-06-2024 07:00:00,25.301778,82.996789,SO2,31,32,32
India,Uttar_Pradesh,Varanasi,"Bhelupur, Varanasi - UPPCB",10-06-2024 07:00:00,25.301778,82.996789,CO,12,100,58
India,Uttar_Pradesh,Varanasi,"Bhelupur, Varanasi - UPPCB",10-06-2024 07:00:00,25.301778,82.996789,OZONE,1,35,6
India,Uttar_Pradesh,Varanasi,"Maldahiya, Varanasi - UPPCB",10-06-2024 07:00:00,25.32393,82.99687,PM10,33,74,52
India,Uttarakhand,Dehradun,"Doon University, Dehradun - UKPCB",10-06-2024 07:00:00,30.269444,78.044167,SO2,2,5,3
India,West_Bengal,Asansol,"Asansol Court Area, Asansol - WBPCB",10-06-2024 07:00:00,23.685297,86.945968,NO2,43,65,51
India,West_Bengal,Asansol,"Evelyn Lodge, Asansol - WBPCB",10-06-2024 07:00:00,23.6979360,86.9443950,PM2.5,57,196,121
India,West_Bengal,Asansol,"Evelyn Lodge, Asansol - WBPCB",10-06-2024 07:00:00,23.6979360,86.9443950,SO2,12,18,14
India,West_Bengal,Durgapur,"PCBL Residential Complex, Durgapur - WBPCB",10-06-2024 07:00:00,23.5087640,87.3544400,PM10,109,270,178
India,West_Bengal,Durgapur,"PCBL Residential Complex, Durgapur - WBPCB",10-06-2024 07:00:00,23.5087640,87.3544400,NO2,13,65,33
India,West_Bengal,Durgapur,"PCBL Residential Complex, Durgapur - WBPCB",10-06-2024 07:00:00,23.5087640,87.3544400,SO2,9,71,18
India,West_Bengal,Durgapur,"Sidhu Kanhu Indoor Stadium, Durgapur - WBPCB",10-06-2024 07:00:00,23.5404352,87.2892225,OZONE,15,112,23
India,West_Bengal,Haldia,"Priyambada Housing Estate, Haldia - WBPCB",10-06-2024 07:00:00,22.06047,88.109737,CO,22,28,27
India,West_Bengal,Howrah,"Belur Math, Howrah - WBPCB",10-06-2024 07:00:00,22.629801,88.352017,PM2.5,30,65,45
India,West_Bengal,Howrah,"Ghusuri, Howrah - WBPCB",10-06-2024 07:00:00,22.611968,88.347422,CO,14,20,16
India,West_Bengal,Howrah,"Ghusuri, Howrah - WBPCB",10-06-2024 07:00:00,22.611968,88.347422,OZONE,20,50,26
India,West_Bengal,Kolkata,"Ballygunge, Kolkata - WBPCB",10-06-2024 07:00:00,22.5367507,88.3638022,CO,6,18,8
India,West_Bengal,Kolkata,"Bidhannagar, Kolkata - WBPCB",10-06-2024 07:00:00,22.58157048,88.41002457,OZONE,27,84,37
India,West_Bengal,Kolkata,"Jadavpur, Kolkata - WBPCB",10-06-2024 07:00:00,22.49929,88.36917,PM2.5,42,73,55
India,West_Bengal,Kolkata,"Jadavpur, Kolkata - WBPCB",10-06-2024 07:00:00,22.49929,88.36917,CO,16,24,17
India,West_Bengal,Kolkata,"Jadavpur, Kolkata - WBPCB",10-06-2024 07:00:00,22.49929,88.36917,OZONE,32,88,44
India,West_Bengal,Kolkata,"Rabindra Bharati University, Kolkata - WBPCB",10-06-2024 07:00:00,22.627847,88.380669,OZONE,13,80,46
India,West_Bengal,Kolkata,"Rabindra Sarobar, Kolkata - WBPCB",10-06-2024 07:00:00,22.51106,88.35142,SO2,3,4,4
India,West_Bengal,Siliguri,"Ward-32 Bapupara, Siliguri - WBPCB",10-06-2024 07:00:00,26.6879226,88.4152495,PM10,49,77,62
India,West_Bengal,Siliguri,"Ward-32 Bapupara, Siliguri - WBPCB",10-06-2024 07:00:00,26.6879226,88.4152495,CO,18,43,42
India,Andhra_Pradesh,Amaravati,"Secretariat, Amaravati - APPCB",10-06-2024 07:00:00,16.5150833,80.5181667,PM10,6,29,14
India,Andhra_Pradesh,Amaravati,"Secretariat, Amaravati - APPCB",10-06-2024 07:00:00,16.5150833,80.5181667,NH3,3,4,4
India,Andhra_Pradesh,Kadapa,"Yerramukkapalli, Kadapa - APPCB",10-06-2024 07:00:00,14.465052,78.824187,SO2,NA,NA,NA
India,Andhra_Pradesh,Rajamahendravaram,"Anand Kala Kshetram, Rajamahendravaram - APPCB",10-06-2024 07:00:00,16.9872867,81.7363176,PM10,15,42,27
India,Andhra_Pradesh,Rajamahendravaram,"Anand Kala Kshetram, Rajamahendravaram - APPCB",10-06-2024 07:00:00,16.9872867,81.7363176,SO2,11,12,12
India,Andhra_Pradesh,Tirupati,"Tirumala, Tirupati - APPCB",10-06-2024 07:00:00,13.67,79.35,PM10,17,70,34
India,Andhra_Pradesh,Tirupati,"Tirumala, Tirupati - APPCB",10-06-2024 07:00:00,13.67,79.35,NO2,11,27,19
India,Andhra_Pradesh,Vijayawada,"Rajiv Gandhi Park, Vijayawada - APPCB",10-06-2024 07:00:00,16.509717,80.612222,PM2.5,35,46,40
India,Andhra_Pradesh,Vijayawada,"Rajiv Gandhi Park, Vijayawada - APPCB",10-06-2024 07:00:00,16.509717,80.612222,NH3,5,6,6
India,Andhra_Pradesh,Visakhapatnam,"GVM Corporation, Visakhapatnam - APPCB",10-06-2024 07:00:00,17.72,83.3,PM2.5,29,67,44
India,Andhra_Pradesh,Visakhapatnam,"GVM Corporation, Visakhapatnam - APPCB",10-06-2024 07:00:00,17.72,83.3,PM10,60,135,93
India,Arunachal_Pradesh,Naharlagun,"Naharlagun, Naharlagun - APSPCB",10-06-2024 07:00:00,27.103358,93.679645,PM2.5,NA,NA,NA
India,Assam,Byrnihat,"Central Academy for SFS, Byrnihat - PCBA",10-06-2024 07:00:00,26.071318,91.87488,SO2,9,55,28
India,Assam,Guwahati,"IITG, Guwahati - PCBA",10-06-2024 07:00:00,26.2028636,91.70046436,PM2.5,18,121,65
India,Assam,Guwahati,"IITG, Guwahati - PCBA",10-06-2024 07:00:00,26.2028636,91.70046436,CO,10,16,15
India,Assam,Guwahati,"LGBI Airport, Guwahati - PCBA",10-06-2024 07:00:00,26.10887,91.589544,OZONE,23,30,25
India,Assam,Nagaon,"Christianpatty, Nagaon - PCBA",10-06-2024 07:00:00,26.349082,92.68449,PM10,17,414,94
India,Assam,Nalbari,"Bata Chowk, Nalbari - PCBA",10-06-2024 07:00:00,26.446912,91.439057,PM2.5,12,120,65
India,Assam,Silchar,"Tarapur, Silchar - PCBA",10-06-2024 07:00:00,24.82827,92.79525,NO2,16,16,16
India,Assam,Sivasagar,"Girls College, Sivasagar - PCBA",10-06-2024 07:00:00,26.987634,94.636574,NO2,7,21,13
India,Assam,Sivasagar,"Girls College, Sivasagar - PCBA",10-06-2024 07:00:00,26.987634,94.636574,NH3,1,2,1
India,Bihar,Arrah,"New DM Office, Arrah - BSPCB",10-06-2024 07:00:00,25.5626095,84.663264,CO,NA,NA,NA
India,Bihar,Arrah,"New DM Office, Arrah - BSPCB",10-06-2024 07:00:00,25.5626095,84.663264,OZONE,NA,NA,NA
India,Bihar,Aurangabad,"Gurdeo Nagar, Aurangabad - BSPCB",10-06-2024 07:00:00,24.75746,84.366208,CO,13,26,25
India,Bihar,Bhagalpur,"DM Office_Kachari Chowk, Bhagalpur - BSPCB",10-06-2024 07:00:00,25.251013,86.989001,PM2.5,NA,NA,NA
India,Bihar,Bhagalpur,"Mayaganj, Bhagalpur - BSPCB",10-06-2024 07:00:00,25.265194,87.012947,NO2,NA,NA,NA
India,Bihar,Bhagalpur,"Mayaganj, Bhagalpur - BSPCB",10-06-2024 07:00:00,25.265194,87.012947,CO,26,28,27
India,Bihar,Bihar Sharif,"D M Colony, Bihar Sharif - BSPCB",10-06-2024 07:00:00,25.204762,85.514960,CO,22,29,25
India,Bihar,Bihar Sharif,"D M Colony, Bihar Sharif - BSPCB",10-06-2024 07:00:00,25.204762,85.514960,OZONE,19,120,49
India,Bihar,Buxar,"Charitra Van, Buxar - BSPCB (Formerly known as Central Jail)",10-06-2024 07:00:00,25.567520,83.966379,NO2,1,1,1
India,Bihar,Buxar,"Charitra Van, Buxar - BSPCB (Formerly known as Central Jail)",10-06-2024 07:00:00,25.567520,83.966379,SO2,2,4,3
India,Bihar,Buxar,"Charitra Van, Buxar - BSPCB (Formerly known as Central Jail)",10-06-2024 07:00:00,25.567520,83.966379,CO,34,117,70
India,Bihar,Chhapra,"Darshan Nagar, Chhapra - BSPCB",10-06-2024 07:00:00,25.7808257,84.7446768,OZONE,1,8,1
India,Bihar,Gaya,"Kareemganj, Gaya - BSPCB",10-06-2024 07:00:00,24.792403,84.992416,SO2,9,10,10
India,Bihar,Gaya,"SFTI Kusdihra, Gaya - BSPCB",10-06-2024 07:00:00,24.762518,84.982348,SO2,8,10,9
India,Bihar,Hajipur,"Industrial Area, Hajipur - BSPCB",10-06-2024 07:00:00,25.697189,85.245900,PM10,99,208,151
India,Bihar,Hajipur,"Industrial Area, Hajipur - BSPCB",10-06-2024 07:00:00,25.697189,85.245900,NO2,12,39,23
India,Bihar,Hajipur,"Industrial Area, Hajipur - BSPCB",10-06-2024 07:00:00,25.697189,85.245900,OZONE,10,85,16
India,Bihar,Kishanganj,"SDM Office_Khagra, Kishanganj - BSPCB",10-06-2024 07:00:00,26.0881305,87.93840336,CO,6,7,6
India,Bihar,Manguraha,"Forest Rest House, Manguraha - BSPCB",10-06-2024 07:00:00,27.308328,84.531742,NH3,2,3,3
India,Bihar,Manguraha,"Forest Rest House, Manguraha - BSPCB",10-06-2024 07:00:00,27.308328,84.531742,OZONE,4,76,20
India,Bihar,Motihari,"Gandak Colony, Motihari - BSPCB",10-06-2024 07:00:00,26.63086,84.90051,PM2.5,NA,NA,NA
India,Bihar,Motihari,"Gandak Colony, Motihari - BSPCB",10-06-2024 07:00:00,26.63086,84.90051,CO,5,60,28
India,Bihar,Motihari,"Gandak Colony, Motihari - BSPCB",10-06-2024 07:00:00,26.63086,84.90051,OZONE,19,80,23
India,Bihar,Munger,"Town Hall, Munger - BSPCB",10-06-2024 07:00:00,25.376776,86.471523,PM2.5,NA,NA,NA
India,Bihar,Munger,"Town Hall, Munger - BSPCB",10-06-2024 07:00:00,25.376776,86.471523,PM10,NA,NA,NA
India,Bihar,Munger,"Town Hall, Munger - BSPCB",10-06-2024 07:00:00,25.376776,86.471523,SO2,19,35,27
India,Bihar,Muzaffarpur,"Buddha Colony, Muzaffarpur - BSPCB",10-06-2024 07:00:00,26.11442,85.39813,NH3,6,10,8
India,Bihar,Muzaffarpur,"Muzaffarpur Collectorate, Muzaffarpur - BSPCB",10-06-2024 07:00:00,26.1209,85.3647,OZONE,121,122,122
India,Bihar,Patna,"DRM Office Danapur, Patna - BSPCB",10-06-2024 07:00:00,25.586562,85.043586,NO2,8,13,10
India,Bihar,Patna,"DRM Office Danapur, Patna - BSPCB",10-06-2024 07:00:00,25.586562,85.043586,NH3,2,3,3
India,Bihar,Patna,"DRM Office Danapur, Patna - BSPCB",10-06-2024 07:00:00,25.586562,85.043586,CO,15,52,29
India,Bihar,Patna,"Govt. High School Shikarpur, Patna - BSPCB",10-06-2024 07:00:00,25.592539,85.227158,PM2.5,56,273,141
India,Bihar,Patna,"Govt. High School Shikarpur, Patna - BSPCB",10-06-2024 07:00:00,25.592539,85.227158,OZONE,1,60,2
India,Bihar,Patna,"IGSC Planetarium Complex, Patna - BSPCB",10-06-2024 07:00:00,25.610369,85.132568,NO2,13,13,13
India,Bihar,Patna,"Muradpur, Patna - BSPCB",10-06-2024 07:00:00,25.619651,85.147382,NO2,9,58,29
India,Bihar,Patna,"Rajbansi Nagar, Patna - BSPCB",10-06-2024 07:00:00,25.599486,85.113666,NO2,5,42,17
India,Bihar,Patna,"Rajbansi Nagar, Patna - BSPCB",10-06-2024 07:00:00,25.599486,85.113666,SO2,2,16,9
India,Bihar,Patna,"Rajbansi Nagar, Patna - BSPCB",10-06-2024 07:00:00,25.599486,85.113666,OZONE,18,83,26
India,Bihar,Patna,"Samanpura, Patna - BSPCB",10-06-2024 07:00:00,25.596727,85.085624,NH3,6,17,9
India,Bihar,Patna,"Samanpura, Patna - BSPCB",10-06-2024 07:00:00,25.596727,85.085624,SO2,3,6,4
India,Bihar,Rajgir,"Dangi Tola, Rajgir - BSPCB",10-06-2024 07:00:00,25.03280,85.41948,NO2,14,15,15
India,Bihar,Samastipur,"DM Office_Kasipur, Samastipur - BSPCB",10-06-2024 07:00:00,25.859655,85.77944,SO2,42,81,66
India,Bihar,Siwan,"Chitragupta Nagar, Siwan - BSPCB",10-06-2024 07:00:00,26.2271665,84.3570427,SO2,14,35,31
India,Chandigarh,Chandigarh,"Sector 22, Chandigarh - CPCC",10-06-2024 07:00:00,30.735567,76.775714,CO,28,46,41
India,Chandigarh,Chandigarh,"Sector-25, Chandigarh - CPCC",10-06-2024 07:00:00,30.751462,76.762879,NH3,NA,NA,NA
India,Chandigarh,Chandigarh,"Sector-25, Chandigarh - CPCC",10-06-2024 07:00:00,30.751462,76.762879,SO2,NA,NA,NA
India,Chandigarh,Chandigarh,"Sector-53, Chandigarh - CPCC",10-06-2024 07:00:00,30.719859,76.738637,PM2.5,5,243,74
India,Chandigarh,Chandigarh,"Sector-53, Chandigarh - CPCC",10-06-2024 07:00:00,30.719859,76.738637,SO2,4,28,12
India,Chandigarh,Chandigarh,"Sector-53, Chandigarh - CPCC",10-06-2024 07:00:00,30.719859,76.738637,CO,30,70,50
India,Chhattisgarh,Bhilai,"32Bungalows, Bhilai - CECB",10-06-2024 07:00:00,21.194815,81.314770,PM2.5,27,79,49
India,Chhattisgarh,Bhilai,"32Bungalows, Bhilai - CECB",10-06-2024 07:00:00,21.194815,81.314770,SO2,9,18,11
India,Chhattisgarh,Bhilai,"32Bungalows, Bhilai - CECB",10-06-2024 07:00:00,21.194815,81.314770,OZONE,7,51,9
India,Chhattisgarh,Bhilai,"Civic Center, Bhilai - Bhilai Steel Plant",10-06-2024 07:00:00,21.185571,81.343175,PM2.5,21,51,32
India,Chhattisgarh,Milupara,"Govt. Higher Secondary School, Milupara - CECB",10-06-2024 07:00:00,22.1910172,83.5197009,OZONE,18,79,20
India,Chhattisgarh,Raipur,"Bhatagaon New ISBT, Raipur - CECB",10-06-2024 07:00:00,21.219665,81.630094,NH3,2,2,2
India,Chhattisgarh,Raipur,"Bhatagaon New ISBT, Raipur - CECB",10-06-2024 07:00:00,21.219665,81.630094,CO,14,40,28
India,Chhattisgarh,Raipur,"Siltara Phase-II, Raipur - CECB",10-06-2024 07:00:00,21.371751,81.664929,NO2,18,65,28
India,Delhi,Delhi,"Alipur, Delhi - DPCC",10-06-2024 07:00:00,28.815329,77.153010,SO2,10,47,24
India,Delhi,Delhi,"Alipur, Delhi - DPCC",10-06-2024 07:00:00,28.815329,77.153010,OZONE,69,275,119
India,Delhi,Delhi,"Anand Vihar, Delhi - DPCC",10-06-2024 07:00:00,28.647622,77.3158090,PM10,108,344,188
India,Delhi,Delhi,"Aya Nagar, Delhi - IMD",10-06-2024 07:00:00,28.4706914,77.1099364,PM2.5,21,329,94
India,Delhi,Delhi,"Aya Nagar, Delhi - IMD",10-06-2024 07:00:00,28.4706914,77.1099364,NO2,8,14,12
India,Delhi,Delhi,"Bawana, Delhi - DPCC",10-06-2024 07:00:00,28.776200,77.051074,NH3,2,4,3
India,Delhi,Delhi,"Bawana, Delhi - DPCC",10-06-2024 07:00:00,28.776200,77.051074,SO2,8,71,33
India,Delhi,Delhi,"Burari Crossing, Delhi - IMD",10-06-2024 07:00:00,28.7256504,77.2011573,PM2.5,15,343,94
India,Delhi,Delhi,"CRRI Mathura Road, Delhi - IMD",10-06-2024 07:00:00,28.5512005,77.2735737,CO,19,103,68
India,Delhi,Delhi,"Chandni Chowk, Delhi - IITM",10-06-2024 07:00:00,28.656756,77.227234,OZONE,1,10,6
India,Delhi,Delhi,"DTU, Delhi - CPCB",10-06-2024 07:00:00,28.7500499,77.1112615,PM2.5,48,292,110
India,Delhi,Delhi,"DTU, Delhi - CPCB",10-06-2024 07:00:00,28.7500499,77.1112615,OZONE,47,145,87
India,Delhi,Delhi,"Dr. Karni Singh Shooting Range, Delhi - DPCC",10-06-2024 07:00:00,28.498571,77.264840,NH3,4,6,5
India,Delhi,Delhi,"Dr. Karni Singh Shooting Range, Delhi - DPCC",10-06-2024 07:00:00,28.498571,77.264840,SO2,5,32,17
India,Delhi,Delhi,"Dr. Karni Singh Shooting Range, Delhi - DPCC",10-06-2024 07:00:00,28.498571,77.264840,OZONE,9,258,173
India,Delhi,Delhi,"Dwarka-Sector 8, Delhi - DPCC ",10-06-2024 07:00:00,28.5710274,77.0719006,PM10,109,405,172
India,Delhi,Delhi,"IGI Airport (T3), Delhi - IMD",10-06-2024 07:00:00,28.5627763,77.1180053,OZONE,4,57,24
India,Delhi,Delhi,"IHBAS, Dilshad Garden, Delhi - CPCB",10-06-2024 07:00:00,28.6811736,77.3025234,PM2.5,83,307,151
India,Delhi,Delhi,"ITO, Delhi - CPCB",10-06-2024 07:00:00,28.628624,77.241060,SO2,1,23,12
India,Delhi,Delhi,"ITO, Delhi - CPCB",10-06-2024 07:00:00,28.628624,77.241060,OZONE,2,63,26
India,Delhi,Delhi,"Jahangirpuri, Delhi - DPCC",10-06-2024 07:00:00,28.732820,77.170633,PM10,137,414,238
India,Delhi,Delhi,"Major Dhyan Chand National Stadium, Delhi - DPCC",10-06-2024 07:00:00,28.611281,77.237738,PM10,72,181,131
India,Delhi,Delhi,"Mandir Marg, Delhi - DPCC",10-06-2024 07:00:00,28.636429,77.201067,PM2.5,3,267,74
India,Delhi,Delhi,"Mandir Marg, Delhi - DPCC",10-06-2024 07:00:00,28.636429,77.201067,PM10,28,164,110
India,Delhi,Delhi,"NSIT Dwarka, Delhi - CPCB",10-06-2024 07:00:00,28.60909,77.0325413,PM2.5,51,225,134
India,Delhi,Delhi,"NSIT Dwarka, Delhi - CPCB",10-06-2024 07:00:00,28.60909,77.0325413,PM10,141,248,178
India,Delhi,Delhi,"NSIT Dwarka, Delhi - CPCB",10-06-2024 07:00:00,28.60909,77.0325413,NO2,25,46,33
India,Delhi,Delhi,"NSIT Dwarka, Delhi - CPCB",10-06-2024 07:00:00,28.60909,77.0325413,NH3,3,7,6
India,Delhi,Delhi,"NSIT Dwarka, Delhi - CPCB",10-06-2024 07:00:00,28.60909,77.0325413,CO,40,67,45
India,Delhi,Delhi,"Najafgarh, Delhi - DPCC",10-06-2024 07:00:00,28.570173,76.933762,NO2,5,29,14
India,Delhi,Delhi,"Narela, Delhi - DPCC",10-06-2024 07:00:00,28.822836,77.101981,NO2,5,84,22
India,Delhi,Delhi,"Nehru Nagar, Delhi - DPCC",10-06-2024 07:00:00,28.567890,77.250515,SO2,5,12,7
India,Delhi,Delhi,"Nehru Nagar, Delhi - DPCC",10-06-2024 07:00:00,28.567890,77.250515,OZONE,6,272,73
India,Delhi,Delhi,"North Campus, DU, Delhi - IMD",10-06-2024 07:00:00,28.6573814,77.1585447,PM2.5,NA,NA,NA
India,Delhi,Delhi,"North Campus, DU, Delhi - IMD",10-06-2024 07:00:00,28.6573814,77.1585447,PM10,NA,NA,NA
India,Delhi,Delhi,"Okhla Phase-2, Delhi - DPCC",10-06-2024 07:00:00,28.530785,77.271255,NH3,8,13,10
India,Delhi,Delhi,"Okhla Phase-2, Delhi - DPCC",10-06-2024 07:00:00,28.530785,77.271255,SO2,7,14,10
India,Delhi,Delhi,"Patparganj, Delhi - DPCC",10-06-2024 07:00:00,28.623763,77.287209,SO2,3,21,11
India,Delhi,Delhi,"Patparganj, Delhi - DPCC",10-06-2024 07:00:00,28.623763,77.287209,OZONE,2,235,58
India,Delhi,Delhi,"Punjabi Bagh, Delhi - DPCC",10-06-2024 07:00:00,28.674045,77.131023,NO2,11,98,37
India,Delhi,Delhi,"R K Puram, Delhi - DPCC",10-06-2024 07:00:00,28.563262,77.186937,NH3,3,9,6
India,Delhi,Delhi,"Rohini, Delhi - DPCC",10-06-2024 07:00:00,28.732528,77.119920,SO2,5,83,32
India,Delhi,Delhi,"Shadipur, Delhi - CPCB",10-06-2024 07:00:00,28.6514781,77.1473105,PM10,145,500,256
India,Delhi,Delhi,"Shadipur, Delhi - CPCB",10-06-2024 07:00:00,28.6514781,77.1473105,SO2,14,56,26
India,Delhi,Delhi,"Shadipur, Delhi - CPCB",10-06-2024 07:00:00,28.6514781,77.1473105,CO,34,66,42
India,Delhi,Delhi,"Sirifort, Delhi - CPCB",10-06-2024 07:00:00,28.5504249,77.2159377,SO2,43,47,45
India,Delhi,Delhi,"Sonia Vihar, Delhi - DPCC",10-06-2024 07:00:00,28.710508,77.249485,CO,2,54,23
India,Delhi,Delhi,"Sonia Vihar, Delhi - DPCC",10-06-2024 07:00:00,28.710508,77.249485,OZONE,7,223,78
India,Delhi,Delhi,"Sri Aurobindo Marg, Delhi - DPCC",10-06-2024 07:00:00,28.531346,77.190156,PM10,103,173,143
India,Delhi,Delhi,"Sri Aurobindo Marg, Delhi - DPCC",10-06-2024 07:00:00,28.531346,77.190156,SO2,11,30,19
India,Delhi,Delhi,"Vivek Vihar, Delhi - DPCC",10-06-2024 07:00:00,28.672342,77.315260,SO2,10,26,18
India,Delhi,Delhi,"Wazirpur, Delhi - DPCC",10-06-2024 07:00:00,28.699793,77.165453,PM2.5,27,240,81
India,Delhi,Delhi,"Wazirpur, Delhi - DPCC",10-06-2024 07:00:00,28.699793,77.165453,NO2,28,69,40
India,Delhi,Delhi,"Wazirpur, Delhi - DPCC",10-06-2024 07:00:00,28.699793,77.165453,SO2,7,80,27
India,Gujarat,Ahmedabad,"Chandkheda, Ahmedabad - IITM",10-06-2024 07:00:00,23.107969,72.574648,PM2.5,22,259,82
India,Gujarat,Ahmedabad,"Chandkheda, Ahmedabad - IITM",10-06-2024 07:00:00,23.107969,72.574648,SO2,11,22,18
India,Gujarat,Ahmedabad,"Gyaspur, Ahmedabad - IITM",10-06-2024 07:00:00,22.977134,72.553024,NO2,37,54,44
India,Gujarat,Ahmedabad,"Gyaspur, Ahmedabad - IITM",10-06-2024 07:00:00,22.977134,72.553024,OZONE,43,61,47
India,Gujarat,Ahmedabad,"Maninagar, Ahmedabad - GPCB",10-06-2024 07:00:00,23.002657,72.591912,OZONE,9,79,26
India,Gujarat,Ahmedabad,"Rakhial, Ahmedabad - IITM",10-06-2024 07:00:00,23.016834,72.625775,PM2.5,16,330,53
India,Gujarat,Ahmedabad,"Rakhial, Ahmedabad - IITM",10-06-2024 07:00:00,23.016834,72.625775,SO2,19,66,31
India,Gujarat,Ahmedabad,"Sardar Vallabhbhai Patel Stadium, Ahmedabad - IITM",10-06-2024 07:00:00,23.043070,72.562968,PM10,32,164,82
India,Gujarat,Ankleshwar,"GIDC, Ankleshwar - GPCB",10-06-2024 07:00:00,21.613267,73.010555,PM2.5,29,67,48
India,Gujarat,Gandhinagar,"Sector-10, Gandhinagar - GPCB",10-06-2024 07:00:00,23.221714,72.654328,PM2.5,25,54,39
India,Gujarat,Gandhinagar,"Sector-10, Gandhinagar - GPCB",10-06-2024 07:00:00,23.221714,72.654328,NO2,17,18,17
India,Gujarat,Nandesari,"GIDC, Nandesari - Nandesari Ind. Association",10-06-2024 07:00:00,22.410802,73.097923,PM2.5,NA,NA,NA
India,Gujarat,Surat,"Science Center, Surat - SMC",10-06-2024 07:00:00,21.170046,72.795405,PM10,NA,NA,NA
India,Gujarat,Vapi,"Phase-1 GIDC, Vapi - GPCB",10-06-2024 07:00:00,20.362421,72.918013,NH3,2,2,2
India,Gujarat,Vatva,"Phase-4 GIDC, Vatva - GPCB",10-06-2024 07:00:00,22.969611,72.643500,CO,20,22,22
India,Haryana,Ambala,"Patti Mehar, Ambala - HSPCB",10-06-2024 07:00:00,30.379589,76.778328,PM2.5,33,100,67
India,Haryana,Ambala,"Patti Mehar, Ambala - HSPCB",10-06-2024 07:00:00,30.379589,76.778328,NO2,8,20,14
India,Haryana,Ballabgarh,"Nathu Colony, Ballabgarh - HSPCB",10-06-2024 07:00:00,28.3419248,77.319699,PM2.5,70,304,157
India,Haryana,Ballabgarh,"Nathu Colony, Ballabgarh - HSPCB",10-06-2024 07:00:00,28.3419248,77.319699,SO2,5,114,36
India,Haryana,Bhiwani,"H.B. Colony, Bhiwani - HSPCB",10-06-2024 07:00:00,28.806223,76.141105,PM10,63,108,91
India,Haryana,Bhiwani,"H.B. Colony, Bhiwani - HSPCB",10-06-2024 07:00:00,28.806223,76.141105,NH3,6,6,6
India,Haryana,Bhiwani,"H.B. Colony, Bhiwani - HSPCB",10-06-2024 07:00:00,28.806223,76.141105,CO,25,72,63
India,Haryana,Dharuhera,"Municipal Corporation Office, Dharuhera -  HSPCB",10-06-2024 07:00:00,28.206800,76.799700,PM10,139,274,186
India,Haryana,Faridabad,"New Industrial Town, Faridabad - HSPCB",10-06-2024 07:00:00,28.39072,77.30059,PM2.5,218,332,291
India,Haryana,Faridabad,"New Industrial Town, Faridabad - HSPCB",10-06-2024 07:00:00,28.39072,77.30059,NO2,10,15,12
India,Haryana,Faridabad,"New Industrial Town, Faridabad - HSPCB",10-06-2024 07:00:00,28.39072,77.30059,NH3,2,4,3
India,Haryana,Faridabad,"Sector 11, Faridabad - HSPCB",10-06-2024 07:00:00,28.376058,77.315741,PM10,113,171,138
India,Haryana,Faridabad,"Sector 11, Faridabad - HSPCB",10-06-2024 07:00:00,28.376058,77.315741,NO2,30,33,31
India,Haryana,Faridabad,"Sector 30, Faridabad - HSPCB",10-06-2024 07:00:00,28.4417,77.3217,NH3,NA,NA,NA
India,Haryana,Faridabad,"Sector 30, Faridabad - HSPCB",10-06-2024 07:00:00,28.4417,77.3217,SO2,NA,NA,NA
India,Haryana,Faridabad,"Sector- 16A, Faridabad - HSPCB",10-06-2024 07:00:00,28.4088421,77.3099081,NO2,NA,NA,NA
India,Haryana,Faridabad,"Sector- 16A, Faridabad - HSPCB",10-06-2024 07:00:00,28.4088421,77.3099081,SO2,18,31,26
India,Haryana,Fatehabad,"Huda Sector, Fatehabad - HSPCB",10-06-2024 07:00:00,29.503664,75.467934,PM2.5,11,82,41
India,Haryana,Gurugram,"Vikas Sadan, Gurugram - HSPCB",10-06-2024 07:00:00,28.4501238,77.0263051,SO2,9,81,29
India,Haryana,Hisar,"Urban Estate-II, Hisar - HSPCB",10-06-2024 07:00:00,29.140560,75.744941,NH3,4,4,4
India,Haryana,Hisar,"Urban Estate-II, Hisar - HSPCB",10-06-2024 07:00:00,29.140560,75.744941,SO2,1,25,12
India,Haryana,Jind,"Police Lines, Jind - HSPCB",10-06-2024 07:00:00,29.307814,76.337619,NO2,3,107,30
India,Haryana,Kaithal,"Rishi Nagar, Kaithal - HSPCB",10-06-2024 07:00:00,29.8006,76.4155,SO2,23,48,29
India,Haryana,Kurukshetra,"Sector-7, Kurukshetra - HSPCB",10-06-2024 07:00:00,29.966942,76.875879,PM2.5,54,96,76
India,Haryana,Kurukshetra,"Sector-7, Kurukshetra - HSPCB",10-06-2024 07:00:00,29.966942,76.875879,PM10,74,123,104
India,Haryana,Kurukshetra,"Sector-7, Kurukshetra - HSPCB",10-06-2024 07:00:00,29.966942,76.875879,NH3,5,5,5
India,Haryana,Kurukshetra,"Sector-7, Kurukshetra - HSPCB",10-06-2024 07:00:00,29.966942,76.875879,SO2,1,33,10
India,Haryana,Mandikhera,"General Hospital, Mandikhera - HSPCB",10-06-2024 07:00:00,27.9002,76.9938,CO,20,32,29
India,Haryana,Manesar,"Sector-2 IMT, Manesar - HSPCB",10-06-2024 07:00:00,28.360699,76.936090,PM10,24,86,58
India,Haryana,Manesar,"Sector-2 IMT, Manesar - HSPCB",10-06-2024 07:00:00,28.360699,76.936090,NH3,2,4,3
India,Haryana,Narnaul,"Shastri Nagar, Narnaul - HSPCB",10-06-2024 07:00:00,28.060249,76.113115,PM10,37,60,46
India,Haryana,Narnaul,"Shastri Nagar, Narnaul - HSPCB",10-06-2024 07:00:00,28.060249,76.113115,NH3,3,17,10
India,Haryana,Panipat,"Sector-18, Panipat - HSPCB",10-06-2024 07:00:00,29.432304,76.972765,NH3,2,3,3
India,Haryana,Panipat,"Sector-18, Panipat - HSPCB",10-06-2024 07:00:00,29.432304,76.972765,SO2,18,19,19
India,Haryana,Rohtak,"MD University, Rohtak - HSPCB",10-06-2024 07:00:00,28.52123,76.37138,NO2,45,56,51
India,Haryana,Sirsa,"F-Block, Sirsa - HSPCB",10-06-2024 07:00:00,29.536400,75.015800,PM10,53,98,73
India,Haryana,Sirsa,"F-Block, Sirsa - HSPCB",10-06-2024 07:00:00,29.536400,75.015800,SO2,1,5,2
India,Haryana,Sonipat,"Murthal, Sonipat - HSPCB",10-06-2024 07:00:00,29.027200,77.062100,CO,24,26,25
India,Haryana,Yamuna Nagar,"Gobind Pura, Yamuna Nagar - HSPCB",10-06-2024 07:00:00,30.1480566,77.2893471,NO2,11,20,16
India,Haryana,Yamuna Nagar,"Gobind Pura, Yamuna Nagar - HSPCB",10-06-2024 07:00:00,30.1480566,77.2893471,SO2,2,86,9
India,Himachal Pradesh,Baddi,"HIMUDA Complex Phase-1, Baddi - HPPCB",10-06-2024 07:00:00,30.943887,76.801991,PM10,69,196,132
India,Jharkhand,Dhanbad,"Kalakusuma, Dhanbad - DMC",10-06-2024 07:00:00,23.811548,86.481238,NO2,105,432,337
India,Jharkhand,Dhanbad,"Sardar Patel Nagar, Dhanbad - JSPCB",10-06-2024 07:00:00,23.80569,86.44268,PM10,NA,NA,NA
India,Jharkhand,Dhanbad,"Sardar Patel Nagar, Dhanbad - JSPCB",10-06-2024 07:00:00,23.80569,86.44268,CO,82,187,167
India,Karnataka,Bagalkot,"Vidayagiri, Bagalkot - KSPCB",10-06-2024 07:00:00,16.172806,75.659694,NH3,NA,NA,NA
India,Karnataka,Bengaluru,"Bapuji Nagar, Bengaluru - KSPCB",10-06-2024 07:00:00,12.951913,77.539784,NH3,1,1,1
India,Karnataka,Bengaluru,"Hebbal, Bengaluru - KSPCB",10-06-2024 07:00:00,13.029152,77.585901,PM10,6,34,18
India,Karnataka,Bengaluru,"Hebbal, Bengaluru - KSPCB",10-06-2024 07:00:00,13.029152,77.585901,SO2,14,26,21
India,Karnataka,Bengaluru,"Hebbal, Bengaluru - KSPCB",10-06-2024 07:00:00,13.029152,77.585901,CO,8,24,17
India,Karnataka,Bengaluru,"Hombegowda Nagar, Bengaluru - KSPCB",10-06-2024 07:00:00,12.938539,77.590100,PM2.5,4,17,10
India,Karnataka,Bengaluru,"Hombegowda Nagar, Bengaluru - KSPCB",10-06-2024 07:00:00,12.938539,77.590100,NO2,7,17,11
India,Karnataka,Bengaluru,"Hombegowda Nagar, Bengaluru - KSPCB",10-06-2024 07:00:00,12.938539,77.590100,CO,10,18,13
India,Karnataka,Bengaluru,"Jayanagar 5th Block, Bengaluru - KSPCB",10-06-2024 07:00:00,12.920984,77.584908,CO,20,22,21
India,Karnataka,Bengaluru,"Jigani, Bengaluru - KSPCB",10-06-2024 07:00:00,12.7816279,77.6299145,PM10,25,38,31
India,Karnataka,Bengaluru,"Jigani, Bengaluru - KSPCB",10-06-2024 07:00:00,12.7816279,77.6299145,NH3,4,4,4
India,Karnataka,Bengaluru,"Kasturi Nagar, Bengaluru - KSPCB",10-06-2024 07:00:00,13.003872,77.664217,SO2,10,10,10
India,Karnataka,Bengaluru,"Peenya, Bengaluru - CPCB",10-06-2024 07:00:00,13.0270199,77.494094,OZONE,12,21,16
India,Karnataka,Bengaluru,"RVCE-Mailasandra, Bengaluru - KSPCB",10-06-2024 07:00:00,12.921418,77.502466,NO2,16,17,17
India,Karnataka,Bengaluru,"RVCE-Mailasandra, Bengaluru - KSPCB",10-06-2024 07:00:00,12.921418,77.502466,SO2,NA,NA,NA
India,Karnataka,Bengaluru,"Sanegurava Halli, Bengaluru - KSPCB",10-06-2024 07:00:00,12.990328,77.5431385,SO2,2,3,3
India,Karnataka,Bengaluru,"Shivapura_Peenya, Bengaluru - KSPCB",10-06-2024 07:00:00,13.0246342,77.5080115,PM2.5,14,42,26
India,Karnataka,Bengaluru,"Shivapura_Peenya, Bengaluru - KSPCB",10-06-2024 07:00:00,13.0246342,77.5080115,CO,15,26,18
India,Karnataka,Chamarajanagar,"Urban, Chamarajanagar - KSPCB",10-06-2024 07:00:00,11.55358,76.55521,CO,30,122,40
India,Karnataka,Chikkaballapur,"Chikkaballapur Rural, Chikkaballapur - KSPCB",10-06-2024 07:00:00,13.428828,77.731418,NO2,4,8,6
India,Karnataka,Chikkamagaluru,"Kalyana Nagara, Chikkamagaluru - KSPCB",10-06-2024 07:00:00,13.328028,75.797056,PM2.5,5,97,23
India,Karnataka,Chikkamagaluru,"Kalyana Nagara, Chikkamagaluru - KSPCB",10-06-2024 07:00:00,13.328028,75.797056,CO,11,18,14
India,Karnataka,Davanagere,"Devaraj Urs Badavane, Davanagere - KSPCB",10-06-2024 07:00:00,14.475800,75.905200,PM10,5,20,11
India,Karnataka,Davanagere,"Devaraj Urs Badavane, Davanagere - KSPCB",10-06-2024 07:00:00,14.475800,75.905200,NH3,1,2,1
India,Karnataka,Dharwad,"Kalabhavan, Dharwad - KSPCB",10-06-2024 07:00:00,15.459706,75.008381,SO2,1,59,25
India,Karnataka,Gadag,"Panchal Nagar, Gadag - KSPCB",10-06-2024 07:00:00,15.411456,75.638133,NH3,1,3,2
India,Karnataka,Hassan,"B.Katihalli, Hassan - KSPCB",10-06-2024 07:00:00,13.008556,76.125258,PM2.5,NA,NA,NA
India,Karnataka,Hassan,"B.Katihalli, Hassan - KSPCB",10-06-2024 07:00:00,13.008556,76.125258,CO,NA,NA,NA
India,Karnataka,Haveri,"Ashwini Nagar, Haveri - KSPCB",10-06-2024 07:00:00,14.791800,75.389600,NO2,23,46,32
India,Karnataka,Haveri,"Ashwini Nagar, Haveri - KSPCB",10-06-2024 07:00:00,14.791800,75.389600,CO,36,38,37
India,Karnataka,Haveri,"Ashwini Nagar, Haveri - KSPCB",10-06-2024 07:00:00,14.791800,75.389600,OZONE,31,45,36
India,Karnataka,Hubballi,"Lingaraj Nagar, Hubballi - KSPCB",10-06-2024 07:00:00,15.3714823,75.1160168,PM10,50,54,51
India,Karnataka,Hubballi,"Lingaraj Nagar, Hubballi - KSPCB",10-06-2024 07:00:00,15.3714823,75.1160168,NH3,2,4,2
India,Karnataka,Hubballi,"Lingaraj Nagar, Hubballi - KSPCB",10-06-2024 07:00:00,15.3714823,75.1160168,CO,9,18,12
India,Karnataka,Kalaburagi,"Lal Bahadur Shastri Nagar, Kalaburagi - KSPCB",10-06-2024 07:00:00,17.321993,76.822628,CO,35,38,35
India,Karnataka,Kalaburagi,"Mahatma Basaveswar Colony, Kalaburgi - KSPCB",10-06-2024 07:00:00,17.336318,76.847397,PM2.5,7,21,14
India,Karnataka,Kalaburagi,"Mahatma Basaveswar Colony, Kalaburgi - KSPCB",10-06-2024 07:00:00,17.336318,76.847397,NH3,2,3,2
India,Karnataka,Koppal,"Diwator Nagar, Koppal - KSPCB",10-06-2024 07:00:00,15.347630,76.181767,NH3,6,9,8
India,Karnataka,Madikeri,"Stuart Hill, Madikeri - KSPCB",10-06-2024 07:00:00,12.415911,75.735050,NO2,1,5,2
India,Karnataka,Mangalore,"Kadri, Mangalore - KSPCB",10-06-2024 07:00:00,12.889250,74.853000,CO,34,37,36
India,Karnataka,Mysuru,"Hebbal 1st Stage, Mysuru - KSPCB",10-06-2024 07:00:00,12.21041,76.37376,NO2,9,34,19
India,Karnataka,Shivamogga,"Vinoba Nagara, Shivamogga - KSPCB",10-06-2024 07:00:00,13.940000,75.555917,SO2,2,9,5
India,Karnataka,Udupi,"Brahmagiri, Udupi - KSPCB",10-06-2024 07:00:00,13.34194444,74.74694444,SO2,18,20,19
India,Karnataka,Vijayapura,"Ibrahimpur, Vijayapura - KSPCB",10-06-2024 07:00:00,16.802639,75.722694,PM10,42,43,42
India,Karnataka,Vijayapura,"Ibrahimpur, Vijayapura - KSPCB",10-06-2024 07:00:00,16.802639,75.722694,OZONE,13,16,15
India,Karnataka,Yadgir,"Collector Office, Yadgir - KSPCB",10-06-2024 07:00:00,16.7602,77.1428,PM10,NA,NA,NA
India,Kerala,Kannur,"Thavakkara, Kannur - Kerala PCB",10-06-2024 07:00:00,11.875000,75.373200,PM10,53,65,57
India,Kerala,Kannur,"Thavakkara, Kannur - Kerala PCB",10-06-2024 07:00:00,11.875000,75.373200,SO2,NA,NA,NA
India,Kerala,Kollam,"Polayathode, Kollam - Kerala PCB",10-06-2024 07:00:00,8.8787,76.6073,PM10,31,58,48
India,Kerala,Kollam,"Polayathode, Kollam - Kerala PCB",10-06-2024 07:00:00,8.8787,76.6073,NO2,8,9,8
India,Kerala,Kollam,"Polayathode, Kollam - Kerala PCB",10-06-2024 07:00:00,8.8787,76.6073,SO2,1,10,3
India,Kerala,Thiruvananthapuram,"Kariavattom, Thiruvananthapuram - Kerala PCB",10-06-2024 07:00:00,8.563700,76.886500,PM2.5,35,38,37
India,Madhya Pradesh,Bhopal,"Idgah Hills, Bhopal - MPPCB",10-06-2024 07:00:00,23.264759,77.381568,PM10,52,120,81
India,Madhya Pradesh,Dewas,"Bhopal Chauraha, Dewas - MPPCB",10-06-2024 07:00:00,22.9682591,76.064118,SO2,13,42,29
India,Madhya Pradesh,Dewas,"Bhopal Chauraha, Dewas - MPPCB",10-06-2024 07:00:00,22.9682591,76.064118,OZONE,11,38,24
India,Madhya Pradesh,Gwalior,"City Center, Gwalior - MPPCB",10-06-2024 07:00:00,26.203442,78.193251,PM10,78,168,111
India,Madhya Pradesh,Gwalior,"City Center, Gwalior - MPPCB",10-06-2024 07:00:00,26.203442,78.193251,OZONE,50,192,192
India,Madhya Pradesh,Gwalior,"Deen Dayal Nagar, Gwalior - MPPCB",10-06-2024 07:00:00,26.259242,78.216432,PM10,97,287,157
India,Madhya Pradesh,Gwalior,"Deen Dayal Nagar, Gwalior - MPPCB",10-06-2024 07:00:00,26.259242,78.216432,SO2,7,27,16
India,Madhya Pradesh,Gwalior,"Maharaj Bada, Gwalior - MPPCB",10-06-2024 07:00:00,26.200388,78.147714,PM10,70,206,125
India,Madhya Pradesh,Gwalior,"Maharaj Bada, Gwalior - MPPCB",10-06-2024 07:00:00,26.200388,78.147714,NO2,16,102,40
India,Madhya Pradesh,Gwalior,"Phool Bagh, Gwalior - Mondelez Ind. Food",10-06-2024 07:00:00,26.210536,78.171,PM10,26,147,89
India,Madhya Pradesh,Gwalior,"Phool Bagh, Gwalior - Mondelez Ind. Food",10-06-2024 07:00:00,26.210536,78.171,NO2,4,5,4
India,Madhya Pradesh,Indore,"Chhoti Gwaltoli, Indore - MPPCB",10-06-2024 07:00:00,22.4310,75.5213,SO2,9,27,14
India,Madhya Pradesh,Indore,"Maguda Nagar, Indore - IMC",10-06-2024 07:00:00,22.7524,75.8872,OZONE,NA,NA,NA
India,Madhya Pradesh,Indore,"Regional Park, Indore - IMC",10-06-2024 07:00:00,22.6780,75.8559,NH3,1,2,1
India,Madhya Pradesh,Indore,"Regional Park, Indore - IMC",10-06-2024 07:00:00,22.6780,75.8559,SO2,48,51,50
India,Madhya Pradesh,Indore,"Residency Area, Indore - IMC",10-06-2024 07:00:00,22.7084,75.8815,PM10,NA,NA,NA
India,Madhya Pradesh,Jabalpur,"Gupteshwar, Jabalpur - JMC",10-06-2024 07:00:00,23.142888,79.916147,OZONE,38,81,52
India,Madhya Pradesh,Jabalpur,"Suhagi, Jabalpur - JMC",10-06-2024 07:00:00,23.218135,79.957770,PM2.5,NA,NA,NA
India,Madhya Pradesh,Katni,"Gole Bazar, Katni - MPPCB",10-06-2024 07:00:00,23.50016,80.23284,OZONE,46,129,63
India,Madhya Pradesh,Maihar,"Sahilara, Maihar - KJS Cements",10-06-2024 07:00:00,24.2613009,80.7231783,PM10,29,130,78
India,Madhya Pradesh,Mandideep,"Sector-D Industrial Area, Mandideep - MPPCB",10-06-2024 07:00:00,23.108440,77.511428,PM2.5,65,320,136
India,Madhya Pradesh,Pithampur,"Sector-2 Industrial Area, Pithampur - MPPCB",10-06-2024 07:00:00,22.624758,75.675238,PM10,54,122,87
India,Madhya Pradesh,Pithampur,"Sector-2 Industrial Area, Pithampur - MPPCB",10-06-2024 07:00:00,22.624758,75.675238,NH3,1,2,1
India,Madhya Pradesh,Pithampur,"Sector-2 Industrial Area, Pithampur - MPPCB",10-06-2024 07:00:00,22.624758,75.675238,CO,32,44,41
India,Madhya Pradesh,Sagar,"Civil Lines, Sagar - MPPCB",10-06-2024 07:00:00,23.838586,78.759431,NO2,5,38,11
India,Madhya Pradesh,Satna,"Bandhavgar Colony, Satna - Birla Cement",10-06-2024 07:00:00,24.58434363,80.8549414,NO2,24,54,35
India,Madhya Pradesh,Satna,"Bandhavgar Colony, Satna - Birla Cement",10-06-2024 07:00:00,24.58434363,80.8549414,OZONE,22,87,38
India,Madhya Pradesh,Singrauli,"Suryakiran Bhawan NCL, Singrauli - MPPCB",10-06-2024 07:00:00,24.108970,82.645580,NO2,5,103,40
India,Madhya Pradesh,Singrauli,"Suryakiran Bhawan NCL, Singrauli - MPPCB",10-06-2024 07:00:00,24.108970,82.645580,NH3,4,6,5
India,Madhya Pradesh,Singrauli,"Suryakiran Bhawan NCL, Singrauli - MPPCB",10-06-2024 07:00:00,24.108970,82.645580,CO,48,114,73
India,Maharashtra,Akola,"Ramdaspeth, Akola - MPCB",10-06-2024 07:00:00,20.719516,77.000253,NH3,3,15,6
India,Maharashtra,Akola,"Ramdaspeth, Akola - MPCB",10-06-2024 07:00:00,20.719516,77.000253,CO,30,46,34
India,Maharashtra,Amravati,"Shivneri Colony, Amravati - MPCB",10-06-2024 07:00:00,20.9402359,77.7895248,OZONE,36,110,43
India,Maharashtra,Amravati,"Shri Shivaji Science College, Amaravati - MPCB",10-06-2024 07:00:00,20.939198,77.765701,SO2,6,10,6
India,Maharashtra,Aurangabad,"MIDC Chilkalthana, Aurangabad - MPCB",10-06-2024 07:00:00,19.875620,75.387310,PM2.5,18,172,69
India,Maharashtra,Aurangabad,"MIDC Chilkalthana, Aurangabad - MPCB",10-06-2024 07:00:00,19.875620,75.387310,CO,23,28,26
India,Maharashtra,Aurangabad,"More Chowk Waluj, Aurangabad - MPCB",10-06-2024 07:00:00,19.8389439,75.244448,CO,NA,NA,NA
India,Maharashtra,Aurangabad,"Rachnakar Colony, Aurangabad - MPCB",10-06-2024 07:00:00,19.863756,75.321188,PM2.5,NA,NA,NA
India,Maharashtra,Aurangabad,"Rachnakar Colony, Aurangabad - MPCB",10-06-2024 07:00:00,19.863756,75.321188,CO,NA,NA,NA
India,Maharashtra,Badlapur,"Katrap, Badlapur - MPCB",10-06-2024 07:00:00,19.16485,73.23409,OZONE,12,82,16
India,Maharashtra,Belapur,"CBD Belapur, Belapur - MPCB",10-06-2024 07:00:00,19.0243902,73.0406721,SO2,8,9,9
India,Maharashtra,Bhiwandi,"Gokul Nagar, Bhiwandi - MPCB",10-06-2024 07:00:00,19.309073,73.057223,PM10,45,91,67
