country,state,city,station,last_update,latitude,longitude,pollutant_id,pollutant_min,pollutant_max,pollutant_avg
India,Andhra_Pradesh,Amaravati,"Secretariat, Amaravati - APPCB",06-02-2024 18:00:00,16.5150833,80.5181667,NH3,1,4,4
India,Andhra_Pradesh,Amaravati,"Secretariat, Amaravati - APPCB",06-02-2024 18:00:00,16.5150833,80.5181667,SO2,13,26,16
India,Andhra_Pradesh,Amaravati,"Secretariat, Amaravati - APPCB",06-02-2024 18:00:00,16.5150833,80.5181667,CO,18,46,33
India,Andhra_Pradesh,Amaravati,"Secretariat, Amaravati - APPCB",06-02-2024 18:00:00,16.5150833,80.5181667,OZONE,2,64,44
India,Andhra_Pradesh,Anantapur,"Gulzarpet, Anantapur - APPCB",06-02-2024 18:00:00,14.675886,77.593027,NH3,NA,NA,NA
India,Andhra_Pradesh,Anantapur,"Gulzarpet, Anantapur - APPCB",06-02-2024 18:00:00,14.675886,77.593027,CO,13,76,17
India,Andhra_Pradesh,Anantapur,"Gulzarpet, Anantapur - APPCB",06-02-2024 18:00:00,14.675886,77.593027,OZONE,3,49,45
India,Andhra_Pradesh,Chittoor,"Gangineni Cheruvu, Chittoor - APPCB",06-02-2024 18:00:00,13.204880,79.097889,SO2,2,70,18
India,Andhra_Pradesh,Rajamahendravaram,"Anand Kala Kshetram, Rajamahendravaram - APPCB",06-02-2024 18:00:00,16.9872867,81.7363176,PM10,52,94,74
India,Andhra_Pradesh,Tirupati,"Tirumala, Tirupati - APPCB",06-02-2024 18:00:00,13.67,79.35,SO2,3,14,7
India,Andhra_Pradesh,Tirupati,"Vaikuntapuram, Tirupati - APPCB",06-02-2024 18:00:00,13.615387,79.409230,PM10,17,32,22
India,Andhra_Pradesh,Vijayawada,"HB Colony, Vijayawada - APPCB",06-02-2024 18:00:00,16.536107,80.594233,OZONE,9,75,53
India,Andhra_Pradesh,Vijayawada,"Rajiv Nagar, Vijayawada - APPCB",06-02-2024 18:00:00,16.554731,80.649110,NO2,8,12,10
India,Arunachal_Pradesh,Naharlagun,"Naharlagun, Naharlagun - APSPCB",06-02-2024 18:00:00,27.103358,93.679645,CO,18,49,20
India,Assam,Byrnihat,"Central Academy for SFS, Byrnihat - PCBA",06-02-2024 18:00:00,26.071318,91.87488,CO,8,64,14
India,Assam,Byrnihat,"Central Academy for SFS, Byrnihat - PCBA",06-02-2024 18:00:00,26.071318,91.87488,OZONE,12,13,13
India,Assam,Guwahati,"IITG, Guwahati - PCBA",06-02-2024 18:00:00,26.2028636,91.70046436,PM2.5,86,244,128
India,Assam,Guwahati,"IITG, Guwahati - PCBA",06-02-2024 18:00:00,26.2028636,91.70046436,CO,10,16,13
India,Assam,Guwahati,"Pan Bazaar, Guwahati - PCBA",06-02-2024 18:00:00,26.187500,91.744194,PM2.5,63,167,96
India,Assam,Guwahati,"Pan Bazaar, Guwahati - PCBA",06-02-2024 18:00:00,26.187500,91.744194,SO2,51,69,58
India,Assam,Guwahati,"Railway Colony, Guwahati - PCBA",06-02-2024 18:00:00,26.181742,91.78063,PM2.5,52,190,95
India,Assam,Guwahati,"Railway Colony, Guwahati - PCBA",06-02-2024 18:00:00,26.181742,91.78063,SO2,19,31,23
India,Assam,Nagaon,"Christianpatty, Nagaon - PCBA",06-02-2024 18:00:00,26.349082,92.68449,SO2,NA,NA,NA
India,Assam,Nagaon,"Christianpatty, Nagaon - PCBA",06-02-2024 18:00:00,26.349082,92.68449,OZONE,17,82,65
India,Assam,Nalbari,"Bata Chowk, Nalbari - PCBA",06-02-2024 18:00:00,26.446912,91.439057,PM10,61,161,105
India,Assam,Sivasagar,"Girls College, Sivasagar - PCBA",06-02-2024 18:00:00,26.987634,94.636574,CO,16,38,22
India,Bihar,Araria,"Kharahiya Basti, Araria - BSPCB",06-02-2024 18:00:00,26.146529,87.454184,PM2.5,81,324,200
India,Bihar,Araria,"Kharahiya Basti, Araria - BSPCB",06-02-2024 18:00:00,26.146529,87.454184,NO2,7,11,8
India,Bihar,Araria,"Kharahiya Basti, Araria - BSPCB",06-02-2024 18:00:00,26.146529,87.454184,NH3,6,8,7
India,Bihar,Arrah,"New DM Office, Arrah - BSPCB",06-02-2024 18:00:00,25.5626095,84.663264,PM2.5,55,140,77
India,Bihar,Arrah,"New DM Office, Arrah - BSPCB",06-02-2024 18:00:00,25.5626095,84.663264,PM10,43,103,66
India,Bihar,Arrah,"New DM Office, Arrah - BSPCB",06-02-2024 18:00:00,25.5626095,84.663264,NO2,8,41,22
India,Bihar,Arrah,"New DM Office, Arrah - BSPCB",06-02-2024 18:00:00,25.5626095,84.663264,OZONE,14,39,20
India,Bihar,Bettiah,"Kamalnath Nagar, Bettiah - BSPCB",06-02-2024 18:00:00,26.80365,84.51954,NO2,12,18,16
India,Bihar,Bhagalpur,"DM Office_Kachari Chowk, Bhagalpur - BSPCB",06-02-2024 18:00:00,25.251013,86.989001,PM2.5,120,332,248
India,Bihar,Bhagalpur,"DM Office_Kachari Chowk, Bhagalpur - BSPCB",06-02-2024 18:00:00,25.251013,86.989001,PM10,105,177,134
India,Bihar,Bhagalpur,"DM Office_Kachari Chowk, Bhagalpur - BSPCB",06-02-2024 18:00:00,25.251013,86.989001,NO2,53,134,69
India,Bihar,Bhagalpur,"DM Office_Kachari Chowk, Bhagalpur - BSPCB",06-02-2024 18:00:00,25.251013,86.989001,SO2,7,26,16
India,Bihar,Bhagalpur,"Mayaganj, Bhagalpur - BSPCB",06-02-2024 18:00:00,25.265194,87.012947,NO2,2,21,9
India,Bihar,Bhagalpur,"Mayaganj, Bhagalpur - BSPCB",06-02-2024 18:00:00,25.265194,87.012947,SO2,10,14,12
India,Bihar,Bihar Sharif,"D M Colony, Bihar Sharif - BSPCB",06-02-2024 18:00:00,25.204762,85.514960,CO,10,52,28
India,Bihar,Bihar Sharif,"D M Colony, Bihar Sharif - BSPCB",06-02-2024 18:00:00,25.204762,85.514960,OZONE,4,24,18
India,Bihar,Chhapra,"Darshan Nagar, Chhapra - BSPCB",06-02-2024 18:00:00,25.7808257,84.7446768,NO2,14,19,16
India,Bihar,Chhapra,"Darshan Nagar, Chhapra - BSPCB",06-02-2024 18:00:00,25.7808257,84.7446768,NH3,9,18,13
India,Bihar,Chhapra,"Darshan Nagar, Chhapra - BSPCB",06-02-2024 18:00:00,25.7808257,84.7446768,OZONE,1,8,5
India,Bihar,Gaya,"Kareemganj, Gaya - BSPCB",06-02-2024 18:00:00,24.792403,84.992416,CO,12,107,42
India,Bihar,Gaya,"Kareemganj, Gaya - BSPCB",06-02-2024 18:00:00,24.792403,84.992416,OZONE,5,37,22
India,Bihar,Hajipur,"Industrial Area, Hajipur - BSPCB",06-02-2024 18:00:00,25.697189,85.245900,PM2.5,29,82,49
India,Bihar,Hajipur,"Industrial Area, Hajipur - BSPCB",06-02-2024 18:00:00,25.697189,85.245900,NH3,9,12,11
India,Bihar,Hajipur,"Industrial Area, Hajipur - BSPCB",06-02-2024 18:00:00,25.697189,85.245900,SO2,11,13,13
India,Bihar,Katihar,"Mirchaibari, Katihar - BSPCB",06-02-2024 18:00:00,25.560083,87.553265,NO2,8,18,12
India,Bihar,Manguraha,"Forest Rest House, Manguraha - BSPCB",06-02-2024 18:00:00,27.308328,84.531742,PM10,NA,NA,NA
India,Bihar,Manguraha,"Forest Rest House, Manguraha - BSPCB",06-02-2024 18:00:00,27.308328,84.531742,NO2,NA,NA,NA
India,Bihar,Manguraha,"Forest Rest House, Manguraha - BSPCB",06-02-2024 18:00:00,27.308328,84.531742,NH3,NA,NA,NA
India,Bihar,Motihari,"Gandak Colony, Motihari - BSPCB",06-02-2024 18:00:00,26.63086,84.90051,SO2,1,3,2
India,Bihar,Muzaffarpur,"Buddha Colony, Muzaffarpur - BSPCB",06-02-2024 18:00:00,26.11442,85.39813,OZONE,31,116,67
India,Bihar,Muzaffarpur,"MIT-Daudpur Kothi, Muzaffarpur - BSPCB",06-02-2024 18:00:00,26.1403345,85.3650192,PM2.5,37,180,99
India,Bihar,Muzaffarpur,"MIT-Daudpur Kothi, Muzaffarpur - BSPCB",06-02-2024 18:00:00,26.1403345,85.3650192,NH3,4,8,6
India,Bihar,Muzaffarpur,"MIT-Daudpur Kothi, Muzaffarpur - BSPCB",06-02-2024 18:00:00,26.1403345,85.3650192,OZONE,5,35,25
India,Bihar,Muzaffarpur,"Muzaffarpur Collectorate, Muzaffarpur - BSPCB",06-02-2024 18:00:00,26.1209,85.3647,SO2,5,12,7
India,Bihar,Patna,"DRM Office Danapur, Patna - BSPCB",06-02-2024 18:00:00,25.586562,85.043586,NO2,10,41,22
India,Bihar,Patna,"Govt. High School Shikarpur, Patna - BSPCB",06-02-2024 18:00:00,25.592539,85.227158,NO2,19,24,22
India,Bihar,Patna,"IGSC Planetarium Complex, Patna - BSPCB",06-02-2024 18:00:00,25.610369,85.132568,PM2.5,93,343,142
India,Bihar,Patna,"IGSC Planetarium Complex, Patna - BSPCB",06-02-2024 18:00:00,25.610369,85.132568,OZONE,4,16,13
India,Bihar,Patna,"Muradpur, Patna - BSPCB",06-02-2024 18:00:00,25.619651,85.147382,PM2.5,45,109,74
India,Bihar,Patna,"Rajbansi Nagar, Patna - BSPCB",06-02-2024 18:00:00,25.599486,85.113666,PM2.5,NA,NA,NA
India,Bihar,Patna,"Rajbansi Nagar, Patna - BSPCB",06-02-2024 18:00:00,25.599486,85.113666,NH3,NA,NA,NA
India,Bihar,Patna,"Samanpura, Patna - BSPCB",06-02-2024 18:00:00,25.596727,85.085624,SO2,15,16,16
India,Bihar,Patna,"Samanpura, Patna - BSPCB",06-02-2024 18:00:00,25.596727,85.085624,CO,50,118,65
India,Bihar,Purnia,"Mariam Nagar, Purnia - BSPCB",06-02-2024 18:00:00,25.366336,87.117468,PM10,74,128,94
India,Bihar,Rajgir,"Dangi Tola, Rajgir - BSPCB",06-02-2024 18:00:00,25.03280,85.41948,PM10,78,118,99
India,Bihar,Rajgir,"Dangi Tola, Rajgir - BSPCB",06-02-2024 18:00:00,25.03280,85.41948,NH3,NA,NA,NA
India,Bihar,Saharsa,"Police Line, Saharsa - BSPCB",06-02-2024 18:00:00,25.892357,86.590325,NH3,9,9,9
India,Chandigarh,Chandigarh,"Sector 22, Chandigarh - CPCC",06-02-2024 18:00:00,30.735567,76.775714,PM10,56,131,82
India,Chandigarh,Chandigarh,"Sector 22, Chandigarh - CPCC",06-02-2024 18:00:00,30.735567,76.775714,NO2,14,67,35
India,Chandigarh,Chandigarh,"Sector-25, Chandigarh - CPCC",06-02-2024 18:00:00,30.751462,76.762879,PM10,83,116,103
India,Chhattisgarh,Bhilai,"32Bungalows, Bhilai - CECB",06-02-2024 18:00:00,21.194815,81.314770,NO2,16,24,20
India,Chhattisgarh,Bhilai,"32Bungalows, Bhilai - CECB",06-02-2024 18:00:00,21.194815,81.314770,NH3,6,6,6
India,Chhattisgarh,Bhilai,"32Bungalows, Bhilai - CECB",06-02-2024 18:00:00,21.194815,81.314770,OZONE,4,16,11
India,Chhattisgarh,Bhilai,"Civic Center, Bhilai - Bhilai Steel Plant",06-02-2024 18:00:00,21.185571,81.343175,PM2.5,NA,NA,NA
India,Chhattisgarh,Bhilai,"Hathkhoj, Bhilai - CECB",06-02-2024 18:00:00,21.224231,81.408350,SO2,11,31,18
India,Chhattisgarh,Bilaspur,"Mangala, Bilaspur - NTPC",06-02-2024 18:00:00,22.08815,82.13737,NO2,NA,NA,NA
India,Chhattisgarh,Bilaspur,"Mangala, Bilaspur - NTPC",06-02-2024 18:00:00,22.08815,82.13737,SO2,NA,NA,NA
India,Chhattisgarh,Bilaspur,"Mangala, Bilaspur - NTPC",06-02-2024 18:00:00,22.08815,82.13737,CO,21,37,28
India,Chhattisgarh,Chhal,"Nawapara SECL Colony, Chhal - CECB",06-02-2024 18:00:00,22.118125,83.140608,OZONE,2,73,57
India,Chhattisgarh,Korba,"Rampur, Korba - CECB",06-02-2024 18:00:00,22.368195,82.746431,PM2.5,NA,NA,NA
India,Chhattisgarh,Korba,"Urja Nagar, Korba - CECB",06-02-2024 18:00:00,22.348441,82.549611,NO2,50,94,82
India,Chhattisgarh,Korba,"Urja Nagar, Korba - CECB",06-02-2024 18:00:00,22.348441,82.549611,NH3,1,11,6
India,Chhattisgarh,Korba,"Urja Nagar, Korba - CECB",06-02-2024 18:00:00,22.348441,82.549611,CO,22,78,30
India,Chhattisgarh,Korba,"Urja Nagar, Korba - CECB",06-02-2024 18:00:00,22.348441,82.549611,OZONE,47,60,50
India,Chhattisgarh,Kunjemura,"OP Jindal School, Kunjemura - CECB",06-02-2024 18:00:00,22.126650,83.483212,NH3,1,7,3
India,Chhattisgarh,Kunjemura,"OP Jindal School, Kunjemura - CECB",06-02-2024 18:00:00,22.126650,83.483212,OZONE,2,79,47
India,Chhattisgarh,Milupara,"Govt. Higher Secondary School, Milupara - CECB",06-02-2024 18:00:00,22.1910172,83.5197009,SO2,9,70,20
India,Chhattisgarh,Raipur,"AIIMS, Raipur - CECB",06-02-2024 18:00:00,21.258815,81.578979,PM10,42,92,67
India,Chhattisgarh,Tumidih,"OP Jindal Industrial Park, Tumidih - CECB",06-02-2024 18:00:00,22.06631475,83.33820077,OZONE,4,70,52
India,Delhi,Delhi,"Alipur, Delhi - DPCC",06-02-2024 18:00:00,28.815329,77.153010,PM10,50,128,82
India,Delhi,Delhi,"Aya Nagar, Delhi - IMD",06-02-2024 18:00:00,28.4706914,77.1099364,PM2.5,5,308,102
India,Delhi,Delhi,"Burari Crossing, Delhi - IMD",06-02-2024 18:00:00,28.7256504,77.2011573,PM2.5,38,203,109
India,Delhi,Delhi,"Burari Crossing, Delhi - IMD",06-02-2024 18:00:00,28.7256504,77.2011573,OZONE,20,51,36
India,Delhi,Delhi,"DTU, Delhi - CPCB",06-02-2024 18:00:00,28.7500499,77.1112615,PM10,59,143,108
India,Delhi,Delhi,"DTU, Delhi - CPCB",06-02-2024 18:00:00,28.7500499,77.1112615,OZONE,26,34,30
India,Delhi,Delhi,"Dr. Karni Singh Shooting Range, Delhi - DPCC",06-02-2024 18:00:00,28.498571,77.264840,PM2.5,42,204,129
India,Delhi,Delhi,"Dr. Karni Singh Shooting Range, Delhi - DPCC",06-02-2024 18:00:00,28.498571,77.264840,NO2,35,100,67
India,Delhi,Delhi,"Dr. Karni Singh Shooting Range, Delhi - DPCC",06-02-2024 18:00:00,28.498571,77.264840,OZONE,1,126,87
India,Delhi,Delhi,"Dwarka-Sector 8, Delhi - DPCC ",06-02-2024 18:00:00,28.5710274,77.0719006,PM10,78,211,141
India,Delhi,Delhi,"Dwarka-Sector 8, Delhi - DPCC ",06-02-2024 18:00:00,28.5710274,77.0719006,CO,18,70,31
India,Delhi,Delhi,"IHBAS, Dilshad Garden, Delhi - CPCB",06-02-2024 18:00:00,28.6811736,77.3025234,PM10,72,119,97
India,Delhi,Delhi,"ITO, Delhi - CPCB",06-02-2024 18:00:00,28.628624,77.241060,PM2.5,42,172,84
India,Delhi,Delhi,"ITO, Delhi - CPCB",06-02-2024 18:00:00,28.628624,77.241060,NO2,2,60,20
India,Delhi,Delhi,"ITO, Delhi - CPCB",06-02-2024 18:00:00,28.628624,77.241060,CO,24,62,35
India,Delhi,Delhi,"Jahangirpuri, Delhi - DPCC",06-02-2024 18:00:00,28.732820,77.170633,PM2.5,58,335,202
India,Delhi,Delhi,"Lodhi Road, Delhi - IITM",06-02-2024 18:00:00,28.588333,77.221667,PM2.5,45,130,77
India,Delhi,Delhi,"Lodhi Road, Delhi - IITM",06-02-2024 18:00:00,28.588333,77.221667,NH3,8,10,9
India,Delhi,Delhi,"Lodhi Road, Delhi - IMD",06-02-2024 18:00:00,28.5918245,77.2273074,OZONE,13,60,46
India,Delhi,Delhi,"Major Dhyan Chand National Stadium, Delhi - DPCC",06-02-2024 18:00:00,28.611281,77.237738,PM10,63,156,107
India,Delhi,Delhi,"Mundka, Delhi - DPCC",06-02-2024 18:00:00,28.684678,77.076574,PM2.5,48,310,147
India,Delhi,Delhi,"Mundka, Delhi - DPCC",06-02-2024 18:00:00,28.684678,77.076574,OZONE,1,8,5
India,Delhi,Delhi,"NSIT Dwarka, Delhi - CPCB",06-02-2024 18:00:00,28.60909,77.0325413,NO2,14,38,25
India,Delhi,Delhi,"Najafgarh, Delhi - DPCC",06-02-2024 18:00:00,28.570173,76.933762,SO2,3,14,8
India,Delhi,Delhi,"Narela, Delhi - DPCC",06-02-2024 18:00:00,28.822836,77.101981,PM2.5,40,237,109
India,Delhi,Delhi,"Narela, Delhi - DPCC",06-02-2024 18:00:00,28.822836,77.101981,NH3,6,13,8
India,Delhi,Delhi,"Nehru Nagar, Delhi - DPCC",06-02-2024 18:00:00,28.567890,77.250515,NO2,13,26,18
India,Delhi,Delhi,"Nehru Nagar, Delhi - DPCC",06-02-2024 18:00:00,28.567890,77.250515,NH3,11,25,18
India,Delhi,Delhi,"New Moti Bagh, Delhi - MHUA",06-02-2024 18:00:00,28.57834,77.18400,CO,17,49,26
India,Delhi,Delhi,"North Campus, DU, Delhi - IMD",06-02-2024 18:00:00,28.6573814,77.1585447,OZONE,20,28,25
India,Delhi,Delhi,"Okhla Phase-2, Delhi - DPCC",06-02-2024 18:00:00,28.530785,77.271255,NH3,8,15,12
India,Delhi,Delhi,"Okhla Phase-2, Delhi - DPCC",06-02-2024 18:00:00,28.530785,77.271255,SO2,2,6,4
India,Delhi,Delhi,"Patparganj, Delhi - DPCC",06-02-2024 18:00:00,28.623763,77.287209,SO2,8,13,10
India,Delhi,Delhi,"Patparganj, Delhi - DPCC",06-02-2024 18:00:00,28.623763,77.287209,CO,14,43,31
India,Delhi,Delhi,"Punjabi Bagh, Delhi - DPCC",06-02-2024 18:00:00,28.674045,77.131023,SO2,13,99,20
India,Delhi,Delhi,"R K Puram, Delhi - DPCC",06-02-2024 18:00:00,28.563262,77.186937,SO2,17,27,23
India,Delhi,Delhi,"Rohini, Delhi - DPCC",06-02-2024 18:00:00,28.732528,77.119920,CO,10,35,19
India,Delhi,Delhi,"Sonia Vihar, Delhi - DPCC",06-02-2024 18:00:00,28.710508,77.249485,PM10,78,160,115
India,Delhi,Delhi,"Sri Aurobindo Marg, Delhi - DPCC",06-02-2024 18:00:00,28.531346,77.190156,PM2.5,41,213,116
India,Delhi,Delhi,"Sri Aurobindo Marg, Delhi - DPCC",06-02-2024 18:00:00,28.531346,77.190156,NO2,16,59,38
India,Delhi,Delhi,"Sri Aurobindo Marg, Delhi - DPCC",06-02-2024 18:00:00,28.531346,77.190156,NH3,5,8,7
India,Delhi,Delhi,"Sri Aurobindo Marg, Delhi - DPCC",06-02-2024 18:00:00,28.531346,77.190156,SO2,6,12,9
India,Delhi,Delhi,"Vivek Vihar, Delhi - DPCC",06-02-2024 18:00:00,28.672342,77.315260,SO2,5,11,8
India,Delhi,Delhi,"Vivek Vihar, Delhi - DPCC",06-02-2024 18:00:00,28.672342,77.315260,CO,7,47,20
India,Gujarat,Ahmedabad,"Chandkheda, Ahmedabad - IITM",06-02-2024 18:00:00,23.107969,72.574648,PM10,55,172,97
India,Gujarat,Ahmedabad,"Chandkheda, Ahmedabad - IITM",06-02-2024 18:00:00,23.107969,72.574648,SO2,8,22,13
India,Gujarat,Ahmedabad,"Gyaspur, Ahmedabad - IITM",06-02-2024 18:00:00,22.977134,72.553024,PM2.5,63,379,146
India,Gujarat,Ahmedabad,"Gyaspur, Ahmedabad - IITM",06-02-2024 18:00:00,22.977134,72.553024,PM10,69,406,124
India,Gujarat,Ahmedabad,"Gyaspur, Ahmedabad - IITM",06-02-2024 18:00:00,22.977134,72.553024,NH3,2,2,2
India,Gujarat,Ahmedabad,"Gyaspur, Ahmedabad - IITM",06-02-2024 18:00:00,22.977134,72.553024,SO2,12,25,18
India,Gujarat,Ahmedabad,"Maninagar, Ahmedabad - GPCB",06-02-2024 18:00:00,23.002657,72.591912,CO,8,48,25
India,Gujarat,Ahmedabad,"Raikhad, Ahmedabad - IITM",06-02-2024 18:00:00,23.020509,72.579261,PM10,12,253,60
India,Gujarat,Ahmedabad,"Raikhad, Ahmedabad - IITM",06-02-2024 18:00:00,23.020509,72.579261,NH3,3,4,3
India,Gujarat,Ahmedabad,"Raikhad, Ahmedabad - IITM",06-02-2024 18:00:00,23.020509,72.579261,SO2,8,21,16
India,Gujarat,Ahmedabad,"Rakhial, Ahmedabad - IITM",06-02-2024 18:00:00,23.016834,72.625775,NO2,4,29,13
India,Gujarat,Ahmedabad,"Rakhial, Ahmedabad - IITM",06-02-2024 18:00:00,23.016834,72.625775,CO,19,87,50
India,Gujarat,Ahmedabad,"SAC ISRO Bopal, Ahmedabad - IITM",06-02-2024 18:00:00,23.041137,72.456691,PM2.5,35,298,92
India,Gujarat,Ahmedabad,"SAC ISRO Bopal, Ahmedabad - IITM",06-02-2024 18:00:00,23.041137,72.456691,CO,32,45,33
India,Gujarat,Ahmedabad,"SAC ISRO Satellite, Ahmedabad - IITM",06-02-2024 18:00:00,23.023389,72.515201,PM10,98,116,111
India,Gujarat,Ahmedabad,"SVPI Airport Hansol, Ahmedabad - IITM",06-02-2024 18:00:00,23.076793,72.627874,OZONE,12,25,23
India,Gujarat,Ahmedabad,"Sardar Vallabhbhai Patel Stadium, Ahmedabad - IITM",06-02-2024 18:00:00,23.043070,72.562968,OZONE,8,22,20
India,Gujarat,Ankleshwar,"GIDC, Ankleshwar - GPCB",06-02-2024 18:00:00,21.613267,73.010555,OZONE,20,30,26
India,Gujarat,Gandhinagar,"GIFT City, Gandhinagar - IITM",06-02-2024 18:00:00,23.163798,72.677768,OZONE,27,27,27
India,Gujarat,Gandhinagar,"IIPHG Lekawada, Gandhinagar - IITM",06-02-2024 18:00:00,23.243639,72.68994,PM10,16,457,122
India,Gujarat,Vapi,"Phase-1 GIDC, Vapi - GPCB",06-02-2024 18:00:00,20.362421,72.918013,CO,1,190,160
India,Haryana,Ambala,"Patti Mehar, Ambala - HSPCB",06-02-2024 18:00:00,30.379589,76.778328,SO2,1,7,4
India,Haryana,Bahadurgarh,"Arya Nagar, Bahadurgarh - HSPCB",06-02-2024 18:00:00,28.6701,76.9254,PM2.5,45,103,68
India,Haryana,Bhiwani,"H.B. Colony, Bhiwani - HSPCB",06-02-2024 18:00:00,28.806223,76.141105,PM10,29,95,63
India,Haryana,Charkhi Dadri,"Mini Secretariat, Charkhi Dadri - HSPCB",06-02-2024 18:00:00,28.593883,76.270653,SO2,5,15,8
India,Haryana,Dharuhera,"Municipal Corporation Office, Dharuhera -  HSPCB",06-02-2024 18:00:00,28.206800,76.799700,NO2,45,113,70
India,Haryana,Faridabad,"Sector 11, Faridabad - HSPCB",06-02-2024 18:00:00,28.376058,77.315741,OZONE,3,7,5
India,Haryana,Faridabad,"Sector 30, Faridabad - HSPCB",06-02-2024 18:00:00,28.4417,77.3217,CO,50,104,69
India,Haryana,Faridabad,"Sector- 16A, Faridabad - HSPCB",06-02-2024 18:00:00,28.4088421,77.3099081,PM2.5,NA,NA,NA
India,Haryana,Fatehabad,"Huda Sector, Fatehabad - HSPCB",06-02-2024 18:00:00,29.503664,75.467934,CO,5,29,9
India,Haryana,Gurugram,"NISE Gwal Pahari, Gurugram - IMD",06-02-2024 18:00:00,28.422681,77.148944,OZONE,1,57,41
India,Haryana,Gurugram,"Sector-51, Gurugram - HSPCB",06-02-2024 18:00:00,28.4227,77.0667,CO,13,45,23
India,Haryana,Gurugram,"Teri Gram, Gurugram - HSPCB",06-02-2024 18:00:00,28.4275,77.1465,PM10,94,179,129
India,Haryana,Gurugram,"Teri Gram, Gurugram - HSPCB",06-02-2024 18:00:00,28.4275,77.1465,SO2,2,5,4
India,Haryana,Hisar,"Urban Estate-II, Hisar - HSPCB",06-02-2024 18:00:00,29.140560,75.744941,NO2,8,28,10
India,Haryana,Hisar,"Urban Estate-II, Hisar - HSPCB",06-02-2024 18:00:00,29.140560,75.744941,NH3,3,11,4
India,Haryana,Jind,"Police Lines, Jind - HSPCB",06-02-2024 18:00:00,29.307814,76.337619,NO2,7,16,11
India,Haryana,Jind,"Police Lines, Jind - HSPCB",06-02-2024 18:00:00,29.307814,76.337619,NH3,2,5,3
India,Haryana,Kaithal,"Rishi Nagar, Kaithal - HSPCB",06-02-2024 18:00:00,29.8006,76.4155,SO2,7,21,14
India,Haryana,Karnal,"Sector-12, Karnal - HSPCB",06-02-2024 18:00:00,29.695300,77.002700,NH3,10,13,11
India,Haryana,Kurukshetra,"Sector-7, Kurukshetra - HSPCB",06-02-2024 18:00:00,29.966942,76.875879,SO2,1,61,21
India,Haryana,Mandikhera,"General Hospital, Mandikhera - HSPCB",06-02-2024 18:00:00,27.9002,76.9938,PM10,39,55,48
India,Haryana,Mandikhera,"General Hospital, Mandikhera - HSPCB",06-02-2024 18:00:00,27.9002,76.9938,NO2,16,21,19
India,Haryana,Mandikhera,"General Hospital, Mandikhera - HSPCB",06-02-2024 18:00:00,27.9002,76.9938,CO,12,41,23
India,Haryana,Narnaul,"Shastri Nagar, Narnaul - HSPCB",06-02-2024 18:00:00,28.060249,76.113115,PM2.5,24,63,42
India,Haryana,Narnaul,"Shastri Nagar, Narnaul - HSPCB",06-02-2024 18:00:00,28.060249,76.113115,PM10,29,76,50
India,Haryana,Palwal,"Shyam Nagar, Palwal - HSPCB",06-02-2024 18:00:00,28.1485564,77.3320667,PM10,55,99,77
India,Haryana,Palwal,"Shyam Nagar, Palwal - HSPCB",06-02-2024 18:00:00,28.1485564,77.3320667,NH3,2,3,3
India,Haryana,Panchkula,"Sector-6, Panchkula - HSPCB ",06-02-2024 18:00:00,30.7057778,76.8531805555555,NO2,28,30,29
India,Haryana,Panipat,"Sector-18, Panipat - HSPCB",06-02-2024 18:00:00,29.497973,76.993331,PM10,86,95,90
India,Haryana,Panipat,"Sector-18, Panipat - HSPCB",06-02-2024 18:00:00,29.497973,76.993331,NH3,2,3,2
India,Haryana,Panipat,"Sector-18, Panipat - HSPCB",06-02-2024 18:00:00,29.497973,76.993331,OZONE,28,35,32
India,Haryana,Rohtak,"MD University, Rohtak - HSPCB",06-02-2024 18:00:00,28.52123,76.37138,PM2.5,11,83,47
India,Haryana,Rohtak,"MD University, Rohtak - HSPCB",06-02-2024 18:00:00,28.52123,76.37138,SO2,6,8,7
India,Haryana,Sonipat,"Murthal, Sonipat - HSPCB",06-02-2024 18:00:00,29.027200,77.062100,CO,8,32,14
India,Himachal Pradesh,Baddi,"HIMUDA Complex Phase-1, Baddi - HPPCB",06-02-2024 18:00:00,30.943887,76.801991,SO2,8,88,36
India,Jharkhand,Dhanbad,"Kalakusuma, Dhanbad - DMC",06-02-2024 18:00:00,23.811548,86.481238,PM2.5,NA,NA,NA
India,Jharkhand,Dhanbad,"Kalakusuma, Dhanbad - DMC",06-02-2024 18:00:00,23.811548,86.481238,NO2,NA,NA,NA
India,Jharkhand,Dhanbad,"Sardar Patel Nagar, Dhanbad - JSPCB",06-02-2024 18:00:00,23.80569,86.44268,SO2,NA,NA,NA
India,Jharkhand,Dhanbad,"Sardar Patel Nagar, Dhanbad - JSPCB",06-02-2024 18:00:00,23.80569,86.44268,OZONE,8,14,10
India,Jharkhand,Pathardih,"Mohalbani Ghat, Pathardih - DMC",06-02-2024 18:00:00,23.669880,86.411725,NO2,NA,NA,NA
India,Jharkhand,Pathardih,"Mohalbani Ghat, Pathardih - DMC",06-02-2024 18:00:00,23.669880,86.411725,SO2,NA,NA,NA
India,Karnataka,Belgaum,"Ramteerth Nagar, Belgaum - KSPCB",06-02-2024 18:00:00,15.888653,74.541751,SO2,8,9,8
India,Karnataka,Belgaum,"Ramteerth Nagar, Belgaum - KSPCB",06-02-2024 18:00:00,15.888653,74.541751,CO,37,51,45
India,Karnataka,Bengaluru,"BTM Layout, Bengaluru - CPCB",06-02-2024 18:00:00,12.9135218,77.5950804,SO2,5,10,8
India,Karnataka,Bengaluru,"City Railway Station, Bengaluru - KSPCB",06-02-2024 18:00:00,12.9756843,77.5660749,SO2,NA,NA,NA
India,Karnataka,Bengaluru,"City Railway Station, Bengaluru - KSPCB",06-02-2024 18:00:00,12.9756843,77.5660749,CO,52,104,67
India,Karnataka,Bengaluru,"Hebbal, Bengaluru - KSPCB",06-02-2024 18:00:00,13.029152,77.585901,NO2,5,5,5
India,Karnataka,Bengaluru,"Hombegowda Nagar, Bengaluru - KSPCB",06-02-2024 18:00:00,12.938539,77.590100,PM2.5,34,83,55
India,Karnataka,Bengaluru,"Jayanagar 5th Block, Bengaluru - KSPCB",06-02-2024 18:00:00,12.920984,77.584908,NO2,10,12,11
India,Karnataka,Bengaluru,"Jayanagar 5th Block, Bengaluru - KSPCB",06-02-2024 18:00:00,12.920984,77.584908,CO,9,49,26
India,Karnataka,Bengaluru,"Jayanagar 5th Block, Bengaluru - KSPCB",06-02-2024 18:00:00,12.920984,77.584908,OZONE,18,19,18
India,Karnataka,Bengaluru,"Jigani, Bengaluru - KSPCB",06-02-2024 18:00:00,12.7816279,77.6299145,CO,53,89,62
India,Karnataka,Bengaluru,"Kasturi Nagar, Bengaluru - KSPCB",06-02-2024 18:00:00,13.003872,77.664217,PM10,99,416,159
India,Karnataka,Bengaluru,"Kasturi Nagar, Bengaluru - KSPCB",06-02-2024 18:00:00,13.003872,77.664217,CO,24,26,24
India,Karnataka,Bengaluru,"Peenya, Bengaluru - CPCB",06-02-2024 18:00:00,13.0270199,77.494094,CO,22,53,37
India,Karnataka,Bengaluru,"Shivapura_Peenya, Bengaluru - KSPCB",06-02-2024 18:00:00,13.0246342,77.5080115,NO2,15,16,15
India,Karnataka,Bengaluru,"Shivapura_Peenya, Bengaluru - KSPCB",06-02-2024 18:00:00,13.0246342,77.5080115,OZONE,14,76,57
India,Karnataka,Bengaluru,"Silk Board, Bengaluru - KSPCB",06-02-2024 18:00:00,12.917348,77.622813,NH3,5,7,6
India,Karnataka,Chikkaballapur,"Chikkaballapur Rural, Chikkaballapur - KSPCB",06-02-2024 18:00:00,13.428828,77.731418,NO2,NA,NA,NA
India,Karnataka,Chikkaballapur,"Chikkaballapur Rural, Chikkaballapur - KSPCB",06-02-2024 18:00:00,13.428828,77.731418,NH3,NA,NA,NA
India,Karnataka,Chikkamagaluru,"Kalyana Nagara, Chikkamagaluru - KSPCB",06-02-2024 18:00:00,13.328028,75.797056,SO2,1,12,4
India,Karnataka,Davanagere,"Devaraj Urs Badavane, Davanagere - KSPCB",06-02-2024 18:00:00,14.475800,75.905200,OZONE,20,25,21
India,Karnataka,Dharwad,"Kalabhavan, Dharwad - KSPCB",06-02-2024 18:00:00,15.459706,75.008381,SO2,5,16,8
India,Karnataka,Dharwad,"Kalabhavan, Dharwad - KSPCB",06-02-2024 18:00:00,15.459706,75.008381,OZONE,2,39,34
India,Karnataka,Gadag,"Panchal Nagar, Gadag - KSPCB",06-02-2024 18:00:00,15.411456,75.638133,NH3,2,3,2
India,Karnataka,Hassan,"B.Katihalli, Hassan - KSPCB",06-02-2024 18:00:00,13.008556,76.125258,PM2.5,27,130,61
India,Karnataka,Hassan,"B.Katihalli, Hassan - KSPCB",06-02-2024 18:00:00,13.008556,76.125258,PM10,46,159,81
India,Karnataka,Haveri,"Ashwini Nagar, Haveri - KSPCB",06-02-2024 18:00:00,14.791800,75.389600,NO2,12,42,28
India,Karnataka,Haveri,"Ashwini Nagar, Haveri - KSPCB",06-02-2024 18:00:00,14.791800,75.389600,CO,28,36,31
India,Karnataka,Hubballi,"Lingaraj Nagar, Hubballi - KSPCB",06-02-2024 18:00:00,15.3714823,75.1160168,PM10,46,63,55
India,Karnataka,Hubballi,"Lingaraj Nagar, Hubballi - KSPCB",06-02-2024 18:00:00,15.3714823,75.1160168,CO,38,95,54
India,Karnataka,Kalaburagi,"Lal Bahadur Shastri Nagar, Kalaburagi - KSPCB",06-02-2024 18:00:00,17.321993,76.822628,NO2,12,12,12
India,Karnataka,Kalaburagi,"Mahatma Basaveswar Colony, Kalaburgi - KSPCB",06-02-2024 18:00:00,17.336318,76.847397,PM10,32,63,48
India,Karnataka,Koppal,"Diwator Nagar, Koppal - KSPCB",06-02-2024 18:00:00,15.347630,76.181767,PM2.5,22,60,35
India,Karnataka,Koppal,"Diwator Nagar, Koppal - KSPCB",06-02-2024 18:00:00,15.347630,76.181767,PM10,40,107,58
India,Karnataka,Koppal,"Diwator Nagar, Koppal - KSPCB",06-02-2024 18:00:00,15.347630,76.181767,NO2,2,29,14
India,Karnataka,Koppal,"Diwator Nagar, Koppal - KSPCB",06-02-2024 18:00:00,15.347630,76.181767,CO,103,117,104
India,Karnataka,Madikeri,"Stuart Hill, Madikeri - KSPCB",06-02-2024 18:00:00,12.415911,75.735050,PM2.5,17,56,38
India,Karnataka,Madikeri,"Stuart Hill, Madikeri - KSPCB",06-02-2024 18:00:00,12.415911,75.735050,OZONE,32,41,39
India,Karnataka,Mysuru,"Hebbal 1st Stage, Mysuru - KSPCB",06-02-2024 18:00:00,12.21041,76.37376,SO2,1,9,4
India,Karnataka,Mysuru,"Hebbal 1st Stage, Mysuru - KSPCB",06-02-2024 18:00:00,12.21041,76.37376,CO,5,47,19
India,Karnataka,Shivamogga,"Vinoba Nagara, Shivamogga - KSPCB",06-02-2024 18:00:00,13.940000,75.555917,CO,8,51,38
India,Karnataka,Shivamogga,"Vinoba Nagara, Shivamogga - KSPCB",06-02-2024 18:00:00,13.940000,75.555917,OZONE,34,83,72
India,Karnataka,Tumakuru,"Thimmalapura, Tumakuru - KSPCB",06-02-2024 18:00:00,13.377516,77.099072,PM10,63,300,151
India,Karnataka,Tumakuru,"Thimmalapura, Tumakuru - KSPCB",06-02-2024 18:00:00,13.377516,77.099072,OZONE,7,51,39
India,Karnataka,Udupi,"Brahmagiri, Udupi - KSPCB",06-02-2024 18:00:00,13.34194444,74.74694444,OZONE,23,24,23
India,Karnataka,Vijayapura,"Ibrahimpur, Vijayapura - KSPCB",06-02-2024 18:00:00,16.802639,75.722694,NO2,17,19,19
India,Karnataka,Vijayapura,"Ibrahimpur, Vijayapura - KSPCB",06-02-2024 18:00:00,16.802639,75.722694,CO,30,30,30
India,Karnataka,Yadgir,"Collector Office, Yadgir - KSPCB",06-02-2024 18:00:00,16.7602,77.1428,NH3,1,1,1
India,Karnataka,Yadgir,"Collector Office, Yadgir - KSPCB",06-02-2024 18:00:00,16.7602,77.1428,OZONE,18,19,19
India,Kerala,Eloor,"Udyogamandal, Eloor - Kerala PCB",06-02-2024 18:00:00,10.073232,76.302765,NO2,4,4,4
India,Kerala,Kannur,"Thavakkara, Kannur - Kerala PCB",06-02-2024 18:00:00,11.875000,75.373200,PM2.5,43,52,47
India,Kerala,Kochi,"Vyttila, Kochi - Kerala PCB",06-02-2024 18:00:00,9.969447,76.321186,SO2,1,12,4
India,Kerala,Kollam,"Polayathode, Kollam - Kerala PCB",06-02-2024 18:00:00,8.8787,76.6073,NO2,8,9,8
India,Kerala,Thiruvananthapuram,"Kariavattom, Thiruvananthapuram - Kerala PCB",06-02-2024 18:00:00,8.563700,76.886500,NO2,8,10,9
India,Kerala,Thiruvananthapuram,"Plammoodu, Thiruvananthapuram - Kerala PCB",06-02-2024 18:00:00,8.5149093,76.9435879,PM2.5,22,67,43
India,Kerala,Thiruvananthapuram,"Plammoodu, Thiruvananthapuram - Kerala PCB",06-02-2024 18:00:00,8.5149093,76.9435879,SO2,8,13,10
India,Kerala,Thrissur,"Corporation Ground, Thrissur - Kerala PCB",06-02-2024 18:00:00,10.532400,76.215900,OZONE,36,41,39
India,Madhya Pradesh,Bhopal,"Idgah Hills, Bhopal - MPPCB",06-02-2024 18:00:00,23.264759,77.381568,PM10,89,148,112
India,Madhya Pradesh,Bhopal,"Idgah Hills, Bhopal - MPPCB",06-02-2024 18:00:00,23.264759,77.381568,OZONE,28,77,62
India,Madhya Pradesh,Bhopal,"Paryavaran Parisar, Bhopal - MPPCB",06-02-2024 18:00:00,23.210494,77.425409,PM10,85,254,121
India,Madhya Pradesh,Bhopal,"Paryavaran Parisar, Bhopal - MPPCB",06-02-2024 18:00:00,23.210494,77.425409,NH3,8,12,10
India,Madhya Pradesh,Bhopal,"Paryavaran Parisar, Bhopal - MPPCB",06-02-2024 18:00:00,23.210494,77.425409,CO,3,118,33
India,Madhya Pradesh,Bhopal,"T T Nagar, Bhopal - MPPCB",06-02-2024 18:00:00,23.233584,77.400574,NO2,34,76,46
India,Madhya Pradesh,Dewas,"Bhopal Chauraha, Dewas - MPPCB",06-02-2024 18:00:00,22.9682591,76.064118,SO2,NA,NA,NA
India,Madhya Pradesh,Gwalior,"City Center, Gwalior - MPPCB",06-02-2024 18:00:00,26.203442,78.193251,PM10,76,198,124
India,Madhya Pradesh,Gwalior,"City Center, Gwalior - MPPCB",06-02-2024 18:00:00,26.203442,78.193251,NO2,21,37,29
India,Madhya Pradesh,Gwalior,"Maharaj Bada, Gwalior - MPPCB",06-02-2024 18:00:00,26.200388,78.147714,PM10,99,243,167
India,Madhya Pradesh,Gwalior,"Maharaj Bada, Gwalior - MPPCB",06-02-2024 18:00:00,26.200388,78.147714,SO2,12,17,15
India,Madhya Pradesh,Indore,"Regional Park, Indore - IMC",06-02-2024 18:00:00,22.6780,75.8559,CO,18,26,20
India,Madhya Pradesh,Indore,"Residency Area, Indore - IMC",06-02-2024 18:00:00,22.7084,75.8815,SO2,NA,NA,NA
India,Madhya Pradesh,Jabalpur,"Govindh Bhavan Colony, Jabalpur - JMC",06-02-2024 18:00:00,23.163174,79.973061,PM10,60,99,76
India,Madhya Pradesh,Jabalpur,"Gupteshwar, Jabalpur - JMC",06-02-2024 18:00:00,23.142888,79.916147,PM10,63,121,83
India,Madhya Pradesh,Jabalpur,"Marhatal, Jabalpur - MPPCB",06-02-2024 18:00:00,23.168606,79.932247,SO2,17,26,20
India,Madhya Pradesh,Jabalpur,"Suhagi, Jabalpur - JMC",06-02-2024 18:00:00,23.218135,79.957770,NO2,43,50,48
India,Madhya Pradesh,Katni,"Gole Bazar, Katni - MPPCB",06-02-2024 18:00:00,23.50016,80.23284,OZONE,4,42,28
India,Madhya Pradesh,Mandideep,"Sector-D Industrial Area, Mandideep - MPPCB",06-02-2024 18:00:00,23.108440,77.511428,PM10,90,190,129
India,Madhya Pradesh,Pithampur,"Sector-2 Industrial Area, Pithampur - MPPCB",06-02-2024 18:00:00,22.624758,75.675238,PM2.5,19,77,41
India,Madhya Pradesh,Pithampur,"Sector-2 Industrial Area, Pithampur - MPPCB",06-02-2024 18:00:00,22.624758,75.675238,PM10,75,122,90
India,Madhya Pradesh,Pithampur,"Sector-2 Industrial Area, Pithampur - MPPCB",06-02-2024 18:00:00,22.624758,75.675238,NH3,4,6,5
India,Madhya Pradesh,Pithampur,"Sector-2 Industrial Area, Pithampur - MPPCB",06-02-2024 18:00:00,22.624758,75.675238,CO,46,64,51
India,Madhya Pradesh,Ratlam,"Shasthri Nagar, Ratlam - IPCA Lab",06-02-2024 18:00:00,23.331731,75.045981,PM10,77,174,111
India,Madhya Pradesh,Satna,"Bandhavgar Colony, Satna - Birla Cement",06-02-2024 18:00:00,24.58434363,80.8549414,SO2,4,12,6
India,Maharashtra,Ahmednagar,"Tarakpur, Ahmednagar - MPCB",06-02-2024 18:00:00,19.10122,74.73339,NO2,24,146,76
India,Maharashtra,Ahmednagar,"Tarakpur, Ahmednagar - MPCB",06-02-2024 18:00:00,19.10122,74.73339,SO2,15,20,17
India,Maharashtra,Ahmednagar,"Tarakpur, Ahmednagar - MPCB",06-02-2024 18:00:00,19.10122,74.73339,OZONE,8,153,126
India,Maharashtra,Amravati,"Shivneri Colony, Amravati - MPCB",06-02-2024 18:00:00,20.9402359,77.7895248,PM10,100,133,118
India,Maharashtra,Amravati,"Shri Shivaji Science College, Amaravati - MPCB",06-02-2024 18:00:00,20.939198,77.765701,PM10,107,248,144
India,Maharashtra,Amravati,"Shri Shivaji Science College, Amaravati - MPCB",06-02-2024 18:00:00,20.939198,77.765701,SO2,13,24,18
India,Maharashtra,Amravati,"Shri Shivaji Science College, Amaravati - MPCB",06-02-2024 18:00:00,20.939198,77.765701,OZONE,1,78,65
India,Maharashtra,Aurangabad,"MIDC Chilkalthana, Aurangabad - MPCB",06-02-2024 18:00:00,19.875620,75.387310,CO,50,146,117
India,Maharashtra,Aurangabad,"MIDC Chilkalthana, Aurangabad - MPCB",06-02-2024 18:00:00,19.875620,75.387310,OZONE,9,65,50
India,Maharashtra,Aurangabad,"More Chowk Waluj, Aurangabad - MPCB",06-02-2024 18:00:00,19.8389439,75.244448,NO2,31,37,33
India,Maharashtra,Aurangabad,"Rachnakar Colony, Aurangabad - MPCB",06-02-2024 18:00:00,19.863756,75.321188,PM2.5,81,303,225
India,Maharashtra,Aurangabad,"Rachnakar Colony, Aurangabad - MPCB",06-02-2024 18:00:00,19.863756,75.321188,NH3,1,1,1
India,Maharashtra,Belapur,"CBD Belapur, Belapur - MPCB",06-02-2024 18:00:00,19.0243902,73.0406721,NH3,18,53,31
India,Maharashtra,Belapur,"CBD Belapur, Belapur - MPCB",06-02-2024 18:00:00,19.0243902,73.0406721,SO2,3,12,5
India,Maharashtra,Bhiwandi,"Gokul Nagar, Bhiwandi - MPCB",06-02-2024 18:00:00,19.309073,73.057223,PM10,61,253,135
India,Maharashtra,Boisar,"Khaira, Boisar - MPCB",06-02-2024 18:00:00,19.786089,72.757971,NH3,NA,NA,NA
India,Maharashtra,Boisar,"Khaira, Boisar - MPCB",06-02-2024 18:00:00,19.786089,72.757971,OZONE,5,7,6
India,Maharashtra,Chandrapur,"MIDC Khutala, Chandrapur - MPCB",06-02-2024 18:00:00,19.9775302,79.2337086,NO2,NA,NA,NA
India,Maharashtra,Chandrapur,"MIDC Khutala, Chandrapur - MPCB",06-02-2024 18:00:00,19.9775302,79.2337086,CO,24,54,29
India,Maharashtra,Chandrapur,"MIDC Khutala, Chandrapur - MPCB",06-02-2024 18:00:00,19.9775302,79.2337086,OZONE,1,1,1
India,Maharashtra,Jalgaon,"Prabhat Colony, Jalgaon - MPCB",06-02-2024 18:00:00,21.001264,75.565602,PM2.5,44,112,66
India,Maharashtra,Jalgaon,"Prabhat Colony, Jalgaon - MPCB",06-02-2024 18:00:00,21.001264,75.565602,PM10,69,145,108
India,Maharashtra,Kolhapur,"Shivaji University, Kolhapur - MPCB",06-02-2024 18:00:00,16.6870449,74.2505872,PM10,118,197,150
India,Maharashtra,Kolhapur,"Shivaji University, Kolhapur - MPCB",06-02-2024 18:00:00,16.6870449,74.2505872,NO2,18,60,34
India,Maharashtra,Kolhapur,"Shivaji University, Kolhapur - MPCB",06-02-2024 18:00:00,16.6870449,74.2505872,SO2,1,23,7
India,Maharashtra,Kolhapur,"Sinchan Bhavan, Kolhapur - MPCB",06-02-2024 18:00:00,16.7143745,74.2426398,NH3,7,8,8
India,Maharashtra,Kolhapur,"Sinchan Bhavan, Kolhapur - MPCB",06-02-2024 18:00:00,16.7143745,74.2426398,OZONE,12,205,181
India,Maharashtra,Latur,"Sawe Wadi, Latur - MPCB",06-02-2024 18:00:00,18.39963,76.57452,PM2.5,84,314,149
India,Maharashtra,Latur,"Sawe Wadi, Latur - MPCB",06-02-2024 18:00:00,18.39963,76.57452,CO,20,164,26
India,Maharashtra,Latur,"Sawe Wadi, Latur - MPCB",06-02-2024 18:00:00,18.39963,76.57452,OZONE,1,86,78
India,Maharashtra,Malegaon,"Mahesh Nagar, Malegaon - MPCB",06-02-2024 18:00:00,20.555712,74.529236,NH3,3,28,6
India,Maharashtra,Mira-Bhayandar,"Bhayandar West, Mira-Bhayandar - MPCB",06-02-2024 18:00:00,19.296481,72.840923,PM2.5,87,296,204
India,Maharashtra,Mumbai,"Bandra Kurla Complex, Mumbai - MPCB",06-02-2024 18:00:00,19.065931,72.862131,SO2,3,20,8
India,Maharashtra,Mumbai,"Bandra Kurla Complex, Mumbai - MPCB",06-02-2024 18:00:00,19.065931,72.862131,OZONE,3,58,34
India,Maharashtra,Mumbai,"Borivali East, Mumbai - IITM",06-02-2024 18:00:00,19.23241,72.86895,PM2.5,34,151,69
India,Maharashtra,Mumbai,"Borivali East, Mumbai - IITM",06-02-2024 18:00:00,19.23241,72.86895,CO,8,49,38
India,Maharashtra,Mumbai,"Borivali East, Mumbai - MPCB",06-02-2024 18:00:00,19.2243333,72.8658113,NO2,8,62,16
India,Maharashtra,Mumbai,"Byculla, Mumbai - BMC",06-02-2024 18:00:00,18.9767,72.8380,NO2,22,110,59
India,Maharashtra,Mumbai,"Chakala-Andheri East, Mumbai - IITM",06-02-2024 18:00:00,19.11074,72.86084,OZONE,1,86,48
India,Maharashtra,Mumbai,"Chembur, Mumbai - MPCB",06-02-2024 18:00:00,19.0364585,72.8954371,PM2.5,67,132,94
India,Maharashtra,Mumbai,"Chembur, Mumbai - MPCB",06-02-2024 18:00:00,19.0364585,72.8954371,PM10,64,153,123
India,Maharashtra,Mumbai,"Colaba, Mumbai - MPCB",06-02-2024 18:00:00,18.910000,72.820000,SO2,9,16,11
India,Maharashtra,Mumbai,"Ghatkopar, Mumbai - BMC",06-02-2024 18:00:00,19.083694,72.920967,PM10,99,215,145
India,Maharashtra,Mumbai,"Ghatkopar, Mumbai - BMC",06-02-2024 18:00:00,19.083694,72.920967,NO2,6,48,30
India,Maharashtra,Mumbai,"Ghatkopar, Mumbai - BMC",06-02-2024 18:00:00,19.083694,72.920967,OZONE,4,44,27
India,Maharashtra,Mumbai,"Kandivali West, Mumbai - BMC",06-02-2024 18:00:00,19.215859,72.831718,PM2.5,74,201,154
India,Maharashtra,Mumbai,"Kandivali West, Mumbai - BMC",06-02-2024 18:00:00,19.215859,72.831718,SO2,4,10,6
India,Maharashtra,Mumbai,"Khindipada-Bhandup West, Mumbai - IITM",06-02-2024 18:00:00,19.1653323,72.922099,PM2.5,71,193,111
India,Maharashtra,Mumbai,"Khindipada-Bhandup West, Mumbai - IITM",06-02-2024 18:00:00,19.1653323,72.922099,NH3,4,73,26
India,Maharashtra,Mumbai,"Khindipada-Bhandup West, Mumbai - IITM",06-02-2024 18:00:00,19.1653323,72.922099,CO,10,38,29
India,Maharashtra,Mumbai,"Kurla, Mumbai - MPCB",06-02-2024 18:00:00,19.0863,72.8888,OZONE,28,37,32
India,Maharashtra,Mumbai,"Malad West, Mumbai - IITM",06-02-2024 18:00:00,19.19709,72.82204,PM2.5,115,289,210
India,Maharashtra,Mumbai,"Mazgaon, Mumbai - IITM",06-02-2024 18:00:00,18.96702,72.84214,NO2,94,275,188
India,Maharashtra,Mumbai,"Mazgaon, Mumbai - IITM",06-02-2024 18:00:00,18.96702,72.84214,OZONE,4,123,61
India,Maharashtra,Mumbai,"Mindspace-Malad West, Mumbai - MPCB",06-02-2024 18:00:00,19.1878657,72.8304069,PM2.5,92,196,150
India,Maharashtra,Mumbai,"Mindspace-Malad West, Mumbai - MPCB",06-02-2024 18:00:00,19.1878657,72.8304069,NO2,7,120,60
India,Maharashtra,Mumbai,"Mulund West, Mumbai - MPCB",06-02-2024 18:00:00,19.1750,72.9419,PM2.5,22,83,37
India,Maharashtra,Mumbai,"Navy Nagar-Colaba, Mumbai - IITM",06-02-2024 18:00:00,18.897756,72.813320,NH3,4,20,16
India,Maharashtra,Mumbai,"Navy Nagar-Colaba, Mumbai - IITM",06-02-2024 18:00:00,18.897756,72.813320,SO2,1,54,14
India,Maharashtra,Mumbai,"Navy Nagar-Colaba, Mumbai - IITM",06-02-2024 18:00:00,18.897756,72.813320,CO,2,80,37
India,Maharashtra,Mumbai,"Navy Nagar-Colaba, Mumbai - IITM",06-02-2024 18:00:00,18.897756,72.813320,OZONE,3,76,38
India,Maharashtra,Mumbai,"Powai, Mumbai - MPCB",06-02-2024 18:00:00,19.137500,72.915056,PM2.5,29,59,43
India,Maharashtra,Mumbai,"Sewri, Mumbai - BMC",06-02-2024 18:00:00,19.000084,72.856730,NO2,62,133,87
India,Maharashtra,Mumbai,"Sewri, Mumbai - BMC",06-02-2024 18:00:00,19.000084,72.856730,NH3,2,15,8
India,Maharashtra,Mumbai,"Shivaji Nagar, Mumbai - BMC",06-02-2024 18:00:00,19.060498,72.923356,PM10,103,408,160
India,Maharashtra,Mumbai,"Shivaji Nagar, Mumbai - BMC",06-02-2024 18:00:00,19.060498,72.923356,NO2,51,148,104
India,Maharashtra,Mumbai,"Shivaji Nagar, Mumbai - BMC",06-02-2024 18:00:00,19.060498,72.923356,NH3,2,8,5
India,Maharashtra,Mumbai,"Siddharth Nagar-Worli, Mumbai - IITM",06-02-2024 18:00:00,19.000083,72.813993,OZONE,2,92,69
India,Maharashtra,Mumbai,"Vasai West, Mumbai - MPCB",06-02-2024 18:00:00,19.383200,72.820400,NH3,4,4,4
India,Maharashtra,Mumbai,"Vasai West, Mumbai - MPCB",06-02-2024 18:00:00,19.383200,72.820400,SO2,16,17,16
India,Maharashtra,Mumbai,"Vasai West, Mumbai - MPCB",06-02-2024 18:00:00,19.383200,72.820400,OZONE,8,59,40
India,Maharashtra,Mumbai,"Vile Parle West, Mumbai - MPCB",06-02-2024 18:00:00,19.10861,72.83622,PM10,64,115,87
India,Maharashtra,Nagpur,"Ambazari, Nagpur - MPCB",06-02-2024 18:00:00,21.121801,79.04952,PM10,96,178,136
India,Maharashtra,Nagpur,"Mahal, Nagpur - MPCB",06-02-2024 18:00:00,21.14472,79.107595,PM2.5,69,210,124
India,Maharashtra,Nagpur,"Mahal, Nagpur - MPCB",06-02-2024 18:00:00,21.14472,79.107595,SO2,29,75,46
India,Maharashtra,Nagpur,"Ram Nagar, Nagpur - MPCB",06-02-2024 18:00:00,21.143383,79.048912,PM2.5,57,250,120
India,Maharashtra,Nagpur,"Ram Nagar, Nagpur - MPCB",06-02-2024 18:00:00,21.143383,79.048912,NH3,7,8,8
India,Maharashtra,Nagpur,"Ram Nagar, Nagpur - MPCB",06-02-2024 18:00:00,21.143383,79.048912,OZONE,11,61,54
India,Maharashtra,Nanded,"Sneh Nagar, Nanded - MPCB",06-02-2024 18:00:00,19.173852,77.296291,NO2,29,126,55
India,Maharashtra,Nanded,"Sneh Nagar, Nanded - MPCB",06-02-2024 18:00:00,19.173852,77.296291,NH3,2,2,2
India,Maharashtra,Nanded,"Sneh Nagar, Nanded - MPCB",06-02-2024 18:00:00,19.173852,77.296291,CO,34,44,39
India,Maharashtra,Nashik,"Gangapur Road, Nashik - MPCB",06-02-2024 18:00:00,20.0073285,73.7762427,PM2.5,51,296,93
India,Maharashtra,Nashik,"Gangapur Road, Nashik - MPCB",06-02-2024 18:00:00,20.0073285,73.7762427,NO2,2,3,2
India,Maharashtra,Nashik,"Gangapur Road, Nashik - MPCB",06-02-2024 18:00:00,20.0073285,73.7762427,SO2,1,7,3
India,Maharashtra,Nashik,"Hirawadi, Nashik - MPCB",06-02-2024 18:00:00,20.021503,73.813844,PM2.5,23,146,65
India,Maharashtra,Nashik,"MIDC Ambad, Nashik - MPCB",06-02-2024 18:00:00,19.950220,73.731480,NO2,9,90,34
India,Maharashtra,Nashik,"MIDC Ambad, Nashik - MPCB",06-02-2024 18:00:00,19.950220,73.731480,SO2,6,16,12
India,Maharashtra,Nashik,"Pandav Nagari, Nashik - MPCB",06-02-2024 18:00:00,19.9591346,73.7788008,PM2.5,30,170,79
India,Maharashtra,Nashik,"Pandav Nagari, Nashik - MPCB",06-02-2024 18:00:00,19.9591346,73.7788008,OZONE,1,48,41
India,Maharashtra,Navi Mumbai,"Kopripada-Vashi, Navi Mumbai - MPCB",06-02-2024 18:00:00,19.090337,73.014232,NH3,4,45,19
India,Maharashtra,Navi Mumbai,"Kopripada-Vashi, Navi Mumbai - MPCB",06-02-2024 18:00:00,19.090337,73.014232,SO2,23,77,42
India,Maharashtra,Navi Mumbai,"Mahape, Navi Mumbai - MPCB",06-02-2024 18:00:00,19.1135051,73.008978,SO2,26,26,26
India,Maharashtra,Navi Mumbai,"Sector-19A Nerul, Navi Mumbai - IITM",06-02-2024 18:00:00,19.044,73.0325,SO2,NA,NA,NA
India,Maharashtra,Navi Mumbai,"Sector-2E Kalamboli, Navi Mumbai - MPCB",06-02-2024 18:00:00,19.02579,73.10297,PM2.5,87,244,168
India,Maharashtra,Navi Mumbai,"Sector-2E Kalamboli, Navi Mumbai - MPCB",06-02-2024 18:00:00,19.02579,73.10297,CO,6,109,21
India,Maharashtra,Navi Mumbai,"Sector-2E Kalamboli, Navi Mumbai - MPCB",06-02-2024 18:00:00,19.02579,73.10297,OZONE,1,134,76
India,Maharashtra,Navi Mumbai,"Tondare-Taloja, Navi Mumbai - MPCB",06-02-2024 18:00:00,19.0630,73.1209,PM10,74,184,138
India,Maharashtra,Pimpri-Chinchwad,"Gavalinagar, Pimpri Chinchwad - MPCB",06-02-2024 18:00:00,18.63673,73.82487,PM10,56,200,137
India,Maharashtra,Pimpri-Chinchwad,"Gavalinagar, Pimpri Chinchwad - MPCB",06-02-2024 18:00:00,18.63673,73.82487,NH3,1,20,6
India,Maharashtra,Pimpri-Chinchwad,"Gavalinagar, Pimpri Chinchwad - MPCB",06-02-2024 18:00:00,18.63673,73.82487,OZONE,1,254,161
India,Maharashtra,Pimpri-Chinchwad,"Thergaon, Pimpri Chinchwad - MPCB",06-02-2024 18:00:00,18.616318,73.765797,CO,NA,NA,NA
India,Maharashtra,Pune,"Bhosari, Pune - IITM",06-02-2024 18:00:00,18.640051,73.848956,OZONE,1,30,20
India,Maharashtra,Pune,"Karve Road, Pune - MPCB",06-02-2024 18:00:00,18.5011743,73.8165527,CO,51,133,78
India,Maharashtra,Pune,"Katraj Dairy, Pune - MPCB",06-02-2024 18:00:00,18.454450,73.854155,SO2,2,15,9
India,Maharashtra,Pune,"Revenue Colony-Shivajinagar, Pune - IITM",06-02-2024 18:00:00,18.530085,73.849598,PM10,81,163,115
India,Maharashtra,Pune,"Savitribai Phule Pune University, Pune - MPCB",06-02-2024 18:00:00,18.547056,73.826908,CO,14,64,22
India,Maharashtra,Pune,"Savitribai Phule Pune University, Pune - MPCB",06-02-2024 18:00:00,18.547056,73.826908,OZONE,1,302,170
India,Maharashtra,Pune,"Transport Nagar-Nigdi, Pune - IITM",06-02-2024 18:00:00,18.664282,73.763966,OZONE,1,96,56
India,Maharashtra,Sangli,"Vijay Nagar, Sangli - MPCB",06-02-2024 18:00:00, 16.5038,74.3623,CO,16,136,35
India,Maharashtra,Sangli,"Vijay Nagar, Sangli - MPCB",06-02-2024 18:00:00, 16.5038,74.3623,OZONE,2,75,61
India,Maharashtra,Solapur,"Dnyaneshwar Nagar, Solapur - MPCB",06-02-2024 18:00:00,17.6336264,75.9132495,NO2,21,201,61
India,Maharashtra,Solapur,"Dnyaneshwar Nagar, Solapur - MPCB",06-02-2024 18:00:00,17.6336264,75.9132495,CO,12,125,19
India,Maharashtra,Solapur,"Solapur, Solapur - MPCB",06-02-2024 18:00:00,17.6599188,75.9063906,PM10,91,151,110
India,Maharashtra,Thane,"Kasarvadavali, Thane - MPCB",06-02-2024 18:00:00,19.26777,72.97182,SO2,8,50,19
India,Maharashtra,Thane,"Pimpleshwar Mandir, Thane - MPCB",06-02-2024 18:00:00,19.192056,72.9585188,CO,2,103,40
India,Maharashtra,Thane,"Upvan Fort, Thane - MPCB",06-02-2024 18:00:00,19.222279,72.957979,PM2.5,60,176,93
India,Meghalaya,Shillong,"Lumpyngngad, Shillong - Meghalaya PCB",06-02-2024 18:00:00,25.5586,91.8985,NO2,5,6,6
India,Meghalaya,Shillong,"Lumpyngngad, Shillong - Meghalaya PCB",06-02-2024 18:00:00,25.5586,91.8985,SO2,43,44,43
India,Meghalaya,Shillong,"Lumpyngngad, Shillong - Meghalaya PCB",06-02-2024 18:00:00,25.5586,91.8985,OZONE,77,88,80
India,Mizoram,Aizawl,"Sikulpuikawn, Aizawl - Mizoram PCB",06-02-2024 18:00:00,23.7176342,92.7192841,PM2.5,51,94,70
India,Mizoram,Aizawl,"Sikulpuikawn, Aizawl - Mizoram PCB",06-02-2024 18:00:00,23.7176342,92.7192841,CO,12,16,15
India,Mizoram,Aizawl,"Sikulpuikawn, Aizawl - Mizoram PCB",06-02-2024 18:00:00,23.7176342,92.7192841,OZONE,24,43,36
India,Nagaland,Kohima,"PWD Juction, Kohima - NPCB",06-02-2024 18:00:00,25.6635413,94.0989878,SO2,97,103,100
India,Odisha,Angul,"Hakimapada, Angul - OSPCB",06-02-2024 18:00:00,20.832874,85.104082,PM2.5,92,428,249
India,Odisha,Angul,"Hakimapada, Angul - OSPCB",06-02-2024 18:00:00,20.832874,85.104082,NH3,1,6,3
India,Odisha,Baripada,"Meher Colony, Baripada - OSPCB",06-02-2024 18:00:00,21.941841,86.728318,NH3,4,4,4
India,Odisha,Baripada,"Meher Colony, Baripada - OSPCB",06-02-2024 18:00:00,21.941841,86.728318,CO,30,46,38
India,Odisha,Bhubaneswar,"Patia, Bhubaneswar - OSPCB",06-02-2024 18:00:00,20.34652,85.81630,NH3,3,5,4
India,Odisha,Bhubaneswar,"Patia, Bhubaneswar - OSPCB",06-02-2024 18:00:00,20.34652,85.81630,SO2,4,12,8
India,Odisha,Bileipada,"Tata Township, Bileipada - OSPCB",06-02-2024 18:00:00,22.06156703,85.47409613,PM2.5,20,239,163
India,Odisha,Bileipada,"Tata Township, Bileipada - OSPCB",06-02-2024 18:00:00,22.06156703,85.47409613,CO,17,32,21
India,Odisha,Byasanagar,"Ferro Chrome Colony, Byasanagar - OSPCB",06-02-2024 18:00:00,20.94185,86.11510,CO,42,120,82
India,Odisha,Cuttack,"CDA Area, Cuttack - OSPCB",06-02-2024 18:00:00,20.48891     ,85.84768     ,PM10,78,129,102
India,Odisha,Cuttack,"CDA Area, Cuttack - OSPCB",06-02-2024 18:00:00,20.48891     ,85.84768     ,CO,28,38,32
India,Odisha,Keonjhar,"Jagamohanpur, Keonjhar - OSPCB",06-02-2024 18:00:00,21.643900,85.599355,SO2,12,17,13
India,Odisha,Keonjhar,"Jagamohanpur, Keonjhar - OSPCB",06-02-2024 18:00:00,21.643900,85.599355,CO,12,50,30
India,Odisha,Keonjhar,"Jagamohanpur, Keonjhar - OSPCB",06-02-2024 18:00:00,21.643900,85.599355,OZONE,1,27,14
India,Odisha,Nayagarh,"Dabuna, Nayagarh - OSPCB",06-02-2024 18:00:00,21.847279,85.416905,PM10,NA,NA,NA
India,Odisha,Nayagarh,"Dabuna, Nayagarh - OSPCB",06-02-2024 18:00:00,21.847279,85.416905,CO,14,27,22
India,Odisha,Rairangpur,"Divisional Forest Office, Rairangpur - OSPCB",06-02-2024 18:00:00,22.265816,86.174829,NH3,5,5,5
India,Odisha,Rairangpur,"Divisional Forest Office, Rairangpur - OSPCB",06-02-2024 18:00:00,22.265816,86.174829,CO,20,39,27
India,Odisha,Rourkela,"Fertilizer Township, Rourkela - OSPCB",06-02-2024 18:00:00,22.18972222,84.86277778,SO2,11,13,13
India,Odisha,Rourkela,"Raghunathpali, Rourkela - OSPCB",06-02-2024 18:00:00,22.220833,84.809444,NO2,26,169,61
India,Odisha,Rourkela,"Raghunathpali, Rourkela - OSPCB",06-02-2024 18:00:00,22.220833,84.809444,OZONE,14,93,69
India,Odisha,Tensa,"Barsua Iron Ore Mines, Tensa - OSPCB",06-02-2024 18:00:00,21.869985,85.167016,PM10,78,100,88
India,Odisha,Tensa,"Barsua Iron Ore Mines, Tensa - OSPCB",06-02-2024 18:00:00,21.869985,85.167016,NH3,6,10,8
India,Puducherry,Puducherry,"Jawahar Nagar, Puducherry - PPCC",06-02-2024 18:00:00,11.9309,79.8027,CO,20,47,30
India,Puducherry,Puducherry,"Jawahar Nagar, Puducherry - PPCC",06-02-2024 18:00:00,11.9309,79.8027,OZONE,12,60,46
India,Punjab,Amritsar,"Golden Temple, Amritsar - PPCB",06-02-2024 18:00:00,31.620000,74.876512,NH3,NA,NA,NA
India,Punjab,Amritsar,"Golden Temple, Amritsar - PPCB",06-02-2024 18:00:00,31.620000,74.876512,SO2,NA,NA,NA
India,Punjab,Amritsar,"Golden Temple, Amritsar - PPCB",06-02-2024 18:00:00,31.620000,74.876512,CO,24,56,36
India,Punjab,Bathinda,"Hardev Nagar, Bathinda - PPCB",06-02-2024 18:00:00,30.233011,74.907758,NO2,30,33,32
India,Punjab,Jalandhar,"Civil Line, Jalandhar - PPCB",06-02-2024 18:00:00,31.321907,75.578914,CO,14,114,32
India,Punjab,Khanna,"Kalal Majra, Khanna - PPCB",06-02-2024 18:00:00,30.736056 ,76.209694,PM10,37,88,55
India,Punjab,Khanna,"Kalal Majra, Khanna - PPCB",06-02-2024 18:00:00,30.736056 ,76.209694,NH3,18,18,18
India,Punjab,Khanna,"Kalal Majra, Khanna - PPCB",06-02-2024 18:00:00,30.736056 ,76.209694,OZONE,14,58,44
India,Punjab,Mandi Gobindgarh,"RIMT University, Mandi Gobindgarh - PPCB",06-02-2024 18:00:00,30.649961,76.331442,NH3,2,2,2
India,Punjab,Patiala,"Model Town, Patiala - PPCB",06-02-2024 18:00:00,30.349388,76.366642,NH3,5,6,6
India,Punjab,Patiala,"Model Town, Patiala - PPCB",06-02-2024 18:00:00,30.349388,76.366642,SO2,1,56,8
India,Punjab,Rupnagar,"Ratanpura, Rupnagar - Ambuja Cements",06-02-2024 18:00:00,31.0325454,76.5623046,CO,22,46,35
India,Rajasthan,Ajmer,"Civil Lines,  Ajmer - RSPCB",06-02-2024 18:00:00,26.470859,74.646594,PM2.5,28,84,55
India,Rajasthan,Ajmer,"Civil Lines,  Ajmer - RSPCB",06-02-2024 18:00:00,26.470859,74.646594,CO,9,36,20
India,Rajasthan,Alwar,"Moti Doongri, Alwar - RSPCB",06-02-2024 18:00:00,27.554793,76.611536,PM2.5,18,88,52
India,Rajasthan,Baran,"Bamboliya, Baran - RSPCB",06-02-2024 18:00:00,25.106006,76.469948,PM2.5,27,232,103
India,Rajasthan,Barmer,"Railway Colony, Barmer - RSPCB",06-02-2024 18:00:00,25.747299,71.393989,CO,28,84,42
India,Rajasthan,Barmer,"Railway Colony, Barmer - RSPCB",06-02-2024 18:00:00,25.747299,71.393989,OZONE,29,106,87
India,Rajasthan,Bharatpur,"Krishna Nagar, Bharatpur - RSPCB",06-02-2024 18:00:00,27.215415,77.50873,NO2,61,81,69
India,Rajasthan,Bharatpur,"Krishna Nagar, Bharatpur - RSPCB",06-02-2024 18:00:00,27.215415,77.50873,CO,74,106,83
India,Rajasthan,Bharatpur,"Krishna Nagar, Bharatpur - RSPCB",06-02-2024 18:00:00,27.215415,77.50873,OZONE,17,104,73
India,Rajasthan,Bhilwara,"Pratap Nagar, Bhilwara - RSPCB",06-02-2024 18:00:00,25.339605,74.618883,PM2.5,48,156,88
India,Rajasthan,Bhilwara,"Pratap Nagar, Bhilwara - RSPCB",06-02-2024 18:00:00,25.339605,74.618883,CO,26,40,30
India,Rajasthan,Bhiwadi,"RIICO Ind. Area III, Bhiwadi - RSPCB",06-02-2024 18:00:00,28.194909,76.862296,NO2,14,56,25
India,Rajasthan,Bhiwadi,"RIICO Ind. Area III, Bhiwadi - RSPCB",06-02-2024 18:00:00,28.194909,76.862296,SO2,4,24,12
India,Rajasthan,Bhiwadi,"RIICO Ind. Area III, Bhiwadi - RSPCB",06-02-2024 18:00:00,28.194909,76.862296,CO,2,113,67
India,Rajasthan,Bikaner,"MM Ground, Bikaner - RSPCB",06-02-2024 18:00:00,28.018792,73.292658,CO,46,112,79
India,Rajasthan,Bundi,"New Colony, Bundi - RSPCB",06-02-2024 18:00:00,25.435774,75.644272,NO2,16,73,25
India,Rajasthan,Bundi,"New Colony, Bundi - RSPCB",06-02-2024 18:00:00,25.435774,75.644272,NH3,3,6,4
India,Rajasthan,Bundi,"New Colony, Bundi - RSPCB",06-02-2024 18:00:00,25.435774,75.644272,SO2,2,5,4
India,Rajasthan,Chittorgarh,"Shastri Nagar, Chittorgarh - RSPCB",06-02-2024 18:00:00,24.892047,74.623527,PM10,64,206,104
India,Rajasthan,Chittorgarh,"Shastri Nagar, Chittorgarh - RSPCB",06-02-2024 18:00:00,24.892047,74.623527,CO,21,54,30
India,Rajasthan,Churu,"Subash Chowk, Churu - RSPCB",06-02-2024 18:00:00,28.296139,74.961696,PM2.5,23,113,41
India,Rajasthan,Churu,"Subash Chowk, Churu - RSPCB",06-02-2024 18:00:00,28.296139,74.961696,SO2,12,18,14
India,Rajasthan,Churu,"Subash Chowk, Churu - RSPCB",06-02-2024 18:00:00,28.296139,74.961696,OZONE,17,108,88
India,Rajasthan,Hanumangarh,"Housing Board, Hanumangarh - RSPCB",06-02-2024 18:00:00,29.610750,74.283608,PM10,97,407,163
India,Rajasthan,Hanumangarh,"Housing Board, Hanumangarh - RSPCB",06-02-2024 18:00:00,29.610750,74.283608,OZONE,1,21,16
India,Rajasthan,Jaipur,"Adarsh Nagar, Jaipur - RSPCB",06-02-2024 18:00:00,26.902909,75.836858,OZONE,25,73,62
India,Rajasthan,Jaipur,"Mansarovar Sector-12, Jaipur - RSPCB",06-02-2024 18:00:00,26.843698,75.766894,PM10,57,175,106
India,Rajasthan,Jaipur,"Mansarovar Sector-12, Jaipur - RSPCB",06-02-2024 18:00:00,26.843698,75.766894,OZONE,7,36,26
India,Rajasthan,Jaipur,"Police Commissionerate, Jaipur - RSPCB",06-02-2024 18:00:00,26.9164092,75.7994901,NO2,22,76,41
India,Rajasthan,Jaipur,"RIICO Sitapura, Jaipur - RSPCB",06-02-2024 18:00:00,26.786682,75.827928,PM10,60,166,108
India,Rajasthan,Jaipur,"Sector-2 Murlipura, Jaipur - RSPCB",06-02-2024 18:00:00,26.960669,75.771817,PM2.5,73,302,145
India,Rajasthan,Jaipur,"Sector-2 Murlipura, Jaipur - RSPCB",06-02-2024 18:00:00,26.960669,75.771817,NH3,6,6,6
India,Rajasthan,Jaipur,"Sector-2 Murlipura, Jaipur - RSPCB",06-02-2024 18:00:00,26.960669,75.771817,CO,2,30,24
India,Rajasthan,Jaipur,"Shastri Nagar, Jaipur - RSPCB",06-02-2024 18:00:00,26.9502929,75.730943,NH3,5,15,9
India,Rajasthan,Jaipur,"Shastri Nagar, Jaipur - RSPCB",06-02-2024 18:00:00,26.9502929,75.730943,OZONE,57,126,101
India,Rajasthan,Jalore,"Mudtra Sili, Jalore - RSPCB",06-02-2024 18:00:00,25.344694,72.626208,NH3,5,9,6
India,Rajasthan,Jalore,"Mudtra Sili, Jalore - RSPCB",06-02-2024 18:00:00,25.344694,72.626208,OZONE,29,96,78
India,Rajasthan,Jhunjhunu,"Indra Nagar, Jhunjhunu - RSPCB",06-02-2024 18:00:00,28.108988,75.386577,PM10,34,173,96
India,Rajasthan,Jhunjhunu,"Indra Nagar, Jhunjhunu - RSPCB",06-02-2024 18:00:00,28.108988,75.386577,CO,22,61,29
India,Rajasthan,Jhunjhunu,"Indra Nagar, Jhunjhunu - RSPCB",06-02-2024 18:00:00,28.108988,75.386577,OZONE,5,109,81
India,Rajasthan,Jodhpur,"Collectorate, Jodhpur - RSPCB",06-02-2024 18:00:00,26.268249,73.0193853,SO2,1,67,21
India,Rajasthan,Jodhpur,"Collectorate, Jodhpur - RSPCB",06-02-2024 18:00:00,26.268249,73.0193853,CO,24,92,61
India,Rajasthan,Jodhpur,"Digari Kalan, Jodhpur - RSPCB",06-02-2024 18:00:00,26.295810,73.082283,PM2.5,37,89,65
India,Rajasthan,Jodhpur,"Mandor, Jodhpur - RSPCB",06-02-2024 18:00:00,26.358805,73.047444,PM2.5,28,69,46
India,Rajasthan,Jodhpur,"Mandor, Jodhpur - RSPCB",06-02-2024 18:00:00,26.358805,73.047444,NH3,3,4,3
India,Rajasthan,Jodhpur,"Samrat Ashok Udhyan, Jodhpur - RSPCB",06-02-2024 18:00:00,26.253384,72.976571,NO2,17,70,35
India,Rajasthan,Kota,"Dhanmandi, Kota - RSPCB",06-02-2024 18:00:00,25.164090,75.858137,SO2,2,8,4
India,Rajasthan,Kota,"Nayapura, Kota - RSPCB",06-02-2024 18:00:00,25.196024,75.855668,PM2.5,71,162,103
India,Rajasthan,Kota,"Nayapura, Kota - RSPCB",06-02-2024 18:00:00,25.196024,75.855668,NO2,20,68,34
India,Rajasthan,Kota,"Shrinath Puram, Kota - RSPCB",06-02-2024 18:00:00,25.14389,75.821256,PM2.5,56,100,72
India,Rajasthan,Kota,"Shrinath Puram, Kota - RSPCB",06-02-2024 18:00:00,25.14389,75.821256,CO,1,36,23
India,Rajasthan,Nagaur,"Karni Colony, Nagaur - RSPCB",06-02-2024 18:00:00,27.213494,73.734444,CO,16,54,21
India,Rajasthan,Pali,"Indira Colony Vistar, Pali - RSPCB",06-02-2024 18:00:00,25.771061, 73.340227,SO2,17,20,18
India,Rajasthan,Pratapgarh,"Pragati Nagar, Pratapgarh - RSPCB",06-02-2024 18:00:00,24.041198,74.780702,NH3,6,12,8
India,Rajasthan,Rajsamand,"Dhoinda, Rajsamand - RSPCB",06-02-2024 18:00:00,25.036360,73.883502,PM10,45,93,77
India,Rajasthan,Rajsamand,"Dhoinda, Rajsamand - RSPCB",06-02-2024 18:00:00,25.036360,73.883502,NO2,9,30,15
India,Rajasthan,Sawai Madhopur,"Sahu Nagar, Sawai Madhopur - RSPCB",06-02-2024 18:00:00,26.031443,76.359327,NO2,5,27,10
India,Rajasthan,Sawai Madhopur,"Sahu Nagar, Sawai Madhopur - RSPCB",06-02-2024 18:00:00,26.031443,76.359327,NH3,2,27,14
India,Rajasthan,Sikar,"Radhakishan Pura, Sikar - RSPCB",06-02-2024 18:00:00,27.608912,75.153302,PM10,57,180,106
India,Rajasthan,Sikar,"Radhakishan Pura, Sikar - RSPCB",06-02-2024 18:00:00,27.608912,75.153302,NH3,3,9,6
India,Rajasthan,Sirohi,"Vedhaynath Colony, Sirohi - RSPCB",06-02-2024 18:00:00,24.885261,72.857549,PM10,38,115,64
India,Rajasthan,Sirohi,"Vedhaynath Colony, Sirohi - RSPCB",06-02-2024 18:00:00,24.885261,72.857549,OZONE,2,90,78
India,Rajasthan,Tonk,"Shastri Nagar, Tonk - RSPCB",06-02-2024 18:00:00,26.159933,75.780517,PM2.5,62,331,134
India,Rajasthan,Tonk,"Shastri Nagar, Tonk - RSPCB",06-02-2024 18:00:00,26.159933,75.780517,PM10,76,269,124
India,Rajasthan,Tonk,"Shastri Nagar, Tonk - RSPCB",06-02-2024 18:00:00,26.159933,75.780517,NO2,17,96,32
India,Rajasthan,Tonk,"Shastri Nagar, Tonk - RSPCB",06-02-2024 18:00:00,26.159933,75.780517,NH3,4,28,9
India,Rajasthan,Udaipur,"Ashok Nagar, Udaipur - RSPCB",06-02-2024 18:00:00,24.5886166,73.6321397,NO2,NA,NA,NA
India,Rajasthan,Udaipur,"Ashok Nagar, Udaipur - RSPCB",06-02-2024 18:00:00,24.5886166,73.6321397,NH3,NA,NA,NA
India,Rajasthan,Udaipur,"Ashok Nagar, Udaipur - RSPCB",06-02-2024 18:00:00,24.5886166,73.6321397,CO,24,78,62
India,Sikkim,Gangtok,"Zero Point GICI, Gangtok - SSPCB",06-02-2024 18:00:00,27.338530,88.614099,PM10,27,58,45
India,Sikkim,Gangtok,"Zero Point GICI, Gangtok - SSPCB",06-02-2024 18:00:00,27.338530,88.614099,SO2,9,9,9
India,TamilNadu,Chengalpattu,"Crescent University, Chengalpattu - TNPCB",06-02-2024 18:00:00,12.8777316,80.0834807,OZONE,6,6,6
India,TamilNadu,Chennai,"Alandur Bus Depot, Chennai - CPCB",06-02-2024 18:00:00,12.9099161,80.1076538,OZONE,2,9,6
India,TamilNadu,Chennai,"Arumbakkam, Chennai - TNPCB",06-02-2024 18:00:00,13.0664,80.2112 ,NO2,10,38,19
India,TamilNadu,Chennai,"Gandhi Nagar_Ennore, Chennai - TNPCB",06-02-2024 18:00:00,13.218341,80.32027,PM2.5,35,122,70
India,TamilNadu,Chennai,"Manali, Chennai - CPCB",06-02-2024 18:00:00,13.164544,80.26285,SO2,6,26,10
India,TamilNadu,Chennai,"Perungudi, Chennai - TNPCB",06-02-2024 18:00:00,12.9533,80.2357,PM10,68,206,100
India,TamilNadu,Chennai,"Perungudi, Chennai - TNPCB",06-02-2024 18:00:00,12.9533,80.2357,OZONE,4,31,12
India,TamilNadu,Chennai,"Royapuram, Chennai - TNPCB",06-02-2024 18:00:00,13.1036,80.2909,NO2,9,40,20
India,TamilNadu,Chennai,"Velachery Res. Area, Chennai - CPCB",06-02-2024 18:00:00,13.0052189,80.2398125,NH3,4,7,6
India,TamilNadu,Chennai,"Velachery Res. Area, Chennai - CPCB",06-02-2024 18:00:00,13.0052189,80.2398125,CO,5,113,81
India,TamilNadu,Cuddalore,"Kudikadu, Cuddalore - TNPCB",06-02-2024 18:00:00,11.6829898,79.7532099,NO2,24,33,28
India,TamilNadu,Cuddalore,"Kudikadu, Cuddalore - TNPCB",06-02-2024 18:00:00,11.6829898,79.7532099,NH3,5,7,5
India,TamilNadu,Cuddalore,"Semmandalam, Cuddalore - TNPCB",06-02-2024 18:00:00,11.7637683,79.7499835,PM10,22,87,50
India,TamilNadu,Kanchipuram,"Kilambi, Kanchipuram - TNPCB",06-02-2024 18:00:00,12.864618,79.659968,CO,1,4,2
India,TamilNadu,Ooty,"Bombay Castel, Ooty - TNPCB",06-02-2024 18:00:00,11.4068288,76.7138973,PM10,NA,NA,NA
India,TamilNadu,Ooty,"Bombay Castel, Ooty - TNPCB",06-02-2024 18:00:00,11.4068288,76.7138973,NO2,NA,NA,NA
India,TamilNadu,Palkalaiperur,"Bharathidasan University, Palkalaiperur - TNPCB",06-02-2024 18:00:00,10.681158,78.741746,SO2,26,28,27
India,TamilNadu,Ramanathapuram,"Chalai Bazaar, Ramanathapuram - TNPCB",06-02-2024 18:00:00,9.36399,78.831977,PM2.5,18,68,42
India,TamilNadu,Ramanathapuram,"Chalai Bazaar, Ramanathapuram - TNPCB",06-02-2024 18:00:00,9.36399,78.831977,OZONE,13,14,14
India,TamilNadu,Thoothukudi,"Meelavittan, Thoothukudi - TNPCB",06-02-2024 18:00:00,8.816428 ,78.099039,OZONE,3,9,7
India,TamilNadu,Tirupur,"Kumaran College, Tirupur - TNPCB",06-02-2024 18:00:00,11.0973603,77.3228673,OZONE,7,7,7
India,TamilNadu,Vellore,"Vasanthapuram, Vellore - TNPCB",06-02-2024 18:00:00,12.909494,79.131861,NH3,1,1,1
India,TamilNadu,Virudhunagar,"Collectorate Office, Virudhunagar - TNPCB",06-02-2024 18:00:00,9.559382,77.948828,OZONE,3,4,3
India,Telangana,Hyderabad,"Bollaram Industrial Area, Hyderabad - TSPCB",06-02-2024 18:00:00,17.540891,78.358528,NO2,15,45,31
India,Telangana,Hyderabad,"Central University, Hyderabad - TSPCB",06-02-2024 18:00:00,17.460103,78.334361,PM10,56,118,74
India,Telangana,Hyderabad,"Central University, Hyderabad - TSPCB",06-02-2024 18:00:00,17.460103,78.334361,NH3,2,5,4
India,Telangana,Hyderabad,"ECIL Kapra, Hyderabad - TSPCB",06-02-2024 18:00:00,17.470431,78.566959,NO2,8,12,9
India,Telangana,Hyderabad,"ECIL Kapra, Hyderabad - TSPCB",06-02-2024 18:00:00,17.470431,78.566959,NH3,6,7,6
India,Telangana,Hyderabad,"ECIL Kapra, Hyderabad - TSPCB",06-02-2024 18:00:00,17.470431,78.566959,SO2,6,16,11
India,Telangana,Hyderabad,"ICRISAT Patancheru, Hyderabad - TSPCB",06-02-2024 18:00:00,17.518400,78.278777,OZONE,17,107,86
India,Telangana,Hyderabad,"IITH Kandi, Hyderabad - TSPCB",06-02-2024 18:00:00,17.585705,78.126199,PM10,39,45,40
India,Telangana,Hyderabad,"Kokapet, Hyderabad - TSPCB",06-02-2024 18:00:00,17.393559,78.339194,NO2,8,8,8
India,Telangana,Hyderabad,"Kokapet, Hyderabad - TSPCB",06-02-2024 18:00:00,17.393559,78.339194,OZONE,2,5,3
India,Telangana,Hyderabad,"Kompally Municipal Office, Hyderabad - TSPCB",06-02-2024 18:00:00,17.544899,78.486949,PM2.5,27,92,49
India,Telangana,Hyderabad,"Kompally Municipal Office, Hyderabad - TSPCB",06-02-2024 18:00:00,17.544899,78.486949,NO2,6,8,7
India,Telangana,Hyderabad,"Kompally Municipal Office, Hyderabad - TSPCB",06-02-2024 18:00:00,17.544899,78.486949,NH3,6,7,6
India,Telangana,Hyderabad,"Nacharam_TSIIC IALA, Hyderabad - TSPCB",06-02-2024 18:00:00,17.429398,78.569354,PM2.5,51,70,57
India,Telangana,Hyderabad,"Nacharam_TSIIC IALA, Hyderabad - TSPCB",06-02-2024 18:00:00,17.429398,78.569354,PM10,58,110,74
India,Telangana,Hyderabad,"Nacharam_TSIIC IALA, Hyderabad - TSPCB",06-02-2024 18:00:00,17.429398,78.569354,CO,14,17,15
India,Telangana,Hyderabad,"New Malakpet, Hyderabad - TSPCB",06-02-2024 18:00:00,17.37206,78.50864,PM2.5,23,80,38
India,Telangana,Hyderabad,"New Malakpet, Hyderabad - TSPCB",06-02-2024 18:00:00,17.37206,78.50864,CO,10,42,28
India,Telangana,Hyderabad,"Ramachandrapuram, Hyderabad - TSPCB",06-02-2024 18:00:00,17.528544,78.286195,SO2,NA,NA,NA
India,Telangana,Hyderabad,"Sanathnagar, Hyderabad - TSPCB",06-02-2024 18:00:00,17.4559458,78.4332152,NO2,18,179,53
India,Telangana,Hyderabad,"Sanathnagar, Hyderabad - TSPCB",06-02-2024 18:00:00,17.4559458,78.4332152,SO2,1,30,10
India,Telangana,Hyderabad,"Zoo Park, Hyderabad - TSPCB",06-02-2024 18:00:00,17.349694,78.451437,NO2,24,41,33
India,Telangana,Hyderabad,"Zoo Park, Hyderabad - TSPCB",06-02-2024 18:00:00,17.349694,78.451437,SO2,1,9,3
India,Telangana,Hyderabad,"Zoo Park, Hyderabad - TSPCB",06-02-2024 18:00:00,17.349694,78.451437,OZONE,17,35,28
India,Tripura,Agartala,"Bardowali, Agartala - Tripura SPCB",06-02-2024 18:00:00,23.8175497,91.2726974,NH3,2,3,3
India,Uttar_Pradesh,Agra,"Manoharpur, Agra - UPPCB",06-02-2024 18:00:00,27.23711,78.01936,NO2,19,20,20
India,Uttar_Pradesh,Agra,"Rohta, Agra - UPPCB",06-02-2024 18:00:00,27.106972,78.000111,OZONE,15,17,16
India,Uttar_Pradesh,Agra,"Sector-3B Avas Vikas Colony, Agra - UPPCB",06-02-2024 18:00:00,27.19412,77.96237,NO2,12,25,18
India,Uttar_Pradesh,Agra,"Sector-3B Avas Vikas Colony, Agra - UPPCB",06-02-2024 18:00:00,27.19412,77.96237,SO2,12,15,13
India,Uttar_Pradesh,Agra,"Shahjahan Garden, Agra - UPPCB",06-02-2024 18:00:00,27.169338,78.03582,NO2,31,33,32
India,Uttar_Pradesh,Agra,"Shahjahan Garden, Agra - UPPCB",06-02-2024 18:00:00,27.169338,78.03582,SO2,33,37,35
India,Uttar_Pradesh,Baghpat,"Sardar Patel Inter College, Baghpat - UPPCB",06-02-2024 18:00:00,28.964949,77.278761,PM10,29,94,58
India,Uttar_Pradesh,Bareilly,"Civil Lines, Bareilly - UPPCB",06-02-2024 18:00:00,28.359581,79.414455,PM2.5,13,47,34
India,Uttar_Pradesh,Bareilly,"Civil Lines, Bareilly - UPPCB",06-02-2024 18:00:00,28.359581,79.414455,CO,32,100,70
India,Uttar_Pradesh,Bareilly,"Rajendra Nagar, Bareilly - UPPCB",06-02-2024 18:00:00,28.38910936,79.42963708,SO2,41,57,42
India,Uttar_Pradesh,Bulandshahr,"Yamunapuram, Bulandshahr - UPPCB",06-02-2024 18:00:00,28.406963,77.849831,NO2,12,52,24
India,Uttar_Pradesh,Firozabad,"Nagla Bhau, Firozabad - UPPCB",06-02-2024 18:00:00,27.168897,78.376960,CO,2,10,4
India,Uttar_Pradesh,Firozabad,"Vibhab Nagar, Firozabad - UPPCB",06-02-2024 18:00:00,27.1594,78.3953,PM10,25,82,45
India,Uttar_Pradesh,Firozabad,"Vibhab Nagar, Firozabad - UPPCB",06-02-2024 18:00:00,27.1594,78.3953,NH3,2,2,2
India,Uttar_Pradesh,Firozabad,"Vibhab Nagar, Firozabad - UPPCB",06-02-2024 18:00:00,27.1594,78.3953,SO2,13,18,13
India,Uttar_Pradesh,Ghaziabad,"Indirapuram, Ghaziabad - UPPCB",06-02-2024 18:00:00,28.646233,77.358075,CO,1,20,9
India,Uttar_Pradesh,Ghaziabad,"Indirapuram, Ghaziabad - UPPCB",06-02-2024 18:00:00,28.646233,77.358075,OZONE,7,40,32
India,Uttar_Pradesh,Ghaziabad,"Sanjay Nagar, Ghaziabad - UPPCB",06-02-2024 18:00:00,28.685382,77.453839,PM2.5,37,297,119
India,Uttar_Pradesh,Ghaziabad,"Vasundhara, Ghaziabad - UPPCB",06-02-2024 18:00:00,28.6603346,77.3572563,PM2.5,33,151,94
India,Uttar_Pradesh,Gorakhpur,"Madan Mohan Malaviya University of Technology, Gorakhpur - UPPCB",06-02-2024 18:00:00,26.730136,83.433859,PM2.5,NA,NA,NA
India,Uttar_Pradesh,Hapur,"Anand Vihar, Hapur - UPPCB",06-02-2024 18:00:00,28.725645,77.749675,PM2.5,42,272,153
India,Uttar_Pradesh,Hapur,"Anand Vihar, Hapur - UPPCB",06-02-2024 18:00:00,28.725645,77.749675,NO2,20,44,27
India,Uttar_Pradesh,Hapur,"Anand Vihar, Hapur - UPPCB",06-02-2024 18:00:00,28.725645,77.749675,CO,26,45,33
India,Uttar_Pradesh,Jhansi,"Shivaji Nagar, Jhansi - UPPCB",06-02-2024 18:00:00,25.4547,78.6039,PM2.5,34,65,49
India,Uttar_Pradesh,Jhansi,"Shivaji Nagar, Jhansi - UPPCB",06-02-2024 18:00:00,25.4547,78.6039,NO2,13,68,18
India,Uttar_Pradesh,Jhansi,"Shivaji Nagar, Jhansi - UPPCB",06-02-2024 18:00:00,25.4547,78.6039,SO2,11,14,12
India,Uttar_Pradesh,Jhansi,"Shivaji Nagar, Jhansi - UPPCB",06-02-2024 18:00:00,25.4547,78.6039,CO,17,101,30
India,Uttar_Pradesh,Kanpur,"FTI Kidwai Nagar, Kanpur - UPPCB",06-02-2024 18:00:00,26.428282,80.327067,PM10,38,127,75
India,Uttar_Pradesh,Kanpur,"NSI Kalyanpur, Kanpur - UPPCB",06-02-2024 18:00:00,26.509954,80.249612,SO2,23,24,23
India,Uttar_Pradesh,Kanpur,"Nehru Nagar, Kanpur - UPPCB",06-02-2024 18:00:00,26.4703136,80.3229863,NO2,12,100,40
India,Uttar_Pradesh,Lucknow,"Kendriya Vidyalaya, Lucknow - CPCB",06-02-2024 18:00:00,26.906111,80.948222,SO2,6,12,8
India,Uttar_Pradesh,Lucknow,"Lalbagh, Lucknow - CPCB",06-02-2024 18:00:00,26.8458805,80.9365541,PM10,68,124,98
India,Uttar_Pradesh,Lucknow,"Lalbagh, Lucknow - CPCB",06-02-2024 18:00:00,26.8458805,80.9365541,SO2,1,43,11
India,Uttar_Pradesh,Lucknow,"Talkatora District Industries Center, Lucknow - CPCB",06-02-2024 18:00:00,26.83399722,80.8917361,PM2.5,28,85,56
India,Uttar_Pradesh,Lucknow,"Talkatora District Industries Center, Lucknow - CPCB",06-02-2024 18:00:00,26.83399722,80.8917361,PM10,43,109,79
India,Uttar_Pradesh,Lucknow,"Talkatora District Industries Center, Lucknow - CPCB",06-02-2024 18:00:00,26.83399722,80.8917361,OZONE,2,66,46
India,Uttar_Pradesh,Meerut,"Ganga Nagar, Meerut - UPPCB",06-02-2024 18:00:00,28.999264,77.7590354,PM2.5,17,156,56
India,Uttar_Pradesh,Meerut,"Ganga Nagar, Meerut - UPPCB",06-02-2024 18:00:00,28.999264,77.7590354,SO2,7,31,16
India,Uttar_Pradesh,Meerut,"Jai Bhim Nagar, Meerut - UPPCB",06-02-2024 18:00:00,28.9535882,77.7622941,SO2,10,19,14
India,Uttar_Pradesh,Meerut,"Pallavpuram Phase 2, Meerut - UPPCB",06-02-2024 18:00:00,29.063510,77.709723,SO2,7,16,11
India,Uttar_Pradesh,Moradabad,"Buddhi Vihar, Moradabad - UPPCB",06-02-2024 18:00:00,28.83526,78.74460,NO2,19,24,23
India,Uttar_Pradesh,Moradabad,"Buddhi Vihar, Moradabad - UPPCB",06-02-2024 18:00:00,28.83526,78.74460,NH3,1,2,2
India,Uttar_Pradesh,Moradabad,"Buddhi Vihar, Moradabad - UPPCB",06-02-2024 18:00:00,28.83526,78.74460,OZONE,13,28,22
India,Uttar_Pradesh,Moradabad,"Eco Herbal Park, Moradabad - UPPCB",06-02-2024 18:00:00,28.840739,78.697531,PM10,40,88,60
India,Uttar_Pradesh,Moradabad,"Eco Herbal Park, Moradabad - UPPCB",06-02-2024 18:00:00,28.840739,78.697531,NH3,4,38,10
India,Uttar_Pradesh,Moradabad,"Eco Herbal Park, Moradabad - UPPCB",06-02-2024 18:00:00,28.840739,78.697531,SO2,3,19,9
India,Uttar_Pradesh,Moradabad,"Eco Herbal Park, Moradabad - UPPCB",06-02-2024 18:00:00,28.840739,78.697531,OZONE,9,28,13
India,Uttar_Pradesh,Moradabad,"Employment Office, Moradabad - UPPCB",06-02-2024 18:00:00,28.88528,78.73880,SO2,24,25,25
India,Uttar_Pradesh,Moradabad,"Jigar Colony, Moradabad - UPPCB",06-02-2024 18:00:00,28.856664,78.772638,PM2.5,34,81,54
India,Uttar_Pradesh,Moradabad,"Kashiram Nagar, Moradabad - UPPCB",06-02-2024 18:00:00,28.849399,78.742362,PM2.5,14,88,46
India,Uttar_Pradesh,Moradabad,"Kashiram Nagar, Moradabad - UPPCB",06-02-2024 18:00:00,28.849399,78.742362,CO,6,44,25
India,Uttar_Pradesh,Moradabad,"Transport Nagar, Moradabad - UPPCB",06-02-2024 18:00:00,28.802625,78.753728,PM10,37,115,63
India,Uttar_Pradesh,Moradabad,"Transport Nagar, Moradabad - UPPCB",06-02-2024 18:00:00,28.802625,78.753728,NH3,6,6,6
India,Uttar_Pradesh,Noida,"Sector - 62, Noida - IMD",06-02-2024 18:00:00,28.6245479,77.3577104,OZONE,33,63,55
India,Uttar_Pradesh,Prayagraj,"Jhunsi, Prayagraj - UPPCB",06-02-2024 18:00:00,25.425602,81.917152,NH3,5,5,5
India,Uttar_Pradesh,Prayagraj,"Motilal Nehru NIT, Prayagraj - UPPCB",06-02-2024 18:00:00,25.494,81.863,PM2.5,25,49,40
India,Uttar_Pradesh,Prayagraj,"Motilal Nehru NIT, Prayagraj - UPPCB",06-02-2024 18:00:00,25.494,81.863,NH3,3,7,6
India,Uttar_Pradesh,Prayagraj,"Motilal Nehru NIT, Prayagraj - UPPCB",06-02-2024 18:00:00,25.494,81.863,CO,6,22,15
India,Uttar_Pradesh,Prayagraj,"Nagar Nigam, Prayagraj - UPPCB",06-02-2024 18:00:00,25.44919916 ,81.82735986 ,OZONE,10,11,10
India,Uttar_Pradesh,Varanasi,"Ardhali Bazar, Varanasi - UPPCB",06-02-2024 18:00:00,25.3505986,82.9083074,PM10,13,30,18
India,Uttar_Pradesh,Varanasi,"Bhelupur, Varanasi - UPPCB",06-02-2024 18:00:00,25.301778,82.996789,SO2,21,22,22
India,Uttar_Pradesh,Varanasi,"IESD Banaras Hindu University, Varanasi - UPPCB",06-02-2024 18:00:00,25.262326,82.995408,PM2.5,8,31,17
India,Uttar_Pradesh,Varanasi,"IESD Banaras Hindu University, Varanasi - UPPCB",06-02-2024 18:00:00,25.262326,82.995408,NO2,2,3,2
India,Uttar_Pradesh,Vrindavan,"Omex Eternity, Vrindavan - UPPCB",06-02-2024 18:00:00,27.5714090,77.6557570,NO2,2,3,3
India,Uttar_Pradesh,Vrindavan,"Omex Eternity, Vrindavan - UPPCB",06-02-2024 18:00:00,27.5714090,77.6557570,NH3,2,5,3
India,Uttarakhand,Dehradun,"Doon University, Dehradun - UKPCB",06-02-2024 18:00:00,30.269444,78.044167,PM10,31,107,53
India,Uttarakhand,Dehradun,"Doon University, Dehradun - UKPCB",06-02-2024 18:00:00,30.269444,78.044167,SO2,1,1,1
India,Uttarakhand,Kashipur,"Govt. Girls Inter College, Kashipur - UKPCB",06-02-2024 18:00:00,29.2124114,78.9611753,PM10,44,123,70
India,Uttarakhand,Kashipur,"Govt. Girls Inter College, Kashipur - UKPCB",06-02-2024 18:00:00,29.2124114,78.9611753,NH3,3,6,4
India,Uttarakhand,Kashipur,"Govt. Girls Inter College, Kashipur - UKPCB",06-02-2024 18:00:00,29.2124114,78.9611753,SO2,7,9,8
India,Uttarakhand,Rishikesh,"Shivaji Nagar, Rishikesh - UKPCB",06-02-2024 18:00:00,30.075911,78.2859547,SO2,4,5,5
India,West_Bengal,Asansol,"Asansol Court Area, Asansol - WBPCB",06-02-2024 18:00:00,23.685297,86.945968,PM2.5,55,235,165
India,West_Bengal,Asansol,"Asansol Court Area, Asansol - WBPCB",06-02-2024 18:00:00,23.685297,86.945968,OZONE,6,24,19
India,West_Bengal,Barrackpore,"SVSPA Campus, Barrackpore - WBPCB",06-02-2024 18:00:00,22.7605581,88.3617589,NO2,15,66,34
India,West_Bengal,Howrah,"Belur Math, Howrah - WBPCB",06-02-2024 18:00:00,22.629801,88.352017,SO2,6,11,10
India,West_Bengal,Howrah,"Belur Math, Howrah - WBPCB",06-02-2024 18:00:00,22.629801,88.352017,OZONE,10,37,25
India,West_Bengal,Howrah,"Ghusuri, Howrah - WBPCB",06-02-2024 18:00:00,22.611968,88.347422,CO,2,53,6
India,West_Bengal,Howrah,"Padmapukur, Howrah - WBPCB",06-02-2024 18:00:00,22.5687319,88.2797276,NO2,24,76,37
India,West_Bengal,Kolkata,"Ballygunge, Kolkata - WBPCB",06-02-2024 18:00:00,22.5367507,88.3638022,NH3,1,14,9
India,West_Bengal,Kolkata,"Bidhannagar, Kolkata - WBPCB",06-02-2024 18:00:00,22.58157048,88.41002457,PM10,104,151,124
India,West_Bengal,Kolkata,"Fort William, Kolkata - WBPCB",06-02-2024 18:00:00,22.556640,88.342674,PM10,99,162,121
India,West_Bengal,Kolkata,"Fort William, Kolkata - WBPCB",06-02-2024 18:00:00,22.556640,88.342674,NO2,13,171,60
India,West_Bengal,Kolkata,"Fort William, Kolkata - WBPCB",06-02-2024 18:00:00,22.556640,88.342674,NH3,6,8,7
India,West_Bengal,Kolkata,"Fort William, Kolkata - WBPCB",06-02-2024 18:00:00,22.556640,88.342674,OZONE,12,86,66
India,West_Bengal,Kolkata,"Jadavpur, Kolkata - WBPCB",06-02-2024 18:00:00,22.49929,88.36917,NO2,3,17,5
India,West_Bengal,Kolkata,"Jadavpur, Kolkata - WBPCB",06-02-2024 18:00:00,22.49929,88.36917,CO,7,57,14
India,West_Bengal,Kolkata,"Rabindra Sarobar, Kolkata - WBPCB",06-02-2024 18:00:00,22.51106,88.35142,SO2,7,27,14
India,West_Bengal,Siliguri,"Ward-32 Bapupara, Siliguri - WBPCB",06-02-2024 18:00:00,26.6879226,88.4152495,NO2,29,107,58
India,Andhra_Pradesh,Amaravati,"Secretariat, Amaravati - APPCB",06-02-2024 18:00:00,16.5150833,80.5181667,PM10,41,85,60
India,Andhra_Pradesh,Amaravati,"Secretariat, Amaravati - APPCB",06-02-2024 18:00:00,16.5150833,80.5181667,NO2,10,43,17
India,Andhra_Pradesh,Anantapur,"Gulzarpet, Anantapur - APPCB",06-02-2024 18:00:00,14.675886,77.593027,PM2.5,35,82,55
India,Andhra_Pradesh,Chittoor,"Gangineni Cheruvu, Chittoor - APPCB",06-02-2024 18:00:00,13.204880,79.097889,NH3,1,2,1
India,Andhra_Pradesh,Kadapa,"Yerramukkapalli, Kadapa - APPCB",06-02-2024 18:00:00,14.465052,78.824187,PM2.5,28,54,43
India,Andhra_Pradesh,Kadapa,"Yerramukkapalli, Kadapa - APPCB",06-02-2024 18:00:00,14.465052,78.824187,NO2,8,8,8
India,Andhra_Pradesh,Kadapa,"Yerramukkapalli, Kadapa - APPCB",06-02-2024 18:00:00,14.465052,78.824187,SO2,1,2,2
India,Andhra_Pradesh,Rajamahendravaram,"Anand Kala Kshetram, Rajamahendravaram - APPCB",06-02-2024 18:00:00,16.9872867,81.7363176,PM2.5,53,81,69
India,Andhra_Pradesh,Rajamahendravaram,"Anand Kala Kshetram, Rajamahendravaram - APPCB",06-02-2024 18:00:00,16.9872867,81.7363176,NH3,4,8,6
India,Andhra_Pradesh,Rajamahendravaram,"Anand Kala Kshetram, Rajamahendravaram - APPCB",06-02-2024 18:00:00,16.9872867,81.7363176,OZONE,5,6,5
India,Andhra_Pradesh,Tirupati,"Tirumala, Tirupati - APPCB",06-02-2024 18:00:00,13.67,79.35,NO2,27,62,45
India,Andhra_Pradesh,Tirupati,"Vaikuntapuram, Tirupati - APPCB",06-02-2024 18:00:00,13.615387,79.409230,NO2,16,27,20
India,Andhra_Pradesh,Tirupati,"Vaikuntapuram, Tirupati - APPCB",06-02-2024 18:00:00,13.615387,79.409230,NH3,2,4,3
India,Andhra_Pradesh,Tirupati,"Vaikuntapuram, Tirupati - APPCB",06-02-2024 18:00:00,13.615387,79.409230,CO,10,16,13
India,Andhra_Pradesh,Vijayawada,"HB Colony, Vijayawada - APPCB",06-02-2024 18:00:00,16.536107,80.594233,PM2.5,34,43,39
India,Andhra_Pradesh,Vijayawada,"HB Colony, Vijayawada - APPCB",06-02-2024 18:00:00,16.536107,80.594233,SO2,3,6,4
India,Andhra_Pradesh,Vijayawada,"Kanuru, Vijayawada - APPCB",06-02-2024 18:00:00,16.486692,80.699436,OZONE,25,25,25
India,Andhra_Pradesh,Vijayawada,"Rajiv Gandhi Park, Vijayawada - APPCB",06-02-2024 18:00:00,16.509717,80.612222,PM2.5,51,84,70
India,Andhra_Pradesh,Vijayawada,"Rajiv Gandhi Park, Vijayawada - APPCB",06-02-2024 18:00:00,16.509717,80.612222,PM10,49,77,65
India,Andhra_Pradesh,Vijayawada,"Rajiv Gandhi Park, Vijayawada - APPCB",06-02-2024 18:00:00,16.509717,80.612222,CO,30,34,34
India,Andhra_Pradesh,Vijayawada,"Rajiv Nagar, Vijayawada - APPCB",06-02-2024 18:00:00,16.554731,80.649110,PM10,20,246,88
India,Andhra_Pradesh,Visakhapatnam,"GVM Corporation, Visakhapatnam - APPCB",06-02-2024 18:00:00,17.72,83.3,NH3,2,5,4
India,Arunachal_Pradesh,Naharlagun,"Naharlagun, Naharlagun - APSPCB",06-02-2024 18:00:00,27.103358,93.679645,PM2.5,42,103,63
India,Assam,Byrnihat,"Central Academy for SFS, Byrnihat - PCBA",06-02-2024 18:00:00,26.071318,91.87488,PM2.5,260,500,378
India,Assam,Guwahati,"IITG, Guwahati - PCBA",06-02-2024 18:00:00,26.2028636,91.70046436,PM10,73,361,125
India,Assam,Guwahati,"IITG, Guwahati - PCBA",06-02-2024 18:00:00,26.2028636,91.70046436,NH3,5,6,5
India,Assam,Guwahati,"Pan Bazaar, Guwahati - PCBA",06-02-2024 18:00:00,26.187500,91.744194,NO2,1,6,2
India,Assam,Guwahati,"Pan Bazaar, Guwahati - PCBA",06-02-2024 18:00:00,26.187500,91.744194,OZONE,17,17,17
India,Assam,Guwahati,"Railway Colony, Guwahati - PCBA",06-02-2024 18:00:00,26.181742,91.78063,PM10,59,193,101
India,Assam,Nagaon,"Christianpatty, Nagaon - PCBA",06-02-2024 18:00:00,26.349082,92.68449,PM10,57,156,111
India,Assam,Nagaon,"Christianpatty, Nagaon - PCBA",06-02-2024 18:00:00,26.349082,92.68449,CO,21,50,38
India,Assam,Nalbari,"Bata Chowk, Nalbari - PCBA",06-02-2024 18:00:00,26.446912,91.439057,NH3,1,3,1
India,Assam,Silchar,"Tarapur, Silchar - PCBA",06-02-2024 18:00:00,24.82827,92.79525,NH3,1,1,1
India,Assam,Silchar,"Tarapur, Silchar - PCBA",06-02-2024 18:00:00,24.82827,92.79525,SO2,1,8,4
India,Bihar,Araria,"Kharahiya Basti, Araria - BSPCB",06-02-2024 18:00:00,26.146529,87.454184,CO,12,30,24
India,Bihar,Arrah,"New DM Office, Arrah - BSPCB",06-02-2024 18:00:00,25.5626095,84.663264,SO2,15,22,19
India,Bihar,Arrah,"New DM Office, Arrah - BSPCB",06-02-2024 18:00:00,25.5626095,84.663264,CO,2,21,8
India,Bihar,Aurangabad,"Gurdeo Nagar, Aurangabad - BSPCB",06-02-2024 18:00:00,24.75746,84.366208,NO2,7,11,9
India,Bihar,Bhagalpur,"Mayaganj, Bhagalpur - BSPCB",06-02-2024 18:00:00,25.265194,87.012947,NH3,8,9,8
India,Bihar,Bihar Sharif,"D M Colony, Bihar Sharif - BSPCB",06-02-2024 18:00:00,25.204762,85.514960,SO2,2,12,6
India,Bihar,Buxar,"Charitra Van, Buxar - BSPCB (Formerly known as Central Jail)",06-02-2024 18:00:00,25.567520,83.966379,PM2.5,120,413,296
India,Bihar,Buxar,"Charitra Van, Buxar - BSPCB (Formerly known as Central Jail)",06-02-2024 18:00:00,25.567520,83.966379,NO2,7,222,45
India,Bihar,Buxar,"Charitra Van, Buxar - BSPCB (Formerly known as Central Jail)",06-02-2024 18:00:00,25.567520,83.966379,CO,39,115,50
India,Bihar,Buxar,"Charitra Van, Buxar - BSPCB (Formerly known as Central Jail)",06-02-2024 18:00:00,25.567520,83.966379,OZONE,6,80,66
India,Bihar,Gaya,"Collectorate, Gaya - BSPCB",06-02-2024 18:00:00,24.7955,84.9994,SO2,16,27,20
India,Bihar,Gaya,"Kareemganj, Gaya - BSPCB",06-02-2024 18:00:00,24.792403,84.992416,NH3,1,5,3
India,Bihar,Gaya,"SFTI Kusdihra, Gaya - BSPCB",06-02-2024 18:00:00,24.762518,84.982348,SO2,7,9,8
India,Bihar,Hajipur,"Industrial Area, Hajipur - BSPCB",06-02-2024 18:00:00,25.697189,85.245900,CO,34,60,43
India,Bihar,Hajipur,"Industrial Area, Hajipur - BSPCB",06-02-2024 18:00:00,25.697189,85.245900,OZONE,8,226,42
India,Bihar,Katihar,"Mirchaibari, Katihar - BSPCB",06-02-2024 18:00:00,25.560083,87.553265,NH3,3,4,3
India,Bihar,Katihar,"Mirchaibari, Katihar - BSPCB",06-02-2024 18:00:00,25.560083,87.553265,OZONE,21,27,23
India,Bihar,Kishanganj,"SDM Office_Khagra, Kishanganj - BSPCB",06-02-2024 18:00:00,26.0881305,87.93840336,PM10,111,439,172
India,Bihar,Kishanganj,"SDM Office_Khagra, Kishanganj - BSPCB",06-02-2024 18:00:00,26.0881305,87.93840336,SO2,11,25,19
India,Bihar,Kishanganj,"SDM Office_Khagra, Kishanganj - BSPCB",06-02-2024 18:00:00,26.0881305,87.93840336,OZONE,10,41,27
India,Bihar,Manguraha,"Forest Rest House, Manguraha - BSPCB",06-02-2024 18:00:00,27.308328,84.531742,SO2,NA,NA,NA
India,Bihar,Motihari,"Gandak Colony, Motihari - BSPCB",06-02-2024 18:00:00,26.63086,84.90051,NH3,5,12,9
India,Bihar,Motihari,"Gandak Colony, Motihari - BSPCB",06-02-2024 18:00:00,26.63086,84.90051,OZONE,28,66,54
India,Bihar,Muzaffarpur,"Buddha Colony, Muzaffarpur - BSPCB",06-02-2024 18:00:00,26.11442,85.39813,NH3,11,17,14
India,Bihar,Muzaffarpur,"MIT-Daudpur Kothi, Muzaffarpur - BSPCB",06-02-2024 18:00:00,26.1403345,85.3650192,NO2,3,7,5
India,Bihar,Muzaffarpur,"MIT-Daudpur Kothi, Muzaffarpur - BSPCB",06-02-2024 18:00:00,26.1403345,85.3650192,SO2,11,14,11
India,Bihar,Muzaffarpur,"MIT-Daudpur Kothi, Muzaffarpur - BSPCB",06-02-2024 18:00:00,26.1403345,85.3650192,CO,42,116,72
India,Bihar,Patna,"DRM Office Danapur, Patna - BSPCB",06-02-2024 18:00:00,25.586562,85.043586,PM2.5,55,126,80
India,Bihar,Patna,"DRM Office Danapur, Patna - BSPCB",06-02-2024 18:00:00,25.586562,85.043586,PM10,64,138,95
India,Bihar,Patna,"Muradpur, Patna - BSPCB",06-02-2024 18:00:00,25.619651,85.147382,SO2,7,13,10
India,Bihar,Patna,"Muradpur, Patna - BSPCB",06-02-2024 18:00:00,25.619651,85.147382,OZONE,15,51,40
India,Bihar,Patna,"Rajbansi Nagar, Patna - BSPCB",06-02-2024 18:00:00,25.599486,85.113666,CO,18,66,50
India,Bihar,Patna,"Samanpura, Patna - BSPCB",06-02-2024 18:00:00,25.596727,85.085624,PM2.5,90,317,181
India,Bihar,Purnia,"Mariam Nagar, Purnia - BSPCB",06-02-2024 18:00:00,25.366336,87.117468,PM2.5,10,190,95
India,Bihar,Purnia,"Mariam Nagar, Purnia - BSPCB",06-02-2024 18:00:00,25.366336,87.117468,NH3,1,1,1
India,Bihar,Samastipur,"DM Office_Kasipur, Samastipur - BSPCB",06-02-2024 18:00:00,25.859655,85.77944,PM10,NA,NA,NA
India,Bihar,Samastipur,"DM Office_Kasipur, Samastipur - BSPCB",06-02-2024 18:00:00,25.859655,85.77944,SO2,3,14,9
India,Chandigarh,Chandigarh,"Sector 22, Chandigarh - CPCC",06-02-2024 18:00:00,30.735567,76.775714,CO,34,51,37
India,Chandigarh,Chandigarh,"Sector 22, Chandigarh - CPCC",06-02-2024 18:00:00,30.735567,76.775714,OZONE,2,127,90
India,Chandigarh,Chandigarh,"Sector-25, Chandigarh - CPCC",06-02-2024 18:00:00,30.751462,76.762879,PM2.5,96,138,113
India,Chandigarh,Chandigarh,"Sector-25, Chandigarh - CPCC",06-02-2024 18:00:00,30.751462,76.762879,SO2,5,14,8
India,Chandigarh,Chandigarh,"Sector-53, Chandigarh - CPCC",06-02-2024 18:00:00,30.719859,76.738637,SO2,NA,NA,NA
India,Chhattisgarh,Bhilai,"32Bungalows, Bhilai - CECB",06-02-2024 18:00:00,21.194815,81.314770,SO2,5,9,7
India,Chhattisgarh,Bhilai,"Hathkhoj, Bhilai - CECB",06-02-2024 18:00:00,21.224231,81.408350,OZONE,9,24,21
India,Chhattisgarh,Chhal,"Nawapara SECL Colony, Chhal - CECB",06-02-2024 18:00:00,22.118125,83.140608,PM2.5,66,190,113
India,Chhattisgarh,Chhal,"Nawapara SECL Colony, Chhal - CECB",06-02-2024 18:00:00,22.118125,83.140608,SO2,10,30,19
India,Chhattisgarh,Korba,"Rampur, Korba - CECB",06-02-2024 18:00:00,22.368195,82.746431,PM10,NA,NA,NA
India,Chhattisgarh,Korba,"Urja Nagar, Korba - CECB",06-02-2024 18:00:00,22.348441,82.549611,PM2.5,12,239,47
India,Chhattisgarh,Korba,"Urja Nagar, Korba - CECB",06-02-2024 18:00:00,22.348441,82.549611,PM10,18,367,114
India,Chhattisgarh,Korba,"Urja Nagar, Korba - CECB",06-02-2024 18:00:00,22.348441,82.549611,SO2,3,7,5
India,Chhattisgarh,Milupara,"Govt. Higher Secondary School, Milupara - CECB",06-02-2024 18:00:00,22.1910172,83.5197009,CO,23,66,42
India,Chhattisgarh,Raipur,"AIIMS, Raipur - CECB",06-02-2024 18:00:00,21.258815,81.578979,CO,18,36,24
India,Chhattisgarh,Raipur,"Bhatagaon New ISBT, Raipur - CECB",06-02-2024 18:00:00,21.219665,81.630094,NH3,1,3,2
India,Chhattisgarh,Raipur,"Krishak Nagar, Raipur - CECB",06-02-2024 18:00:00,21.237755,81.705301,OZONE,3,11,8
India,Chhattisgarh,Raipur,"Siltara Phase-II, Raipur - CECB",06-02-2024 18:00:00,21.371751,81.664929,CO,28,70,39
India,Chhattisgarh,Tumidih,"OP Jindal Industrial Park, Tumidih - CECB",06-02-2024 18:00:00,22.06631475,83.33820077,PM2.5,46,193,85
India,Chhattisgarh,Tumidih,"OP Jindal Industrial Park, Tumidih - CECB",06-02-2024 18:00:00,22.06631475,83.33820077,PM10,40,226,87
India,Delhi,Delhi,"Alipur, Delhi - DPCC",06-02-2024 18:00:00,28.815329,77.153010,NH3,11,15,13
India,Delhi,Delhi,"Anand Vihar, Delhi - DPCC",06-02-2024 18:00:00,28.647622,77.3158090,OZONE,18,20,19
India,Delhi,Delhi,"Ashok Vihar, Delhi - DPCC",06-02-2024 18:00:00,28.695381,77.181665,PM10,101,154,131
India,Delhi,Delhi,"Aya Nagar, Delhi - IMD",06-02-2024 18:00:00,28.4706914,77.1099364,PM10,61,130,99
India,Delhi,Delhi,"Bawana, Delhi - DPCC",06-02-2024 18:00:00,28.776200,77.051074,PM10,38,171,100
India,Delhi,Delhi,"Bawana, Delhi - DPCC",06-02-2024 18:00:00,28.776200,77.051074,NH3,5,9,7
India,Delhi,Delhi,"Bawana, Delhi - DPCC",06-02-2024 18:00:00,28.776200,77.051074,CO,29,48,35
India,Delhi,Delhi,"Burari Crossing, Delhi - IMD",06-02-2024 18:00:00,28.7256504,77.2011573,CO,106,109,107
India,Delhi,Delhi,"CRRI Mathura Road, Delhi - IMD",06-02-2024 18:00:00,28.5512005,77.2735737,PM2.5,39,193,100
India,Delhi,Delhi,"DTU, Delhi - CPCB",06-02-2024 18:00:00,28.7500499,77.1112615,NO2,18,40,28
India,Delhi,Delhi,"DTU, Delhi - CPCB",06-02-2024 18:00:00,28.7500499,77.1112615,SO2,26,28,27
India,Delhi,Delhi,"IGI Airport (T3), Delhi - IMD",06-02-2024 18:00:00,28.5627763,77.1180053,PM10,94,156,128
India,Delhi,Delhi,"IHBAS, Dilshad Garden, Delhi - CPCB",06-02-2024 18:00:00,28.6811736,77.3025234,CO,30,56,39
India,Delhi,Delhi,"ITO, Delhi - CPCB",06-02-2024 18:00:00,28.628624,77.241060,NH3,2,5,3
India,Delhi,Delhi,"ITO, Delhi - CPCB",06-02-2024 18:00:00,28.628624,77.241060,SO2,7,30,20
India,Delhi,Delhi,"Jahangirpuri, Delhi - DPCC",06-02-2024 18:00:00,28.732820,77.170633,NH3,9,44,15
India,Delhi,Delhi,"Jawaharlal Nehru Stadium, Delhi - DPCC",06-02-2024 18:00:00,28.580280,77.233829,PM2.5,40,167,101
India,Delhi,Delhi,"Jawaharlal Nehru Stadium, Delhi - DPCC",06-02-2024 18:00:00,28.580280,77.233829,PM10,81,134,112
India,Delhi,Delhi,"Jawaharlal Nehru Stadium, Delhi - DPCC",06-02-2024 18:00:00,28.580280,77.233829,NO2,40,92,61
India,Delhi,Delhi,"Jawaharlal Nehru Stadium, Delhi - DPCC",06-02-2024 18:00:00,28.580280,77.233829,OZONE,1,86,69
India,Delhi,Delhi,"Lodhi Road, Delhi - IITM",06-02-2024 18:00:00,28.588333,77.221667,SO2,22,39,32
India,Delhi,Delhi,"Lodhi Road, Delhi - IITM",06-02-2024 18:00:00,28.588333,77.221667,CO,62,69,65
India,Delhi,Delhi,"Lodhi Road, Delhi - IMD",06-02-2024 18:00:00,28.5918245,77.2273074,PM2.5,3,88,59
India,Delhi,Delhi,"Lodhi Road, Delhi - IMD",06-02-2024 18:00:00,28.5918245,77.2273074,PM10,21,138,95
India,Delhi,Delhi,"Major Dhyan Chand National Stadium, Delhi - DPCC",06-02-2024 18:00:00,28.611281,77.237738,PM2.5,50,296,156
India,Delhi,Delhi,"Major Dhyan Chand National Stadium, Delhi - DPCC",06-02-2024 18:00:00,28.611281,77.237738,NH3,6,10,8
India,Delhi,Delhi,"Mandir Marg, Delhi - DPCC",06-02-2024 18:00:00,28.636429,77.201067,NH3,18,20,19
India,Delhi,Delhi,"Mundka, Delhi - DPCC",06-02-2024 18:00:00,28.684678,77.076574,NO2,31,66,44
India,Delhi,Delhi,"NSIT Dwarka, Delhi - CPCB",06-02-2024 18:00:00,28.60909,77.0325413,PM2.5,46,176,93
India,Delhi,Delhi,"NSIT Dwarka, Delhi - CPCB",06-02-2024 18:00:00,28.60909,77.0325413,NH3,7,10,8
India,Delhi,Delhi,"NSIT Dwarka, Delhi - CPCB",06-02-2024 18:00:00,28.60909,77.0325413,SO2,2,17,12
India,Delhi,Delhi,"NSIT Dwarka, Delhi - CPCB",06-02-2024 18:00:00,28.60909,77.0325413,CO,26,106,57
India,Delhi,Delhi,"Najafgarh, Delhi - DPCC",06-02-2024 18:00:00,28.570173,76.933762,NH3,2,3,2
India,Delhi,Delhi,"Nehru Nagar, Delhi - DPCC",06-02-2024 18:00:00,28.567890,77.250515,CO,28,108,67
India,Delhi,Delhi,"Nehru Nagar, Delhi - DPCC",06-02-2024 18:00:00,28.567890,77.250515,OZONE,2,109,83
India,Delhi,Delhi,"North Campus, DU, Delhi - IMD",06-02-2024 18:00:00,28.6573814,77.1585447,NO2,20,54,32
India,Delhi,Delhi,"North Campus, DU, Delhi - IMD",06-02-2024 18:00:00,28.6573814,77.1585447,CO,10,22,13
India,Delhi,Delhi,"Okhla Phase-2, Delhi - DPCC",06-02-2024 18:00:00,28.530785,77.271255,CO,2,83,46
India,Delhi,Delhi,"Patparganj, Delhi - DPCC",06-02-2024 18:00:00,28.623763,77.287209,NO2,32,56,41
India,Delhi,Delhi,"Pusa, Delhi - DPCC",06-02-2024 18:00:00,28.639652,77.146275,PM10,120,301,190
India,Delhi,Delhi,"Pusa, Delhi - DPCC",06-02-2024 18:00:00,28.639652,77.146275,NO2,129,228,170
India,Delhi,Delhi,"Pusa, Delhi - IMD",06-02-2024 18:00:00,28.636110,77.173332,OZONE,12,23,18
India,Delhi,Delhi,"R K Puram, Delhi - DPCC",06-02-2024 18:00:00,28.563262,77.186937,PM2.5,3,280,170
India,Delhi,Delhi,"R K Puram, Delhi - DPCC",06-02-2024 18:00:00,28.563262,77.186937,NO2,30,75,52
India,Delhi,Delhi,"R K Puram, Delhi - DPCC",06-02-2024 18:00:00,28.563262,77.186937,NH3,2,6,4
India,Delhi,Delhi,"R K Puram, Delhi - DPCC",06-02-2024 18:00:00,28.563262,77.186937,OZONE,8,100,75
India,Delhi,Delhi,"Rohini, Delhi - DPCC",06-02-2024 18:00:00,28.732528,77.119920,PM10,66,136,104
India,Delhi,Delhi,"Rohini, Delhi - DPCC",06-02-2024 18:00:00,28.732528,77.119920,NH3,6,11,8
India,Delhi,Delhi,"Shadipur, Delhi - CPCB",06-02-2024 18:00:00,28.6514781,77.1473105,PM2.5,41,181,92
India,Delhi,Delhi,"Shadipur, Delhi - CPCB",06-02-2024 18:00:00,28.6514781,77.1473105,NO2,33,54,43
India,Delhi,Delhi,"Shadipur, Delhi - CPCB",06-02-2024 18:00:00,28.6514781,77.1473105,NH3,9,14,12
India,Delhi,Delhi,"Shadipur, Delhi - CPCB",06-02-2024 18:00:00,28.6514781,77.1473105,OZONE,14,265,119
India,Delhi,Delhi,"Sirifort, Delhi - CPCB",06-02-2024 18:00:00,28.5504249,77.2159377,PM10,27,52,42
India,Delhi,Delhi,"Sirifort, Delhi - CPCB",06-02-2024 18:00:00,28.5504249,77.2159377,NH3,5,13,10
India,Delhi,Delhi,"Sonia Vihar, Delhi - DPCC",06-02-2024 18:00:00,28.710508,77.249485,NO2,23,61,35
India,Delhi,Delhi,"Sonia Vihar, Delhi - DPCC",06-02-2024 18:00:00,28.710508,77.249485,OZONE,6,72,55
India,Delhi,Delhi,"Wazirpur, Delhi - DPCC",06-02-2024 18:00:00,28.699793,77.165453,PM2.5,80,313,171
India,Gujarat,Ahmedabad,"Raikhad, Ahmedabad - IITM",06-02-2024 18:00:00,23.020509,72.579261,OZONE,16,22,18
India,Gujarat,Ahmedabad,"Rakhial, Ahmedabad - IITM",06-02-2024 18:00:00,23.016834,72.625775,PM2.5,41,117,68
India,Gujarat,Ahmedabad,"SAC ISRO Bopal, Ahmedabad - IITM",06-02-2024 18:00:00,23.041137,72.456691,NH3,4,4,4
India,Gujarat,Ahmedabad,"SVPI Airport Hansol, Ahmedabad - IITM",06-02-2024 18:00:00,23.076793,72.627874,PM2.5,66,144,91
India,Gujarat,Gandhinagar,"GIFT City, Gandhinagar - IITM",06-02-2024 18:00:00,23.163798,72.677768,PM10,56,113,82
India,Gujarat,Gandhinagar,"GIFT City, Gandhinagar - IITM",06-02-2024 18:00:00,23.163798,72.677768,NO2,8,11,10
India,Gujarat,Gandhinagar,"IIPHG Lekawada, Gandhinagar - IITM",06-02-2024 18:00:00,23.243639,72.68994,NH3,4,4,4
India,Gujarat,Gandhinagar,"IIPHG Lekawada, Gandhinagar - IITM",06-02-2024 18:00:00,23.243639,72.68994,SO2,16,16,16
India,Gujarat,Gandhinagar,"IIPHG Lekawada, Gandhinagar - IITM",06-02-2024 18:00:00,23.243639,72.68994,CO,22,32,30
India,Gujarat,Gandhinagar,"Sector-10, Gandhinagar - GPCB",06-02-2024 18:00:00,23.221714,72.654328,PM10,44,95,71
India,Gujarat,Surat,"Science Center, Surat - SMC",06-02-2024 18:00:00,21.170046,72.795405,PM10,6,65,40
India,Gujarat,Surat,"Science Center, Surat - SMC",06-02-2024 18:00:00,21.170046,72.795405,SO2,15,22,19
India,Gujarat,Vatva,"Phase-4 GIDC, Vatva - GPCB",06-02-2024 18:00:00,22.969611,72.643500,PM10,31,107,62
India,Gujarat,Vatva,"Phase-4 GIDC, Vatva - GPCB",06-02-2024 18:00:00,22.969611,72.643500,OZONE,2,31,3
India,Haryana,Bahadurgarh,"Arya Nagar, Bahadurgarh - HSPCB",06-02-2024 18:00:00,28.6701,76.9254,PM10,47,97,71
India,Haryana,Bahadurgarh,"Arya Nagar, Bahadurgarh - HSPCB",06-02-2024 18:00:00,28.6701,76.9254,NO2,32,40,36
India,Haryana,Bahadurgarh,"Arya Nagar, Bahadurgarh - HSPCB",06-02-2024 18:00:00,28.6701,76.9254,NH3,10,12,11
India,Haryana,Bahadurgarh,"Arya Nagar, Bahadurgarh - HSPCB",06-02-2024 18:00:00,28.6701,76.9254,SO2,11,13,12
India,Haryana,Bahadurgarh,"Arya Nagar, Bahadurgarh - HSPCB",06-02-2024 18:00:00,28.6701,76.9254,OZONE,32,48,43
India,Haryana,Ballabgarh,"Nathu Colony, Ballabgarh - HSPCB",06-02-2024 18:00:00,28.3419248,77.319699,CO,5,80,28
India,Haryana,Bhiwani,"H.B. Colony, Bhiwani - HSPCB",06-02-2024 18:00:00,28.806223,76.141105,OZONE,9,99,16
India,Haryana,Charkhi Dadri,"Mini Secretariat, Charkhi Dadri - HSPCB",06-02-2024 18:00:00,28.593883,76.270653,PM10,35,104,71
India,Haryana,Charkhi Dadri,"Mini Secretariat, Charkhi Dadri - HSPCB",06-02-2024 18:00:00,28.593883,76.270653,NO2,8,27,11
India,Haryana,Dharuhera,"Municipal Corporation Office, Dharuhera -  HSPCB",06-02-2024 18:00:00,28.206800,76.799700,NH3,9,26,19
India,Haryana,Dharuhera,"Municipal Corporation Office, Dharuhera -  HSPCB",06-02-2024 18:00:00,28.206800,76.799700,CO,101,102,102
India,Haryana,Faridabad,"Sector 11, Faridabad - HSPCB",06-02-2024 18:00:00,28.376058,77.315741,PM2.5,42,110,62
India,Haryana,Faridabad,"Sector 11, Faridabad - HSPCB",06-02-2024 18:00:00,28.376058,77.315741,CO,20,41,31
India,Haryana,Faridabad,"Sector 30, Faridabad - HSPCB",06-02-2024 18:00:00,28.4417,77.3217,PM10,105,115,110
India,Haryana,Faridabad,"Sector 30, Faridabad - HSPCB",06-02-2024 18:00:00,28.4417,77.3217,NO2,31,33,31
India,Haryana,Fatehabad,"Huda Sector, Fatehabad - HSPCB",06-02-2024 18:00:00,29.503664,75.467934,SO2,4,10,7
India,Haryana,Fatehabad,"Huda Sector, Fatehabad - HSPCB",06-02-2024 18:00:00,29.503664,75.467934,OZONE,20,35,23
India,Haryana,Gurugram,"NISE Gwal Pahari, Gurugram - IMD",06-02-2024 18:00:00,28.422681,77.148944,CO,38,71,44
India,Haryana,Gurugram,"Sector-51, Gurugram - HSPCB",06-02-2024 18:00:00,28.4227,77.0667,NH3,7,14,9
India,Haryana,Gurugram,"Teri Gram, Gurugram - HSPCB",06-02-2024 18:00:00,28.4275,77.1465,NO2,21,36,28
India,Haryana,Gurugram,"Teri Gram, Gurugram - HSPCB",06-02-2024 18:00:00,28.4275,77.1465,CO,20,28,22
India,Haryana,Gurugram,"Teri Gram, Gurugram - HSPCB",06-02-2024 18:00:00,28.4275,77.1465,OZONE,10,24,10
India,Haryana,Gurugram,"Vikas Sadan, Gurugram - HSPCB",06-02-2024 18:00:00,28.4501238,77.0263051,PM2.5,71,141,94
India,Haryana,Hisar,"Urban Estate-II, Hisar - HSPCB",06-02-2024 18:00:00,29.140560,75.744941,PM10,NA,NA,NA
India,Haryana,Karnal,"Sector-12, Karnal - HSPCB",06-02-2024 18:00:00,29.695300,77.002700,PM10,35,81,58
India,Haryana,Kurukshetra,"Sector-7, Kurukshetra - HSPCB",06-02-2024 18:00:00,29.966942,76.875879,PM10,57,101,76
India,Haryana,Kurukshetra,"Sector-7, Kurukshetra - HSPCB",06-02-2024 18:00:00,29.966942,76.875879,CO,10,29,16
India,Haryana,Mandikhera,"General Hospital, Mandikhera - HSPCB",06-02-2024 18:00:00,27.9002,76.9938,NH3,18,21,20
India,Haryana,Mandikhera,"General Hospital, Mandikhera - HSPCB",06-02-2024 18:00:00,27.9002,76.9938,OZONE,21,31,25
India,Haryana,Narnaul,"Shastri Nagar, Narnaul - HSPCB",06-02-2024 18:00:00,28.060249,76.113115,NO2,16,58,36
India,Haryana,Narnaul,"Shastri Nagar, Narnaul - HSPCB",06-02-2024 18:00:00,28.060249,76.113115,SO2,12,50,20
India,Haryana,Narnaul,"Shastri Nagar, Narnaul - HSPCB",06-02-2024 18:00:00,28.060249,76.113115,CO,1,40,5
India,Haryana,Palwal,"Shyam Nagar, Palwal - HSPCB",06-02-2024 18:00:00,28.1485564,77.3320667,PM2.5,54,83,72
India,Haryana,Panchkula,"Sector-6, Panchkula - HSPCB ",06-02-2024 18:00:00,30.7057778,76.8531805555555,PM2.5,36,203,84
India,Haryana,Panchkula,"Sector-6, Panchkula - HSPCB ",06-02-2024 18:00:00,30.7057778,76.8531805555555,SO2,12,12,12
India,Haryana,Panipat,"Sector-18, Panipat - HSPCB",06-02-2024 18:00:00,29.497973,76.993331,NO2,28,32,30
India,Haryana,Panipat,"Sector-18, Panipat - HSPCB",06-02-2024 18:00:00,29.497973,76.993331,SO2,12,13,13
India,Haryana,Panipat,"Sector-18, Panipat - HSPCB",06-02-2024 18:00:00,29.497973,76.993331,CO,23,27,25
India,Haryana,Sonipat,"Murthal, Sonipat - HSPCB",06-02-2024 18:00:00,29.027200,77.062100,SO2,12,29,20
India,Haryana,Sonipat,"Murthal, Sonipat - HSPCB",06-02-2024 18:00:00,29.027200,77.062100,OZONE,16,36,33
India,Haryana,Yamuna Nagar,"Gobind Pura, Yamuna Nagar - HSPCB",06-02-2024 18:00:00,30.1480566,77.2893471,PM2.5,26,92,48
India,Haryana,Yamuna Nagar,"Gobind Pura, Yamuna Nagar - HSPCB",06-02-2024 18:00:00,30.1480566,77.2893471,PM10,33,110,60
India,Haryana,Yamuna Nagar,"Gobind Pura, Yamuna Nagar - HSPCB",06-02-2024 18:00:00,30.1480566,77.2893471,CO,24,50,34
India,Himachal Pradesh,Baddi,"HIMUDA Complex Phase-1, Baddi - HPPCB",06-02-2024 18:00:00,30.943887,76.801991,NO2,7,25,19
India,Himachal Pradesh,Baddi,"HIMUDA Complex Phase-1, Baddi - HPPCB",06-02-2024 18:00:00,30.943887,76.801991,NH3,2,5,4
India,Himachal Pradesh,Baddi,"HIMUDA Complex Phase-1, Baddi - HPPCB",06-02-2024 18:00:00,30.943887,76.801991,CO,12,44,19
India,Himachal Pradesh,Baddi,"HIMUDA Complex Phase-1, Baddi - HPPCB",06-02-2024 18:00:00,30.943887,76.801991,OZONE,8,86,65
India,Jharkhand,Dhanbad,"Kalakusuma, Dhanbad - DMC",06-02-2024 18:00:00,23.811548,86.481238,PM10,NA,NA,NA
India,Jharkhand,Dhanbad,"Kalakusuma, Dhanbad - DMC",06-02-2024 18:00:00,23.811548,86.481238,SO2,NA,NA,NA
India,Karnataka,Bagalkot,"Vidayagiri, Bagalkot - KSPCB",06-02-2024 18:00:00,16.172806,75.659694,PM2.5,16,30,29
India,Karnataka,Bagalkot,"Vidayagiri, Bagalkot - KSPCB",06-02-2024 18:00:00,16.172806,75.659694,NO2,10,11,10
India,Karnataka,Bagalkot,"Vidayagiri, Bagalkot - KSPCB",06-02-2024 18:00:00,16.172806,75.659694,OZONE,27,32,30
India,Karnataka,Bengaluru,"BTM Layout, Bengaluru - CPCB",06-02-2024 18:00:00,12.9135218,77.5950804,NH3,14,21,18
India,Karnataka,Bengaluru,"Bapuji Nagar, Bengaluru - KSPCB",06-02-2024 18:00:00,12.951913,77.539784,NH3,1,1,1
India,Karnataka,Bengaluru,"Bapuji Nagar, Bengaluru - KSPCB",06-02-2024 18:00:00,12.951913,77.539784,OZONE,10,12,11
India,Karnataka,Bengaluru,"Hebbal, Bengaluru - KSPCB",06-02-2024 18:00:00,13.029152,77.585901,PM2.5,34,178,84
India,Karnataka,Bengaluru,"Hebbal, Bengaluru - KSPCB",06-02-2024 18:00:00,13.029152,77.585901,SO2,11,15,12
India,Karnataka,Bengaluru,"Hombegowda Nagar, Bengaluru - KSPCB",06-02-2024 18:00:00,12.938539,77.590100,PM10,52,116,81
India,Karnataka,Bengaluru,"Hombegowda Nagar, Bengaluru - KSPCB",06-02-2024 18:00:00,12.938539,77.590100,NH3,2,2,2
India,Karnataka,Bengaluru,"Jigani, Bengaluru - KSPCB",06-02-2024 18:00:00,12.7816279,77.6299145,NO2,22,27,25
India,Karnataka,Bengaluru,"Peenya, Bengaluru - CPCB",06-02-2024 18:00:00,13.0270199,77.494094,NH3,4,6,4
India,Karnataka,Bengaluru,"Peenya, Bengaluru - CPCB",06-02-2024 18:00:00,13.0270199,77.494094,OZONE,34,36,35
India,Karnataka,Bengaluru,"Sanegurava Halli, Bengaluru - KSPCB",06-02-2024 18:00:00,12.990328,77.5431385,PM10,NA,NA,NA
India,Karnataka,Bengaluru,"Shivapura_Peenya, Bengaluru - KSPCB",06-02-2024 18:00:00,13.0246342,77.5080115,CO,24,52,31
India,Karnataka,Chamarajanagar,"Urban, Chamarajanagar - KSPCB",06-02-2024 18:00:00,11.55358,76.55521,OZONE,14,42,37
India,Karnataka,Chikkamagaluru,"Kalyana Nagara, Chikkamagaluru - KSPCB",06-02-2024 18:00:00,13.328028,75.797056,CO,11,127,44
India,Karnataka,Davanagere,"Devaraj Urs Badavane, Davanagere - KSPCB",06-02-2024 18:00:00,14.475800,75.905200,SO2,3,9,5
India,Karnataka,Dharwad,"Kalabhavan, Dharwad - KSPCB",06-02-2024 18:00:00,15.459706,75.008381,NO2,2,38,23
India,Karnataka,Gadag,"Panchal Nagar, Gadag - KSPCB",06-02-2024 18:00:00,15.411456,75.638133,PM10,24,44,36
India,Karnataka,Gadag,"Panchal Nagar, Gadag - KSPCB",06-02-2024 18:00:00,15.411456,75.638133,CO,38,42,40
India,Karnataka,Hassan,"B.Katihalli, Hassan - KSPCB",06-02-2024 18:00:00,13.008556,76.125258,NO2,10,15,12
India,Karnataka,Haveri,"Ashwini Nagar, Haveri - KSPCB",06-02-2024 18:00:00,14.791800,75.389600,SO2,14,20,15
India,Karnataka,Kalaburagi,"Lal Bahadur Shastri Nagar, Kalaburagi - KSPCB",06-02-2024 18:00:00,17.321993,76.822628,CO,36,55,37
India,Karnataka,Kalaburagi,"Mahatma Basaveswar Colony, Kalaburgi - KSPCB",06-02-2024 18:00:00,17.336318,76.847397,NH3,3,4,3
India,Karnataka,Kalaburagi,"Mahatma Basaveswar Colony, Kalaburgi - KSPCB",06-02-2024 18:00:00,17.336318,76.847397,SO2,4,18,6
India,Karnataka,Kalaburagi,"Mahatma Basaveswar Colony, Kalaburgi - KSPCB",06-02-2024 18:00:00,17.336318,76.847397,CO,34,104,36
India,Karnataka,Karwar,"KHB Colony, Karwar - KSPCB",06-02-2024 18:00:00,14.816666,74.141003,PM10,83,197,114
India,Karnataka,Karwar,"KHB Colony, Karwar - KSPCB",06-02-2024 18:00:00,14.816666,74.141003,CO,7,8,7
India,Karnataka,Karwar,"KHB Colony, Karwar - KSPCB",06-02-2024 18:00:00,14.816666,74.141003,OZONE,21,22,21
India,Karnataka,Kolar,"Tamaka Ind. Area, Kolar - KSPCB",06-02-2024 18:00:00,13.1276288,78.1570122,PM10,72,131,95
India,Karnataka,Mysuru,"Hebbal 1st Stage, Mysuru - KSPCB",06-02-2024 18:00:00,12.21041,76.37376,PM2.5,35,49,42
India,Karnataka,Mysuru,"Hebbal 1st Stage, Mysuru - KSPCB",06-02-2024 18:00:00,12.21041,76.37376,NH3,1,3,2
India,Karnataka,Raichur,"Haji Colony, Raichur - KSPCB",06-02-2024 18:00:00,16.208139,77.348417,NH3,1,3,2
India,Karnataka,Raichur,"Haji Colony, Raichur - KSPCB",06-02-2024 18:00:00,16.208139,77.348417,SO2,61,113,69
India,Karnataka,Ramanagara,"Vijay Nagar, Ramanagara - KSPCB",06-02-2024 18:00:00,12.733409,77.298051,PM10,27,96,50
India,Karnataka,Ramanagara,"Vijay Nagar, Ramanagara - KSPCB",06-02-2024 18:00:00,12.733409,77.298051,NO2,2,21,7
India,Karnataka,Ramanagara,"Vijay Nagar, Ramanagara - KSPCB",06-02-2024 18:00:00,12.733409,77.298051,OZONE,28,29,29
India,Karnataka,Shivamogga,"Vinoba Nagara, Shivamogga - KSPCB",06-02-2024 18:00:00,13.940000,75.555917,SO2,3,14,7
