country,state,city,station,last_update,latitude,longitude,pollutant_id,pollutant_min,pollutant_max,pollutant_avg
India,Andhra_Pradesh,Amaravati,"Secretariat, Amaravati - APPCB",16-02-2024 16:00:00,16.5150833,80.5181667,NO2,10,26,17
India,Andhra_Pradesh,Amaravati,"Secretariat, Amaravati - APPCB",16-02-2024 16:00:00,16.5150833,80.5181667,NH3,3,4,4
India,Andhra_Pradesh,Amaravati,"Secretariat, Amaravati - APPCB",16-02-2024 16:00:00,16.5150833,80.5181667,OZONE,1,57,40
India,Andhra_Pradesh,Chittoor,"Gangineni Cheruvu, Chittoor - APPCB",16-02-2024 16:00:00,13.204880,79.097889,PM10,25,100,54
India,Andhra_Pradesh,Chittoor,"Gangineni Cheruvu, Chittoor - APPCB",16-02-2024 16:00:00,13.204880,79.097889,CO,33,101,76
India,Andhra_Pradesh,Rajamahendravaram,"Anand Kala Kshetram, Rajamahendravaram - APPCB",16-02-2024 16:00:00,16.9872867,81.7363176,NO2,14,53,31
India,Andhra_Pradesh,Rajamahendravaram,"Anand Kala Kshetram, Rajamahendravaram - APPCB",16-02-2024 16:00:00,16.9872867,81.7363176,CO,22,46,32
India,Andhra_Pradesh,Tirupati,"Vaikuntapuram, Tirupati - APPCB",16-02-2024 16:00:00,13.615387,79.409230,NO2,16,25,21
India,Andhra_Pradesh,Vijayawada,"HB Colony, Vijayawada - APPCB",16-02-2024 16:00:00,16.536107,80.594233,PM2.5,25,328,106
India,Andhra_Pradesh,Vijayawada,"HB Colony, Vijayawada - APPCB",16-02-2024 16:00:00,16.536107,80.594233,PM10,28,249,92
India,Andhra_Pradesh,Vijayawada,"Kanuru, Vijayawada - APPCB",16-02-2024 16:00:00,16.486692,80.699436,PM10,51,107,84
India,Andhra_Pradesh,Vijayawada,"Rajiv Gandhi Park, Vijayawada - APPCB",16-02-2024 16:00:00,16.509717,80.612222,NH3,2,7,6
India,Andhra_Pradesh,Vijayawada,"Rajiv Nagar, Vijayawada - APPCB",16-02-2024 16:00:00,16.554731,80.649110,SO2,3,20,13
India,Andhra_Pradesh,Visakhapatnam,"GVM Corporation, Visakhapatnam - APPCB",16-02-2024 16:00:00,17.72,83.3,PM2.5,37,346,107
India,Arunachal_Pradesh,Naharlagun,"Naharlagun, Naharlagun - APSPCB",16-02-2024 16:00:00,27.103358,93.679645,PM10,17,88,47
India,Assam,Byrnihat,"Central Academy for SFS, Byrnihat - PCBA",16-02-2024 16:00:00,26.071318,91.87488,PM2.5,83,381,281
India,Assam,Byrnihat,"Central Academy for SFS, Byrnihat - PCBA",16-02-2024 16:00:00,26.071318,91.87488,SO2,10,18,14
India,Assam,Guwahati,"IITG, Guwahati - PCBA",16-02-2024 16:00:00,26.2028636,91.70046436,NH3,5,5,5
India,Assam,Guwahati,"IITG, Guwahati - PCBA",16-02-2024 16:00:00,26.2028636,91.70046436,SO2,12,13,12
India,Assam,Guwahati,"IITG, Guwahati - PCBA",16-02-2024 16:00:00,26.2028636,91.70046436,OZONE,6,28,18
India,Assam,Guwahati,"LGBI Airport, Guwahati - PCBA",16-02-2024 16:00:00,26.10887,91.589544,NH3,1,3,2
India,Assam,Guwahati,"LGBI Airport, Guwahati - PCBA",16-02-2024 16:00:00,26.10887,91.589544,CO,NA,NA,NA
India,Assam,Guwahati,"Railway Colony, Guwahati - PCBA",16-02-2024 16:00:00,26.181742,91.78063,PM10,NA,NA,NA
India,Assam,Silchar,"Tarapur, Silchar - PCBA",16-02-2024 16:00:00,24.82827,92.79525,OZONE,1,15,5
India,Assam,Sivasagar,"Girls College, Sivasagar - PCBA",16-02-2024 16:00:00,26.987634,94.636574,PM2.5,NA,NA,NA
India,Assam,Sivasagar,"Girls College, Sivasagar - PCBA",16-02-2024 16:00:00,26.987634,94.636574,PM10,NA,NA,NA
India,Bihar,Araria,"Kharahiya Basti, Araria - BSPCB",16-02-2024 16:00:00,26.146529,87.454184,PM2.5,92,340,223
India,Bihar,Araria,"Kharahiya Basti, Araria - BSPCB",16-02-2024 16:00:00,26.146529,87.454184,PM10,116,334,184
India,Bihar,Araria,"Kharahiya Basti, Araria - BSPCB",16-02-2024 16:00:00,26.146529,87.454184,CO,20,30,27
India,Bihar,Arrah,"New DM Office, Arrah - BSPCB",16-02-2024 16:00:00,25.5626095,84.663264,PM10,46,126,87
India,Bihar,Arrah,"New DM Office, Arrah - BSPCB",16-02-2024 16:00:00,25.5626095,84.663264,SO2,14,22,18
India,Bihar,Aurangabad,"Gurdeo Nagar, Aurangabad - BSPCB",16-02-2024 16:00:00,24.75746,84.366208,PM2.5,63,359,196
India,Bihar,Aurangabad,"Gurdeo Nagar, Aurangabad - BSPCB",16-02-2024 16:00:00,24.75746,84.366208,CO,4,111,91
India,Bihar,Aurangabad,"Gurdeo Nagar, Aurangabad - BSPCB",16-02-2024 16:00:00,24.75746,84.366208,OZONE,1,30,13
India,Bihar,Bhagalpur,"DM Office_Kachari Chowk, Bhagalpur - BSPCB",16-02-2024 16:00:00,25.251013,86.989001,SO2,11,25,17
India,Bihar,Bhagalpur,"DM Office_Kachari Chowk, Bhagalpur - BSPCB",16-02-2024 16:00:00,25.251013,86.989001,OZONE,22,36,29
India,Bihar,Bhagalpur,"Mayaganj, Bhagalpur - BSPCB",16-02-2024 16:00:00,25.265194,87.012947,PM10,42,162,109
India,Bihar,Buxar,"Charitra Van, Buxar - BSPCB (Formerly known as Central Jail)",16-02-2024 16:00:00,25.567520,83.966379,NO2,1,78,8
India,Bihar,Chhapra,"Darshan Nagar, Chhapra - BSPCB",16-02-2024 16:00:00,25.7808257,84.7446768,NH3,7,16,11
India,Bihar,Gaya,"Collectorate, Gaya - BSPCB",16-02-2024 16:00:00,24.7955,84.9994,CO,8,104,84
India,Bihar,Gaya,"Collectorate, Gaya - BSPCB",16-02-2024 16:00:00,24.7955,84.9994,OZONE,48,82,60
India,Bihar,Gaya,"SFTI Kusdihra, Gaya - BSPCB",16-02-2024 16:00:00,24.762518,84.982348,PM2.5,36,113,67
India,Bihar,Gaya,"SFTI Kusdihra, Gaya - BSPCB",16-02-2024 16:00:00,24.762518,84.982348,NH3,4,11,6
India,Bihar,Gaya,"SFTI Kusdihra, Gaya - BSPCB",16-02-2024 16:00:00,24.762518,84.982348,SO2,7,9,8
India,Bihar,Hajipur,"Industrial Area, Hajipur - BSPCB",16-02-2024 16:00:00,25.697189,85.245900,NO2,25,53,39
India,Bihar,Katihar,"Mirchaibari, Katihar - BSPCB",16-02-2024 16:00:00,25.560083,87.553265,PM2.5,40,160,76
India,Bihar,Katihar,"Mirchaibari, Katihar - BSPCB",16-02-2024 16:00:00,25.560083,87.553265,NO2,5,24,12
India,Bihar,Manguraha,"Forest Rest House, Manguraha - BSPCB",16-02-2024 16:00:00,27.308328,84.531742,PM2.5,53,213,85
India,Bihar,Motihari,"Gandak Colony, Motihari - BSPCB",16-02-2024 16:00:00,26.63086,84.90051,PM2.5,52,193,97
India,Bihar,Motihari,"Gandak Colony, Motihari - BSPCB",16-02-2024 16:00:00,26.63086,84.90051,NH3,7,14,10
India,Bihar,Muzaffarpur,"Buddha Colony, Muzaffarpur - BSPCB",16-02-2024 16:00:00,26.11442,85.39813,SO2,2,7,4
India,Bihar,Muzaffarpur,"Buddha Colony, Muzaffarpur - BSPCB",16-02-2024 16:00:00,26.11442,85.39813,CO,34,66,48
India,Bihar,Muzaffarpur,"Buddha Colony, Muzaffarpur - BSPCB",16-02-2024 16:00:00,26.11442,85.39813,OZONE,42,164,158
India,Bihar,Muzaffarpur,"MIT-Daudpur Kothi, Muzaffarpur - BSPCB",16-02-2024 16:00:00,26.1403345,85.3650192,PM2.5,20,197,57
India,Bihar,Muzaffarpur,"MIT-Daudpur Kothi, Muzaffarpur - BSPCB",16-02-2024 16:00:00,26.1403345,85.3650192,SO2,10,14,11
India,Bihar,Muzaffarpur,"MIT-Daudpur Kothi, Muzaffarpur - BSPCB",16-02-2024 16:00:00,26.1403345,85.3650192,CO,32,88,68
India,Bihar,Patna,"DRM Office Danapur, Patna - BSPCB",16-02-2024 16:00:00,25.586562,85.043586,PM2.5,71,185,116
India,Bihar,Patna,"Govt. High School Shikarpur, Patna - BSPCB",16-02-2024 16:00:00,25.592539,85.227158,SO2,2,8,4
India,Bihar,Patna,"Govt. High School Shikarpur, Patna - BSPCB",16-02-2024 16:00:00,25.592539,85.227158,OZONE,8,47,30
India,Bihar,Patna,"Rajbansi Nagar, Patna - BSPCB",16-02-2024 16:00:00,25.599486,85.113666,PM10,92,208,137
India,Bihar,Patna,"Rajbansi Nagar, Patna - BSPCB",16-02-2024 16:00:00,25.599486,85.113666,NH3,1,3,3
India,Bihar,Patna,"Rajbansi Nagar, Patna - BSPCB",16-02-2024 16:00:00,25.599486,85.113666,OZONE,1,47,24
India,Bihar,Rajgir,"Dangi Tola, Rajgir - BSPCB",16-02-2024 16:00:00,25.03280,85.41948,SO2,2,5,4
India,Bihar,Rajgir,"Dangi Tola, Rajgir - BSPCB",16-02-2024 16:00:00,25.03280,85.41948,OZONE,18,29,23
India,Bihar,Samastipur,"DM Office_Kasipur, Samastipur - BSPCB",16-02-2024 16:00:00,25.859655,85.77944,PM2.5,NA,NA,NA
India,Bihar,Samastipur,"DM Office_Kasipur, Samastipur - BSPCB",16-02-2024 16:00:00,25.859655,85.77944,PM10,NA,NA,NA
India,Bihar,Siwan,"Chitragupta Nagar, Siwan - BSPCB",16-02-2024 16:00:00,26.2271665,84.3570427,PM2.5,43,92,66
India,Chandigarh,Chandigarh,"Sector 22, Chandigarh - CPCC",16-02-2024 16:00:00,30.735567,76.775714,PM2.5,143,326,261
India,Chandigarh,Chandigarh,"Sector 22, Chandigarh - CPCC",16-02-2024 16:00:00,30.735567,76.775714,NO2,22,132,60
India,Chandigarh,Chandigarh,"Sector 22, Chandigarh - CPCC",16-02-2024 16:00:00,30.735567,76.775714,NH3,5,8,7
India,Chandigarh,Chandigarh,"Sector 22, Chandigarh - CPCC",16-02-2024 16:00:00,30.735567,76.775714,SO2,5,33,12
India,Chandigarh,Chandigarh,"Sector-25, Chandigarh - CPCC",16-02-2024 16:00:00,30.751462,76.762879,PM2.5,180,258,221
India,Chandigarh,Chandigarh,"Sector-25, Chandigarh - CPCC",16-02-2024 16:00:00,30.751462,76.762879,SO2,5,17,10
India,Chandigarh,Chandigarh,"Sector-53, Chandigarh - CPCC",16-02-2024 16:00:00,30.719859,76.738637,NO2,38,123,75
India,Chandigarh,Chandigarh,"Sector-53, Chandigarh - CPCC",16-02-2024 16:00:00,30.719859,76.738637,NH3,6,9,7
India,Chhattisgarh,Bhilai,"32Bungalows, Bhilai - CECB",16-02-2024 16:00:00,21.194815,81.314770,PM2.5,48,73,59
India,Chhattisgarh,Bhilai,"32Bungalows, Bhilai - CECB",16-02-2024 16:00:00,21.194815,81.314770,SO2,2,15,5
India,Chhattisgarh,Bhilai,"Civic Center, Bhilai - Bhilai Steel Plant",16-02-2024 16:00:00,21.185571,81.343175,NH3,NA,NA,NA
India,Chhattisgarh,Bhilai,"Hathkhoj, Bhilai - CECB",16-02-2024 16:00:00,21.224231,81.408350,NH3,7,8,8
India,Chhattisgarh,Bhilai,"Hathkhoj, Bhilai - CECB",16-02-2024 16:00:00,21.224231,81.408350,CO,16,41,26
India,Chhattisgarh,Bilaspur,"Mangala, Bilaspur - NTPC",16-02-2024 16:00:00,22.08815,82.13737,NO2,19,24,21
India,Chhattisgarh,Chhal,"Nawapara SECL Colony, Chhal - CECB",16-02-2024 16:00:00,22.118125,83.140608,PM10,39,194,66
India,Chhattisgarh,Chhal,"Nawapara SECL Colony, Chhal - CECB",16-02-2024 16:00:00,22.118125,83.140608,CO,46,92,60
India,Chhattisgarh,Korba,"Urja Nagar, Korba - CECB",16-02-2024 16:00:00,22.348441,82.549611,SO2,2,57,9
India,Chhattisgarh,Kunjemura,"OP Jindal School, Kunjemura - CECB",16-02-2024 16:00:00,22.126650,83.483212,PM2.5,43,71,54
India,Chhattisgarh,Kunjemura,"OP Jindal School, Kunjemura - CECB",16-02-2024 16:00:00,22.126650,83.483212,NO2,28,140,59
India,Chhattisgarh,Raipur,"AIIMS, Raipur - CECB",16-02-2024 16:00:00,21.258815,81.578979,PM2.5,42,152,74
India,Chhattisgarh,Raipur,"Bhatagaon New ISBT, Raipur - CECB",16-02-2024 16:00:00,21.219665,81.630094,PM2.5,39,63,50
India,Chhattisgarh,Raipur,"Bhatagaon New ISBT, Raipur - CECB",16-02-2024 16:00:00,21.219665,81.630094,NH3,1,2,1
India,Chhattisgarh,Raipur,"Bhatagaon New ISBT, Raipur - CECB",16-02-2024 16:00:00,21.219665,81.630094,OZONE,3,9,5
India,Chhattisgarh,Raipur,"Krishak Nagar, Raipur - CECB",16-02-2024 16:00:00,21.237755,81.705301,PM2.5,NA,NA,NA
India,Chhattisgarh,Raipur,"Krishak Nagar, Raipur - CECB",16-02-2024 16:00:00,21.237755,81.705301,NO2,NA,NA,NA
India,Chhattisgarh,Raipur,"Krishak Nagar, Raipur - CECB",16-02-2024 16:00:00,21.237755,81.705301,SO2,NA,NA,NA
India,Chhattisgarh,Raipur,"Siltara Phase-II, Raipur - CECB",16-02-2024 16:00:00,21.371751,81.664929,NH3,2,3,2
India,Chhattisgarh,Tumidih,"OP Jindal Industrial Park, Tumidih - CECB",16-02-2024 16:00:00,22.06631475,83.33820077,CO,23,54,38
India,Delhi,Delhi,"Alipur, Delhi - DPCC",16-02-2024 16:00:00,28.815329,77.153010,PM10,68,277,175
India,Delhi,Delhi,"Anand Vihar, Delhi - DPCC",16-02-2024 16:00:00,28.647622,77.3158090,CO,18,126,73
India,Delhi,Delhi,"Ashok Vihar, Delhi - DPCC",16-02-2024 16:00:00,28.695381,77.181665,NH3,6,9,8
India,Delhi,Delhi,"Bawana, Delhi - DPCC",16-02-2024 16:00:00,28.776200,77.051074,CO,17,86,41
India,Delhi,Delhi,"Bawana, Delhi - DPCC",16-02-2024 16:00:00,28.776200,77.051074,OZONE,3,128,67
India,Delhi,Delhi,"CRRI Mathura Road, Delhi - IMD",16-02-2024 16:00:00,28.5512005,77.2735737,OZONE,4,87,37
India,Delhi,Delhi,"Dr. Karni Singh Shooting Range, Delhi - DPCC",16-02-2024 16:00:00,28.498571,77.264840,NO2,41,154,101
India,Delhi,Delhi,"Dr. Karni Singh Shooting Range, Delhi - DPCC",16-02-2024 16:00:00,28.498571,77.264840,SO2,6,20,10
India,Delhi,Delhi,"Dr. Karni Singh Shooting Range, Delhi - DPCC",16-02-2024 16:00:00,28.498571,77.264840,OZONE,1,256,166
India,Delhi,Delhi,"IHBAS, Dilshad Garden, Delhi - CPCB",16-02-2024 16:00:00,28.6811736,77.3025234,PM2.5,98,308,181
India,Delhi,Delhi,"ITO, Delhi - CPCB",16-02-2024 16:00:00,28.628624,77.241060,SO2,6,37,20
India,Delhi,Delhi,"Jahangirpuri, Delhi - DPCC",16-02-2024 16:00:00,28.732820,77.170633,PM10,122,471,292
India,Delhi,Delhi,"Jawaharlal Nehru Stadium, Delhi - DPCC",16-02-2024 16:00:00,28.580280,77.233829,NH3,8,14,11
India,Delhi,Delhi,"Jawaharlal Nehru Stadium, Delhi - DPCC",16-02-2024 16:00:00,28.580280,77.233829,SO2,16,44,26
India,Delhi,Delhi,"Jawaharlal Nehru Stadium, Delhi - DPCC",16-02-2024 16:00:00,28.580280,77.233829,OZONE,1,187,98
India,Delhi,Delhi,"Lodhi Road, Delhi - IITM",16-02-2024 16:00:00,28.588333,77.221667,NO2,69,136,91
India,Delhi,Delhi,"Lodhi Road, Delhi - IITM",16-02-2024 16:00:00,28.588333,77.221667,SO2,22,48,32
India,Delhi,Delhi,"Lodhi Road, Delhi - IITM",16-02-2024 16:00:00,28.588333,77.221667,CO,62,69,65
India,Delhi,Delhi,"Lodhi Road, Delhi - IMD",16-02-2024 16:00:00,28.5918245,77.2273074,OZONE,14,91,54
India,Delhi,Delhi,"Major Dhyan Chand National Stadium, Delhi - DPCC",16-02-2024 16:00:00,28.611281,77.237738,SO2,5,24,12
India,Delhi,Delhi,"Major Dhyan Chand National Stadium, Delhi - DPCC",16-02-2024 16:00:00,28.611281,77.237738,OZONE,2,216,121
India,Delhi,Delhi,"Mundka, Delhi - DPCC",16-02-2024 16:00:00,28.684678,77.076574,PM10,126,495,283
India,Delhi,Delhi,"Mundka, Delhi - DPCC",16-02-2024 16:00:00,28.684678,77.076574,CO,28,112,46
India,Delhi,Delhi,"NSIT Dwarka, Delhi - CPCB",16-02-2024 16:00:00,28.60909,77.0325413,PM2.5,96,345,258
India,Delhi,Delhi,"NSIT Dwarka, Delhi - CPCB",16-02-2024 16:00:00,28.60909,77.0325413,OZONE,18,147,76
India,Delhi,Delhi,"Najafgarh, Delhi - DPCC",16-02-2024 16:00:00,28.570173,76.933762,NH3,NA,NA,NA
India,Delhi,Delhi,"Najafgarh, Delhi - DPCC",16-02-2024 16:00:00,28.570173,76.933762,SO2,NA,NA,NA
India,Delhi,Delhi,"Narela, Delhi - DPCC",16-02-2024 16:00:00,28.822836,77.101981,SO2,4,35,12
India,Delhi,Delhi,"Narela, Delhi - DPCC",16-02-2024 16:00:00,28.822836,77.101981,CO,28,74,47
India,Delhi,Delhi,"Nehru Nagar, Delhi - DPCC",16-02-2024 16:00:00,28.567890,77.250515,SO2,1,33,13
India,Delhi,Delhi,"Nehru Nagar, Delhi - DPCC",16-02-2024 16:00:00,28.567890,77.250515,OZONE,1,265,176
India,Delhi,Delhi,"New Moti Bagh, Delhi - MHUA",16-02-2024 16:00:00,28.57834,77.18400,CO,20,111,48
India,Delhi,Delhi,"Okhla Phase-2, Delhi - DPCC",16-02-2024 16:00:00,28.530785,77.271255,NH3,11,17,15
India,Delhi,Delhi,"Okhla Phase-2, Delhi - DPCC",16-02-2024 16:00:00,28.530785,77.271255,SO2,2,11,7
India,Delhi,Delhi,"Patparganj, Delhi - DPCC",16-02-2024 16:00:00,28.623763,77.287209,CO,12,105,33
India,Delhi,Delhi,"Patparganj, Delhi - DPCC",16-02-2024 16:00:00,28.623763,77.287209,OZONE,1,117,56
India,Delhi,Delhi,"Punjabi Bagh, Delhi - DPCC",16-02-2024 16:00:00,28.674045,77.131023,PM10,74,330,216
India,Delhi,Delhi,"Punjabi Bagh, Delhi - DPCC",16-02-2024 16:00:00,28.674045,77.131023,SO2,1,49,29
India,Delhi,Delhi,"Punjabi Bagh, Delhi - DPCC",16-02-2024 16:00:00,28.674045,77.131023,CO,28,102,45
India,Delhi,Delhi,"Pusa, Delhi - DPCC",16-02-2024 16:00:00,28.639652,77.146275,NH3,7,11,9
India,Delhi,Delhi,"R K Puram, Delhi - DPCC",16-02-2024 16:00:00,28.563262,77.186937,SO2,6,25,16
India,Delhi,Delhi,"Rohini, Delhi - DPCC",16-02-2024 16:00:00,28.732528,77.119920,NH3,7,16,11
India,Delhi,Delhi,"Shadipur, Delhi - CPCB",16-02-2024 16:00:00,28.6514781,77.1473105,PM10,163,410,249
India,Delhi,Delhi,"Sonia Vihar, Delhi - DPCC",16-02-2024 16:00:00,28.710508,77.249485,PM10,110,454,244
India,Delhi,Delhi,"Sonia Vihar, Delhi - DPCC",16-02-2024 16:00:00,28.710508,77.249485,NO2,32,122,70
India,Delhi,Delhi,"Sonia Vihar, Delhi - DPCC",16-02-2024 16:00:00,28.710508,77.249485,SO2,8,23,13
India,Delhi,Delhi,"Sri Aurobindo Marg, Delhi - DPCC",16-02-2024 16:00:00,28.531346,77.190156,SO2,8,27,13
India,Delhi,Delhi,"Vivek Vihar, Delhi - DPCC",16-02-2024 16:00:00,28.672342,77.315260,PM2.5,113,366,280
India,Delhi,Delhi,"Wazirpur, Delhi - DPCC",16-02-2024 16:00:00,28.699793,77.165453,NO2,63,225,148
India,Delhi,Delhi,"Wazirpur, Delhi - DPCC",16-02-2024 16:00:00,28.699793,77.165453,SO2,18,58,36
India,Gujarat,Ahmedabad,"Gyaspur, Ahmedabad - IITM",16-02-2024 16:00:00,22.977134,72.553024,PM2.5,146,286,199
India,Gujarat,Ahmedabad,"Maninagar, Ahmedabad - GPCB",16-02-2024 16:00:00,23.002657,72.591912,CO,16,96,42
India,Gujarat,Ahmedabad,"SAC ISRO Bopal, Ahmedabad - IITM",16-02-2024 16:00:00,23.041137,72.456691,PM10,88,286,138
India,Gujarat,Ahmedabad,"SVPI Airport Hansol, Ahmedabad - IITM",16-02-2024 16:00:00,23.076793,72.627874,CO,26,44,33
India,Gujarat,Ahmedabad,"Sardar Vallabhbhai Patel Stadium, Ahmedabad - IITM",16-02-2024 16:00:00,23.043070,72.562968,OZONE,5,11,9
India,Gujarat,Ankleshwar,"GIDC, Ankleshwar - GPCB",16-02-2024 16:00:00,21.613267,73.010555,NO2,34,35,34
India,Gujarat,Gandhinagar,"GIFT City, Gandhinagar - IITM",16-02-2024 16:00:00,23.163798,72.677768,OZONE,1,10,5
India,Gujarat,Gandhinagar,"IIPHG Lekawada, Gandhinagar - IITM",16-02-2024 16:00:00,23.243639,72.68994,NH3,3,3,3
India,Gujarat,Gandhinagar,"Sector-10, Gandhinagar - GPCB",16-02-2024 16:00:00,23.221714,72.654328,PM10,74,120,100
India,Gujarat,Gandhinagar,"Sector-10, Gandhinagar - GPCB",16-02-2024 16:00:00,23.221714,72.654328,OZONE,5,42,36
India,Gujarat,Surat,"Science Center, Surat - SMC",16-02-2024 16:00:00,21.170046,72.795405,PM2.5,14,75,47
India,Gujarat,Surat,"Science Center, Surat - SMC",16-02-2024 16:00:00,21.170046,72.795405,NO2,5,11,7
India,Gujarat,Vapi,"Phase-1 GIDC, Vapi - GPCB",16-02-2024 16:00:00,20.362421,72.918013,PM2.5,55,388,263
India,Gujarat,Vapi,"Phase-1 GIDC, Vapi - GPCB",16-02-2024 16:00:00,20.362421,72.918013,NH3,16,18,17
India,Haryana,Ambala,"Patti Mehar, Ambala - HSPCB",16-02-2024 16:00:00,30.379589,76.778328,NO2,2,258,201
India,Haryana,Ambala,"Patti Mehar, Ambala - HSPCB",16-02-2024 16:00:00,30.379589,76.778328,NH3,1,3,2
India,Haryana,Bahadurgarh,"Arya Nagar, Bahadurgarh - HSPCB",16-02-2024 16:00:00,28.6701,76.9254,OZONE,38,50,43
India,Haryana,Ballabgarh,"Nathu Colony, Ballabgarh - HSPCB",16-02-2024 16:00:00,28.3419248,77.319699,NH3,1,2,2
India,Haryana,Bhiwani,"H.B. Colony, Bhiwani - HSPCB",16-02-2024 16:00:00,28.806223,76.141105,PM2.5,109,307,231
India,Haryana,Bhiwani,"H.B. Colony, Bhiwani - HSPCB",16-02-2024 16:00:00,28.806223,76.141105,CO,28,60,43
India,Haryana,Charkhi Dadri,"Mini Secretariat, Charkhi Dadri - HSPCB",16-02-2024 16:00:00,28.593883,76.270653,SO2,16,24,20
India,Haryana,Faridabad,"New Industrial Town, Faridabad - HSPCB",16-02-2024 16:00:00,28.39072,77.30059,PM10,130,246,191
India,Haryana,Faridabad,"New Industrial Town, Faridabad - HSPCB",16-02-2024 16:00:00,28.39072,77.30059,NO2,6,16,12
India,Haryana,Faridabad,"Sector 11, Faridabad - HSPCB",16-02-2024 16:00:00,28.376058,77.315741,PM10,NA,NA,NA
India,Haryana,Faridabad,"Sector 30, Faridabad - HSPCB",16-02-2024 16:00:00,28.4417,77.3217,PM2.5,123,165,137
India,Haryana,Faridabad,"Sector 30, Faridabad - HSPCB",16-02-2024 16:00:00,28.4417,77.3217,CO,15,113,23
India,Haryana,Faridabad,"Sector- 16A, Faridabad - HSPCB",16-02-2024 16:00:00,28.4088421,77.3099081,NO2,1,22,9
India,Haryana,Fatehabad,"Huda Sector, Fatehabad - HSPCB",16-02-2024 16:00:00,29.503664,75.467934,PM10,94,138,115
India,Haryana,Fatehabad,"Huda Sector, Fatehabad - HSPCB",16-02-2024 16:00:00,29.503664,75.467934,OZONE,20,38,28
India,Haryana,Gurugram,"Sector-51, Gurugram - HSPCB",16-02-2024 16:00:00,28.4227,77.0667,OZONE,27,67,56
India,Haryana,Gurugram,"Teri Gram, Gurugram - HSPCB",16-02-2024 16:00:00,28.4275,77.1465,NO2,11,51,36
India,Haryana,Gurugram,"Teri Gram, Gurugram - HSPCB",16-02-2024 16:00:00,28.4275,77.1465,OZONE,10,24,10
India,Haryana,Gurugram,"Vikas Sadan, Gurugram - HSPCB",16-02-2024 16:00:00,28.4501238,77.0263051,NO2,5,26,14
India,Haryana,Gurugram,"Vikas Sadan, Gurugram - HSPCB",16-02-2024 16:00:00,28.4501238,77.0263051,OZONE,8,68,46
India,Haryana,Hisar,"Urban Estate-II, Hisar - HSPCB",16-02-2024 16:00:00,29.140560,75.744941,OZONE,28,183,116
India,Haryana,Jind,"Police Lines, Jind - HSPCB",16-02-2024 16:00:00,29.307814,76.337619,CO,2,128,46
India,Haryana,Kurukshetra,"Sector-7, Kurukshetra - HSPCB",16-02-2024 16:00:00,29.966942,76.875879,NO2,10,10,10
India,Haryana,Mandikhera,"General Hospital, Mandikhera - HSPCB",16-02-2024 16:00:00,27.9002,76.9938,NH3,18,21,19
India,Haryana,Mandikhera,"General Hospital, Mandikhera - HSPCB",16-02-2024 16:00:00,27.9002,76.9938,CO,27,162,72
India,Haryana,Manesar,"Sector-2 IMT, Manesar - HSPCB",16-02-2024 16:00:00,28.360699,76.936090,PM10,62,172,116
India,Haryana,Manesar,"Sector-2 IMT, Manesar - HSPCB",16-02-2024 16:00:00,28.360699,76.936090,CO,23,101,40
India,Haryana,Manesar,"Sector-2 IMT, Manesar - HSPCB",16-02-2024 16:00:00,28.360699,76.936090,OZONE,5,57,40
India,Haryana,Narnaul,"Shastri Nagar, Narnaul - HSPCB",16-02-2024 16:00:00,28.060249,76.113115,NO2,16,58,35
India,Haryana,Narnaul,"Shastri Nagar, Narnaul - HSPCB",16-02-2024 16:00:00,28.060249,76.113115,SO2,13,46,16
India,Haryana,Palwal,"Shyam Nagar, Palwal - HSPCB",16-02-2024 16:00:00,28.1485564,77.3320667,PM10,115,161,139
India,Haryana,Palwal,"Shyam Nagar, Palwal - HSPCB",16-02-2024 16:00:00,28.1485564,77.3320667,SO2,10,27,18
India,Haryana,Palwal,"Shyam Nagar, Palwal - HSPCB",16-02-2024 16:00:00,28.1485564,77.3320667,OZONE,5,52,31
India,Haryana,Rohtak,"MD University, Rohtak - HSPCB",16-02-2024 16:00:00,28.52123,76.37138,NO2,46,57,52
India,Haryana,Sirsa,"F-Block, Sirsa - HSPCB",16-02-2024 16:00:00,29.536400,75.015800,NO2,10,10,10
India,Haryana,Sonipat,"Murthal, Sonipat - HSPCB",16-02-2024 16:00:00,29.027200,77.062100,PM10,101,136,117
India,Haryana,Yamuna Nagar,"Gobind Pura, Yamuna Nagar - HSPCB",16-02-2024 16:00:00,30.1480566,77.2893471,NH3,1,3,2
India,Haryana,Yamuna Nagar,"Gobind Pura, Yamuna Nagar - HSPCB",16-02-2024 16:00:00,30.1480566,77.2893471,SO2,3,43,9
India,Himachal Pradesh,Baddi,"HIMUDA Complex Phase-1, Baddi - HPPCB",16-02-2024 16:00:00,30.943887,76.801991,NO2,18,114,50
India,Himachal Pradesh,Baddi,"HIMUDA Complex Phase-1, Baddi - HPPCB",16-02-2024 16:00:00,30.943887,76.801991,OZONE,11,144,89
India,Jharkhand,Dhanbad,"Kalakusuma, Dhanbad - DMC",16-02-2024 16:00:00,23.811548,86.481238,PM10,NA,NA,NA
India,Jharkhand,Dhanbad,"Sardar Patel Nagar, Dhanbad - JSPCB",16-02-2024 16:00:00,23.80569,86.44268,PM10,NA,NA,NA
India,Jharkhand,Dhanbad,"Sardar Patel Nagar, Dhanbad - JSPCB",16-02-2024 16:00:00,23.80569,86.44268,CO,84,165,165
India,Jharkhand,Pathardih,"Mohalbani Ghat, Pathardih - DMC",16-02-2024 16:00:00,23.669880,86.411725,NO2,14,282,187
India,Karnataka,Bagalkot,"Vidayagiri, Bagalkot - KSPCB",16-02-2024 16:00:00,16.172806,75.659694,PM10,42,42,42
India,Karnataka,Bagalkot,"Vidayagiri, Bagalkot - KSPCB",16-02-2024 16:00:00,16.172806,75.659694,NH3,1,2,1
India,Karnataka,Belgaum,"Ramteerth Nagar, Belgaum - KSPCB",16-02-2024 16:00:00,15.888653,74.541751,PM2.5,18,102,45
India,Karnataka,Belgaum,"Ramteerth Nagar, Belgaum - KSPCB",16-02-2024 16:00:00,15.888653,74.541751,NO2,24,33,28
India,Karnataka,Belgaum,"Ramteerth Nagar, Belgaum - KSPCB",16-02-2024 16:00:00,15.888653,74.541751,NH3,33,34,34
India,Karnataka,Belgaum,"Ramteerth Nagar, Belgaum - KSPCB",16-02-2024 16:00:00,15.888653,74.541751,SO2,8,9,8
India,Karnataka,Belgaum,"Ramteerth Nagar, Belgaum - KSPCB",16-02-2024 16:00:00,15.888653,74.541751,CO,24,52,49
India,Karnataka,Bengaluru,"Bapuji Nagar, Bengaluru - KSPCB",16-02-2024 16:00:00,12.951913,77.539784,CO,34,46,40
India,Karnataka,Bengaluru,"Hebbal, Bengaluru - KSPCB",16-02-2024 16:00:00,13.029152,77.585901,NO2,NA,NA,NA
India,Karnataka,Bengaluru,"Hombegowda Nagar, Bengaluru - KSPCB",16-02-2024 16:00:00,12.938539,77.590100,NO2,32,43,36
India,Karnataka,Bengaluru,"Jayanagar 5th Block, Bengaluru - KSPCB",16-02-2024 16:00:00,12.920984,77.584908,OZONE,18,19,18
India,Karnataka,Bengaluru,"Jigani, Bengaluru - KSPCB",16-02-2024 16:00:00,12.7816279,77.6299145,PM10,NA,NA,NA
India,Karnataka,Bengaluru,"Jigani, Bengaluru - KSPCB",16-02-2024 16:00:00,12.7816279,77.6299145,NO2,31,32,32
India,Karnataka,Bengaluru,"Jigani, Bengaluru - KSPCB",16-02-2024 16:00:00,12.7816279,77.6299145,CO,42,110,48
India,Karnataka,Bengaluru,"Kasturi Nagar, Bengaluru - KSPCB",16-02-2024 16:00:00,13.003872,77.664217,PM2.5,63,125,87
India,Karnataka,Bengaluru,"Kasturi Nagar, Bengaluru - KSPCB",16-02-2024 16:00:00,13.003872,77.664217,PM10,84,148,117
India,Karnataka,Bengaluru,"Kasturi Nagar, Bengaluru - KSPCB",16-02-2024 16:00:00,13.003872,77.664217,NH3,3,4,4
India,Karnataka,Bengaluru,"Kasturi Nagar, Bengaluru - KSPCB",16-02-2024 16:00:00,13.003872,77.664217,SO2,10,10,10
India,Karnataka,Bengaluru,"Shivapura_Peenya, Bengaluru - KSPCB",16-02-2024 16:00:00,13.0246342,77.5080115,NO2,15,16,16
India,Karnataka,Bidar,"Naubad, Bidar - KSPCB",16-02-2024 16:00:00,17.930306,77.482194,NH3,3,3,3
India,Karnataka,Bidar,"Naubad, Bidar - KSPCB",16-02-2024 16:00:00,17.930306,77.482194,SO2,15,17,16
India,Karnataka,Chamarajanagar,"Urban, Chamarajanagar - KSPCB",16-02-2024 16:00:00,11.55358,76.55521,PM2.5,25,51,34
India,Karnataka,Chamarajanagar,"Urban, Chamarajanagar - KSPCB",16-02-2024 16:00:00,11.55358,76.55521,NO2,23,43,31
India,Karnataka,Chamarajanagar,"Urban, Chamarajanagar - KSPCB",16-02-2024 16:00:00,11.55358,76.55521,CO,25,32,28
India,Karnataka,Chikkaballapur,"Chikkaballapur Rural, Chikkaballapur - KSPCB",16-02-2024 16:00:00,13.428828,77.731418,PM10,53,121,72
India,Karnataka,Chikkamagaluru,"Kalyana Nagara, Chikkamagaluru - KSPCB",16-02-2024 16:00:00,13.328028,75.797056,NH3,NA,NA,NA
India,Karnataka,Dharwad,"Kalabhavan, Dharwad - KSPCB",16-02-2024 16:00:00,15.459706,75.008381,PM10,54,123,82
India,Karnataka,Dharwad,"Kalabhavan, Dharwad - KSPCB",16-02-2024 16:00:00,15.459706,75.008381,SO2,4,11,7
India,Karnataka,Hassan,"B.Katihalli, Hassan - KSPCB",16-02-2024 16:00:00,13.008556,76.125258,PM2.5,12,87,61
India,Karnataka,Haveri,"Ashwini Nagar, Haveri - KSPCB",16-02-2024 16:00:00,14.791800,75.389600,NO2,27,41,33
India,Karnataka,Haveri,"Ashwini Nagar, Haveri - KSPCB",16-02-2024 16:00:00,14.791800,75.389600,SO2,13,14,14
India,Karnataka,Hubballi,"Lingaraj Nagar, Hubballi - KSPCB",16-02-2024 16:00:00,15.3714823,75.1160168,OZONE,9,40,32
India,Karnataka,Kalaburagi,"Lal Bahadur Shastri Nagar, Kalaburagi - KSPCB",16-02-2024 16:00:00,17.321993,76.822628,SO2,14,18,15
India,Karnataka,Kalaburagi,"Mahatma Basaveswar Colony, Kalaburgi - KSPCB",16-02-2024 16:00:00,17.336318,76.847397,NO2,13,31,16
India,Karnataka,Kalaburagi,"Mahatma Basaveswar Colony, Kalaburgi - KSPCB",16-02-2024 16:00:00,17.336318,76.847397,CO,32,46,39
India,Karnataka,Karwar,"KHB Colony, Karwar - KSPCB",16-02-2024 16:00:00,14.816666,74.141003,PM2.5,47,243,85
India,Karnataka,Karwar,"KHB Colony, Karwar - KSPCB",16-02-2024 16:00:00,14.816666,74.141003,NO2,5,28,9
India,Karnataka,Kolar,"Tamaka Ind. Area, Kolar - KSPCB",16-02-2024 16:00:00,13.1276288,78.1570122,NH3,NA,NA,NA
India,Karnataka,Koppal,"Diwator Nagar, Koppal - KSPCB",16-02-2024 16:00:00,15.347630,76.181767,PM10,25,97,62
India,Karnataka,Madikeri,"Stuart Hill, Madikeri - KSPCB",16-02-2024 16:00:00,12.415911,75.735050,PM10,19,59,42
India,Karnataka,Madikeri,"Stuart Hill, Madikeri - KSPCB",16-02-2024 16:00:00,12.415911,75.735050,NO2,6,18,9
India,Karnataka,Mangalore,"Kadri, Mangalore - KSPCB",16-02-2024 16:00:00,12.889250,74.853000,PM2.5,57,109,75
India,Karnataka,Mangalore,"Kadri, Mangalore - KSPCB",16-02-2024 16:00:00,12.889250,74.853000,SO2,NA,NA,NA
India,Karnataka,Ramanagara,"Vijay Nagar, Ramanagara - KSPCB",16-02-2024 16:00:00,12.733409,77.298051,PM2.5,33,102,59
India,Karnataka,Ramanagara,"Vijay Nagar, Ramanagara - KSPCB",16-02-2024 16:00:00,12.733409,77.298051,SO2,24,34,28
India,Karnataka,Ramanagara,"Vijay Nagar, Ramanagara - KSPCB",16-02-2024 16:00:00,12.733409,77.298051,OZONE,28,30,29
India,Karnataka,Shivamogga,"Vinoba Nagara, Shivamogga - KSPCB",16-02-2024 16:00:00,13.940000,75.555917,PM10,50,79,63
India,Karnataka,Shivamogga,"Vinoba Nagara, Shivamogga - KSPCB",16-02-2024 16:00:00,13.940000,75.555917,OZONE,6,69,45
India,Karnataka,Tumakuru,"Thimmalapura, Tumakuru - KSPCB",16-02-2024 16:00:00,13.377516,77.099072,PM2.5,NA,NA,NA
India,Karnataka,Udupi,"Brahmagiri, Udupi - KSPCB",16-02-2024 16:00:00,13.34194444,74.74694444,OZONE,23,23,23
India,Karnataka,Vijayapura,"Ibrahimpur, Vijayapura - KSPCB",16-02-2024 16:00:00,16.802639,75.722694,PM10,38,40,39
India,Karnataka,Yadgir,"Collector Office, Yadgir - KSPCB",16-02-2024 16:00:00,16.7602,77.1428,PM2.5,22,54,31
India,Karnataka,Yadgir,"Collector Office, Yadgir - KSPCB",16-02-2024 16:00:00,16.7602,77.1428,NH3,NA,NA,NA
India,Kerala,Kannur,"Thavakkara, Kannur - Kerala PCB",16-02-2024 16:00:00,11.875000,75.373200,CO,28,34,32
India,Kerala,Kochi,"Vyttila, Kochi - Kerala PCB",16-02-2024 16:00:00,9.969447,76.321186,PM2.5,52,189,106
India,Kerala,Kochi,"Vyttila, Kochi - Kerala PCB",16-02-2024 16:00:00,9.969447,76.321186,NH3,3,3,3
India,Kerala,Kochi,"Vyttila, Kochi - Kerala PCB",16-02-2024 16:00:00,9.969447,76.321186,SO2,3,19,10
India,Kerala,Kollam,"Polayathode, Kollam - Kerala PCB",16-02-2024 16:00:00,8.8787,76.6073,PM10,61,96,79
India,Kerala,Thiruvananthapuram,"Kariavattom, Thiruvananthapuram - Kerala PCB",16-02-2024 16:00:00,8.563700,76.886500,PM10,76,89,83
India,Kerala,Thiruvananthapuram,"Plammoodu, Thiruvananthapuram - Kerala PCB",16-02-2024 16:00:00,8.5149093,76.9435879,PM2.5,18,61,34
India,Kerala,Thrissur,"Corporation Ground, Thrissur - Kerala PCB",16-02-2024 16:00:00,10.532400,76.215900,PM10,53,60,58
India,Kerala,Thrissur,"Corporation Ground, Thrissur - Kerala PCB",16-02-2024 16:00:00,10.532400,76.215900,NO2,9,10,10
India,Madhya Pradesh,Bhopal,"Idgah Hills, Bhopal - MPPCB",16-02-2024 16:00:00,23.264759,77.381568,SO2,9,17,11
India,Madhya Pradesh,Bhopal,"Idgah Hills, Bhopal - MPPCB",16-02-2024 16:00:00,23.264759,77.381568,OZONE,30,105,82
India,Madhya Pradesh,Bhopal,"T T Nagar, Bhopal - MPPCB",16-02-2024 16:00:00,23.233584,77.400574,NH3,4,7,6
India,Madhya Pradesh,Gwalior,"City Center, Gwalior - MPPCB",16-02-2024 16:00:00,26.203442,78.193251,PM2.5,95,356,281
India,Madhya Pradesh,Gwalior,"City Center, Gwalior - MPPCB",16-02-2024 16:00:00,26.203442,78.193251,CO,26,130,49
India,Madhya Pradesh,Gwalior,"Maharaj Bada, Gwalior - MPPCB",16-02-2024 16:00:00,26.200388,78.147714,PM10,101,423,199
India,Madhya Pradesh,Gwalior,"Phool Bagh, Gwalior - Mondelez Ind. Food",16-02-2024 16:00:00,26.210536,78.171,PM2.5,NA,NA,NA
India,Madhya Pradesh,Gwalior,"Phool Bagh, Gwalior - Mondelez Ind. Food",16-02-2024 16:00:00,26.210536,78.171,SO2,NA,NA,NA
India,Madhya Pradesh,Gwalior,"Phool Bagh, Gwalior - Mondelez Ind. Food",16-02-2024 16:00:00,26.210536,78.171,CO,28,54,36
India,Madhya Pradesh,Indore,"Chhoti Gwaltoli, Indore - MPPCB",16-02-2024 16:00:00,22.4310,75.5213,SO2,13,29,17
India,Madhya Pradesh,Indore,"Regional Park, Indore - IMC",16-02-2024 16:00:00,22.6780,75.8559,PM2.5,41,85,63
India,Madhya Pradesh,Indore,"Regional Park, Indore - IMC",16-02-2024 16:00:00,22.6780,75.8559,PM10,32,71,51
India,Madhya Pradesh,Indore,"Residency Area, Indore - IMC",16-02-2024 16:00:00,22.7084,75.8815,PM10,47,95,66
India,Madhya Pradesh,Indore,"Residency Area, Indore - IMC",16-02-2024 16:00:00,22.7084,75.8815,SO2,21,22,22
India,Madhya Pradesh,Jabalpur,"Govindh Bhavan Colony, Jabalpur - JMC",16-02-2024 16:00:00,23.163174,79.973061,NH3,2,2,2
India,Madhya Pradesh,Jabalpur,"Gupteshwar, Jabalpur - JMC",16-02-2024 16:00:00,23.142888,79.916147,PM2.5,NA,NA,NA
India,Madhya Pradesh,Jabalpur,"Gupteshwar, Jabalpur - JMC",16-02-2024 16:00:00,23.142888,79.916147,NH3,NA,NA,NA
India,Madhya Pradesh,Jabalpur,"Gupteshwar, Jabalpur - JMC",16-02-2024 16:00:00,23.142888,79.916147,SO2,NA,NA,NA
India,Madhya Pradesh,Jabalpur,"Marhatal, Jabalpur - MPPCB",16-02-2024 16:00:00,23.168606,79.932247,CO,46,114,55
India,Madhya Pradesh,Maihar,"Sahilara, Maihar - KJS Cements",16-02-2024 16:00:00,24.2613009,80.7231783,NO2,14,14,14
India,Madhya Pradesh,Maihar,"Sahilara, Maihar - KJS Cements",16-02-2024 16:00:00,24.2613009,80.7231783,SO2,14,16,14
India,Madhya Pradesh,Mandideep,"Sector-D Industrial Area, Mandideep - MPPCB",16-02-2024 16:00:00,23.108440,77.511428,NH3,10,12,11
India,Madhya Pradesh,Pithampur,"Sector-2 Industrial Area, Pithampur - MPPCB",16-02-2024 16:00:00,22.624758,75.675238,PM10,102,180,128
India,Madhya Pradesh,Ratlam,"Shasthri Nagar, Ratlam - IPCA Lab",16-02-2024 16:00:00,23.331731,75.045981,PM2.5,31,149,95
India,Madhya Pradesh,Ratlam,"Shasthri Nagar, Ratlam - IPCA Lab",16-02-2024 16:00:00,23.331731,75.045981,SO2,37,39,38
India,Madhya Pradesh,Sagar,"Civil Lines, Sagar - MPPCB",16-02-2024 16:00:00,23.838586,78.759431,PM10,65,123,102
India,Madhya Pradesh,Sagar,"Deen Dayal Nagar, Sagar - MPPCB",16-02-2024 16:00:00,23.8640158,78.80289321,NO2,15,24,23
India,Madhya Pradesh,Satna,"Bandhavgar Colony, Satna - Birla Cement",16-02-2024 16:00:00,24.58434363,80.8549414,SO2,5,5,5
India,Madhya Pradesh,Singrauli,"Suryakiran Bhawan NCL, Singrauli - MPPCB",16-02-2024 16:00:00,24.108970,82.645580,PM2.5,NA,NA,NA
India,Madhya Pradesh,Ujjain,"Mahakaleshwar Temple, Ujjain - MPPCB",16-02-2024 16:00:00,23.182719 ,75.768218 ,CO,32,61,43
India,Madhya Pradesh,Ujjain,"Mahakaleshwar Temple, Ujjain - MPPCB",16-02-2024 16:00:00,23.182719 ,75.768218 ,OZONE,124,148,133
India,Maharashtra,Akola,"Ramdaspeth, Akola - MPCB",16-02-2024 16:00:00,20.719516,77.000253,PM2.5,45,110,72
India,Maharashtra,Akola,"Ramdaspeth, Akola - MPCB",16-02-2024 16:00:00,20.719516,77.000253,NH3,4,9,6
India,Maharashtra,Akola,"Ramdaspeth, Akola - MPCB",16-02-2024 16:00:00,20.719516,77.000253,SO2,8,28,13
India,Maharashtra,Amravati,"Shivneri Colony, Amravati - MPCB",16-02-2024 16:00:00,20.9402359,77.7895248,NH3,1,2,1
India,Maharashtra,Amravati,"Shri Shivaji Science College, Amaravati - MPCB",16-02-2024 16:00:00,20.939198,77.765701,NH3,3,5,4
India,Maharashtra,Aurangabad,"MIDC Chilkalthana, Aurangabad - MPCB",16-02-2024 16:00:00,19.875620,75.387310,NH3,3,4,4
India,Maharashtra,Aurangabad,"More Chowk Waluj, Aurangabad - MPCB",16-02-2024 16:00:00,19.8389439,75.244448,SO2,10,11,10
India,Maharashtra,Aurangabad,"More Chowk Waluj, Aurangabad - MPCB",16-02-2024 16:00:00,19.8389439,75.244448,CO,9,105,24
India,Maharashtra,Aurangabad,"More Chowk Waluj, Aurangabad - MPCB",16-02-2024 16:00:00,19.8389439,75.244448,OZONE,1,15,7
India,Maharashtra,Badlapur,"Katrap, Badlapur - MPCB",16-02-2024 16:00:00,19.16485,73.23409,NO2,24,107,47
India,Maharashtra,Badlapur,"Katrap, Badlapur - MPCB",16-02-2024 16:00:00,19.16485,73.23409,OZONE,2,142,67
India,Maharashtra,Belapur,"CBD Belapur, Belapur - MPCB",16-02-2024 16:00:00,19.0243902,73.0406721,NO2,38,98,65
India,Maharashtra,Bhiwandi,"Gokul Nagar, Bhiwandi - MPCB",16-02-2024 16:00:00,19.309073,73.057223,PM10,45,213,147
India,Maharashtra,Bhiwandi,"Gokul Nagar, Bhiwandi - MPCB",16-02-2024 16:00:00,19.309073,73.057223,NH3,1,3,2
India,Maharashtra,Boisar,"Khaira, Boisar - MPCB",16-02-2024 16:00:00,19.786089,72.757971,PM2.5,NA,NA,NA
India,Maharashtra,Boisar,"Khaira, Boisar - MPCB",16-02-2024 16:00:00,19.786089,72.757971,NO2,NA,NA,NA
India,Maharashtra,Boisar,"Khaira, Boisar - MPCB",16-02-2024 16:00:00,19.786089,72.757971,SO2,NA,NA,NA
India,Maharashtra,Boisar,"Khaira, Boisar - MPCB",16-02-2024 16:00:00,19.786089,72.757971,CO,31,79,34
India,Maharashtra,Chandrapur,"Chauhan Colony, Chandrapur - MPCB",16-02-2024 16:00:00,19.962900,79.298714,NO2,12,33,20
India,Maharashtra,Chandrapur,"MIDC Khutala, Chandrapur - MPCB",16-02-2024 16:00:00,19.9775302,79.2337086,NH3,NA,NA,NA
India,Maharashtra,Chandrapur,"MIDC Khutala, Chandrapur - MPCB",16-02-2024 16:00:00,19.9775302,79.2337086,SO2,NA,NA,NA
India,Maharashtra,Chandrapur,"MIDC Khutala, Chandrapur - MPCB",16-02-2024 16:00:00,19.9775302,79.2337086,CO,21,76,28
India,Maharashtra,Dhule,"Deopur, Dhule - MPCB",16-02-2024 16:00:00,20.918946,74.776388,OZONE,8,64,43
India,Maharashtra,Jalgaon,"Prabhat Colony, Jalgaon - MPCB",16-02-2024 16:00:00,21.001264,75.565602,SO2,5,53,15
India,Maharashtra,Jalna,"Old MIDC, Jalna - MPCB",16-02-2024 16:00:00,19.854616,75.905894,PM2.5,NA,NA,NA
India,Maharashtra,Jalna,"Old MIDC, Jalna - MPCB",16-02-2024 16:00:00,19.854616,75.905894,PM10,NA,NA,NA
India,Maharashtra,Kalyan,"Khadakpada, Kalyan - MPCB",16-02-2024 16:00:00,19.25292,73.142019,SO2,25,81,43
India,Maharashtra,Kolhapur,"Shivaji University, Kolhapur - MPCB",16-02-2024 16:00:00,16.6870449,74.2505872,PM2.5,110,201,149
India,Maharashtra,Latur,"Sawe Wadi, Latur - MPCB",16-02-2024 16:00:00,18.39963,76.57452,NO2,16,128,44
India,Maharashtra,Latur,"Sawe Wadi, Latur - MPCB",16-02-2024 16:00:00,18.39963,76.57452,SO2,2,9,5
India,Maharashtra,Mahad,"Kamble Tarf Birwadi, Mahad - MPCB",16-02-2024 16:00:00,18.1023399,73.4783687,NO2,22,26,24
India,Maharashtra,Mahad,"Kamble Tarf Birwadi, Mahad - MPCB",16-02-2024 16:00:00,18.1023399,73.4783687,SO2,12,14,13
India,Maharashtra,Malegaon,"Mahesh Nagar, Malegaon - MPCB",16-02-2024 16:00:00,20.555712,74.529236,PM2.5,80,221,119
India,Maharashtra,Malegaon,"Mahesh Nagar, Malegaon - MPCB",16-02-2024 16:00:00,20.555712,74.529236,NO2,5,21,11
India,Maharashtra,Mumbai,"Byculla, Mumbai - BMC",16-02-2024 16:00:00,18.9767,72.8380,SO2,1,10,3
India,Maharashtra,Mumbai,"Chembur, Mumbai - MPCB",16-02-2024 16:00:00,19.0364585,72.8954371,PM10,128,190,161
India,Maharashtra,Mumbai,"Chhatrapati Shivaji Intl. Airport (T2), Mumbai - MPCB",16-02-2024 16:00:00,19.10078,72.87462,CO,67,116,104
India,Maharashtra,Mumbai,"Ghatkopar, Mumbai - BMC",16-02-2024 16:00:00,19.083694,72.920967,PM10,104,154,127
India,Maharashtra,Mumbai,"Kandivali East, Mumbai - MPCB",16-02-2024 16:00:00,19.205800,72.868200,PM2.5,30,76,56
India,Maharashtra,Mumbai,"Kandivali East, Mumbai - MPCB",16-02-2024 16:00:00,19.205800,72.868200,SO2,65,73,68
India,Maharashtra,Mumbai,"Kandivali East, Mumbai - MPCB",16-02-2024 16:00:00,19.205800,72.868200,OZONE,30,31,30
India,Maharashtra,Mumbai,"Kandivali West, Mumbai - BMC",16-02-2024 16:00:00,19.215859,72.831718,NH3,1,3,2
India,Maharashtra,Mumbai,"Kherwadi_Bandra East, Mumbai - MPCB",16-02-2024 16:00:00,19.0632143,72.8456324,OZONE,1,81,38
India,Maharashtra,Mumbai,"Khindipada-Bhandup West, Mumbai - IITM",16-02-2024 16:00:00,19.1653323,72.922099,SO2,1,8,3
India,Maharashtra,Mumbai,"Malad West, Mumbai - IITM",16-02-2024 16:00:00,19.19709,72.82204,PM2.5,189,337,300
India,Maharashtra,Mumbai,"Mazgaon, Mumbai - IITM",16-02-2024 16:00:00,18.96702,72.84214,PM2.5,186,363,258
India,Maharashtra,Mumbai,"Mazgaon, Mumbai - IITM",16-02-2024 16:00:00,18.96702,72.84214,NO2,37,98,61
India,Maharashtra,Mumbai,"Mazgaon, Mumbai - IITM",16-02-2024 16:00:00,18.96702,72.84214,SO2,1,36,14
India,Maharashtra,Mumbai,"Mindspace-Malad West, Mumbai - MPCB",16-02-2024 16:00:00,19.1878657,72.8304069,SO2,5,17,10
India,Maharashtra,Mumbai,"Navy Nagar-Colaba, Mumbai - IITM",16-02-2024 16:00:00,18.897756,72.813320,OZONE,3,222,222
India,Maharashtra,Mumbai,"Powai, Mumbai - MPCB",16-02-2024 16:00:00,19.137500,72.915056,PM10,91,169,131
India,Maharashtra,Mumbai,"Powai, Mumbai - MPCB",16-02-2024 16:00:00,19.137500,72.915056,NO2,8,43,28
India,Maharashtra,Mumbai,"Powai, Mumbai - MPCB",16-02-2024 16:00:00,19.137500,72.915056,NH3,1,7,1
India,Maharashtra,Mumbai,"Sewri, Mumbai - BMC",16-02-2024 16:00:00,19.000084,72.856730,CO,18,70,60
India,Maharashtra,Mumbai,"Siddharth Nagar-Worli, Mumbai - IITM",16-02-2024 16:00:00,19.000083,72.813993,PM10,162,412,235
India,Maharashtra,Mumbai,"Sion, Mumbai - MPCB",16-02-2024 16:00:00,19.047000,72.874600,CO,18,78,51
India,Maharashtra,Mumbai,"Sion, Mumbai - MPCB",16-02-2024 16:00:00,19.047000,72.874600,OZONE,13,40,21
India,Maharashtra,Mumbai,"Vasai West, Mumbai - MPCB",16-02-2024 16:00:00,19.383200,72.820400,NO2,24,36,28
India,Maharashtra,Mumbai,"Vile Parle West, Mumbai - MPCB",16-02-2024 16:00:00,19.10861,72.83622,PM2.5,62,187,125
India,Maharashtra,Mumbai,"Worli, Mumbai - MPCB",16-02-2024 16:00:00,18.9936162,72.8128113,OZONE,6,11,8
India,Maharashtra,Nagpur,"Ambazari, Nagpur - MPCB",16-02-2024 16:00:00,21.121801,79.04952,PM10,64,126,102
India,Maharashtra,Nagpur,"Opp GPO Civil Lines, Nagpur - MPCB",16-02-2024 16:00:00,21.152875,79.0517531,CO,16,102,39
India,Maharashtra,Nagpur,"Ram Nagar, Nagpur - MPCB",16-02-2024 16:00:00,21.143383,79.048912,NO2,2,46,15
India,Maharashtra,Nagpur,"Ram Nagar, Nagpur - MPCB",16-02-2024 16:00:00,21.143383,79.048912,SO2,2,90,21
India,Maharashtra,Nanded,"Sneh Nagar, Nanded - MPCB",16-02-2024 16:00:00,19.173852,77.296291,PM10,64,101,83
India,Maharashtra,Nanded,"Sneh Nagar, Nanded - MPCB",16-02-2024 16:00:00,19.173852,77.296291,NH3,1,2,1
India,Maharashtra,Nashik,"Gangapur Road, Nashik - MPCB",16-02-2024 16:00:00,20.0073285,73.7762427,NO2,2,5,2
India,Maharashtra,Nashik,"Gangapur Road, Nashik - MPCB",16-02-2024 16:00:00,20.0073285,73.7762427,SO2,1,11,4
India,Maharashtra,Nashik,"Hirawadi, Nashik - MPCB",16-02-2024 16:00:00,20.021503,73.813844,NH3,1,2,2
India,Maharashtra,Nashik,"Hirawadi, Nashik - MPCB",16-02-2024 16:00:00,20.021503,73.813844,CO,14,65,21
India,Maharashtra,Nashik,"MIDC Ambad, Nashik - MPCB",16-02-2024 16:00:00,19.950220,73.731480,OZONE,8,61,41
India,Maharashtra,Nashik,"Pandav Nagari, Nashik - MPCB",16-02-2024 16:00:00,19.9591346,73.7788008,PM2.5,51,96,76
India,Maharashtra,Nashik,"Pandav Nagari, Nashik - MPCB",16-02-2024 16:00:00,19.9591346,73.7788008,SO2,6,48,14
India,Maharashtra,Navi Mumbai,"Kopripada-Vashi, Navi Mumbai - MPCB",16-02-2024 16:00:00,19.090337,73.014232,PM10,101,500,198
India,Maharashtra,Navi Mumbai,"Mahape, Navi Mumbai - MPCB",16-02-2024 16:00:00,19.1135051,73.008978,SO2,26,26,26
India,Maharashtra,Navi Mumbai,"Nerul, Navi Mumbai - MPCB",16-02-2024 16:00:00,19.008751,73.016620,NO2,27,50,39
India,Maharashtra,Navi Mumbai,"Nerul, Navi Mumbai - MPCB",16-02-2024 16:00:00,19.008751,73.016620,OZONE,39,59,54
India,Maharashtra,Navi Mumbai,"Sector-19A Nerul, Navi Mumbai - IITM",16-02-2024 16:00:00,19.044,73.0325,NO2,48,155,103
India,Maharashtra,Navi Mumbai,"Sector-2E Kalamboli, Navi Mumbai - MPCB",16-02-2024 16:00:00,19.02579,73.10297,CO,24,105,44
India,Maharashtra,Navi Mumbai,"Tondare-Taloja, Navi Mumbai - MPCB",16-02-2024 16:00:00,19.0630,73.1209,SO2,16,102,47
India,Maharashtra,Parbhani,"Masoom Colony, Parbhani - MPCB",16-02-2024 16:00:00,19.265594,76.761463,NO2,7,40,16
India,Maharashtra,Parbhani,"Masoom Colony, Parbhani - MPCB",16-02-2024 16:00:00,19.265594,76.761463,NH3,2,3,3
India,Maharashtra,Pimpri-Chinchwad,"Gavalinagar, Pimpri Chinchwad - MPCB",16-02-2024 16:00:00,18.63673,73.82487,CO,22,71,45
India,Maharashtra,Pimpri-Chinchwad,"Park Street Wakad, Pimpri Chinchwad - MPCB",16-02-2024 16:00:00,18.59051,73.77946,PM10,108,245,160
India,Maharashtra,Pimpri-Chinchwad,"Park Street Wakad, Pimpri Chinchwad - MPCB",16-02-2024 16:00:00,18.59051,73.77946,NH3,9,16,12
India,Maharashtra,Pimpri-Chinchwad,"Park Street Wakad, Pimpri Chinchwad - MPCB",16-02-2024 16:00:00,18.59051,73.77946,SO2,6,20,12
India,Maharashtra,Pune,"Alandi, Pune - IITM",16-02-2024 16:00:00,18.675076,73.892743,PM2.5,39,145,89
India,Maharashtra,Pune,"Alandi, Pune - IITM",16-02-2024 16:00:00,18.675076,73.892743,PM10,65,122,100
India,Maharashtra,Pune,"Alandi, Pune - IITM",16-02-2024 16:00:00,18.675076,73.892743,NO2,14,35,19
India,Maharashtra,Pune,"Alandi, Pune - IITM",16-02-2024 16:00:00,18.675076,73.892743,CO,28,86,38
India,Maharashtra,Pune,"Karve Road, Pune - MPCB",16-02-2024 16:00:00,18.5011743,73.8165527,PM10,9,423,129
India,Maharashtra,Pune,"Karve Road, Pune - MPCB",16-02-2024 16:00:00,18.5011743,73.8165527,SO2,1,80,23
India,Maharashtra,Pune,"Karve Road, Pune - MPCB",16-02-2024 16:00:00,18.5011743,73.8165527,OZONE,1,22,9
India,Maharashtra,Pune,"Mhada Colony, Pune - IITM",16-02-2024 16:00:00,18.573040,73.927715,PM10,61,175,108
India,Maharashtra,Pune,"Savitribai Phule Pune University, Pune - MPCB",16-02-2024 16:00:00,18.547056,73.826908,PM10,91,172,138
India,Maharashtra,Pune,"Savitribai Phule Pune University, Pune - MPCB",16-02-2024 16:00:00,18.547056,73.826908,SO2,16,25,18
India,Maharashtra,Pune,"Savitribai Phule Pune University, Pune - MPCB",16-02-2024 16:00:00,18.547056,73.826908,OZONE,7,254,155
India,Maharashtra,Pune,"Transport Nagar-Nigdi, Pune - IITM",16-02-2024 16:00:00,18.664282,73.763966,PM2.5,48,160,93
India,Maharashtra,Sangli,"Vijay Nagar, Sangli - MPCB",16-02-2024 16:00:00, 16.5038,74.3623,PM2.5,50,215,135
India,Maharashtra,Solapur,"Dnyaneshwar Nagar, Solapur - MPCB",16-02-2024 16:00:00,17.6336264,75.9132495,NO2,11,50,25
India,Maharashtra,Solapur,"Dnyaneshwar Nagar, Solapur - MPCB",16-02-2024 16:00:00,17.6336264,75.9132495,NH3,11,29,16
India,Maharashtra,Solapur,"Ratandeep Housing Society, Solapur - MPCB",16-02-2024 16:00:00,17.65439,75.90649,PM10,47,106,69
India,Maharashtra,Solapur,"Ratandeep Housing Society, Solapur - MPCB",16-02-2024 16:00:00,17.65439,75.90649,NO2,10,92,31
India,Maharashtra,Solapur,"Solapur, Solapur - MPCB",16-02-2024 16:00:00,17.6599188,75.9063906,OZONE,30,76,52
India,Maharashtra,Thane,"Kasarvadavali, Thane - MPCB",16-02-2024 16:00:00,19.26777,72.97182,OZONE,4,138,81
India,Maharashtra,Ulhasnagar,"Sidhi Vinayak Nagar, Ulhasnagar - MPCB",16-02-2024 16:00:00,19.235581,73.159121,SO2,13,21,18
India,Maharashtra,Virar,"Bolinj, Virar - MPCB",16-02-2024 16:00:00,19.4458210,72.7988231,PM2.5,109,232,190
India,Maharashtra,Virar,"Bolinj, Virar - MPCB",16-02-2024 16:00:00,19.4458210,72.7988231,OZONE,4,146,64
India,Manipur,Imphal,"DM College of Science, Imphal - Manipur PCB",16-02-2024 16:00:00,24.8207389,93.9423085,NO2,7,8,8
India,Manipur,Imphal,"DM College of Science, Imphal - Manipur PCB",16-02-2024 16:00:00,24.8207389,93.9423085,NH3,2,2,2
India,Manipur,Imphal,"DM College of Science, Imphal - Manipur PCB",16-02-2024 16:00:00,24.8207389,93.9423085,SO2,82,87,85
India,Manipur,Imphal,"Manipur University, Imphal - Manipur PCB",16-02-2024 16:00:00,24.7524239,93.9286218,CO,10,46,16
India,Manipur,Imphal,"Manipur University, Imphal - Manipur PCB",16-02-2024 16:00:00,24.7524239,93.9286218,OZONE,1,41,28
India,Meghalaya,Shillong,"Lumpyngngad, Shillong - Meghalaya PCB",16-02-2024 16:00:00,25.5586,91.8985,SO2,44,46,44
India,Mizoram,Aizawl,"Sikulpuikawn, Aizawl - Mizoram PCB",16-02-2024 16:00:00,23.7176342,92.7192841,NO2,1,5,1
India,Nagaland,Kohima,"PWD Juction, Kohima - NPCB",16-02-2024 16:00:00,25.6635413,94.0989878,PM2.5,34,252,113
India,Nagaland,Kohima,"PWD Juction, Kohima - NPCB",16-02-2024 16:00:00,25.6635413,94.0989878,NO2,3,4,4
India,Nagaland,Kohima,"PWD Juction, Kohima - NPCB",16-02-2024 16:00:00,25.6635413,94.0989878,CO,11,38,16
India,Odisha,Angul,"Hakimapada, Angul - OSPCB",16-02-2024 16:00:00,20.832874,85.104082,OZONE,20,169,169
India,Odisha,Baripada,"Meher Colony, Baripada - OSPCB",16-02-2024 16:00:00,21.941841,86.728318,PM2.5,37,302,135
India,Odisha,Bileipada,"Tata Township, Bileipada - OSPCB",16-02-2024 16:00:00,22.06156703,85.47409613,OZONE,1,6,4
India,Odisha,Brajrajnagar,"GM Office, Brajrajnagar - OSPCB",16-02-2024 16:00:00,21.8004996,83.8396977,PM2.5,31,132,60
India,Odisha,Keonjhar,"Jagamohanpur, Keonjhar - OSPCB",16-02-2024 16:00:00,21.643900,85.599355,NH3,10,18,13
India,Odisha,Keonjhar,"Jagamohanpur, Keonjhar - OSPCB",16-02-2024 16:00:00,21.643900,85.599355,CO,12,51,22
India,Odisha,Keonjhar,"Jagamohanpur, Keonjhar - OSPCB",16-02-2024 16:00:00,21.643900,85.599355,OZONE,1,34,13
India,Odisha,Nayagarh,"Dabuna, Nayagarh - OSPCB",16-02-2024 16:00:00,21.847279,85.416905,NH3,1,5,4
India,Odisha,Nayagarh,"Dabuna, Nayagarh - OSPCB",16-02-2024 16:00:00,21.847279,85.416905,SO2,2,7,3
India,Odisha,Rairangpur,"Divisional Forest Office, Rairangpur - OSPCB",16-02-2024 16:00:00,22.265816,86.174829,PM10,20,239,74
India,Odisha,Rairangpur,"Divisional Forest Office, Rairangpur - OSPCB",16-02-2024 16:00:00,22.265816,86.174829,OZONE,1,59,30
India,Odisha,Rourkela,"Fertilizer Township, Rourkela - OSPCB",16-02-2024 16:00:00,22.18972222,84.86277778,NO2,11,92,24
India,Odisha,Rourkela,"Raghunathpali, Rourkela - OSPCB",16-02-2024 16:00:00,22.220833,84.809444,PM2.5,72,288,148
India,Odisha,Rourkela,"Raghunathpali, Rourkela - OSPCB",16-02-2024 16:00:00,22.220833,84.809444,PM10,86,148,112
India,Odisha,Rourkela,"Raghunathpali, Rourkela - OSPCB",16-02-2024 16:00:00,22.220833,84.809444,NO2,21,74,34
India,Odisha,Rourkela,"Raghunathpali, Rourkela - OSPCB",16-02-2024 16:00:00,22.220833,84.809444,OZONE,26,131,74
India,Odisha,Rourkela,"Sector-2, Rourkela - OSPCB",16-02-2024 16:00:00,22.24500000,84.88111111,PM2.5,64,290,154
India,Odisha,Suakati,"OMC Colony, Suakati - OSPCB",16-02-2024 16:00:00,21.606865,85.510538,SO2,2,55,13
India,Odisha,Suakati,"OMC Colony, Suakati - OSPCB",16-02-2024 16:00:00,21.606865,85.510538,OZONE,33,346,203
India,Odisha,Tensa,"Barsua Iron Ore Mines, Tensa - OSPCB",16-02-2024 16:00:00,21.869985,85.167016,CO,16,53,37
India,Odisha,Tensa,"Barsua Iron Ore Mines, Tensa - OSPCB",16-02-2024 16:00:00,21.869985,85.167016,OZONE,1,28,15
India,Puducherry,Puducherry,"Jawahar Nagar, Puducherry - PPCC",16-02-2024 16:00:00,11.9309,79.8027,PM2.5,40,87,56
India,Puducherry,Puducherry,"Jawahar Nagar, Puducherry - PPCC",16-02-2024 16:00:00,11.9309,79.8027,NH3,2,3,3
India,Puducherry,Puducherry,"Jawahar Nagar, Puducherry - PPCC",16-02-2024 16:00:00,11.9309,79.8027,CO,22,43,33
India,Punjab,Amritsar,"Golden Temple, Amritsar - PPCB",16-02-2024 16:00:00,31.620000,74.876512,NO2,12,51,18
India,Punjab,Amritsar,"Golden Temple, Amritsar - PPCB",16-02-2024 16:00:00,31.620000,74.876512,NH3,4,5,5
India,Punjab,Jalandhar,"Civil Line, Jalandhar - PPCB",16-02-2024 16:00:00,31.321907,75.578914,SO2,3,14,8
India,Punjab,Jalandhar,"Civil Line, Jalandhar - PPCB",16-02-2024 16:00:00,31.321907,75.578914,CO,28,108,54
India,Punjab,Jalandhar,"Civil Line, Jalandhar - PPCB",16-02-2024 16:00:00,31.321907,75.578914,OZONE,5,50,33
India,Punjab,Khanna,"Kalal Majra, Khanna - PPCB",16-02-2024 16:00:00,30.736056 ,76.209694,PM2.5,52,293,96
India,Punjab,Khanna,"Kalal Majra, Khanna - PPCB",16-02-2024 16:00:00,30.736056 ,76.209694,PM10,52,436,124
India,Punjab,Ludhiana,"Punjab Agricultural University, Ludhiana - PPCB",16-02-2024 16:00:00,30.9028,75.8086,CO,18,111,77
India,Punjab,Mandi Gobindgarh,"RIMT University, Mandi Gobindgarh - PPCB",16-02-2024 16:00:00,30.649961,76.331442,NO2,31,32,31
India,Punjab,Mandi Gobindgarh,"RIMT University, Mandi Gobindgarh - PPCB",16-02-2024 16:00:00,30.649961,76.331442,CO,3,53,23
India,Punjab,Mandi Gobindgarh,"RIMT University, Mandi Gobindgarh - PPCB",16-02-2024 16:00:00,30.649961,76.331442,OZONE,32,34,33
India,Punjab,Patiala,"Model Town, Patiala - PPCB",16-02-2024 16:00:00,30.349388,76.366642,PM2.5,84,303,137
India,Punjab,Patiala,"Model Town, Patiala - PPCB",16-02-2024 16:00:00,30.349388,76.366642,PM10,82,286,117
India,Punjab,Patiala,"Model Town, Patiala - PPCB",16-02-2024 16:00:00,30.349388,76.366642,NO2,19,26,22
India,Punjab,Rupnagar,"Ratanpura, Rupnagar - Ambuja Cements",16-02-2024 16:00:00,31.0325454,76.5623046,PM10,39,238,117
India,Rajasthan,Baran,"Bamboliya, Baran - RSPCB",16-02-2024 16:00:00,25.106006,76.469948,PM2.5,78,320,168
India,Rajasthan,Baran,"Bamboliya, Baran - RSPCB",16-02-2024 16:00:00,25.106006,76.469948,NO2,2,48,14
India,Rajasthan,Barmer,"Railway Colony, Barmer - RSPCB",16-02-2024 16:00:00,25.747299,71.393989,OZONE,60,169,124
India,Rajasthan,Bharatpur,"Krishna Nagar, Bharatpur - RSPCB",16-02-2024 16:00:00,27.215415,77.50873,PM10,147,385,237
India,Rajasthan,Bhilwara,"Pratap Nagar, Bhilwara - RSPCB",16-02-2024 16:00:00,25.339605,74.618883,OZONE,33,98,77
India,Rajasthan,Bhiwadi,"RIICO Ind. Area III, Bhiwadi - RSPCB",16-02-2024 16:00:00,28.194909,76.862296,NO2,19,42,32
India,Rajasthan,Bhiwadi,"RIICO Ind. Area III, Bhiwadi - RSPCB",16-02-2024 16:00:00,28.194909,76.862296,CO,42,125,102
India,Rajasthan,Bikaner,"MM Ground, Bikaner - RSPCB",16-02-2024 16:00:00,28.018792,73.292658,NO2,14,117,51
India,Rajasthan,Bundi,"New Colony, Bundi - RSPCB",16-02-2024 16:00:00,25.435774,75.644272,OZONE,40,68,61
India,Rajasthan,Chittorgarh,"Shastri Nagar, Chittorgarh - RSPCB",16-02-2024 16:00:00,24.892047,74.623527,NO2,20,92,46
India,Rajasthan,Churu,"Subash Chowk, Churu - RSPCB",16-02-2024 16:00:00,28.296139,74.961696,PM2.5,51,355,186
India,Rajasthan,Churu,"Subash Chowk, Churu - RSPCB",16-02-2024 16:00:00,28.296139,74.961696,SO2,31,49,38
India,Rajasthan,Dungarpur,"Bhoiwada, Dungarpur - RSPCB",16-02-2024 16:00:00,23.837789,73.714926,PM10,94,159,126
India,Rajasthan,Dungarpur,"Bhoiwada, Dungarpur - RSPCB",16-02-2024 16:00:00,23.837789,73.714926,SO2,7,14,9
India,Rajasthan,Dungarpur,"Bhoiwada, Dungarpur - RSPCB",16-02-2024 16:00:00,23.837789,73.714926,OZONE,3,68,55
India,Rajasthan,Jaipur,"Adarsh Nagar, Jaipur - RSPCB",16-02-2024 16:00:00,26.902909,75.836858,SO2,8,26,16
India,Rajasthan,Jaipur,"Mansarovar Sector-12, Jaipur - RSPCB",16-02-2024 16:00:00,26.843698,75.766894,SO2,2,5,3
India,Rajasthan,Jaipur,"Police Commissionerate, Jaipur - RSPCB",16-02-2024 16:00:00,26.9164092,75.7994901,PM10,108,234,162
India,Rajasthan,Jaipur,"Police Commissionerate, Jaipur - RSPCB",16-02-2024 16:00:00,26.9164092,75.7994901,NH3,11,16,14
India,Rajasthan,Jaipur,"RIICO Sitapura, Jaipur - RSPCB",16-02-2024 16:00:00,26.786682,75.827928,CO,33,144,48
India,Rajasthan,Jaipur,"Shastri Nagar, Jaipur - RSPCB",16-02-2024 16:00:00,26.9502929,75.730943,NH3,6,20,10
India,Rajasthan,Jalore,"Mudtra Sili, Jalore - RSPCB",16-02-2024 16:00:00,25.344694,72.626208,NO2,15,155,55
India,Rajasthan,Jhunjhunu,"Indra Nagar, Jhunjhunu - RSPCB",16-02-2024 16:00:00,28.108988,75.386577,PM2.5,56,315,184
India,Rajasthan,Jhunjhunu,"Indra Nagar, Jhunjhunu - RSPCB",16-02-2024 16:00:00,28.108988,75.386577,PM10,65,237,136
India,Rajasthan,Jodhpur,"Collectorate, Jodhpur - RSPCB",16-02-2024 16:00:00,26.268249,73.0193853,PM10,59,274,174
India,Rajasthan,Jodhpur,"Collectorate, Jodhpur - RSPCB",16-02-2024 16:00:00,26.268249,73.0193853,NO2,24,57,38
India,Rajasthan,Jodhpur,"Digari Kalan, Jodhpur - RSPCB",16-02-2024 16:00:00,26.295810,73.082283,NH3,5,7,6
India,Rajasthan,Jodhpur,"Digari Kalan, Jodhpur - RSPCB",16-02-2024 16:00:00,26.295810,73.082283,SO2,1,10,3
India,Rajasthan,Jodhpur,"Jhalamand, Jodhpur - RSPCB",16-02-2024 16:00:00,26.215415,73.070156,NH3,5,10,8
India,Rajasthan,Jodhpur,"Jhalamand, Jodhpur - RSPCB",16-02-2024 16:00:00,26.215415,73.070156,CO,18,68,29
India,Rajasthan,Jodhpur,"Mandor, Jodhpur - RSPCB",16-02-2024 16:00:00,26.358805,73.047444,PM2.5,50,258,133
India,Rajasthan,Jodhpur,"Samrat Ashok Udhyan, Jodhpur - RSPCB",16-02-2024 16:00:00,26.253384,72.976571,NO2,16,167,62
India,Rajasthan,Jodhpur,"Samrat Ashok Udhyan, Jodhpur - RSPCB",16-02-2024 16:00:00,26.253384,72.976571,NH3,3,8,5
India,Rajasthan,Karauli,"Satyawati Vihar, Karauli - RSPCB",16-02-2024 16:00:00,26.506177,77.025989,PM2.5,127,427,282
India,Rajasthan,Kota,"Dhanmandi, Kota - RSPCB",16-02-2024 16:00:00,25.164090,75.858137,PM2.5,110,406,267
India,Rajasthan,Kota,"Dhanmandi, Kota - RSPCB",16-02-2024 16:00:00,25.164090,75.858137,PM10,105,350,180
India,Rajasthan,Kota,"Nayapura, Kota - RSPCB",16-02-2024 16:00:00,25.196024,75.855668,PM2.5,84,401,249
India,Rajasthan,Kota,"Shrinath Puram, Kota - RSPCB",16-02-2024 16:00:00,25.14389,75.821256,CO,6,33,14
India,Rajasthan,Nagaur,"Karni Colony, Nagaur - RSPCB",16-02-2024 16:00:00,27.213494,73.734444,PM10,80,500,168
India,Rajasthan,Nagaur,"Karni Colony, Nagaur - RSPCB",16-02-2024 16:00:00,27.213494,73.734444,CO,26,103,43
India,Rajasthan,Pali,"Indira Colony Vistar, Pali - RSPCB",16-02-2024 16:00:00,25.771061, 73.340227,PM10,77,168,118
India,Rajasthan,Pali,"Indira Colony Vistar, Pali - RSPCB",16-02-2024 16:00:00,25.771061, 73.340227,OZONE,36,97,72
India,Rajasthan,Pratapgarh,"Pragati Nagar, Pratapgarh - RSPCB",16-02-2024 16:00:00,24.041198,74.780702,PM2.5,84,251,170
India,Rajasthan,Rajsamand,"Dhoinda, Rajsamand - RSPCB",16-02-2024 16:00:00,25.036360,73.883502,NO2,11,49,22
India,Rajasthan,Sawai Madhopur,"Sahu Nagar, Sawai Madhopur - RSPCB",16-02-2024 16:00:00,26.031443,76.359327,NH3,1,44,18
India,Rajasthan,Sikar,"Radhakishan Pura, Sikar - RSPCB",16-02-2024 16:00:00,27.608912,75.153302,NO2,5,58,19
India,Rajasthan,Sirohi,"Vedhaynath Colony, Sirohi - RSPCB",16-02-2024 16:00:00,24.885261,72.857549,CO,20,74,56
India,Rajasthan,Sri Ganganagar,"Old City, Sri Ganganagar - RSPCB",16-02-2024 16:00:00,29.931624,73.864511,CO,34,135,69
India,Rajasthan,Tonk,"Shastri Nagar, Tonk - RSPCB",16-02-2024 16:00:00,26.159933,75.780517,NH3,5,37,12
India,Rajasthan,Udaipur,"Ashok Nagar, Udaipur - RSPCB",16-02-2024 16:00:00,24.5886166,73.6321397,PM10,126,202,159
India,Rajasthan,Udaipur,"Ashok Nagar, Udaipur - RSPCB",16-02-2024 16:00:00,24.5886166,73.6321397,NH3,4,8,5
India,Rajasthan,Udaipur,"Ashok Nagar, Udaipur - RSPCB",16-02-2024 16:00:00,24.5886166,73.6321397,SO2,8,37,16
India,Sikkim,Gangtok,"Zero Point GICI, Gangtok - SSPCB",16-02-2024 16:00:00,27.338530,88.614099,NH3,1,1,1
India,TamilNadu,Ariyalur,"Keelapalur, Ariyalur - TNPCB",16-02-2024 16:00:00,11.06825,79.07033,PM10,35,60,49
India,TamilNadu,Chennai,"Alandur Bus Depot, Chennai - CPCB",16-02-2024 16:00:00,12.9099161,80.1076538,PM2.5,82,301,122
India,TamilNadu,Chennai,"Alandur Bus Depot, Chennai - CPCB",16-02-2024 16:00:00,12.9099161,80.1076538,SO2,1,9,4
India,TamilNadu,Chennai,"Alandur Bus Depot, Chennai - CPCB",16-02-2024 16:00:00,12.9099161,80.1076538,CO,62,63,62
India,TamilNadu,Chennai,"Arumbakkam, Chennai - TNPCB",16-02-2024 16:00:00,13.0664,80.2112 ,SO2,NA,NA,NA
India,TamilNadu,Chennai,"Gandhi Nagar_Ennore, Chennai - TNPCB",16-02-2024 16:00:00,13.218341,80.32027,PM10,NA,NA,NA
India,TamilNadu,Chennai,"Gandhi Nagar_Ennore, Chennai - TNPCB",16-02-2024 16:00:00,13.218341,80.32027,SO2,NA,NA,NA
India,TamilNadu,Chennai,"Gandhi Nagar_Ennore, Chennai - TNPCB",16-02-2024 16:00:00,13.218341,80.32027,OZONE,2,4,3
India,TamilNadu,Chennai,"Kodungaiyur, Chennai - TNPCB",16-02-2024 16:00:00,13.1278,80.2642,NH3,3,30,6
India,TamilNadu,Chennai,"Kodungaiyur, Chennai - TNPCB",16-02-2024 16:00:00,13.1278,80.2642,SO2,1,11,5
India,TamilNadu,Chennai,"Kodungaiyur, Chennai - TNPCB",16-02-2024 16:00:00,13.1278,80.2642,OZONE,5,6,6
India,TamilNadu,Chennai,"Perungudi, Chennai - TNPCB",16-02-2024 16:00:00,12.9533,80.2357,CO,12,34,24
India,TamilNadu,Chennai,"Royapuram, Chennai - TNPCB",16-02-2024 16:00:00,13.1036,80.2909,NH3,1,1,1
India,TamilNadu,Chennai,"Royapuram, Chennai - TNPCB",16-02-2024 16:00:00,13.1036,80.2909,SO2,1,3,1
India,TamilNadu,Chennai,"Royapuram, Chennai - TNPCB",16-02-2024 16:00:00,13.1036,80.2909,CO,20,28,24
India,TamilNadu,Chennai,"Velachery Res. Area, Chennai - CPCB",16-02-2024 16:00:00,13.0052189,80.2398125,PM10,53,87,66
India,TamilNadu,Coimbatore,"PSG College of Arts and Science, Coimbatore - TNPCB",16-02-2024 16:00:00,11.0328,77.0349,OZONE,3,5,4
India,TamilNadu,Cuddalore,"Kudikadu, Cuddalore - TNPCB",16-02-2024 16:00:00,11.6829898,79.7532099,PM2.5,45,103,67
India,TamilNadu,Cuddalore,"Kudikadu, Cuddalore - TNPCB",16-02-2024 16:00:00,11.6829898,79.7532099,NO2,13,26,18
India,TamilNadu,Kanchipuram,"Kilambi, Kanchipuram - TNPCB",16-02-2024 16:00:00,12.864618,79.659968,SO2,NA,NA,NA
India,TamilNadu,Ooty,"Bombay Castel, Ooty - TNPCB",16-02-2024 16:00:00,11.4068288,76.7138973,OZONE,5,5,5
India,TamilNadu,Ramanathapuram,"Chalai Bazaar, Ramanathapuram - TNPCB",16-02-2024 16:00:00,9.36399,78.831977,CO,2,20,11
India,TamilNadu,Salem,"Sona College of Technology, Salem - TNPCB",16-02-2024 16:00:00,11.679111,78.125052,NO2,7,10,8
India,TamilNadu,Salem,"Sona College of Technology, Salem - TNPCB",16-02-2024 16:00:00,11.679111,78.125052,OZONE,3,3,3
India,TamilNadu,Thoothukudi,"Meelavittan, Thoothukudi - TNPCB",16-02-2024 16:00:00,8.816428 ,78.099039,SO2,9,20,13
India,TamilNadu,Tirupur,"Kumaran College, Tirupur - TNPCB",16-02-2024 16:00:00,11.0973603,77.3228673,SO2,NA,NA,NA
India,TamilNadu,Vellore,"Vasanthapuram, Vellore - TNPCB",16-02-2024 16:00:00,12.909494,79.131861,NO2,NA,NA,NA
India,TamilNadu,Vellore,"Vasanthapuram, Vellore - TNPCB",16-02-2024 16:00:00,12.909494,79.131861,OZONE,1,2,2
India,TamilNadu,Virudhunagar,"Collectorate Office, Virudhunagar - TNPCB",16-02-2024 16:00:00,9.559382,77.948828,NO2,18,39,26
India,Telangana,Hyderabad,"Bollaram Industrial Area, Hyderabad - TSPCB",16-02-2024 16:00:00,17.540891,78.358528,OZONE,36,38,36
India,Telangana,Hyderabad,"ECIL Kapra, Hyderabad - TSPCB",16-02-2024 16:00:00,17.470431,78.566959,NO2,7,11,10
India,Telangana,Hyderabad,"ECIL Kapra, Hyderabad - TSPCB",16-02-2024 16:00:00,17.470431,78.566959,OZONE,4,101,77
India,Telangana,Hyderabad,"ICRISAT Patancheru, Hyderabad - TSPCB",16-02-2024 16:00:00,17.518400,78.278777,NH3,2,2,2
India,Telangana,Hyderabad,"ICRISAT Patancheru, Hyderabad - TSPCB",16-02-2024 16:00:00,17.518400,78.278777,OZONE,18,83,57
India,Telangana,Hyderabad,"IITH Kandi, Hyderabad - TSPCB",16-02-2024 16:00:00,17.585705,78.126199,OZONE,13,50,33
India,Telangana,Hyderabad,"Kompally Municipal Office, Hyderabad - TSPCB",16-02-2024 16:00:00,17.544899,78.486949,PM10,39,86,53
India,Telangana,Hyderabad,"Kompally Municipal Office, Hyderabad - TSPCB",16-02-2024 16:00:00,17.544899,78.486949,NH3,6,7,7
India,Telangana,Hyderabad,"Nacharam_TSIIC IALA, Hyderabad - TSPCB",16-02-2024 16:00:00,17.429398,78.569354,PM10,NA,NA,NA
India,Telangana,Hyderabad,"New Malakpet, Hyderabad - TSPCB",16-02-2024 16:00:00,17.37206,78.50864,CO,6,34,18
India,Telangana,Hyderabad,"New Malakpet, Hyderabad - TSPCB",16-02-2024 16:00:00,17.37206,78.50864,OZONE,5,27,19
India,Telangana,Hyderabad,"Sanathnagar, Hyderabad - TSPCB",16-02-2024 16:00:00,17.4559458,78.4332152,PM2.5,31,67,47
India,Telangana,Hyderabad,"Sanathnagar, Hyderabad - TSPCB",16-02-2024 16:00:00,17.4559458,78.4332152,SO2,2,31,11
India,Telangana,Hyderabad,"Zoo Park, Hyderabad - TSPCB",16-02-2024 16:00:00,17.349694,78.451437,OZONE,18,35,24
India,Tripura,Agartala,"Bardowali, Agartala - Tripura SPCB",16-02-2024 16:00:00,23.8175497,91.2726974,PM2.5,127,337,281
India,Uttar_Pradesh,Agra,"Manoharpur, Agra - UPPCB",16-02-2024 16:00:00,27.23711,78.01936,PM2.5,27,85,56
India,Uttar_Pradesh,Agra,"Rohta, Agra - UPPCB",16-02-2024 16:00:00,27.106972,78.000111,NH3,2,2,2
India,Uttar_Pradesh,Agra,"Rohta, Agra - UPPCB",16-02-2024 16:00:00,27.106972,78.000111,CO,10,38,20
India,Uttar_Pradesh,Agra,"Sanjay Palace, Agra - UPPCB",16-02-2024 16:00:00,27.19865833,78.00598056,NO2,60,114,89
India,Uttar_Pradesh,Agra,"Sanjay Palace, Agra - UPPCB",16-02-2024 16:00:00,27.19865833,78.00598056,CO,14,120,52
India,Uttar_Pradesh,Agra,"Sector-3B Avas Vikas Colony, Agra - UPPCB",16-02-2024 16:00:00,27.19412,77.96237,PM2.5,30,98,63
India,Uttar_Pradesh,Agra,"Sector-3B Avas Vikas Colony, Agra - UPPCB",16-02-2024 16:00:00,27.19412,77.96237,NO2,18,60,36
India,Uttar_Pradesh,Agra,"Sector-3B Avas Vikas Colony, Agra - UPPCB",16-02-2024 16:00:00,27.19412,77.96237,OZONE,NA,NA,NA
India,Uttar_Pradesh,Agra,"Shastripuram, Agra - UPPCB",16-02-2024 16:00:00,27.19862,77.92066,PM2.5,67,165,111
India,Uttar_Pradesh,Agra,"Shastripuram, Agra - UPPCB",16-02-2024 16:00:00,27.19862,77.92066,SO2,19,22,21
India,Uttar_Pradesh,Agra,"Shastripuram, Agra - UPPCB",16-02-2024 16:00:00,27.19862,77.92066,CO,13,30,20
India,Uttar_Pradesh,Bareilly,"Civil Lines, Bareilly - UPPCB",16-02-2024 16:00:00,28.359581,79.414455,PM10,56,161,116
India,Uttar_Pradesh,Bareilly,"Civil Lines, Bareilly - UPPCB",16-02-2024 16:00:00,28.359581,79.414455,NH3,1,6,1
India,Uttar_Pradesh,Bareilly,"Civil Lines, Bareilly - UPPCB",16-02-2024 16:00:00,28.359581,79.414455,SO2,41,41,41
India,Uttar_Pradesh,Bareilly,"Civil Lines, Bareilly - UPPCB",16-02-2024 16:00:00,28.359581,79.414455,CO,3,62,40
India,Uttar_Pradesh,Bareilly,"Civil Lines, Bareilly - UPPCB",16-02-2024 16:00:00,28.359581,79.414455,OZONE,4,81,30
India,Uttar_Pradesh,Bareilly,"Rajendra Nagar, Bareilly - UPPCB",16-02-2024 16:00:00,28.38910936,79.42963708,NH3,1,1,1
India,Uttar_Pradesh,Bulandshahr,"Yamunapuram, Bulandshahr - UPPCB",16-02-2024 16:00:00,28.406963,77.849831,PM2.5,71,329,180
India,Uttar_Pradesh,Firozabad,"Nagla Bhau, Firozabad - UPPCB",16-02-2024 16:00:00,27.168897,78.376960,PM10,42,130,70
India,Uttar_Pradesh,Firozabad,"Nagla Bhau, Firozabad - UPPCB",16-02-2024 16:00:00,27.168897,78.376960,CO,4,14,9
India,Uttar_Pradesh,Firozabad,"Vibhab Nagar, Firozabad - UPPCB",16-02-2024 16:00:00,27.1594,78.3953,PM10,52,97,76
India,Uttar_Pradesh,Ghaziabad,"Loni, Ghaziabad - UPPCB",16-02-2024 16:00:00,28.757294,77.278792,PM10,106,277,167
India,Uttar_Pradesh,Ghaziabad,"Loni, Ghaziabad - UPPCB",16-02-2024 16:00:00,28.757294,77.278792,NO2,7,103,54
India,Uttar_Pradesh,Ghaziabad,"Vasundhara, Ghaziabad - UPPCB",16-02-2024 16:00:00,28.6603346,77.3572563,PM2.5,58,337,206
India,Uttar_Pradesh,Ghaziabad,"Vasundhara, Ghaziabad - UPPCB",16-02-2024 16:00:00,28.6603346,77.3572563,NO2,33,147,89
India,Uttar_Pradesh,Gorakhpur,"Madan Mohan Malaviya University of Technology, Gorakhpur - UPPCB",16-02-2024 16:00:00,26.730136,83.433859,NH3,2,3,2
India,Uttar_Pradesh,Greater Noida,"Knowledge Park - III, Greater Noida - UPPCB",16-02-2024 16:00:00,28.47272,77.482000,SO2,16,51,23
India,Uttar_Pradesh,Greater Noida,"Knowledge Park - III, Greater Noida - UPPCB",16-02-2024 16:00:00,28.47272,77.482000,CO,28,110,64
India,Uttar_Pradesh,Greater Noida,"Knowledge Park - V, Greater Noida - UPPCB",16-02-2024 16:00:00,28.557054,77.453663,NH3,3,8,4
India,Uttar_Pradesh,Greater Noida,"Knowledge Park - V, Greater Noida - UPPCB",16-02-2024 16:00:00,28.557054,77.453663,CO,2,162,70
India,Uttar_Pradesh,Hapur,"Anand Vihar, Hapur - UPPCB",16-02-2024 16:00:00,28.725645,77.749675,PM2.5,63,364,280
India,Uttar_Pradesh,Hapur,"Anand Vihar, Hapur - UPPCB",16-02-2024 16:00:00,28.725645,77.749675,PM10,68,233,162
India,Uttar_Pradesh,Jhansi,"Shivaji Nagar, Jhansi - UPPCB",16-02-2024 16:00:00,25.4547,78.6039,NO2,16,73,48
India,Uttar_Pradesh,Kanpur,"FTI Kidwai Nagar, Kanpur - UPPCB",16-02-2024 16:00:00,26.428282,80.327067,CO,35,98,49
India,Uttar_Pradesh,Kanpur,"NSI Kalyanpur, Kanpur - UPPCB",16-02-2024 16:00:00,26.509954,80.249612,OZONE,28,58,41
India,Uttar_Pradesh,Kanpur,"Nehru Nagar, Kanpur - UPPCB",16-02-2024 16:00:00,26.4703136,80.3229863,PM10,55,209,111
India,Uttar_Pradesh,Kanpur,"Nehru Nagar, Kanpur - UPPCB",16-02-2024 16:00:00,26.4703136,80.3229863,OZONE,5,189,178
India,Uttar_Pradesh,Khurja,"Kalindi Kunj, Khurja - UPPCB",16-02-2024 16:00:00,28.2348927,77.8683002,PM10,14,127,81
India,Uttar_Pradesh,Khurja,"Kalindi Kunj, Khurja - UPPCB",16-02-2024 16:00:00,28.2348927,77.8683002,NH3,1,2,2
India,Uttar_Pradesh,Khurja,"Kalindi Kunj, Khurja - UPPCB",16-02-2024 16:00:00,28.2348927,77.8683002,OZONE,20,23,21
India,Uttar_Pradesh,Lucknow,"B R Ambedkar University, Lucknow - UPPCB",16-02-2024 16:00:00,26.766433,80.927299,NH3,6,9,7
India,Uttar_Pradesh,Lucknow,"B R Ambedkar University, Lucknow - UPPCB",16-02-2024 16:00:00,26.766433,80.927299,OZONE,2,76,50
India,Uttar_Pradesh,Lucknow,"Kendriya Vidyalaya, Lucknow - CPCB",16-02-2024 16:00:00,26.906111,80.948222,NO2,23,170,80
India,Uttar_Pradesh,Lucknow,"Kukrail Picnic Spot-1, Lucknow - UPPCB",16-02-2024 16:00:00,26.90723,80.98579,NH3,2,2,2
India,Uttar_Pradesh,Lucknow,"Kukrail Picnic Spot-1, Lucknow - UPPCB",16-02-2024 16:00:00,26.90723,80.98579,CO,20,38,33
India,Uttar_Pradesh,Lucknow,"Lalbagh, Lucknow - CPCB",16-02-2024 16:00:00,26.8458805,80.9365541,PM2.5,113,318,238
India,Uttar_Pradesh,Lucknow,"Lalbagh, Lucknow - CPCB",16-02-2024 16:00:00,26.8458805,80.9365541,NH3,7,13,11
India,Uttar_Pradesh,Lucknow,"Talkatora District Industries Center, Lucknow - CPCB",16-02-2024 16:00:00,26.83399722,80.8917361,OZONE,2,81,42
India,Uttar_Pradesh,Meerut,"Ganga Nagar, Meerut - UPPCB",16-02-2024 16:00:00,28.999264,77.7590354,CO,7,120,47
India,Uttar_Pradesh,Meerut,"Jai Bhim Nagar, Meerut - UPPCB",16-02-2024 16:00:00,28.9535882,77.7622941,PM2.5,48,275,153
India,Uttar_Pradesh,Meerut,"Jai Bhim Nagar, Meerut - UPPCB",16-02-2024 16:00:00,28.9535882,77.7622941,NH3,5,12,10
India,Uttar_Pradesh,Meerut,"Jai Bhim Nagar, Meerut - UPPCB",16-02-2024 16:00:00,28.9535882,77.7622941,SO2,7,34,20
India,Uttar_Pradesh,Meerut,"Pallavpuram Phase 2, Meerut - UPPCB",16-02-2024 16:00:00,29.063510,77.709723,NO2,21,89,45
India,Uttar_Pradesh,Moradabad,"Buddhi Vihar, Moradabad - UPPCB",16-02-2024 16:00:00,28.83526,78.74460,CO,26,57,42
India,Uttar_Pradesh,Moradabad,"Jigar Colony, Moradabad - UPPCB",16-02-2024 16:00:00,28.856664,78.772638,PM10,74,176,122
India,Uttar_Pradesh,Moradabad,"Kashiram Nagar, Moradabad - UPPCB",16-02-2024 16:00:00,28.849399,78.742362,PM2.5,49,234,106
India,Uttar_Pradesh,Moradabad,"Kashiram Nagar, Moradabad - UPPCB",16-02-2024 16:00:00,28.849399,78.742362,OZONE,15,45,21
India,Uttar_Pradesh,Moradabad,"Transport Nagar, Moradabad - UPPCB",16-02-2024 16:00:00,28.802625,78.753728,SO2,43,50,44
India,Uttar_Pradesh,Muzaffarnagar,"New Mandi, Muzaffarnagar - UPPCB",16-02-2024 16:00:00,29.4723508,77.7194031,PM10,130,345,226
India,Uttar_Pradesh,Muzaffarnagar,"New Mandi, Muzaffarnagar - UPPCB",16-02-2024 16:00:00,29.4723508,77.7194031,NO2,16,62,32
India,Uttar_Pradesh,Noida,"Sector - 125, Noida - UPPCB",16-02-2024 16:00:00,28.5447608,77.3231257,PM10,90,266,163
India,Uttar_Pradesh,Noida,"Sector - 125, Noida - UPPCB",16-02-2024 16:00:00,28.5447608,77.3231257,CO,16,119,45
India,Uttar_Pradesh,Noida,"Sector - 62, Noida - IMD",16-02-2024 16:00:00,28.6245479,77.3577104,PM10,138,356,220
India,Uttar_Pradesh,Noida,"Sector-116, Noida - UPPCB",16-02-2024 16:00:00,28.569230,77.393848,PM2.5,86,348,265
India,Uttar_Pradesh,Noida,"Sector-116, Noida - UPPCB",16-02-2024 16:00:00,28.569230,77.393848,NO2,32,132,77
India,Uttar_Pradesh,Prayagraj,"Jhunsi, Prayagraj - UPPCB",16-02-2024 16:00:00,25.425602,81.917152,OZONE,1,11,4
India,Uttar_Pradesh,Prayagraj,"Motilal Nehru NIT, Prayagraj - UPPCB",16-02-2024 16:00:00,25.494,81.863,PM2.5,26,97,59
India,Uttar_Pradesh,Prayagraj,"Motilal Nehru NIT, Prayagraj - UPPCB",16-02-2024 16:00:00,25.494,81.863,NH3,5,8,7
India,Uttar_Pradesh,Prayagraj,"Nagar Nigam, Prayagraj - UPPCB",16-02-2024 16:00:00,25.44919916 ,81.82735986 ,CO,12,115,24
India,Uttar_Pradesh,Varanasi,"Ardhali Bazar, Varanasi - UPPCB",16-02-2024 16:00:00,25.3505986,82.9083074,PM10,20,65,38
India,Uttar_Pradesh,Varanasi,"Bhelupur, Varanasi - UPPCB",16-02-2024 16:00:00,25.301778,82.996789,NO2,8,8,8
India,Uttar_Pradesh,Varanasi,"IESD Banaras Hindu University, Varanasi - UPPCB",16-02-2024 16:00:00,25.262326,82.995408,PM2.5,8,26,15
India,Uttar_Pradesh,Varanasi,"IESD Banaras Hindu University, Varanasi - UPPCB",16-02-2024 16:00:00,25.262326,82.995408,NO2,2,2,2
India,Uttar_Pradesh,Varanasi,"IESD Banaras Hindu University, Varanasi - UPPCB",16-02-2024 16:00:00,25.262326,82.995408,NH3,2,7,4
India,Uttar_Pradesh,Varanasi,"Maldahiya, Varanasi - UPPCB",16-02-2024 16:00:00,25.32393,82.99687,PM2.5,15,90,33
India,Uttar_Pradesh,Varanasi,"Maldahiya, Varanasi - UPPCB",16-02-2024 16:00:00,25.32393,82.99687,NO2,NA,NA,NA
India,Uttar_Pradesh,Vrindavan,"Omex Eternity, Vrindavan - UPPCB",16-02-2024 16:00:00,27.5714090,77.6557570,PM2.5,29,91,54
India,Uttar_Pradesh,Vrindavan,"Omex Eternity, Vrindavan - UPPCB",16-02-2024 16:00:00,27.5714090,77.6557570,PM10,53,367,164
India,Uttar_Pradesh,Vrindavan,"Omex Eternity, Vrindavan - UPPCB",16-02-2024 16:00:00,27.5714090,77.6557570,CO,46,106,67
India,Uttarakhand,Dehradun,"Doon University, Dehradun - UKPCB",16-02-2024 16:00:00,30.269444,78.044167,PM2.5,62,276,126
India,Uttarakhand,Kashipur,"Govt. Girls Inter College, Kashipur - UKPCB",16-02-2024 16:00:00,29.2124114,78.9611753,CO,27,106,36
India,West_Bengal,Asansol,"Asansol Court Area, Asansol - WBPCB",16-02-2024 16:00:00,23.685297,86.945968,SO2,8,20,10
India,West_Bengal,Barrackpore,"SVSPA Campus, Barrackpore - WBPCB",16-02-2024 16:00:00,22.7605581,88.3617589,SO2,10,19,12
India,West_Bengal,Barrackpore,"SVSPA Campus, Barrackpore - WBPCB",16-02-2024 16:00:00,22.7605581,88.3617589,CO,38,55,47
India,West_Bengal,Barrackpore,"SVSPA Campus, Barrackpore - WBPCB",16-02-2024 16:00:00,22.7605581,88.3617589,OZONE,9,105,55
India,West_Bengal,Durgapur,"Sidhu Kanhu Indoor Stadium, Durgapur - WBPCB",16-02-2024 16:00:00,23.5404352,87.2892225,NH3,2,4,2
India,West_Bengal,Durgapur,"Sidhu Kanhu Indoor Stadium, Durgapur - WBPCB",16-02-2024 16:00:00,23.5404352,87.2892225,SO2,7,33,22
India,West_Bengal,Haldia,"Priyambada Housing Estate, Haldia - WBPCB",16-02-2024 16:00:00,22.06047,88.109737,NO2,18,64,28
India,West_Bengal,Howrah,"Ghusuri, Howrah - WBPCB",16-02-2024 16:00:00,22.611968,88.347422,CO,26,56,32
India,West_Bengal,Kolkata,"Ballygunge, Kolkata - WBPCB",16-02-2024 16:00:00,22.5367507,88.3638022,NO2,38,107,61
India,West_Bengal,Kolkata,"Bidhannagar, Kolkata - WBPCB",16-02-2024 16:00:00,22.58157048,88.41002457,PM10,126,151,138
India,West_Bengal,Kolkata,"Bidhannagar, Kolkata - WBPCB",16-02-2024 16:00:00,22.58157048,88.41002457,SO2,7,29,13
India,West_Bengal,Kolkata,"Fort William, Kolkata - WBPCB",16-02-2024 16:00:00,22.556640,88.342674,PM2.5,42,199,72
India,West_Bengal,Kolkata,"Fort William, Kolkata - WBPCB",16-02-2024 16:00:00,22.556640,88.342674,PM10,112,150,134
India,West_Bengal,Kolkata,"Fort William, Kolkata - WBPCB",16-02-2024 16:00:00,22.556640,88.342674,NO2,25,86,49
India,West_Bengal,Kolkata,"Jadavpur, Kolkata - WBPCB",16-02-2024 16:00:00,22.49929,88.36917,NH3,5,10,7
India,West_Bengal,Kolkata,"Rabindra Bharati University, Kolkata - WBPCB",16-02-2024 16:00:00,22.627847,88.380669,PM2.5,106,189,141
India,West_Bengal,Kolkata,"Rabindra Bharati University, Kolkata - WBPCB",16-02-2024 16:00:00,22.627847,88.380669,NO2,21,24,22
India,West_Bengal,Kolkata,"Rabindra Sarobar, Kolkata - WBPCB",16-02-2024 16:00:00,22.51106,88.35142,SO2,7,43,23
India,West_Bengal,Siliguri,"Ward-32 Bapupara, Siliguri - WBPCB",16-02-2024 16:00:00,26.6879226,88.4152495,CO,16,103,25
India,Andhra_Pradesh,Amaravati,"Secretariat, Amaravati - APPCB",16-02-2024 16:00:00,16.5150833,80.5181667,PM10,41,99,75
India,Andhra_Pradesh,Anantapur,"Gulzarpet, Anantapur - APPCB",16-02-2024 16:00:00,14.675886,77.593027,PM10,NA,NA,NA
India,Andhra_Pradesh,Anantapur,"Gulzarpet, Anantapur - APPCB",16-02-2024 16:00:00,14.675886,77.593027,NH3,2,3,3
India,Andhra_Pradesh,Anantapur,"Gulzarpet, Anantapur - APPCB",16-02-2024 16:00:00,14.675886,77.593027,SO2,1,21,5
India,Andhra_Pradesh,Chittoor,"Gangineni Cheruvu, Chittoor - APPCB",16-02-2024 16:00:00,13.204880,79.097889,SO2,4,39,20
India,Andhra_Pradesh,Chittoor,"Gangineni Cheruvu, Chittoor - APPCB",16-02-2024 16:00:00,13.204880,79.097889,OZONE,7,116,78
India,Andhra_Pradesh,Kadapa,"Yerramukkapalli, Kadapa - APPCB",16-02-2024 16:00:00,14.465052,78.824187,PM10,20,78,43
India,Andhra_Pradesh,Kadapa,"Yerramukkapalli, Kadapa - APPCB",16-02-2024 16:00:00,14.465052,78.824187,NO2,8,8,8
India,Andhra_Pradesh,Kadapa,"Yerramukkapalli, Kadapa - APPCB",16-02-2024 16:00:00,14.465052,78.824187,SO2,1,2,2
India,Andhra_Pradesh,Rajamahendravaram,"Anand Kala Kshetram, Rajamahendravaram - APPCB",16-02-2024 16:00:00,16.9872867,81.7363176,PM2.5,54,153,88
India,Andhra_Pradesh,Rajamahendravaram,"Anand Kala Kshetram, Rajamahendravaram - APPCB",16-02-2024 16:00:00,16.9872867,81.7363176,PM10,52,122,93
India,Andhra_Pradesh,Tirupati,"Tirumala, Tirupati - APPCB",16-02-2024 16:00:00,13.67,79.35,PM2.5,43,76,55
India,Andhra_Pradesh,Tirupati,"Vaikuntapuram, Tirupati - APPCB",16-02-2024 16:00:00,13.615387,79.409230,PM2.5,20,75,39
India,Andhra_Pradesh,Tirupati,"Vaikuntapuram, Tirupati - APPCB",16-02-2024 16:00:00,13.615387,79.409230,SO2,4,5,5
India,Andhra_Pradesh,Vijayawada,"HB Colony, Vijayawada - APPCB",16-02-2024 16:00:00,16.536107,80.594233,OZONE,2,61,36
India,Andhra_Pradesh,Vijayawada,"Rajiv Gandhi Park, Vijayawada - APPCB",16-02-2024 16:00:00,16.509717,80.612222,PM10,44,88,67
India,Andhra_Pradesh,Vijayawada,"Rajiv Nagar, Vijayawada - APPCB",16-02-2024 16:00:00,16.554731,80.649110,NO2,6,21,9
India,Andhra_Pradesh,Visakhapatnam,"GVM Corporation, Visakhapatnam - APPCB",16-02-2024 16:00:00,17.72,83.3,PM10,58,402,142
India,Andhra_Pradesh,Visakhapatnam,"GVM Corporation, Visakhapatnam - APPCB",16-02-2024 16:00:00,17.72,83.3,NO2,5,78,40
India,Arunachal_Pradesh,Naharlagun,"Naharlagun, Naharlagun - APSPCB",16-02-2024 16:00:00,27.103358,93.679645,CO,10,41,13
India,Assam,Byrnihat,"Central Academy for SFS, Byrnihat - PCBA",16-02-2024 16:00:00,26.071318,91.87488,NO2,59,154,89
India,Assam,Byrnihat,"Central Academy for SFS, Byrnihat - PCBA",16-02-2024 16:00:00,26.071318,91.87488,OZONE,12,18,14
India,Assam,Guwahati,"IITG, Guwahati - PCBA",16-02-2024 16:00:00,26.2028636,91.70046436,NO2,1,3,2
India,Assam,Guwahati,"IITG, Guwahati - PCBA",16-02-2024 16:00:00,26.2028636,91.70046436,CO,10,13,11
India,Assam,Guwahati,"Railway Colony, Guwahati - PCBA",16-02-2024 16:00:00,26.181742,91.78063,SO2,NA,NA,NA
India,Assam,Nalbari,"Bata Chowk, Nalbari - PCBA",16-02-2024 16:00:00,26.446912,91.439057,PM2.5,62,210,91
India,Assam,Nalbari,"Bata Chowk, Nalbari - PCBA",16-02-2024 16:00:00,26.446912,91.439057,NO2,12,19,16
India,Assam,Nalbari,"Bata Chowk, Nalbari - PCBA",16-02-2024 16:00:00,26.446912,91.439057,NH3,1,1,1
India,Assam,Nalbari,"Bata Chowk, Nalbari - PCBA",16-02-2024 16:00:00,26.446912,91.439057,CO,71,96,76
India,Assam,Nalbari,"Bata Chowk, Nalbari - PCBA",16-02-2024 16:00:00,26.446912,91.439057,OZONE,29,80,60
India,Assam,Silchar,"Tarapur, Silchar - PCBA",16-02-2024 16:00:00,24.82827,92.79525,PM2.5,37,63,47
India,Bihar,Aurangabad,"Gurdeo Nagar, Aurangabad - BSPCB",16-02-2024 16:00:00,24.75746,84.366208,NO2,2,6,4
India,Bihar,Aurangabad,"Gurdeo Nagar, Aurangabad - BSPCB",16-02-2024 16:00:00,24.75746,84.366208,SO2,4,14,9
India,Bihar,Bettiah,"Kamalnath Nagar, Bettiah - BSPCB",16-02-2024 16:00:00,26.80365,84.51954,SO2,7,13,11
India,Bihar,Bettiah,"Kamalnath Nagar, Bettiah - BSPCB",16-02-2024 16:00:00,26.80365,84.51954,CO,66,78,71
India,Bihar,Bhagalpur,"DM Office_Kachari Chowk, Bhagalpur - BSPCB",16-02-2024 16:00:00,25.251013,86.989001,NO2,27,58,41
India,Bihar,Bhagalpur,"DM Office_Kachari Chowk, Bhagalpur - BSPCB",16-02-2024 16:00:00,25.251013,86.989001,NH3,4,8,6
India,Bihar,Bihar Sharif,"D M Colony, Bihar Sharif - BSPCB",16-02-2024 16:00:00,25.204762,85.514960,NH3,2,2,2
India,Bihar,Bihar Sharif,"D M Colony, Bihar Sharif - BSPCB",16-02-2024 16:00:00,25.204762,85.514960,SO2,1,14,8
India,Bihar,Buxar,"Charitra Van, Buxar - BSPCB (Formerly known as Central Jail)",16-02-2024 16:00:00,25.567520,83.966379,PM2.5,57,320,142
India,Bihar,Buxar,"Charitra Van, Buxar - BSPCB (Formerly known as Central Jail)",16-02-2024 16:00:00,25.567520,83.966379,NH3,1,2,1
India,Bihar,Buxar,"Charitra Van, Buxar - BSPCB (Formerly known as Central Jail)",16-02-2024 16:00:00,25.567520,83.966379,OZONE,1,102,42
India,Bihar,Gaya,"Collectorate, Gaya - BSPCB",16-02-2024 16:00:00,24.7955,84.9994,PM2.5,54,303,154
India,Bihar,Gaya,"Kareemganj, Gaya - BSPCB",16-02-2024 16:00:00,24.792403,84.992416,PM10,47,157,73
India,Bihar,Gaya,"Kareemganj, Gaya - BSPCB",16-02-2024 16:00:00,24.792403,84.992416,OZONE,3,47,18
India,Bihar,Hajipur,"Industrial Area, Hajipur - BSPCB",16-02-2024 16:00:00,25.697189,85.245900,CO,16,44,30
India,Bihar,Katihar,"Mirchaibari, Katihar - BSPCB",16-02-2024 16:00:00,25.560083,87.553265,PM10,43,152,97
India,Bihar,Katihar,"Mirchaibari, Katihar - BSPCB",16-02-2024 16:00:00,25.560083,87.553265,NH3,1,3,2
India,Bihar,Motihari,"Gandak Colony, Motihari - BSPCB",16-02-2024 16:00:00,26.63086,84.90051,SO2,1,5,1
India,Bihar,Munger,"Town Hall, Munger - BSPCB",16-02-2024 16:00:00,25.376776,86.471523,NH3,1,2,2
India,Bihar,Munger,"Town Hall, Munger - BSPCB",16-02-2024 16:00:00,25.376776,86.471523,CO,1,60,28
India,Bihar,Munger,"Town Hall, Munger - BSPCB",16-02-2024 16:00:00,25.376776,86.471523,OZONE,9,15,10
India,Bihar,Muzaffarpur,"Buddha Colony, Muzaffarpur - BSPCB",16-02-2024 16:00:00,26.11442,85.39813,NO2,22,46,32
India,Bihar,Muzaffarpur,"Buddha Colony, Muzaffarpur - BSPCB",16-02-2024 16:00:00,26.11442,85.39813,NH3,12,34,17
India,Bihar,Muzaffarpur,"MIT-Daudpur Kothi, Muzaffarpur - BSPCB",16-02-2024 16:00:00,26.1403345,85.3650192,NO2,6,9,7
India,Bihar,Muzaffarpur,"Muzaffarpur Collectorate, Muzaffarpur - BSPCB",16-02-2024 16:00:00,26.1209,85.3647,PM2.5,44,398,103
India,Bihar,Muzaffarpur,"Muzaffarpur Collectorate, Muzaffarpur - BSPCB",16-02-2024 16:00:00,26.1209,85.3647,CO,26,62,43
India,Bihar,Muzaffarpur,"Muzaffarpur Collectorate, Muzaffarpur - BSPCB",16-02-2024 16:00:00,26.1209,85.3647,OZONE,16,75,40
India,Bihar,Patna,"DRM Office Danapur, Patna - BSPCB",16-02-2024 16:00:00,25.586562,85.043586,NH3,3,4,3
India,Bihar,Patna,"Govt. High School Shikarpur, Patna - BSPCB",16-02-2024 16:00:00,25.592539,85.227158,CO,27,80,43
India,Bihar,Patna,"Muradpur, Patna - BSPCB",16-02-2024 16:00:00,25.619651,85.147382,NH3,2,5,3
India,Bihar,Patna,"Muradpur, Patna - BSPCB",16-02-2024 16:00:00,25.619651,85.147382,CO,22,112,47
India,Bihar,Patna,"Rajbansi Nagar, Patna - BSPCB",16-02-2024 16:00:00,25.599486,85.113666,PM2.5,56,142,93
India,Bihar,Patna,"Samanpura, Patna - BSPCB",16-02-2024 16:00:00,25.596727,85.085624,SO2,15,17,16
India,Bihar,Purnia,"Mariam Nagar, Purnia - BSPCB",16-02-2024 16:00:00,25.366336,87.117468,PM10,64,166,108
India,Bihar,Rajgir,"Dangi Tola, Rajgir - BSPCB",16-02-2024 16:00:00,25.03280,85.41948,PM10,72,264,145
India,Bihar,Saharsa,"Police Line, Saharsa - BSPCB",16-02-2024 16:00:00,25.892357,86.590325,CO,11,42,30
India,Bihar,Samastipur,"DM Office_Kasipur, Samastipur - BSPCB",16-02-2024 16:00:00,25.859655,85.77944,SO2,2,15,8
India,Bihar,Siwan,"Chitragupta Nagar, Siwan - BSPCB",16-02-2024 16:00:00,26.2271665,84.3570427,OZONE,NA,NA,NA
India,Chandigarh,Chandigarh,"Sector 22, Chandigarh - CPCC",16-02-2024 16:00:00,30.735567,76.775714,CO,40,86,57
India,Chandigarh,Chandigarh,"Sector 22, Chandigarh - CPCC",16-02-2024 16:00:00,30.735567,76.775714,OZONE,3,191,191
India,Chandigarh,Chandigarh,"Sector-25, Chandigarh - CPCC",16-02-2024 16:00:00,30.751462,76.762879,CO,26,86,38
India,Chhattisgarh,Bhilai,"Civic Center, Bhilai - Bhilai Steel Plant",16-02-2024 16:00:00,21.185571,81.343175,PM10,NA,NA,NA
India,Chhattisgarh,Bhilai,"Civic Center, Bhilai - Bhilai Steel Plant",16-02-2024 16:00:00,21.185571,81.343175,NO2,NA,NA,NA
India,Chhattisgarh,Bhilai,"Civic Center, Bhilai - Bhilai Steel Plant",16-02-2024 16:00:00,21.185571,81.343175,CO,24,48,34
India,Chhattisgarh,Bhilai,"Hathkhoj, Bhilai - CECB",16-02-2024 16:00:00,21.224231,81.408350,PM2.5,38,93,67
India,Chhattisgarh,Bhilai,"Hathkhoj, Bhilai - CECB",16-02-2024 16:00:00,21.224231,81.408350,NO2,28,51,37
India,Chhattisgarh,Chhal,"Nawapara SECL Colony, Chhal - CECB",16-02-2024 16:00:00,22.118125,83.140608,NH3,2,2,2
India,Chhattisgarh,Korba,"Rampur, Korba - CECB",16-02-2024 16:00:00,22.368195,82.746431,NH3,2,9,4
India,Chhattisgarh,Korba,"Rampur, Korba - CECB",16-02-2024 16:00:00,22.368195,82.746431,CO,18,37,28
India,Chhattisgarh,Korba,"Urja Nagar, Korba - CECB",16-02-2024 16:00:00,22.348441,82.549611,PM2.5,42,76,54
India,Chhattisgarh,Korba,"Urja Nagar, Korba - CECB",16-02-2024 16:00:00,22.348441,82.549611,CO,16,32,25
India,Chhattisgarh,Korba,"Urja Nagar, Korba - CECB",16-02-2024 16:00:00,22.348441,82.549611,OZONE,10,64,30
India,Chhattisgarh,Kunjemura,"OP Jindal School, Kunjemura - CECB",16-02-2024 16:00:00,22.126650,83.483212,CO,30,64,44
India,Chhattisgarh,Kunjemura,"OP Jindal School, Kunjemura - CECB",16-02-2024 16:00:00,22.126650,83.483212,OZONE,5,64,34
India,Chhattisgarh,Milupara,"Govt. Higher Secondary School, Milupara - CECB",16-02-2024 16:00:00,22.1910172,83.5197009,NO2,NA,NA,NA
India,Chhattisgarh,Milupara,"Govt. Higher Secondary School, Milupara - CECB",16-02-2024 16:00:00,22.1910172,83.5197009,OZONE,31,65,49
India,Chhattisgarh,Raipur,"AIIMS, Raipur - CECB",16-02-2024 16:00:00,21.258815,81.578979,NO2,33,61,52
India,Chhattisgarh,Raipur,"AIIMS, Raipur - CECB",16-02-2024 16:00:00,21.258815,81.578979,SO2,6,19,9
India,Chhattisgarh,Raipur,"Krishak Nagar, Raipur - CECB",16-02-2024 16:00:00,21.237755,81.705301,PM10,NA,NA,NA
India,Chhattisgarh,Raipur,"Krishak Nagar, Raipur - CECB",16-02-2024 16:00:00,21.237755,81.705301,CO,NA,NA,NA
India,Chhattisgarh,Raipur,"Krishak Nagar, Raipur - CECB",16-02-2024 16:00:00,21.237755,81.705301,OZONE,NA,NA,NA
India,Chhattisgarh,Raipur,"Siltara Phase-II, Raipur - CECB",16-02-2024 16:00:00,21.371751,81.664929,SO2,7,22,10
India,Chhattisgarh,Tumidih,"OP Jindal Industrial Park, Tumidih - CECB",16-02-2024 16:00:00,22.06631475,83.33820077,OZONE,28,75,54
India,Delhi,Delhi,"Alipur, Delhi - DPCC",16-02-2024 16:00:00,28.815329,77.153010,NO2,15,108,59
India,Delhi,Delhi,"Anand Vihar, Delhi - DPCC",16-02-2024 16:00:00,28.647622,77.3158090,NH3,5,24,10
India,Delhi,Delhi,"Ashok Vihar, Delhi - DPCC",16-02-2024 16:00:00,28.695381,77.181665,CO,12,113,29
India,Delhi,Delhi,"Aya Nagar, Delhi - IMD",16-02-2024 16:00:00,28.4706914,77.1099364,OZONE,9,56,51
India,Delhi,Delhi,"Burari Crossing, Delhi - IMD",16-02-2024 16:00:00,28.7256504,77.2011573,CO,94,106,101
India,Delhi,Delhi,"Dr. Karni Singh Shooting Range, Delhi - DPCC",16-02-2024 16:00:00,28.498571,77.264840,PM2.5,88,387,277
India,Delhi,Delhi,"Dr. Karni Singh Shooting Range, Delhi - DPCC",16-02-2024 16:00:00,28.498571,77.264840,PM10,106,405,204
India,Delhi,Delhi,"Dwarka-Sector 8, Delhi - DPCC ",16-02-2024 16:00:00,28.5710274,77.0719006,NO2,6,16,11
India,Delhi,Delhi,"IGI Airport (T3), Delhi - IMD",16-02-2024 16:00:00,28.5627763,77.1180053,PM2.5,90,359,251
India,Delhi,Delhi,"IHBAS, Dilshad Garden, Delhi - CPCB",16-02-2024 16:00:00,28.6811736,77.3025234,NO2,8,25,16
India,Delhi,Delhi,"IHBAS, Dilshad Garden, Delhi - CPCB",16-02-2024 16:00:00,28.6811736,77.3025234,SO2,2,84,24
India,Delhi,Delhi,"ITO, Delhi - CPCB",16-02-2024 16:00:00,28.628624,77.241060,NH3,1,5,2
India,Delhi,Delhi,"Jahangirpuri, Delhi - DPCC",16-02-2024 16:00:00,28.732820,77.170633,SO2,12,26,17
India,Delhi,Delhi,"Jawaharlal Nehru Stadium, Delhi - DPCC",16-02-2024 16:00:00,28.580280,77.233829,PM10,101,242,180
India,Delhi,Delhi,"Lodhi Road, Delhi - IITM",16-02-2024 16:00:00,28.588333,77.221667,PM10,84,418,144
India,Delhi,Delhi,"Lodhi Road, Delhi - IITM",16-02-2024 16:00:00,28.588333,77.221667,OZONE,15,18,17
India,Delhi,Delhi,"Lodhi Road, Delhi - IMD",16-02-2024 16:00:00,28.5918245,77.2273074,NO2,6,28,16
India,Delhi,Delhi,"Lodhi Road, Delhi - IMD",16-02-2024 16:00:00,28.5918245,77.2273074,CO,48,100,61
India,Delhi,Delhi,"Mandir Marg, Delhi - DPCC",16-02-2024 16:00:00,28.636429,77.201067,PM10,102,181,141
India,Delhi,Delhi,"Mandir Marg, Delhi - DPCC",16-02-2024 16:00:00,28.636429,77.201067,NO2,69,132,114
India,Delhi,Delhi,"Mandir Marg, Delhi - DPCC",16-02-2024 16:00:00,28.636429,77.201067,SO2,7,11,9
India,Delhi,Delhi,"Mandir Marg, Delhi - DPCC",16-02-2024 16:00:00,28.636429,77.201067,CO,14,110,40
India,Delhi,Delhi,"Narela, Delhi - DPCC",16-02-2024 16:00:00,28.822836,77.101981,NO2,17,83,50
India,Delhi,Delhi,"Narela, Delhi - DPCC",16-02-2024 16:00:00,28.822836,77.101981,OZONE,2,205,185
India,Delhi,Delhi,"Nehru Nagar, Delhi - DPCC",16-02-2024 16:00:00,28.567890,77.250515,CO,22,118,71
India,Delhi,Delhi,"Okhla Phase-2, Delhi - DPCC",16-02-2024 16:00:00,28.530785,77.271255,PM2.5,88,336,272
India,Delhi,Delhi,"Patparganj, Delhi - DPCC",16-02-2024 16:00:00,28.623763,77.287209,NH3,7,13,10
India,Delhi,Delhi,"Patparganj, Delhi - DPCC",16-02-2024 16:00:00,28.623763,77.287209,SO2,7,15,11
India,Delhi,Delhi,"Punjabi Bagh, Delhi - DPCC",16-02-2024 16:00:00,28.674045,77.131023,OZONE,3,41,20
India,Delhi,Delhi,"Pusa, Delhi - DPCC",16-02-2024 16:00:00,28.639652,77.146275,PM10,146,362,240
India,Delhi,Delhi,"Pusa, Delhi - DPCC",16-02-2024 16:00:00,28.639652,77.146275,SO2,7,31,15
India,Delhi,Delhi,"Pusa, Delhi - DPCC",16-02-2024 16:00:00,28.639652,77.146275,CO,3,112,43
India,Delhi,Delhi,"R K Puram, Delhi - DPCC",16-02-2024 16:00:00,28.563262,77.186937,NO2,25,107,57
India,Delhi,Delhi,"R K Puram, Delhi - DPCC",16-02-2024 16:00:00,28.563262,77.186937,OZONE,10,184,94
India,Delhi,Delhi,"Rohini, Delhi - DPCC",16-02-2024 16:00:00,28.732528,77.119920,PM2.5,73,376,304
India,Delhi,Delhi,"Rohini, Delhi - DPCC",16-02-2024 16:00:00,28.732528,77.119920,SO2,2,29,12
India,Delhi,Delhi,"Shadipur, Delhi - CPCB",16-02-2024 16:00:00,28.6514781,77.1473105,NO2,46,60,52
India,Delhi,Delhi,"Shadipur, Delhi - CPCB",16-02-2024 16:00:00,28.6514781,77.1473105,SO2,6,20,13
India,Delhi,Delhi,"Shadipur, Delhi - CPCB",16-02-2024 16:00:00,28.6514781,77.1473105,OZONE,17,27,24
India,Delhi,Delhi,"Sirifort, Delhi - CPCB",16-02-2024 16:00:00,28.5504249,77.2159377,NH3,9,12,11
India,Delhi,Delhi,"Sirifort, Delhi - CPCB",16-02-2024 16:00:00,28.5504249,77.2159377,SO2,33,41,38
India,Delhi,Delhi,"Sirifort, Delhi - CPCB",16-02-2024 16:00:00,28.5504249,77.2159377,CO,22,105,55
India,Delhi,Delhi,"Sri Aurobindo Marg, Delhi - DPCC",16-02-2024 16:00:00,28.531346,77.190156,PM2.5,80,334,249
India,Delhi,Delhi,"Sri Aurobindo Marg, Delhi - DPCC",16-02-2024 16:00:00,28.531346,77.190156,PM10,113,199,160
India,Delhi,Delhi,"Sri Aurobindo Marg, Delhi - DPCC",16-02-2024 16:00:00,28.531346,77.190156,NH3,6,9,7
India,Delhi,Delhi,"Vivek Vihar, Delhi - DPCC",16-02-2024 16:00:00,28.672342,77.315260,NH3,4,9,7
India,Delhi,Delhi,"Vivek Vihar, Delhi - DPCC",16-02-2024 16:00:00,28.672342,77.315260,SO2,23,30,25
India,Delhi,Delhi,"Vivek Vihar, Delhi - DPCC",16-02-2024 16:00:00,28.672342,77.315260,CO,8,127,34
India,Delhi,Delhi,"Wazirpur, Delhi - DPCC",16-02-2024 16:00:00,28.699793,77.165453,PM2.5,107,395,309
India,Delhi,Delhi,"Wazirpur, Delhi - DPCC",16-02-2024 16:00:00,28.699793,77.165453,PM10,153,409,277
India,Delhi,Delhi,"Wazirpur, Delhi - DPCC",16-02-2024 16:00:00,28.699793,77.165453,CO,15,118,50
India,Gujarat,Ahmedabad,"Chandkheda, Ahmedabad - IITM",16-02-2024 16:00:00,23.107969,72.574648,NO2,72,170,115
India,Gujarat,Ahmedabad,"Chandkheda, Ahmedabad - IITM",16-02-2024 16:00:00,23.107969,72.574648,CO,6,70,57
India,Gujarat,Ahmedabad,"Chandkheda, Ahmedabad - IITM",16-02-2024 16:00:00,23.107969,72.574648,OZONE,19,56,50
India,Gujarat,Ahmedabad,"Rakhial, Ahmedabad - IITM",16-02-2024 16:00:00,23.016834,72.625775,OZONE,15,44,38
India,Gujarat,Ahmedabad,"SAC ISRO Bopal, Ahmedabad - IITM",16-02-2024 16:00:00,23.041137,72.456691,NO2,12,13,12
India,Gujarat,Ahmedabad,"SAC ISRO Bopal, Ahmedabad - IITM",16-02-2024 16:00:00,23.041137,72.456691,NH3,3,4,4
India,Gujarat,Ahmedabad,"Sardar Vallabhbhai Patel Stadium, Ahmedabad - IITM",16-02-2024 16:00:00,23.043070,72.562968,PM2.5,83,184,117
India,Gujarat,Ahmedabad,"Sardar Vallabhbhai Patel Stadium, Ahmedabad - IITM",16-02-2024 16:00:00,23.043070,72.562968,CO,16,37,21
India,Gujarat,Ankleshwar,"GIDC, Ankleshwar - GPCB",16-02-2024 16:00:00,21.613267,73.010555,PM10,74,106,96
India,Gujarat,Ankleshwar,"GIDC, Ankleshwar - GPCB",16-02-2024 16:00:00,21.613267,73.010555,SO2,27,135,92
India,Gujarat,Gandhinagar,"GIFT City, Gandhinagar - IITM",16-02-2024 16:00:00,23.163798,72.677768,CO,16,28,25
India,Gujarat,Gandhinagar,"IIPHG Lekawada, Gandhinagar - IITM",16-02-2024 16:00:00,23.243639,72.68994,NO2,32,33,32
India,Gujarat,Gandhinagar,"Sector-10, Gandhinagar - GPCB",16-02-2024 16:00:00,23.221714,72.654328,NH3,1,2,2
India,Gujarat,Gandhinagar,"Sector-10, Gandhinagar - GPCB",16-02-2024 16:00:00,23.221714,72.654328,SO2,4,7,5
India,Gujarat,Vapi,"Phase-1 GIDC, Vapi - GPCB",16-02-2024 16:00:00,20.362421,72.918013,PM10,81,330,190
India,Gujarat,Vatva,"Phase-4 GIDC, Vatva - GPCB",16-02-2024 16:00:00,22.969611,72.643500,PM2.5,35,124,88
India,Gujarat,Vatva,"Phase-4 GIDC, Vatva - GPCB",16-02-2024 16:00:00,22.969611,72.643500,OZONE,6,85,9
India,Haryana,Ambala,"Patti Mehar, Ambala - HSPCB",16-02-2024 16:00:00,30.379589,76.778328,SO2,NA,NA,NA
India,Haryana,Ambala,"Patti Mehar, Ambala - HSPCB",16-02-2024 16:00:00,30.379589,76.778328,OZONE,7,15,12
India,Haryana,Bahadurgarh,"Arya Nagar, Bahadurgarh - HSPCB",16-02-2024 16:00:00,28.6701,76.9254,PM2.5,85,306,225
India,Haryana,Ballabgarh,"Nathu Colony, Ballabgarh - HSPCB",16-02-2024 16:00:00,28.3419248,77.319699,CO,7,100,31
India,Haryana,Bhiwani,"H.B. Colony, Bhiwani - HSPCB",16-02-2024 16:00:00,28.806223,76.141105,SO2,5,14,10
India,Haryana,Charkhi Dadri,"Mini Secretariat, Charkhi Dadri - HSPCB",16-02-2024 16:00:00,28.593883,76.270653,NO2,9,21,14
India,Haryana,Dharuhera,"Municipal Corporation Office, Dharuhera -  HSPCB",16-02-2024 16:00:00,28.206800,76.799700,CO,10,100,36
India,Haryana,Faridabad,"New Industrial Town, Faridabad - HSPCB",16-02-2024 16:00:00,28.39072,77.30059,PM2.5,142,322,267
India,Haryana,Faridabad,"Sector 11, Faridabad - HSPCB",16-02-2024 16:00:00,28.376058,77.315741,NH3,NA,NA,NA
India,Haryana,Faridabad,"Sector 30, Faridabad - HSPCB",16-02-2024 16:00:00,28.4417,77.3217,NH3,9,9,9
India,Haryana,Faridabad,"Sector- 16A, Faridabad - HSPCB",16-02-2024 16:00:00,28.4088421,77.3099081,SO2,3,47,23
India,Haryana,Fatehabad,"Huda Sector, Fatehabad - HSPCB",16-02-2024 16:00:00,29.503664,75.467934,SO2,5,10,7
India,Haryana,Gurugram,"Teri Gram, Gurugram - HSPCB",16-02-2024 16:00:00,28.4275,77.1465,PM10,154,390,273
India,Haryana,Gurugram,"Teri Gram, Gurugram - HSPCB",16-02-2024 16:00:00,28.4275,77.1465,CO,22,46,34
India,Haryana,Jind,"Police Lines, Jind - HSPCB",16-02-2024 16:00:00,29.307814,76.337619,PM10,90,138,118
India,Haryana,Karnal,"Sector-12, Karnal - HSPCB",16-02-2024 16:00:00,29.695300,77.002700,NH3,10,13,11
India,Haryana,Karnal,"Sector-12, Karnal - HSPCB",16-02-2024 16:00:00,29.695300,77.002700,SO2,12,13,12
India,Haryana,Manesar,"Sector-2 IMT, Manesar - HSPCB",16-02-2024 16:00:00,28.360699,76.936090,NO2,11,28,21
India,Haryana,Manesar,"Sector-2 IMT, Manesar - HSPCB",16-02-2024 16:00:00,28.360699,76.936090,NH3,7,16,11
India,Haryana,Narnaul,"Shastri Nagar, Narnaul - HSPCB",16-02-2024 16:00:00,28.060249,76.113115,NH3,5,18,11
India,Haryana,Narnaul,"Shastri Nagar, Narnaul - HSPCB",16-02-2024 16:00:00,28.060249,76.113115,CO,2,18,9
India,Haryana,Narnaul,"Shastri Nagar, Narnaul - HSPCB",16-02-2024 16:00:00,28.060249,76.113115,OZONE,24,79,73
India,Haryana,Palwal,"Shyam Nagar, Palwal - HSPCB",16-02-2024 16:00:00,28.1485564,77.3320667,NH3,8,9,9
India,Haryana,Sonipat,"Murthal, Sonipat - HSPCB",16-02-2024 16:00:00,29.027200,77.062100,PM2.5,114,225,156
India,Haryana,Sonipat,"Murthal, Sonipat - HSPCB",16-02-2024 16:00:00,29.027200,77.062100,NO2,37,45,40
India,Haryana,Sonipat,"Murthal, Sonipat - HSPCB",16-02-2024 16:00:00,29.027200,77.062100,SO2,12,29,20
India,Haryana,Sonipat,"Murthal, Sonipat - HSPCB",16-02-2024 16:00:00,29.027200,77.062100,CO,24,32,28
India,Haryana,Yamuna Nagar,"Gobind Pura, Yamuna Nagar - HSPCB",16-02-2024 16:00:00,30.1480566,77.2893471,PM2.5,114,404,245
India,Haryana,Yamuna Nagar,"Gobind Pura, Yamuna Nagar - HSPCB",16-02-2024 16:00:00,30.1480566,77.2893471,OZONE,19,35,29
India,Himachal Pradesh,Baddi,"HIMUDA Complex Phase-1, Baddi - HPPCB",16-02-2024 16:00:00,30.943887,76.801991,PM2.5,95,500,302
India,Himachal Pradesh,Baddi,"HIMUDA Complex Phase-1, Baddi - HPPCB",16-02-2024 16:00:00,30.943887,76.801991,PM10,102,500,229
India,Himachal Pradesh,Baddi,"HIMUDA Complex Phase-1, Baddi - HPPCB",16-02-2024 16:00:00,30.943887,76.801991,SO2,19,111,44
India,Himachal Pradesh,Baddi,"HIMUDA Complex Phase-1, Baddi - HPPCB",16-02-2024 16:00:00,30.943887,76.801991,CO,20,100,49
India,Jharkhand,Dhanbad,"Sardar Patel Nagar, Dhanbad - JSPCB",16-02-2024 16:00:00,23.80569,86.44268,NO2,2,271,200
India,Jharkhand,Dhanbad,"Sardar Patel Nagar, Dhanbad - JSPCB",16-02-2024 16:00:00,23.80569,86.44268,SO2,7,108,30
India,Jharkhand,Pathardih,"Mohalbani Ghat, Pathardih - DMC",16-02-2024 16:00:00,23.669880,86.411725,OZONE,8,44,23
India,Karnataka,Bagalkot,"Vidayagiri, Bagalkot - KSPCB",16-02-2024 16:00:00,16.172806,75.659694,CO,22,57,39
India,Karnataka,Belgaum,"Ramteerth Nagar, Belgaum - KSPCB",16-02-2024 16:00:00,15.888653,74.541751,PM10,24,88,58
India,Karnataka,Bengaluru,"Bapuji Nagar, Bengaluru - KSPCB",16-02-2024 16:00:00,12.951913,77.539784,PM2.5,66,169,90
India,Karnataka,Bengaluru,"Bapuji Nagar, Bengaluru - KSPCB",16-02-2024 16:00:00,12.951913,77.539784,NO2,9,12,11
India,Karnataka,Bengaluru,"Bapuji Nagar, Bengaluru - KSPCB",16-02-2024 16:00:00,12.951913,77.539784,NH3,1,1,1
India,Karnataka,Bengaluru,"Bapuji Nagar, Bengaluru - KSPCB",16-02-2024 16:00:00,12.951913,77.539784,OZONE,10,18,12
India,Karnataka,Bengaluru,"City Railway Station, Bengaluru - KSPCB",16-02-2024 16:00:00,12.9756843,77.5660749,SO2,13,13,13
India,Karnataka,Bengaluru,"City Railway Station, Bengaluru - KSPCB",16-02-2024 16:00:00,12.9756843,77.5660749,CO,57,106,72
India,Karnataka,Bengaluru,"Hebbal, Bengaluru - KSPCB",16-02-2024 16:00:00,13.029152,77.585901,CO,6,30,16
India,Karnataka,Bengaluru,"Hombegowda Nagar, Bengaluru - KSPCB",16-02-2024 16:00:00,12.938539,77.590100,PM10,43,95,73
India,Karnataka,Bengaluru,"Hombegowda Nagar, Bengaluru - KSPCB",16-02-2024 16:00:00,12.938539,77.590100,SO2,4,7,6
India,Karnataka,Bengaluru,"Hombegowda Nagar, Bengaluru - KSPCB",16-02-2024 16:00:00,12.938539,77.590100,CO,14,21,18
India,Karnataka,Bengaluru,"Jayanagar 5th Block, Bengaluru - KSPCB",16-02-2024 16:00:00,12.920984,77.584908,PM2.5,48,158,80
India,Karnataka,Bengaluru,"Jayanagar 5th Block, Bengaluru - KSPCB",16-02-2024 16:00:00,12.920984,77.584908,PM10,76,148,101
India,Karnataka,Bengaluru,"Jayanagar 5th Block, Bengaluru - KSPCB",16-02-2024 16:00:00,12.920984,77.584908,CO,5,50,15
India,Karnataka,Bengaluru,"Kasturi Nagar, Bengaluru - KSPCB",16-02-2024 16:00:00,13.003872,77.664217,CO,22,27,23
India,Karnataka,Bengaluru,"Peenya, Bengaluru - CPCB",16-02-2024 16:00:00,13.0270199,77.494094,PM2.5,15,109,63
India,Karnataka,Bengaluru,"Peenya, Bengaluru - CPCB",16-02-2024 16:00:00,13.0270199,77.494094,PM10,43,71,60
India,Karnataka,Bengaluru,"Shivapura_Peenya, Bengaluru - KSPCB",16-02-2024 16:00:00,13.0246342,77.5080115,OZONE,53,56,55
India,Karnataka,Bengaluru,"Silk Board, Bengaluru - KSPCB",16-02-2024 16:00:00,12.917348,77.622813,PM10,67,112,92
India,Karnataka,Bengaluru,"Silk Board, Bengaluru - KSPCB",16-02-2024 16:00:00,12.917348,77.622813,CO,33,44,36
India,Karnataka,Bidar,"Naubad, Bidar - KSPCB",16-02-2024 16:00:00,17.930306,77.482194,PM10,58,94,76
India,Karnataka,Bidar,"Naubad, Bidar - KSPCB",16-02-2024 16:00:00,17.930306,77.482194,CO,26,65,36
India,Karnataka,Chikkaballapur,"Chikkaballapur Rural, Chikkaballapur - KSPCB",16-02-2024 16:00:00,13.428828,77.731418,NO2,2,10,4
India,Karnataka,Chikkamagaluru,"Kalyana Nagara, Chikkamagaluru - KSPCB",16-02-2024 16:00:00,13.328028,75.797056,PM10,NA,NA,NA
India,Karnataka,Chikkamagaluru,"Kalyana Nagara, Chikkamagaluru - KSPCB",16-02-2024 16:00:00,13.328028,75.797056,SO2,3,5,4
India,Karnataka,Chikkamagaluru,"Kalyana Nagara, Chikkamagaluru - KSPCB",16-02-2024 16:00:00,13.328028,75.797056,OZONE,19,65,35
India,Karnataka,Davanagere,"Devaraj Urs Badavane, Davanagere - KSPCB",16-02-2024 16:00:00,14.475800,75.905200,PM2.5,12,78,34
India,Karnataka,Davanagere,"Devaraj Urs Badavane, Davanagere - KSPCB",16-02-2024 16:00:00,14.475800,75.905200,PM10,38,103,60
India,Karnataka,Davanagere,"Devaraj Urs Badavane, Davanagere - KSPCB",16-02-2024 16:00:00,14.475800,75.905200,NO2,10,13,11
India,Karnataka,Davanagere,"Devaraj Urs Badavane, Davanagere - KSPCB",16-02-2024 16:00:00,14.475800,75.905200,OZONE,23,27,25
India,Karnataka,Gadag,"Panchal Nagar, Gadag - KSPCB",16-02-2024 16:00:00,15.411456,75.638133,NH3,2,3,2
India,Karnataka,Hassan,"B.Katihalli, Hassan - KSPCB",16-02-2024 16:00:00,13.008556,76.125258,PM10,16,107,78
India,Karnataka,Hassan,"B.Katihalli, Hassan - KSPCB",16-02-2024 16:00:00,13.008556,76.125258,NO2,7,8,8
India,Karnataka,Hassan,"B.Katihalli, Hassan - KSPCB",16-02-2024 16:00:00,13.008556,76.125258,SO2,7,26,14
India,Karnataka,Hassan,"B.Katihalli, Hassan - KSPCB",16-02-2024 16:00:00,13.008556,76.125258,CO,3,13,9
India,Karnataka,Hassan,"B.Katihalli, Hassan - KSPCB",16-02-2024 16:00:00,13.008556,76.125258,OZONE,7,33,13
India,Karnataka,Hubballi,"Lingaraj Nagar, Hubballi - KSPCB",16-02-2024 16:00:00,15.3714823,75.1160168,PM2.5,24,54,35
India,Karnataka,Hubballi,"Lingaraj Nagar, Hubballi - KSPCB",16-02-2024 16:00:00,15.3714823,75.1160168,SO2,1,22,5
India,Karnataka,Hubballi,"Lingaraj Nagar, Hubballi - KSPCB",16-02-2024 16:00:00,15.3714823,75.1160168,CO,30,72,55
India,Karnataka,Kalaburagi,"Lal Bahadur Shastri Nagar, Kalaburagi - KSPCB",16-02-2024 16:00:00,17.321993,76.822628,CO,37,42,38
India,Karnataka,Kalaburagi,"Mahatma Basaveswar Colony, Kalaburgi - KSPCB",16-02-2024 16:00:00,17.336318,76.847397,PM10,40,84,52
India,Karnataka,Kalaburagi,"Mahatma Basaveswar Colony, Kalaburgi - KSPCB",16-02-2024 16:00:00,17.336318,76.847397,SO2,3,6,5
India,Karnataka,Karwar,"KHB Colony, Karwar - KSPCB",16-02-2024 16:00:00,14.816666,74.141003,PM10,55,162,87
India,Karnataka,Karwar,"KHB Colony, Karwar - KSPCB",16-02-2024 16:00:00,14.816666,74.141003,SO2,17,18,18
India,Karnataka,Karwar,"KHB Colony, Karwar - KSPCB",16-02-2024 16:00:00,14.816666,74.141003,CO,7,7,7
India,Karnataka,Kolar,"Tamaka Ind. Area, Kolar - KSPCB",16-02-2024 16:00:00,13.1276288,78.1570122,NO2,NA,NA,NA
India,Karnataka,Kolar,"Tamaka Ind. Area, Kolar - KSPCB",16-02-2024 16:00:00,13.1276288,78.1570122,CO,2,26,22
India,Karnataka,Koppal,"Diwator Nagar, Koppal - KSPCB",16-02-2024 16:00:00,15.347630,76.181767,PM2.5,15,60,40
