country,state,city,station,last_update,latitude,longitude,pollutant_id,pollutant_min,pollutant_max,pollutant_avg
India,Andhra_Pradesh,Amaravati,"Secretariat, Amaravati - APPCB",17-04-2024 21:00:00,16.5150833,80.5181667,PM2.5,18,57,37
India,Andhra_Pradesh,Anantapur,"Gulzarpet, Anantapur - APPCB",17-04-2024 21:00:00,14.675886,77.593027,NO2,NA,NA,NA
India,Andhra_Pradesh,Chittoor,"Gangineni Cheruvu, Chittoor - APPCB",17-04-2024 21:00:00,13.204880,79.097889,NH3,1,3,1
India,Andhra_Pradesh,Rajamahendravaram,"Anand Kala Kshetram, Rajamahendravaram - APPCB",17-04-2024 21:00:00,16.9872867,81.7363176,NO2,9,30,16
India,Andhra_Pradesh,Rajamahendravaram,"Anand Kala Kshetram, Rajamahendravaram - APPCB",17-04-2024 21:00:00,16.9872867,81.7363176,NH3,3,5,4
India,Andhra_Pradesh,Rajamahendravaram,"Anand Kala Kshetram, Rajamahendravaram - APPCB",17-04-2024 21:00:00,16.9872867,81.7363176,OZONE,22,42,34
India,Andhra_Pradesh,Tirupati,"Tirumala, Tirupati - APPCB",17-04-2024 21:00:00,13.67,79.35,CO,32,50,43
India,Andhra_Pradesh,Tirupati,"Vaikuntapuram, Tirupati - APPCB",17-04-2024 21:00:00,13.615387,79.409230,PM10,NA,NA,NA
India,Andhra_Pradesh,Tirupati,"Vaikuntapuram, Tirupati - APPCB",17-04-2024 21:00:00,13.615387,79.409230,CO,NA,NA,NA
India,Andhra_Pradesh,Visakhapatnam,"GVM Corporation, Visakhapatnam - APPCB",17-04-2024 21:00:00,17.72,83.3,PM10,92,191,118
India,Arunachal_Pradesh,Naharlagun,"Naharlagun, Naharlagun - APSPCB",17-04-2024 21:00:00,27.103358,93.679645,SO2,4,4,4
India,Arunachal_Pradesh,Naharlagun,"Naharlagun, Naharlagun - APSPCB",17-04-2024 21:00:00,27.103358,93.679645,CO,15,22,16
India,Assam,Byrnihat,"Central Academy for SFS, Byrnihat - PCBA",17-04-2024 21:00:00,26.071318,91.87488,PM2.5,33,267,105
India,Assam,Guwahati,"IITG, Guwahati - PCBA",17-04-2024 21:00:00,26.2028636,91.70046436,OZONE,10,43,20
India,Assam,Guwahati,"Pan Bazaar, Guwahati - PCBA",17-04-2024 21:00:00,26.187500,91.744194,SO2,36,64,44
India,Assam,Guwahati,"Pan Bazaar, Guwahati - PCBA",17-04-2024 21:00:00,26.187500,91.744194,OZONE,17,18,17
India,Assam,Guwahati,"Railway Colony, Guwahati - PCBA",17-04-2024 21:00:00,26.181742,91.78063,PM10,39,171,75
India,Assam,Guwahati,"Railway Colony, Guwahati - PCBA",17-04-2024 21:00:00,26.181742,91.78063,CO,16,34,20
India,Assam,Nagaon,"Christianpatty, Nagaon - PCBA",17-04-2024 21:00:00,26.349082,92.68449,SO2,3,77,29
India,Assam,Sivasagar,"Girls College, Sivasagar - PCBA",17-04-2024 21:00:00,26.987634,94.636574,PM2.5,33,62,43
India,Assam,Sivasagar,"Girls College, Sivasagar - PCBA",17-04-2024 21:00:00,26.987634,94.636574,NO2,7,18,13
India,Bihar,Arrah,"New DM Office, Arrah - BSPCB",17-04-2024 21:00:00,25.5626095,84.663264,PM10,NA,NA,NA
India,Bihar,Aurangabad,"Gurdeo Nagar, Aurangabad - BSPCB",17-04-2024 21:00:00,24.75746,84.366208,PM10,NA,NA,NA
India,Bihar,Aurangabad,"Gurdeo Nagar, Aurangabad - BSPCB",17-04-2024 21:00:00,24.75746,84.366208,NO2,4,5,5
India,Bihar,Bettiah,"Kamalnath Nagar, Bettiah - BSPCB",17-04-2024 21:00:00,26.80365,84.51954,PM2.5,47,346,141
India,Bihar,Bettiah,"Kamalnath Nagar, Bettiah - BSPCB",17-04-2024 21:00:00,26.80365,84.51954,SO2,6,30,15
India,Bihar,Bhagalpur,"DM Office_Kachari Chowk, Bhagalpur - BSPCB",17-04-2024 21:00:00,25.251013,86.989001,PM2.5,NA,NA,NA
India,Bihar,Bhagalpur,"DM Office_Kachari Chowk, Bhagalpur - BSPCB",17-04-2024 21:00:00,25.251013,86.989001,PM10,NA,NA,NA
India,Bihar,Bhagalpur,"DM Office_Kachari Chowk, Bhagalpur - BSPCB",17-04-2024 21:00:00,25.251013,86.989001,NH3,5,8,6
India,Bihar,Bhagalpur,"DM Office_Kachari Chowk, Bhagalpur - BSPCB",17-04-2024 21:00:00,25.251013,86.989001,CO,6,87,75
India,Bihar,Bhagalpur,"DM Office_Kachari Chowk, Bhagalpur - BSPCB",17-04-2024 21:00:00,25.251013,86.989001,OZONE,44,55,47
India,Bihar,Bhagalpur,"Mayaganj, Bhagalpur - BSPCB",17-04-2024 21:00:00,25.265194,87.012947,PM10,48,147,77
India,Bihar,Bhagalpur,"Mayaganj, Bhagalpur - BSPCB",17-04-2024 21:00:00,25.265194,87.012947,NO2,3,12,7
India,Bihar,Bhagalpur,"Mayaganj, Bhagalpur - BSPCB",17-04-2024 21:00:00,25.265194,87.012947,OZONE,13,94,64
India,Bihar,Bihar Sharif,"D M Colony, Bihar Sharif - BSPCB",17-04-2024 21:00:00,25.204762,85.514960,NO2,9,11,9
India,Bihar,Chhapra,"Darshan Nagar, Chhapra - BSPCB",17-04-2024 21:00:00,25.7808257,84.7446768,PM2.5,173,331,279
India,Bihar,Chhapra,"Darshan Nagar, Chhapra - BSPCB",17-04-2024 21:00:00,25.7808257,84.7446768,NO2,17,33,24
India,Bihar,Chhapra,"Darshan Nagar, Chhapra - BSPCB",17-04-2024 21:00:00,25.7808257,84.7446768,CO,41,71,54
India,Bihar,Gaya,"Collectorate, Gaya - BSPCB",17-04-2024 21:00:00,24.7955,84.9994,PM2.5,47,278,114
India,Bihar,Gaya,"Kareemganj, Gaya - BSPCB",17-04-2024 21:00:00,24.792403,84.992416,NH3,1,6,3
India,Bihar,Gaya,"Kareemganj, Gaya - BSPCB",17-04-2024 21:00:00,24.792403,84.992416,CO,8,27,17
India,Bihar,Gaya,"SFTI Kusdihra, Gaya - BSPCB",17-04-2024 21:00:00,24.762518,84.982348,OZONE,24,39,33
India,Bihar,Hajipur,"Industrial Area, Hajipur - BSPCB",17-04-2024 21:00:00,25.697189,85.245900,CO,18,48,24
India,Bihar,Katihar,"Mirchaibari, Katihar - BSPCB",17-04-2024 21:00:00,25.560083,87.553265,PM10,85,187,125
India,Bihar,Kishanganj,"SDM Office_Khagra, Kishanganj - BSPCB",17-04-2024 21:00:00,26.0881305,87.93840336,PM2.5,37,237,68
India,Bihar,Kishanganj,"SDM Office_Khagra, Kishanganj - BSPCB",17-04-2024 21:00:00,26.0881305,87.93840336,NO2,28,32,29
India,Bihar,Manguraha,"Forest Rest House, Manguraha - BSPCB",17-04-2024 21:00:00,27.308328,84.531742,NH3,2,3,2
India,Bihar,Manguraha,"Forest Rest House, Manguraha - BSPCB",17-04-2024 21:00:00,27.308328,84.531742,CO,11,40,19
India,Bihar,Manguraha,"Forest Rest House, Manguraha - BSPCB",17-04-2024 21:00:00,27.308328,84.531742,OZONE,7,84,69
India,Bihar,Motihari,"Gandak Colony, Motihari - BSPCB",17-04-2024 21:00:00,26.63086,84.90051,PM2.5,23,193,72
India,Bihar,Motihari,"Gandak Colony, Motihari - BSPCB",17-04-2024 21:00:00,26.63086,84.90051,CO,1,16,5
India,Bihar,Munger,"Town Hall, Munger - BSPCB",17-04-2024 21:00:00,25.376776,86.471523,CO,1,28,14
India,Bihar,Muzaffarpur,"Muzaffarpur Collectorate, Muzaffarpur - BSPCB",17-04-2024 21:00:00,26.1209,85.3647,SO2,7,13,10
India,Bihar,Muzaffarpur,"Muzaffarpur Collectorate, Muzaffarpur - BSPCB",17-04-2024 21:00:00,26.1209,85.3647,OZONE,45,127,113
India,Bihar,Patna,"DRM Office Danapur, Patna - BSPCB",17-04-2024 21:00:00,25.586562,85.043586,NO2,5,86,38
India,Bihar,Patna,"Govt. High School Shikarpur, Patna - BSPCB",17-04-2024 21:00:00,25.592539,85.227158,PM10,108,454,217
India,Bihar,Patna,"Muradpur, Patna - BSPCB",17-04-2024 21:00:00,25.619651,85.147382,PM2.5,228,411,321
India,Bihar,Patna,"Muradpur, Patna - BSPCB",17-04-2024 21:00:00,25.619651,85.147382,PM10,193,500,304
India,Bihar,Patna,"Muradpur, Patna - BSPCB",17-04-2024 21:00:00,25.619651,85.147382,NH3,2,4,3
India,Bihar,Patna,"Rajbansi Nagar, Patna - BSPCB",17-04-2024 21:00:00,25.599486,85.113666,PM2.5,105,339,226
India,Bihar,Patna,"Rajbansi Nagar, Patna - BSPCB",17-04-2024 21:00:00,25.599486,85.113666,SO2,1,17,11
India,Bihar,Patna,"Samanpura, Patna - BSPCB",17-04-2024 21:00:00,25.596727,85.085624,SO2,7,16,10
India,Bihar,Purnia,"Mariam Nagar, Purnia - BSPCB",17-04-2024 21:00:00,25.366336,87.117468,PM2.5,NA,NA,NA
India,Bihar,Purnia,"Mariam Nagar, Purnia - BSPCB",17-04-2024 21:00:00,25.366336,87.117468,PM10,NA,NA,NA
India,Bihar,Rajgir,"Dangi Tola, Rajgir - BSPCB",17-04-2024 21:00:00,25.03280,85.41948,CO,30,52,42
India,Bihar,Saharsa,"Police Line, Saharsa - BSPCB",17-04-2024 21:00:00,25.892357,86.590325,PM2.5,18,123,54
India,Bihar,Saharsa,"Police Line, Saharsa - BSPCB",17-04-2024 21:00:00,25.892357,86.590325,SO2,5,16,16
India,Bihar,Samastipur,"DM Office_Kasipur, Samastipur - BSPCB",17-04-2024 21:00:00,25.859655,85.77944,NH3,2,4,3
India,Bihar,Siwan,"Chitragupta Nagar, Siwan - BSPCB",17-04-2024 21:00:00,26.2271665,84.3570427,NH3,NA,NA,NA
India,Chandigarh,Chandigarh,"Sector 22, Chandigarh - CPCC",17-04-2024 21:00:00,30.735567,76.775714,NH3,6,11,8
India,Chandigarh,Chandigarh,"Sector-25, Chandigarh - CPCC",17-04-2024 21:00:00,30.751462,76.762879,PM10,85,121,104
India,Chandigarh,Chandigarh,"Sector-25, Chandigarh - CPCC",17-04-2024 21:00:00,30.751462,76.762879,NO2,3,12,8
India,Chandigarh,Chandigarh,"Sector-25, Chandigarh - CPCC",17-04-2024 21:00:00,30.751462,76.762879,NH3,8,13,11
India,Chandigarh,Chandigarh,"Sector-53, Chandigarh - CPCC",17-04-2024 21:00:00,30.719859,76.738637,NH3,4,6,5
India,Chandigarh,Chandigarh,"Sector-53, Chandigarh - CPCC",17-04-2024 21:00:00,30.719859,76.738637,SO2,3,25,11
India,Chhattisgarh,Bhilai,"Civic Center, Bhilai - Bhilai Steel Plant",17-04-2024 21:00:00,21.185571,81.343175,PM2.5,25,53,39
India,Chhattisgarh,Bhilai,"Hathkhoj, Bhilai - CECB",17-04-2024 21:00:00,21.224231,81.408350,PM2.5,21,141,73
India,Chhattisgarh,Bhilai,"Hathkhoj, Bhilai - CECB",17-04-2024 21:00:00,21.224231,81.408350,NH3,6,8,7
India,Chhattisgarh,Bhilai,"Hathkhoj, Bhilai - CECB",17-04-2024 21:00:00,21.224231,81.408350,CO,9,94,17
India,Chhattisgarh,Bilaspur,"Mangala, Bilaspur - NTPC",17-04-2024 21:00:00,22.08815,82.13737,NO2,13,18,15
India,Chhattisgarh,Chhal,"Nawapara SECL Colony, Chhal - CECB",17-04-2024 21:00:00,22.118125,83.140608,CO,22,53,33
India,Chhattisgarh,Korba,"Urja Nagar, Korba - CECB",17-04-2024 21:00:00,22.348441,82.549611,CO,15,30,19
India,Chhattisgarh,Kunjemura,"OP Jindal School, Kunjemura - CECB",17-04-2024 21:00:00,22.126650,83.483212,NO2,12,91,51
India,Chhattisgarh,Raipur,"AIIMS, Raipur - CECB",17-04-2024 21:00:00,21.258815,81.578979,PM2.5,28,126,55
India,Chhattisgarh,Raipur,"AIIMS, Raipur - CECB",17-04-2024 21:00:00,21.258815,81.578979,NO2,17,39,25
India,Chhattisgarh,Raipur,"Bhatagaon New ISBT, Raipur - CECB",17-04-2024 21:00:00,21.219665,81.630094,NH3,2,2,2
India,Chhattisgarh,Raipur,"Bhatagaon New ISBT, Raipur - CECB",17-04-2024 21:00:00,21.219665,81.630094,SO2,1,4,2
India,Chhattisgarh,Raipur,"Bhatagaon New ISBT, Raipur - CECB",17-04-2024 21:00:00,21.219665,81.630094,CO,16,61,26
India,Chhattisgarh,Raipur,"Krishak Nagar, Raipur - CECB",17-04-2024 21:00:00,21.237755,81.705301,OZONE,3,40,27
India,Chhattisgarh,Raipur,"Siltara Phase-II, Raipur - CECB",17-04-2024 21:00:00,21.371751,81.664929,NO2,29,66,44
India,Chhattisgarh,Raipur,"Siltara Phase-II, Raipur - CECB",17-04-2024 21:00:00,21.371751,81.664929,CO,22,72,23
India,Chhattisgarh,Raipur,"Siltara Phase-II, Raipur - CECB",17-04-2024 21:00:00,21.371751,81.664929,OZONE,3,39,34
India,Chhattisgarh,Tumidih,"OP Jindal Industrial Park, Tumidih - CECB",17-04-2024 21:00:00,22.06631475,83.33820077,PM10,NA,NA,NA
India,Chhattisgarh,Tumidih,"OP Jindal Industrial Park, Tumidih - CECB",17-04-2024 21:00:00,22.06631475,83.33820077,NO2,NA,NA,NA
India,Chhattisgarh,Tumidih,"OP Jindal Industrial Park, Tumidih - CECB",17-04-2024 21:00:00,22.06631475,83.33820077,NH3,NA,NA,NA
India,Chhattisgarh,Tumidih,"OP Jindal Industrial Park, Tumidih - CECB",17-04-2024 21:00:00,22.06631475,83.33820077,SO2,NA,NA,NA
India,Delhi,Delhi,"Alipur, Delhi - DPCC",17-04-2024 21:00:00,28.815329,77.153010,NO2,9,42,23
India,Delhi,Delhi,"Alipur, Delhi - DPCC",17-04-2024 21:00:00,28.815329,77.153010,NH3,4,9,6
India,Delhi,Delhi,"Alipur, Delhi - DPCC",17-04-2024 21:00:00,28.815329,77.153010,CO,35,50,40
India,Delhi,Delhi,"Alipur, Delhi - DPCC",17-04-2024 21:00:00,28.815329,77.153010,OZONE,27,151,124
India,Delhi,Delhi,"Anand Vihar, Delhi - DPCC",17-04-2024 21:00:00,28.647622,77.3158090,PM10,20,225,158
India,Delhi,Delhi,"Anand Vihar, Delhi - DPCC",17-04-2024 21:00:00,28.647622,77.3158090,OZONE,26,92,63
India,Delhi,Delhi,"Ashok Vihar, Delhi - DPCC",17-04-2024 21:00:00,28.695381,77.181665,PM2.5,22,178,54
India,Delhi,Delhi,"Ashok Vihar, Delhi - DPCC",17-04-2024 21:00:00,28.695381,77.181665,NH3,14,18,16
India,Delhi,Delhi,"Chandni Chowk, Delhi - IITM",17-04-2024 21:00:00,28.656756,77.227234,SO2,6,50,28
India,Delhi,Delhi,"DTU, Delhi - CPCB",17-04-2024 21:00:00,28.7500499,77.1112615,NO2,7,13,10
India,Delhi,Delhi,"Dr. Karni Singh Shooting Range, Delhi - DPCC",17-04-2024 21:00:00,28.498571,77.264840,PM2.5,23,170,59
India,Delhi,Delhi,"Dr. Karni Singh Shooting Range, Delhi - DPCC",17-04-2024 21:00:00,28.498571,77.264840,SO2,19,46,26
India,Delhi,Delhi,"Dr. Karni Singh Shooting Range, Delhi - DPCC",17-04-2024 21:00:00,28.498571,77.264840,OZONE,28,223,176
India,Delhi,Delhi,"Dwarka-Sector 8, Delhi - DPCC ",17-04-2024 21:00:00,28.5710274,77.0719006,PM10,118,352,158
India,Delhi,Delhi,"Dwarka-Sector 8, Delhi - DPCC ",17-04-2024 21:00:00,28.5710274,77.0719006,NO2,8,40,17
India,Delhi,Delhi,"IGI Airport (T3), Delhi - IMD",17-04-2024 21:00:00,28.5627763,77.1180053,PM2.5,NA,NA,NA
India,Delhi,Delhi,"IGI Airport (T3), Delhi - IMD",17-04-2024 21:00:00,28.5627763,77.1180053,PM10,NA,NA,NA
India,Delhi,Delhi,"IGI Airport (T3), Delhi - IMD",17-04-2024 21:00:00,28.5627763,77.1180053,CO,14,21,18
India,Delhi,Delhi,"IHBAS, Dilshad Garden, Delhi - CPCB",17-04-2024 21:00:00,28.6811736,77.3025234,SO2,14,30,22
India,Delhi,Delhi,"ITO, Delhi - CPCB",17-04-2024 21:00:00,28.628624,77.241060,NO2,15,116,61
India,Delhi,Delhi,"ITO, Delhi - CPCB",17-04-2024 21:00:00,28.628624,77.241060,NH3,2,5,3
India,Delhi,Delhi,"Jahangirpuri, Delhi - DPCC",17-04-2024 21:00:00,28.732820,77.170633,SO2,20,54,30
India,Delhi,Delhi,"Lodhi Road, Delhi - IITM",17-04-2024 21:00:00,28.588333,77.221667,PM10,68,104,82
India,Delhi,Delhi,"Lodhi Road, Delhi - IITM",17-04-2024 21:00:00,28.588333,77.221667,NO2,69,99,85
India,Delhi,Delhi,"Lodhi Road, Delhi - IITM",17-04-2024 21:00:00,28.588333,77.221667,NH3,7,8,8
India,Delhi,Delhi,"Major Dhyan Chand National Stadium, Delhi - DPCC",17-04-2024 21:00:00,28.611281,77.237738,CO,27,44,31
India,Delhi,Delhi,"Mandir Marg, Delhi - DPCC",17-04-2024 21:00:00,28.636429,77.201067,NH3,5,6,6
India,Delhi,Delhi,"Mandir Marg, Delhi - DPCC",17-04-2024 21:00:00,28.636429,77.201067,SO2,2,12,7
India,Delhi,Delhi,"Mundka, Delhi - DPCC",17-04-2024 21:00:00,28.684678,77.076574,NO2,19,37,27
India,Delhi,Delhi,"Narela, Delhi - DPCC",17-04-2024 21:00:00,28.822836,77.101981,SO2,9,39,17
India,Delhi,Delhi,"Nehru Nagar, Delhi - DPCC",17-04-2024 21:00:00,28.567890,77.250515,PM10,60,127,101
India,Delhi,Delhi,"Nehru Nagar, Delhi - DPCC",17-04-2024 21:00:00,28.567890,77.250515,NO2,7,11,9
India,Delhi,Delhi,"Nehru Nagar, Delhi - DPCC",17-04-2024 21:00:00,28.567890,77.250515,CO,50,62,56
India,Delhi,Delhi,"New Moti Bagh, Delhi - MHUA",17-04-2024 21:00:00,28.57834,77.18400,NO2,5,18,7
India,Delhi,Delhi,"New Moti Bagh, Delhi - MHUA",17-04-2024 21:00:00,28.57834,77.18400,CO,16,58,23
India,Delhi,Delhi,"Okhla Phase-2, Delhi - DPCC",17-04-2024 21:00:00,28.530785,77.271255,PM2.5,20,100,39
India,Delhi,Delhi,"Okhla Phase-2, Delhi - DPCC",17-04-2024 21:00:00,28.530785,77.271255,NO2,39,107,62
India,Delhi,Delhi,"Patparganj, Delhi - DPCC",17-04-2024 21:00:00,28.623763,77.287209,PM10,102,199,142
India,Delhi,Delhi,"Patparganj, Delhi - DPCC",17-04-2024 21:00:00,28.623763,77.287209,OZONE,22,104,89
India,Delhi,Delhi,"Punjabi Bagh, Delhi - DPCC",17-04-2024 21:00:00,28.674045,77.131023,NH3,4,6,4
India,Delhi,Delhi,"Pusa, Delhi - DPCC",17-04-2024 21:00:00,28.639652,77.146275,CO,9,57,36
India,Delhi,Delhi,"R K Puram, Delhi - DPCC",17-04-2024 21:00:00,28.563262,77.186937,PM2.5,41,202,76
India,Delhi,Delhi,"R K Puram, Delhi - DPCC",17-04-2024 21:00:00,28.563262,77.186937,CO,14,40,22
India,Delhi,Delhi,"Rohini, Delhi - DPCC",17-04-2024 21:00:00,28.732528,77.119920,NH3,7,16,11
India,Delhi,Delhi,"Shadipur, Delhi - CPCB",17-04-2024 21:00:00,28.6514781,77.1473105,CO,18,36,23
India,Delhi,Delhi,"Shadipur, Delhi - CPCB",17-04-2024 21:00:00,28.6514781,77.1473105,OZONE,34,186,186
India,Delhi,Delhi,"Sonia Vihar, Delhi - DPCC",17-04-2024 21:00:00,28.710508,77.249485,SO2,8,36,14
India,Delhi,Delhi,"Sri Aurobindo Marg, Delhi - DPCC",17-04-2024 21:00:00,28.531346,77.190156,PM10,94,152,122
India,Delhi,Delhi,"Sri Aurobindo Marg, Delhi - DPCC",17-04-2024 21:00:00,28.531346,77.190156,SO2,12,37,19
India,Delhi,Delhi,"Sri Aurobindo Marg, Delhi - DPCC",17-04-2024 21:00:00,28.531346,77.190156,OZONE,18,73,65
India,Delhi,Delhi,"Vivek Vihar, Delhi - DPCC",17-04-2024 21:00:00,28.672342,77.315260,NO2,23,61,38
India,Delhi,Delhi,"Vivek Vihar, Delhi - DPCC",17-04-2024 21:00:00,28.672342,77.315260,NH3,15,16,15
India,Delhi,Delhi,"Wazirpur, Delhi - DPCC",17-04-2024 21:00:00,28.699793,77.165453,PM2.5,30,250,70
India,Delhi,Delhi,"Wazirpur, Delhi - DPCC",17-04-2024 21:00:00,28.699793,77.165453,NH3,12,13,12
India,Gujarat,Ahmedabad,"Gyaspur, Ahmedabad - IITM",17-04-2024 21:00:00,22.977134,72.553024,PM2.5,47,274,88
India,Gujarat,Ahmedabad,"Gyaspur, Ahmedabad - IITM",17-04-2024 21:00:00,22.977134,72.553024,NH3,11,11,11
India,Gujarat,Ahmedabad,"Gyaspur, Ahmedabad - IITM",17-04-2024 21:00:00,22.977134,72.553024,OZONE,3,70,40
India,Gujarat,Ahmedabad,"Raikhad, Ahmedabad - IITM",17-04-2024 21:00:00,23.020509,72.579261,SO2,NA,NA,NA
India,Gujarat,Ahmedabad,"Rakhial, Ahmedabad - IITM",17-04-2024 21:00:00,23.016834,72.625775,NO2,6,23,12
India,Gujarat,Ahmedabad,"SAC ISRO Satellite, Ahmedabad - IITM",17-04-2024 21:00:00,23.023389,72.515201,NH3,3,3,3
India,Gujarat,Ahmedabad,"SAC ISRO Satellite, Ahmedabad - IITM",17-04-2024 21:00:00,23.023389,72.515201,OZONE,12,26,21
India,Gujarat,Ahmedabad,"SVPI Airport Hansol, Ahmedabad - IITM",17-04-2024 21:00:00,23.076793,72.627874,SO2,3,8,5
India,Gujarat,Ankleshwar,"GIDC, Ankleshwar - GPCB",17-04-2024 21:00:00,21.613267,73.010555,PM10,49,103,77
India,Gujarat,Gandhinagar,"IIPHG Lekawada, Gandhinagar - IITM",17-04-2024 21:00:00,23.243639,72.68994,PM2.5,46,94,67
India,Gujarat,Gandhinagar,"IIPHG Lekawada, Gandhinagar - IITM",17-04-2024 21:00:00,23.243639,72.68994,SO2,10,10,10
India,Gujarat,Vapi,"Phase-1 GIDC, Vapi - GPCB",17-04-2024 21:00:00,20.362421,72.918013,SO2,51,53,52
India,Gujarat,Vatva,"Phase-4 GIDC, Vatva - GPCB",17-04-2024 21:00:00,22.969611,72.643500,PM2.5,21,45,33
India,Gujarat,Vatva,"Phase-4 GIDC, Vatva - GPCB",17-04-2024 21:00:00,22.969611,72.643500,SO2,8,27,17
India,Haryana,Bahadurgarh,"Arya Nagar, Bahadurgarh - HSPCB",17-04-2024 21:00:00,28.6701,76.9254,OZONE,37,49,44
India,Haryana,Bhiwani,"H.B. Colony, Bhiwani - HSPCB",17-04-2024 21:00:00,28.806223,76.141105,OZONE,28,98,33
India,Haryana,Charkhi Dadri,"Mini Secretariat, Charkhi Dadri - HSPCB",17-04-2024 21:00:00,28.593883,76.270653,SO2,3,27,16
India,Haryana,Charkhi Dadri,"Mini Secretariat, Charkhi Dadri - HSPCB",17-04-2024 21:00:00,28.593883,76.270653,OZONE,13,17,15
India,Haryana,Dharuhera,"Municipal Corporation Office, Dharuhera -  HSPCB",17-04-2024 21:00:00,28.206800,76.799700,PM10,123,323,169
India,Haryana,Dharuhera,"Municipal Corporation Office, Dharuhera -  HSPCB",17-04-2024 21:00:00,28.206800,76.799700,SO2,5,59,20
India,Haryana,Dharuhera,"Municipal Corporation Office, Dharuhera -  HSPCB",17-04-2024 21:00:00,28.206800,76.799700,CO,5,28,11
India,Haryana,Faridabad,"New Industrial Town, Faridabad - HSPCB",17-04-2024 21:00:00,28.39072,77.30059,PM10,75,416,179
India,Haryana,Faridabad,"New Industrial Town, Faridabad - HSPCB",17-04-2024 21:00:00,28.39072,77.30059,NO2,2,18,11
India,Haryana,Faridabad,"Sector 11, Faridabad - HSPCB",17-04-2024 21:00:00,28.376058,77.315741,PM10,98,467,174
India,Haryana,Faridabad,"Sector 11, Faridabad - HSPCB",17-04-2024 21:00:00,28.376058,77.315741,CO,34,52,49
India,Haryana,Faridabad,"Sector 30, Faridabad - HSPCB",17-04-2024 21:00:00,28.4417,77.3217,SO2,NA,NA,NA
India,Haryana,Faridabad,"Sector 30, Faridabad - HSPCB",17-04-2024 21:00:00,28.4417,77.3217,CO,NA,NA,NA
India,Haryana,Faridabad,"Sector- 16A, Faridabad - HSPCB",17-04-2024 21:00:00,28.4088421,77.3099081,SO2,3,25,19
India,Haryana,Faridabad,"Sector- 16A, Faridabad - HSPCB",17-04-2024 21:00:00,28.4088421,77.3099081,CO,1,51,13
India,Haryana,Fatehabad,"Huda Sector, Fatehabad - HSPCB",17-04-2024 21:00:00,29.503664,75.467934,PM2.5,12,51,27
India,Haryana,Fatehabad,"Huda Sector, Fatehabad - HSPCB",17-04-2024 21:00:00,29.503664,75.467934,SO2,10,11,11
India,Haryana,Fatehabad,"Huda Sector, Fatehabad - HSPCB",17-04-2024 21:00:00,29.503664,75.467934,CO,6,12,8
India,Haryana,Gurugram,"Sector-51, Gurugram - HSPCB",17-04-2024 21:00:00,28.4227,77.0667,SO2,2,4,3
India,Haryana,Gurugram,"Sector-51, Gurugram - HSPCB",17-04-2024 21:00:00,28.4227,77.0667,OZONE,27,67,56
India,Haryana,Gurugram,"Vikas Sadan, Gurugram - HSPCB",17-04-2024 21:00:00,28.4501238,77.0263051,CO,54,149,106
India,Haryana,Hisar,"Urban Estate-II, Hisar - HSPCB",17-04-2024 21:00:00,29.140560,75.744941,PM10,71,117,89
India,Haryana,Jind,"Police Lines, Jind - HSPCB",17-04-2024 21:00:00,29.307814,76.337619,PM2.5,16,47,32
India,Haryana,Jind,"Police Lines, Jind - HSPCB",17-04-2024 21:00:00,29.307814,76.337619,NO2,6,16,12
India,Haryana,Jind,"Police Lines, Jind - HSPCB",17-04-2024 21:00:00,29.307814,76.337619,NH3,2,5,4
India,Haryana,Jind,"Police Lines, Jind - HSPCB",17-04-2024 21:00:00,29.307814,76.337619,CO,6,104,31
India,Haryana,Kaithal,"Rishi Nagar, Kaithal - HSPCB",17-04-2024 21:00:00,29.8006,76.4155,NH3,7,8,8
India,Haryana,Kaithal,"Rishi Nagar, Kaithal - HSPCB",17-04-2024 21:00:00,29.8006,76.4155,CO,6,28,15
India,Haryana,Karnal,"Sector-12, Karnal - HSPCB",17-04-2024 21:00:00,29.695300,77.002700,PM10,54,103,73
India,Haryana,Kurukshetra,"Sector-7, Kurukshetra - HSPCB",17-04-2024 21:00:00,29.966942,76.875879,PM2.5,30,66,48
India,Haryana,Kurukshetra,"Sector-7, Kurukshetra - HSPCB",17-04-2024 21:00:00,29.966942,76.875879,PM10,50,84,66
India,Haryana,Kurukshetra,"Sector-7, Kurukshetra - HSPCB",17-04-2024 21:00:00,29.966942,76.875879,NH3,4,5,5
India,Haryana,Mandikhera,"General Hospital, Mandikhera - HSPCB",17-04-2024 21:00:00,27.9002,76.9938,NO2,19,24,22
India,Haryana,Narnaul,"Shastri Nagar, Narnaul - HSPCB",17-04-2024 21:00:00,28.060249,76.113115,PM10,37,76,52
India,Haryana,Narnaul,"Shastri Nagar, Narnaul - HSPCB",17-04-2024 21:00:00,28.060249,76.113115,NH3,4,24,11
India,Haryana,Narnaul,"Shastri Nagar, Narnaul - HSPCB",17-04-2024 21:00:00,28.060249,76.113115,OZONE,34,57,43
India,Haryana,Palwal,"Shyam Nagar, Palwal - HSPCB",17-04-2024 21:00:00,28.1485564,77.3320667,NH3,NA,NA,NA
India,Haryana,Palwal,"Shyam Nagar, Palwal - HSPCB",17-04-2024 21:00:00,28.1485564,77.3320667,CO,22,27,24
India,Haryana,Panchkula,"Sector-6, Panchkula - HSPCB ",17-04-2024 21:00:00,30.7057778,76.8531805555555,SO2,2,13,4
India,Haryana,Panipat,"Sector-18, Panipat - HSPCB",17-04-2024 21:00:00,29.497973,76.993331,NH3,2,3,2
India,Haryana,Panipat,"Sector-18, Panipat - HSPCB",17-04-2024 21:00:00,29.497973,76.993331,OZONE,30,30,30
India,Haryana,Rohtak,"MD University, Rohtak - HSPCB",17-04-2024 21:00:00,28.52123,76.37138,PM2.5,8,500,157
India,Haryana,Sirsa,"F-Block, Sirsa - HSPCB",17-04-2024 21:00:00,29.536400,75.015800,PM2.5,29,64,44
India,Haryana,Sonipat,"Murthal, Sonipat - HSPCB",17-04-2024 21:00:00,29.027200,77.062100,PM2.5,29,84,51
India,Haryana,Sonipat,"Murthal, Sonipat - HSPCB",17-04-2024 21:00:00,29.027200,77.062100,PM10,37,106,99
India,Haryana,Sonipat,"Murthal, Sonipat - HSPCB",17-04-2024 21:00:00,29.027200,77.062100,NO2,37,44,40
India,Haryana,Sonipat,"Murthal, Sonipat - HSPCB",17-04-2024 21:00:00,29.027200,77.062100,CO,8,21,11
India,Haryana,Yamuna Nagar,"Gobind Pura, Yamuna Nagar - HSPCB",17-04-2024 21:00:00,30.1480566,77.2893471,SO2,2,46,7
India,Haryana,Yamuna Nagar,"Gobind Pura, Yamuna Nagar - HSPCB",17-04-2024 21:00:00,30.1480566,77.2893471,OZONE,22,40,32
India,Himachal Pradesh,Baddi,"HIMUDA Complex Phase-1, Baddi - HPPCB",17-04-2024 21:00:00,30.943887,76.801991,SO2,11,92,35
India,Jharkhand,Dhanbad,"Sardar Patel Nagar, Dhanbad - JSPCB",17-04-2024 21:00:00,23.80569,86.44268,OZONE,11,19,18
India,Karnataka,Bagalkot,"Vidayagiri, Bagalkot - KSPCB",17-04-2024 21:00:00,16.172806,75.659694,NH3,1,2,1
India,Karnataka,Belgaum,"Ramteerth Nagar, Belgaum - KSPCB",17-04-2024 21:00:00,15.888653,74.541751,NH3,3,8,6
India,Karnataka,Bengaluru,"BTM Layout, Bengaluru - CPCB",17-04-2024 21:00:00,12.9135218,77.5950804,PM10,42,98,64
India,Karnataka,Bengaluru,"Bapuji Nagar, Bengaluru - KSPCB",17-04-2024 21:00:00,12.951913,77.539784,PM10,53,122,84
India,Karnataka,Bengaluru,"Bapuji Nagar, Bengaluru - KSPCB",17-04-2024 21:00:00,12.951913,77.539784,NH3,1,1,1
India,Karnataka,Bengaluru,"Bapuji Nagar, Bengaluru - KSPCB",17-04-2024 21:00:00,12.951913,77.539784,OZONE,27,42,31
India,Karnataka,Bengaluru,"Hebbal, Bengaluru - KSPCB",17-04-2024 21:00:00,13.029152,77.585901,OZONE,3,111,26
India,Karnataka,Bengaluru,"Hombegowda Nagar, Bengaluru - KSPCB",17-04-2024 21:00:00,12.938539,77.590100,SO2,3,4,4
India,Karnataka,Bengaluru,"Jayanagar 5th Block, Bengaluru - KSPCB",17-04-2024 21:00:00,12.920984,77.584908,NO2,NA,NA,NA
India,Karnataka,Bengaluru,"Jayanagar 5th Block, Bengaluru - KSPCB",17-04-2024 21:00:00,12.920984,77.584908,OZONE,27,28,28
India,Karnataka,Bengaluru,"Kasturi Nagar, Bengaluru - KSPCB",17-04-2024 21:00:00,13.003872,77.664217,PM2.5,14,500,133
India,Karnataka,Bengaluru,"Kasturi Nagar, Bengaluru - KSPCB",17-04-2024 21:00:00,13.003872,77.664217,PM10,19,500,129
India,Karnataka,Bengaluru,"Kasturi Nagar, Bengaluru - KSPCB",17-04-2024 21:00:00,13.003872,77.664217,CO,20,25,23
India,Karnataka,Bengaluru,"Peenya, Bengaluru - CPCB",17-04-2024 21:00:00,13.0270199,77.494094,OZONE,14,58,36
India,Karnataka,Bengaluru,"RVCE-Mailasandra, Bengaluru - KSPCB",17-04-2024 21:00:00,12.921418,77.502466,PM2.5,78,388,199
India,Karnataka,Bengaluru,"RVCE-Mailasandra, Bengaluru - KSPCB",17-04-2024 21:00:00,12.921418,77.502466,PM10,76,500,187
India,Karnataka,Bengaluru,"Shivapura_Peenya, Bengaluru - KSPCB",17-04-2024 21:00:00,13.0246342,77.5080115,PM2.5,5,112,35
India,Karnataka,Bengaluru,"Shivapura_Peenya, Bengaluru - KSPCB",17-04-2024 21:00:00,13.0246342,77.5080115,SO2,6,23,14
India,Karnataka,Bengaluru,"Silk Board, Bengaluru - KSPCB",17-04-2024 21:00:00,12.917348,77.622813,NO2,7,16,12
India,Karnataka,Bidar,"Naubad, Bidar - KSPCB",17-04-2024 21:00:00,17.930306,77.482194,PM2.5,53,118,78
India,Karnataka,Bidar,"Naubad, Bidar - KSPCB",17-04-2024 21:00:00,17.930306,77.482194,CO,76,116,90
India,Karnataka,Chamarajanagar,"Urban, Chamarajanagar - KSPCB",17-04-2024 21:00:00,11.55358,76.55521,SO2,2,8,4
India,Karnataka,Chikkaballapur,"Chikkaballapur Rural, Chikkaballapur - KSPCB",17-04-2024 21:00:00,13.428828,77.731418,SO2,16,70,35
India,Karnataka,Chikkamagaluru,"Kalyana Nagara, Chikkamagaluru - KSPCB",17-04-2024 21:00:00,13.328028,75.797056,PM10,17,199,43
India,Karnataka,Gadag,"Panchal Nagar, Gadag - KSPCB",17-04-2024 21:00:00,15.411456,75.638133,PM2.5,NA,NA,NA
India,Karnataka,Gadag,"Panchal Nagar, Gadag - KSPCB",17-04-2024 21:00:00,15.411456,75.638133,OZONE,72,72,72
India,Karnataka,Hubballi,"Deshpande Nagar, Hubballi - KSPCB",17-04-2024 21:00:00,15.351773,75.140726,CO,8,73,45
India,Karnataka,Kalaburagi,"Lal Bahadur Shastri Nagar, Kalaburagi - KSPCB",17-04-2024 21:00:00,17.321993,76.822628,SO2,11,13,12
India,Karnataka,Kalaburagi,"Mahatma Basaveswar Colony, Kalaburgi - KSPCB",17-04-2024 21:00:00,17.336318,76.847397,OZONE,2,26,20
India,Karnataka,Karwar,"KHB Colony, Karwar - KSPCB",17-04-2024 21:00:00,14.816666,74.141003,PM2.5,32,65,47
India,Karnataka,Kolar,"Tamaka Ind. Area, Kolar - KSPCB",17-04-2024 21:00:00,13.1276288,78.1570122,NO2,21,62,28
India,Karnataka,Koppal,"Diwator Nagar, Koppal - KSPCB",17-04-2024 21:00:00,15.347630,76.181767,OZONE,31,74,68
India,Karnataka,Mangalore,"Kadri, Mangalore - KSPCB",17-04-2024 21:00:00,12.889250,74.853000,NH3,1,2,2
India,Karnataka,Mysuru,"Hebbal 1st Stage, Mysuru - KSPCB",17-04-2024 21:00:00,12.21041,76.37376,PM10,26,59,42
India,Karnataka,Ramanagara,"Vijay Nagar, Ramanagara - KSPCB",17-04-2024 21:00:00,12.733409,77.298051,PM10,30,54,41
India,Karnataka,Ramanagara,"Vijay Nagar, Ramanagara - KSPCB",17-04-2024 21:00:00,12.733409,77.298051,SO2,11,30,21
India,Karnataka,Shivamogga,"Vinoba Nagara, Shivamogga - KSPCB",17-04-2024 21:00:00,13.940000,75.555917,PM2.5,33,58,40
India,Karnataka,Shivamogga,"Vinoba Nagara, Shivamogga - KSPCB",17-04-2024 21:00:00,13.940000,75.555917,CO,7,41,13
India,Karnataka,Tumakuru,"Thimmalapura, Tumakuru - KSPCB",17-04-2024 21:00:00,13.377516,77.099072,OZONE,18,49,38
India,Karnataka,Vijayapura,"Ibrahimpur, Vijayapura - KSPCB",17-04-2024 21:00:00,16.802639,75.722694,PM2.5,26,31,30
India,Karnataka,Vijayapura,"Ibrahimpur, Vijayapura - KSPCB",17-04-2024 21:00:00,16.802639,75.722694,PM10,42,44,42
India,Karnataka,Yadgir,"Collector Office, Yadgir - KSPCB",17-04-2024 21:00:00,16.7602,77.1428,CO,20,41,27
India,Karnataka,Yadgir,"Collector Office, Yadgir - KSPCB",17-04-2024 21:00:00,16.7602,77.1428,OZONE,18,20,19
India,Kerala,Eloor,"Udyogamandal, Eloor - Kerala PCB",17-04-2024 21:00:00,10.073232,76.302765,PM10,31,42,34
India,Kerala,Eloor,"Udyogamandal, Eloor - Kerala PCB",17-04-2024 21:00:00,10.073232,76.302765,SO2,1,9,3
India,Kerala,Kollam,"Polayathode, Kollam - Kerala PCB",17-04-2024 21:00:00,8.8787,76.6073,PM10,29,72,47
India,Kerala,Thiruvananthapuram,"Kariavattom, Thiruvananthapuram - Kerala PCB",17-04-2024 21:00:00,8.563700,76.886500,PM2.5,75,88,82
India,Kerala,Thiruvananthapuram,"Kariavattom, Thiruvananthapuram - Kerala PCB",17-04-2024 21:00:00,8.563700,76.886500,NH3,1,1,1
India,Kerala,Thiruvananthapuram,"Plammoodu, Thiruvananthapuram - Kerala PCB",17-04-2024 21:00:00,8.5149093,76.9435879,PM2.5,3,23,10
India,Kerala,Thiruvananthapuram,"Plammoodu, Thiruvananthapuram - Kerala PCB",17-04-2024 21:00:00,8.5149093,76.9435879,SO2,3,10,7
India,Kerala,Thiruvananthapuram,"Plammoodu, Thiruvananthapuram - Kerala PCB",17-04-2024 21:00:00,8.5149093,76.9435879,CO,6,20,17
India,Kerala,Thrissur,"Corporation Ground, Thrissur - Kerala PCB",17-04-2024 21:00:00,10.532400,76.215900,SO2,NA,NA,NA
India,Madhya Pradesh,Bhopal,"Idgah Hills, Bhopal - MPPCB",17-04-2024 21:00:00,23.264759,77.381568,NO2,15,30,20
India,Madhya Pradesh,Bhopal,"Paryavaran Parisar, Bhopal - MPPCB",17-04-2024 21:00:00,23.210494,77.425409,NO2,10,102,37
India,Madhya Pradesh,Dewas,"Bhopal Chauraha, Dewas - MPPCB",17-04-2024 21:00:00,22.9682591,76.064118,OZONE,10,43,38
India,Madhya Pradesh,Gwalior,"City Center, Gwalior - MPPCB",17-04-2024 21:00:00,26.203442,78.193251,PM10,NA,NA,NA
India,Madhya Pradesh,Gwalior,"City Center, Gwalior - MPPCB",17-04-2024 21:00:00,26.203442,78.193251,NH3,NA,NA,NA
India,Madhya Pradesh,Gwalior,"Deen Dayal Nagar, Gwalior - MPPCB",17-04-2024 21:00:00,26.259242,78.216432,PM10,106,193,144
India,Madhya Pradesh,Gwalior,"Deen Dayal Nagar, Gwalior - MPPCB",17-04-2024 21:00:00,26.259242,78.216432,NO2,7,34,20
India,Madhya Pradesh,Gwalior,"Deen Dayal Nagar, Gwalior - MPPCB",17-04-2024 21:00:00,26.259242,78.216432,SO2,8,14,10
India,Madhya Pradesh,Gwalior,"Maharaj Bada, Gwalior - MPPCB",17-04-2024 21:00:00,26.200388,78.147714,NO2,NA,NA,NA
India,Madhya Pradesh,Gwalior,"Maharaj Bada, Gwalior - MPPCB",17-04-2024 21:00:00,26.200388,78.147714,NH3,NA,NA,NA
India,Madhya Pradesh,Gwalior,"Maharaj Bada, Gwalior - MPPCB",17-04-2024 21:00:00,26.200388,78.147714,OZONE,2,133,86
India,Madhya Pradesh,Gwalior,"Phool Bagh, Gwalior - Mondelez Ind. Food",17-04-2024 21:00:00,26.210536,78.171,PM2.5,46,78,55
India,Madhya Pradesh,Gwalior,"Phool Bagh, Gwalior - Mondelez Ind. Food",17-04-2024 21:00:00,26.210536,78.171,NO2,4,5,4
India,Madhya Pradesh,Gwalior,"Phool Bagh, Gwalior - Mondelez Ind. Food",17-04-2024 21:00:00,26.210536,78.171,CO,42,50,49
India,Madhya Pradesh,Indore,"Chhoti Gwaltoli, Indore - MPPCB",17-04-2024 21:00:00,22.4310,75.5213,PM10,68,176,117
India,Madhya Pradesh,Indore,"Chhoti Gwaltoli, Indore - MPPCB",17-04-2024 21:00:00,22.4310,75.5213,CO,30,175,175
India,Madhya Pradesh,Indore,"Maguda Nagar, Indore - IMC",17-04-2024 21:00:00,22.7524,75.8872,PM2.5,35,135,73
India,Madhya Pradesh,Indore,"Regional Park, Indore - IMC",17-04-2024 21:00:00,22.6780,75.8559,CO,26,46,28
India,Madhya Pradesh,Jabalpur,"Govindh Bhavan Colony, Jabalpur - JMC",17-04-2024 21:00:00,23.163174,79.973061,PM2.5,18,60,39
India,Madhya Pradesh,Jabalpur,"Govindh Bhavan Colony, Jabalpur - JMC",17-04-2024 21:00:00,23.163174,79.973061,NO2,13,42,25
India,Madhya Pradesh,Jabalpur,"Gupteshwar, Jabalpur - JMC",17-04-2024 21:00:00,23.142888,79.916147,NH3,6,8,7
India,Madhya Pradesh,Jabalpur,"Gupteshwar, Jabalpur - JMC",17-04-2024 21:00:00,23.142888,79.916147,CO,16,123,44
India,Madhya Pradesh,Jabalpur,"Gupteshwar, Jabalpur - JMC",17-04-2024 21:00:00,23.142888,79.916147,OZONE,3,97,65
India,Madhya Pradesh,Jabalpur,"Suhagi, Jabalpur - JMC",17-04-2024 21:00:00,23.218135,79.957770,NH3,2,4,4
India,Madhya Pradesh,Jabalpur,"Suhagi, Jabalpur - JMC",17-04-2024 21:00:00,23.218135,79.957770,OZONE,1,113,69
India,Madhya Pradesh,Katni,"Gole Bazar, Katni - MPPCB",17-04-2024 21:00:00,23.50016,80.23284,PM2.5,17,89,44
India,Madhya Pradesh,Katni,"Gole Bazar, Katni - MPPCB",17-04-2024 21:00:00,23.50016,80.23284,PM10,64,186,99
India,Madhya Pradesh,Katni,"Gole Bazar, Katni - MPPCB",17-04-2024 21:00:00,23.50016,80.23284,SO2,15,128,38
India,Madhya Pradesh,Katni,"Gole Bazar, Katni - MPPCB",17-04-2024 21:00:00,23.50016,80.23284,CO,27,132,29
India,Madhya Pradesh,Katni,"Gole Bazar, Katni - MPPCB",17-04-2024 21:00:00,23.50016,80.23284,OZONE,11,130,83
India,Madhya Pradesh,Mandideep,"Sector-D Industrial Area, Mandideep - MPPCB",17-04-2024 21:00:00,23.108440,77.511428,PM10,74,207,127
India,Madhya Pradesh,Mandideep,"Sector-D Industrial Area, Mandideep - MPPCB",17-04-2024 21:00:00,23.108440,77.511428,NO2,14,72,40
India,Madhya Pradesh,Mandideep,"Sector-D Industrial Area, Mandideep - MPPCB",17-04-2024 21:00:00,23.108440,77.511428,NH3,5,5,5
India,Madhya Pradesh,Mandideep,"Sector-D Industrial Area, Mandideep - MPPCB",17-04-2024 21:00:00,23.108440,77.511428,SO2,9,138,70
India,Madhya Pradesh,Pithampur,"Sector-2 Industrial Area, Pithampur - MPPCB",17-04-2024 21:00:00,22.624758,75.675238,SO2,9,13,12
India,Madhya Pradesh,Sagar,"Civil Lines, Sagar - MPPCB",17-04-2024 21:00:00,23.838586,78.759431,PM2.5,14,68,38
India,Madhya Pradesh,Sagar,"Civil Lines, Sagar - MPPCB",17-04-2024 21:00:00,23.838586,78.759431,NO2,6,25,15
India,Madhya Pradesh,Satna,"Bandhavgar Colony, Satna - Birla Cement",17-04-2024 21:00:00,24.58434363,80.8549414,CO,22,100,42
India,Madhya Pradesh,Satna,"Bandhavgar Colony, Satna - Birla Cement",17-04-2024 21:00:00,24.58434363,80.8549414,OZONE,8,10,9
India,Madhya Pradesh,Singrauli,"Suryakiran Bhawan NCL, Singrauli - MPPCB",17-04-2024 21:00:00,24.108970,82.645580,NH3,3,5,4
India,Madhya Pradesh,Singrauli,"Suryakiran Bhawan NCL, Singrauli - MPPCB",17-04-2024 21:00:00,24.108970,82.645580,CO,60,108,75
India,Madhya Pradesh,Ujjain,"Mahakaleshwar Temple, Ujjain - MPPCB",17-04-2024 21:00:00,23.182719 ,75.768218 ,PM2.5,12,117,48
India,Maharashtra,Ahmednagar,"Tarakpur, Ahmednagar - MPCB",17-04-2024 21:00:00,19.10122,74.73339,SO2,8,20,14
India,Maharashtra,Akola,"Ramdaspeth, Akola - MPCB",17-04-2024 21:00:00,20.719516,77.000253,NH3,5,10,7
India,Maharashtra,Akola,"Ramdaspeth, Akola - MPCB",17-04-2024 21:00:00,20.719516,77.000253,CO,16,79,23
India,Maharashtra,Akola,"Ramdaspeth, Akola - MPCB",17-04-2024 21:00:00,20.719516,77.000253,OZONE,4,77,58
India,Maharashtra,Amravati,"Shri Shivaji Science College, Amaravati - MPCB",17-04-2024 21:00:00,20.939198,77.765701,CO,18,116,37
India,Maharashtra,Aurangabad,"MIDC Chilkalthana, Aurangabad - MPCB",17-04-2024 21:00:00,19.875620,75.387310,SO2,2,15,6
India,Maharashtra,Aurangabad,"More Chowk Waluj, Aurangabad - MPCB",17-04-2024 21:00:00,19.8389439,75.244448,PM10,40,116,73
India,Maharashtra,Aurangabad,"More Chowk Waluj, Aurangabad - MPCB",17-04-2024 21:00:00,19.8389439,75.244448,OZONE,22,98,69
India,Maharashtra,Badlapur,"Katrap, Badlapur - MPCB",17-04-2024 21:00:00,19.16485,73.23409,NO2,4,43,19
India,Maharashtra,Boisar,"Khaira, Boisar - MPCB",17-04-2024 21:00:00,19.786089,72.757971,PM10,55,145,105
India,Maharashtra,Boisar,"Khaira, Boisar - MPCB",17-04-2024 21:00:00,19.786089,72.757971,CO,6,68,17
India,Maharashtra,Boisar,"Khaira, Boisar - MPCB",17-04-2024 21:00:00,19.786089,72.757971,OZONE,8,77,65
India,Maharashtra,Chandrapur,"MIDC Khutala, Chandrapur - MPCB",17-04-2024 21:00:00,19.9775302,79.2337086,PM2.5,53,130,87
India,Maharashtra,Dhule,"Deopur, Dhule - MPCB",17-04-2024 21:00:00,20.918946,74.776388,PM10,84,134,99
India,Maharashtra,Dhule,"Deopur, Dhule - MPCB",17-04-2024 21:00:00,20.918946,74.776388,CO,16,35,18
India,Maharashtra,Jalgaon,"Prabhat Colony, Jalgaon - MPCB",17-04-2024 21:00:00,21.001264,75.565602,CO,14,32,15
India,Maharashtra,Jalna,"Old MIDC, Jalna - MPCB",17-04-2024 21:00:00,19.854616,75.905894,PM2.5,37,108,50
India,Maharashtra,Jalna,"Old MIDC, Jalna - MPCB",17-04-2024 21:00:00,19.854616,75.905894,NH3,6,8,7
India,Maharashtra,Jalna,"Old MIDC, Jalna - MPCB",17-04-2024 21:00:00,19.854616,75.905894,OZONE,11,196,108
India,Maharashtra,Kalyan,"Khadakpada, Kalyan - MPCB",17-04-2024 21:00:00,19.25292,73.142019,CO,19,32,21
India,Maharashtra,Kolhapur,"Shivaji University, Kolhapur - MPCB",17-04-2024 21:00:00,16.6870449,74.2505872,NO2,12,22,16
India,Maharashtra,Kolhapur,"Shivaji University, Kolhapur - MPCB",17-04-2024 21:00:00,16.6870449,74.2505872,CO,8,86,62
India,Maharashtra,Kolhapur,"Sinchan Bhavan, Kolhapur - MPCB",17-04-2024 21:00:00,16.7143745,74.2426398,PM10,54,84,68
India,Maharashtra,Kolhapur,"Sinchan Bhavan, Kolhapur - MPCB",17-04-2024 21:00:00,16.7143745,74.2426398,CO,16,30,22
India,Maharashtra,Latur,"Sawe Wadi, Latur - MPCB",17-04-2024 21:00:00,18.39963,76.57452,PM2.5,66,154,99
India,Maharashtra,Latur,"Sawe Wadi, Latur - MPCB",17-04-2024 21:00:00,18.39963,76.57452,CO,20,104,43
India,Maharashtra,Malegaon,"Mahesh Nagar, Malegaon - MPCB",17-04-2024 21:00:00,20.555712,74.529236,PM2.5,55,453,117
India,Maharashtra,Malegaon,"Mahesh Nagar, Malegaon - MPCB",17-04-2024 21:00:00,20.555712,74.529236,OZONE,20,125,90
India,Maharashtra,Mira-Bhayandar,"Bhayandar West, Mira-Bhayandar - MPCB",17-04-2024 21:00:00,19.296481,72.840923,PM2.5,56,128,85
India,Maharashtra,Mumbai,"Borivali East, Mumbai - IITM",17-04-2024 21:00:00,19.23241,72.86895,PM2.5,49,84,68
India,Maharashtra,Mumbai,"Borivali East, Mumbai - IITM",17-04-2024 21:00:00,19.23241,72.86895,NH3,1,3,2
India,Maharashtra,Mumbai,"Borivali East, Mumbai - MPCB",17-04-2024 21:00:00,19.2243333,72.8658113,NH3,1,2,1
India,Maharashtra,Mumbai,"Borivali East, Mumbai - MPCB",17-04-2024 21:00:00,19.2243333,72.8658113,OZONE,14,15,15
India,Maharashtra,Mumbai,"Byculla, Mumbai - BMC",17-04-2024 21:00:00,18.9767,72.8380,NO2,6,23,11
India,Maharashtra,Mumbai,"Byculla, Mumbai - BMC",17-04-2024 21:00:00,18.9767,72.8380,SO2,1,4,2
India,Maharashtra,Mumbai,"Chembur, Mumbai - MPCB",17-04-2024 21:00:00,19.0364585,72.8954371,PM2.5,67,188,97
India,Maharashtra,Mumbai,"Chembur, Mumbai - MPCB",17-04-2024 21:00:00,19.0364585,72.8954371,PM10,55,131,88
India,Maharashtra,Mumbai,"Chhatrapati Shivaji Intl. Airport (T2), Mumbai - MPCB",17-04-2024 21:00:00,19.10078,72.87462,CO,36,101,40
India,Maharashtra,Mumbai,"Colaba, Mumbai - MPCB",17-04-2024 21:00:00,18.910000,72.820000,NO2,NA,NA,NA
India,Maharashtra,Mumbai,"Ghatkopar, Mumbai - BMC",17-04-2024 21:00:00,19.083694,72.920967,NH3,1,7,3
India,Maharashtra,Mumbai,"Ghatkopar, Mumbai - BMC",17-04-2024 21:00:00,19.083694,72.920967,SO2,1,3,2
India,Maharashtra,Mumbai,"Ghatkopar, Mumbai - BMC",17-04-2024 21:00:00,19.083694,72.920967,OZONE,5,43,31
India,Maharashtra,Mumbai,"Kandivali West, Mumbai - BMC",17-04-2024 21:00:00,19.215859,72.831718,PM2.5,29,78,52
India,Maharashtra,Mumbai,"Kandivali West, Mumbai - BMC",17-04-2024 21:00:00,19.215859,72.831718,NH3,1,2,2
India,Maharashtra,Mumbai,"Kandivali West, Mumbai - BMC",17-04-2024 21:00:00,19.215859,72.831718,CO,8,66,15
India,Maharashtra,Mumbai,"Kherwadi_Bandra East, Mumbai - MPCB",17-04-2024 21:00:00,19.0632143,72.8456324,NO2,7,57,23
India,Maharashtra,Mumbai,"Kherwadi_Bandra East, Mumbai - MPCB",17-04-2024 21:00:00,19.0632143,72.8456324,SO2,4,7,5
India,Maharashtra,Mumbai,"Kherwadi_Bandra East, Mumbai - MPCB",17-04-2024 21:00:00,19.0632143,72.8456324,CO,9,48,18
India,Maharashtra,Mumbai,"Mazgaon, Mumbai - IITM",17-04-2024 21:00:00,18.96702,72.84214,SO2,NA,NA,NA
India,Maharashtra,Mumbai,"Mindspace-Malad West, Mumbai - MPCB",17-04-2024 21:00:00,19.1878657,72.8304069,PM10,31,107,62
India,Maharashtra,Mumbai,"Mulund West, Mumbai - MPCB",17-04-2024 21:00:00,19.1750,72.9419,PM2.5,60,172,100
India,Maharashtra,Mumbai,"Mulund West, Mumbai - MPCB",17-04-2024 21:00:00,19.1750,72.9419,NO2,21,25,23
India,Maharashtra,Mumbai,"Navy Nagar-Colaba, Mumbai - IITM",17-04-2024 21:00:00,18.897756,72.813320,PM2.5,20,63,40
India,Maharashtra,Mumbai,"Navy Nagar-Colaba, Mumbai - IITM",17-04-2024 21:00:00,18.897756,72.813320,OZONE,70,196,87
India,Maharashtra,Mumbai,"Powai, Mumbai - MPCB",17-04-2024 21:00:00,19.137500,72.915056,CO,32,49,37
India,Maharashtra,Mumbai,"Sewri, Mumbai - BMC",17-04-2024 21:00:00,19.000084,72.856730,NO2,21,87,35
India,Maharashtra,Mumbai,"Sewri, Mumbai - BMC",17-04-2024 21:00:00,19.000084,72.856730,SO2,1,5,1
India,Maharashtra,Mumbai,"Shivaji Nagar, Mumbai - BMC",17-04-2024 21:00:00,19.060498,72.923356,NH3,NA,NA,NA
India,Maharashtra,Mumbai,"Sion, Mumbai - MPCB",17-04-2024 21:00:00,19.047000,72.874600,CO,12,49,15
India,Maharashtra,Mumbai,"Vasai West, Mumbai - MPCB",17-04-2024 21:00:00,19.383200,72.820400,NO2,25,126,38
India,Maharashtra,Mumbai,"Vasai West, Mumbai - MPCB",17-04-2024 21:00:00,19.383200,72.820400,NH3,4,12,5
India,Maharashtra,Mumbai,"Vasai West, Mumbai - MPCB",17-04-2024 21:00:00,19.383200,72.820400,OZONE,25,126,84
India,Maharashtra,Mumbai,"Vile Parle West, Mumbai - MPCB",17-04-2024 21:00:00,19.10861,72.83622,SO2,14,14,14
India,Maharashtra,Mumbai,"Worli, Mumbai - MPCB",17-04-2024 21:00:00,18.9936162,72.8128113,NO2,15,15,15
India,Maharashtra,Nagpur,"Mahal, Nagpur - MPCB",17-04-2024 21:00:00,21.14472,79.107595,PM10,78,129,101
India,Maharashtra,Nagpur,"Mahal, Nagpur - MPCB",17-04-2024 21:00:00,21.14472,79.107595,SO2,9,60,31
India,Maharashtra,Nagpur,"Mahal, Nagpur - MPCB",17-04-2024 21:00:00,21.14472,79.107595,OZONE,1,102,70
India,Maharashtra,Nagpur,"Opp GPO Civil Lines, Nagpur - MPCB",17-04-2024 21:00:00,21.152875,79.0517531,PM2.5,34,168,94
India,Maharashtra,Nagpur,"Opp GPO Civil Lines, Nagpur - MPCB",17-04-2024 21:00:00,21.152875,79.0517531,SO2,3,25,14
India,Maharashtra,Nagpur,"Opp GPO Civil Lines, Nagpur - MPCB",17-04-2024 21:00:00,21.152875,79.0517531,CO,14,121,53
India,Maharashtra,Nagpur,"Opp GPO Civil Lines, Nagpur - MPCB",17-04-2024 21:00:00,21.152875,79.0517531,OZONE,3,88,48
India,Maharashtra,Nanded,"Sneh Nagar, Nanded - MPCB",17-04-2024 21:00:00,19.173852,77.296291,PM10,87,126,107
India,Maharashtra,Nashik,"Hirawadi, Nashik - MPCB",17-04-2024 21:00:00,20.021503,73.813844,NO2,3,91,27
India,Maharashtra,Nashik,"Pandav Nagari, Nashik - MPCB",17-04-2024 21:00:00,19.9591346,73.7788008,PM10,38,232,75
India,Maharashtra,Nashik,"Pandav Nagari, Nashik - MPCB",17-04-2024 21:00:00,19.9591346,73.7788008,NO2,10,35,17
India,Maharashtra,Nashik,"Pandav Nagari, Nashik - MPCB",17-04-2024 21:00:00,19.9591346,73.7788008,NH3,2,4,3
India,Maharashtra,Nashik,"Pandav Nagari, Nashik - MPCB",17-04-2024 21:00:00,19.9591346,73.7788008,OZONE,8,143,85
India,Maharashtra,Navi Mumbai,"Kopripada-Vashi, Navi Mumbai - MPCB",17-04-2024 21:00:00,19.090337,73.014232,PM2.5,62,147,90
India,Maharashtra,Navi Mumbai,"Mahape, Navi Mumbai - MPCB",17-04-2024 21:00:00,19.1135051,73.008978,PM10,65,135,99
India,Maharashtra,Navi Mumbai,"Mahape, Navi Mumbai - MPCB",17-04-2024 21:00:00,19.1135051,73.008978,NH3,1,2,2
India,Maharashtra,Navi Mumbai,"Mahape, Navi Mumbai - MPCB",17-04-2024 21:00:00,19.1135051,73.008978,SO2,24,25,24
India,Maharashtra,Navi Mumbai,"Sanpada, Navi Mumbai - MPCB",17-04-2024 21:00:00,19.0575752,73.0151367,NH3,1,6,2
India,Maharashtra,Navi Mumbai,"Sanpada, Navi Mumbai - MPCB",17-04-2024 21:00:00,19.0575752,73.0151367,CO,2,74,33
India,Maharashtra,Navi Mumbai,"Sector-19A Nerul, Navi Mumbai - IITM",17-04-2024 21:00:00,19.044,73.0325,NH3,6,10,8
India,Maharashtra,Navi Mumbai,"Sector-19A Nerul, Navi Mumbai - IITM",17-04-2024 21:00:00,19.044,73.0325,SO2,7,13,11
India,Maharashtra,Navi Mumbai,"Sector-2E Kalamboli, Navi Mumbai - MPCB",17-04-2024 21:00:00,19.02579,73.10297,NO2,9,65,20
India,Maharashtra,Navi Mumbai,"Sector-2E Kalamboli, Navi Mumbai - MPCB",17-04-2024 21:00:00,19.02579,73.10297,SO2,NA,NA,NA
India,Maharashtra,Navi Mumbai,"Sector-2E Kalamboli, Navi Mumbai - MPCB",17-04-2024 21:00:00,19.02579,73.10297,CO,2,47,12
India,Maharashtra,Navi Mumbai,"Sector-2E Kalamboli, Navi Mumbai - MPCB",17-04-2024 21:00:00,19.02579,73.10297,OZONE,10,28,19
India,Maharashtra,Navi Mumbai,"Tondare-Taloja, Navi Mumbai - MPCB",17-04-2024 21:00:00,19.0630,73.1209,CO,2,36,13
India,Maharashtra,Navi Mumbai,"Tondare-Taloja, Navi Mumbai - MPCB",17-04-2024 21:00:00,19.0630,73.1209,OZONE,6,36,21
India,Maharashtra,Pimpri-Chinchwad,"Gavalinagar, Pimpri Chinchwad - MPCB",17-04-2024 21:00:00,18.63673,73.82487,PM2.5,62,105,83
India,Maharashtra,Pimpri-Chinchwad,"Gavalinagar, Pimpri Chinchwad - MPCB",17-04-2024 21:00:00,18.63673,73.82487,PM10,72,128,103
India,Maharashtra,Pimpri-Chinchwad,"Gavalinagar, Pimpri Chinchwad - MPCB",17-04-2024 21:00:00,18.63673,73.82487,NO2,12,95,46
India,Maharashtra,Pimpri-Chinchwad,"Gavalinagar, Pimpri Chinchwad - MPCB",17-04-2024 21:00:00,18.63673,73.82487,NH3,1,8,4
India,Maharashtra,Pimpri-Chinchwad,"Gavalinagar, Pimpri Chinchwad - MPCB",17-04-2024 21:00:00,18.63673,73.82487,SO2,3,15,7
India,Maharashtra,Pimpri-Chinchwad,"Gavalinagar, Pimpri Chinchwad - MPCB",17-04-2024 21:00:00,18.63673,73.82487,CO,16,62,23
India,Maharashtra,Pimpri-Chinchwad,"Thergaon, Pimpri Chinchwad - MPCB",17-04-2024 21:00:00,18.616318,73.765797,PM2.5,NA,NA,NA
India,Maharashtra,Pimpri-Chinchwad,"Thergaon, Pimpri Chinchwad - MPCB",17-04-2024 21:00:00,18.616318,73.765797,NO2,NA,NA,NA
India,Maharashtra,Pimpri-Chinchwad,"Thergaon, Pimpri Chinchwad - MPCB",17-04-2024 21:00:00,18.616318,73.765797,NH3,NA,NA,NA
India,Maharashtra,Pune,"Bhosari, Pune - IITM",17-04-2024 21:00:00,18.640051,73.848956,PM10,75,128,103
India,Maharashtra,Pune,"Karve Road, Pune - MPCB",17-04-2024 21:00:00,18.5011743,73.8165527,PM10,110,120,114
India,Maharashtra,Pune,"Mhada Colony, Pune - IITM",17-04-2024 21:00:00,18.573040,73.927715,OZONE,12,139,74
India,Maharashtra,Pune,"Revenue Colony-Shivajinagar, Pune - IITM",17-04-2024 21:00:00,18.530085,73.849598,OZONE,1,62,38
India,Maharashtra,Pune,"Savitribai Phule Pune University, Pune - MPCB",17-04-2024 21:00:00,18.547056,73.826908,PM10,57,300,121
India,Maharashtra,Pune,"Savitribai Phule Pune University, Pune - MPCB",17-04-2024 21:00:00,18.547056,73.826908,NO2,11,25,18
India,Maharashtra,Pune,"Savitribai Phule Pune University, Pune - MPCB",17-04-2024 21:00:00,18.547056,73.826908,CO,16,62,20
India,Maharashtra,Pune,"Transport Nagar-Nigdi, Pune - IITM",17-04-2024 21:00:00,18.664282,73.763966,OZONE,14,69,67
India,Maharashtra,Sangli,"Vijay Nagar, Sangli - MPCB",17-04-2024 21:00:00, 16.5038,74.3623,NO2,9,51,17
India,Maharashtra,Sangli,"Vijay Nagar, Sangli - MPCB",17-04-2024 21:00:00, 16.5038,74.3623,NH3,1,3,2
India,Maharashtra,Sangli,"Vijay Nagar, Sangli - MPCB",17-04-2024 21:00:00, 16.5038,74.3623,CO,18,50,28
India,Maharashtra,Solapur,"Dnyaneshwar Nagar, Solapur - MPCB",17-04-2024 21:00:00,17.6336264,75.9132495,PM2.5,38,155,66
India,Maharashtra,Solapur,"Dnyaneshwar Nagar, Solapur - MPCB",17-04-2024 21:00:00,17.6336264,75.9132495,PM10,80,111,98
India,Maharashtra,Solapur,"Ratandeep Housing Society, Solapur - MPCB",17-04-2024 21:00:00,17.65439,75.90649,NO2,16,109,36
India,Maharashtra,Solapur,"Solapur, Solapur - MPCB",17-04-2024 21:00:00,17.6599188,75.9063906,PM10,125,155,144
India,Maharashtra,Thane,"Pimpleshwar Mandir, Thane - MPCB",17-04-2024 21:00:00,19.192056,72.9585188,SO2,1,11,5
India,Maharashtra,Thane,"Pimpleshwar Mandir, Thane - MPCB",17-04-2024 21:00:00,19.192056,72.9585188,CO,4,120,56
India,Maharashtra,Thane,"Pimpleshwar Mandir, Thane - MPCB",17-04-2024 21:00:00,19.192056,72.9585188,OZONE,12,66,41
India,Maharashtra,Ulhasnagar,"Sidhi Vinayak Nagar, Ulhasnagar - MPCB",17-04-2024 21:00:00,19.235581,73.159121,CO,6,87,31
India,Maharashtra,Virar,"Bolinj, Virar - MPCB",17-04-2024 21:00:00,19.4458210,72.7988231,CO,1,113,38
India,Maharashtra,Virar,"Bolinj, Virar - MPCB",17-04-2024 21:00:00,19.4458210,72.7988231,OZONE,3,61,34
India,Manipur,Imphal,"Manipur University, Imphal - Manipur PCB",17-04-2024 21:00:00,24.7524239,93.9286218,PM2.5,47,291,157
India,Manipur,Imphal,"Manipur University, Imphal - Manipur PCB",17-04-2024 21:00:00,24.7524239,93.9286218,NO2,10,20,13
India,Manipur,Imphal,"Manipur University, Imphal - Manipur PCB",17-04-2024 21:00:00,24.7524239,93.9286218,CO,15,36,18
India,Nagaland,Kohima,"PWD Juction, Kohima - NPCB",17-04-2024 21:00:00,25.6635413,94.0989878,SO2,31,33,32
India,Nagaland,Kohima,"PWD Juction, Kohima - NPCB",17-04-2024 21:00:00,25.6635413,94.0989878,CO,18,40,21
India,Odisha,Balasore,"Kalidaspur, Balasore - OSPCB",17-04-2024 21:00:00,21.51161,86.89088,CO,25,103,66
India,Odisha,Barbil,"Forest Office, Barbil - OSPCB",17-04-2024 21:00:00,22.1166054,85.3945546,PM2.5,58,344,201
India,Odisha,Barbil,"Forest Office, Barbil - OSPCB",17-04-2024 21:00:00,22.1166054,85.3945546,SO2,7,36,20
India,Odisha,Baripada,"Meher Colony, Baripada - OSPCB",17-04-2024 21:00:00,21.941841,86.728318,NO2,2,13,6
India,Odisha,Baripada,"Meher Colony, Baripada - OSPCB",17-04-2024 21:00:00,21.941841,86.728318,NH3,1,7,3
India,Odisha,Bhubaneswar,"Lingraj Mandir, Bhubaneswar - OSPCB",17-04-2024 21:00:00,20.240790,85.836784,PM10,123,477,159
India,Odisha,Bhubaneswar,"Patia, Bhubaneswar - OSPCB",17-04-2024 21:00:00,20.34652,85.81630,CO,76,178,171
India,Odisha,Bhubaneswar,"Patia, Bhubaneswar - OSPCB",17-04-2024 21:00:00,20.34652,85.81630,OZONE,18,171,125
India,Odisha,Bileipada,"Tata Township, Bileipada - OSPCB",17-04-2024 21:00:00,22.06156703,85.47409613,PM10,126,286,191
India,Odisha,Brajrajnagar,"GM Office, Brajrajnagar - OSPCB",17-04-2024 21:00:00,21.8004996,83.8396977,SO2,30,30,30
India,Odisha,Byasanagar,"Ferro Chrome Colony, Byasanagar - OSPCB",17-04-2024 21:00:00,20.94185,86.11510,SO2,5,61,26
India,Odisha,Byasanagar,"Ferro Chrome Colony, Byasanagar - OSPCB",17-04-2024 21:00:00,20.94185,86.11510,OZONE,12,232,147
India,Odisha,Cuttack,"CDA Area, Cuttack - OSPCB",17-04-2024 21:00:00,20.48891     ,85.84768     ,PM2.5,42,97,71
India,Odisha,Cuttack,"CDA Area, Cuttack - OSPCB",17-04-2024 21:00:00,20.48891     ,85.84768     ,CO,24,37,30
India,Odisha,Keonjhar,"Jagamohanpur, Keonjhar - OSPCB",17-04-2024 21:00:00,21.643900,85.599355,NO2,5,55,22
India,Odisha,Keonjhar,"Jagamohanpur, Keonjhar - OSPCB",17-04-2024 21:00:00,21.643900,85.599355,CO,13,90,49
India,Odisha,Nayagarh,"Dabuna, Nayagarh - OSPCB",17-04-2024 21:00:00,21.847279,85.416905,NO2,NA,NA,NA
India,Odisha,Rourkela,"Fertilizer Township, Rourkela - OSPCB",17-04-2024 21:00:00,22.18972222,84.86277778,PM2.5,65,99,86
India,Odisha,Rourkela,"Raghunathpali, Rourkela - OSPCB",17-04-2024 21:00:00,22.220833,84.809444,NO2,25,193,65
India,Odisha,Rourkela,"Raghunathpali, Rourkela - OSPCB",17-04-2024 21:00:00,22.220833,84.809444,SO2,7,8,8
India,Odisha,Rourkela,"Raghunathpali, Rourkela - OSPCB",17-04-2024 21:00:00,22.220833,84.809444,CO,24,104,41
India,Odisha,Rourkela,"Raghunathpali, Rourkela - OSPCB",17-04-2024 21:00:00,22.220833,84.809444,OZONE,6,93,72
India,Odisha,Suakati,"OMC Colony, Suakati - OSPCB",17-04-2024 21:00:00,21.606865,85.510538,SO2,8,83,25
India,Odisha,Talcher,"Talcher Coalfields,Talcher - OSPCB",17-04-2024 21:00:00,20.9360711,85.1707021,PM10,75,415,193
India,Odisha,Tensa,"Barsua Iron Ore Mines, Tensa - OSPCB",17-04-2024 21:00:00,21.869985,85.167016,PM2.5,20,204,93
India,Puducherry,Puducherry,"Jawahar Nagar, Puducherry - PPCC",17-04-2024 21:00:00,11.9309,79.8027,OZONE,4,76,36
India,Punjab,Amritsar,"Golden Temple, Amritsar - PPCB",17-04-2024 21:00:00,31.620000,74.876512,NO2,10,103,44
India,Punjab,Amritsar,"Golden Temple, Amritsar - PPCB",17-04-2024 21:00:00,31.620000,74.876512,CO,4,114,22
India,Punjab,Jalandhar,"Civil Line, Jalandhar - PPCB",17-04-2024 21:00:00,31.321907,75.578914,NO2,31,33,32
India,Punjab,Khanna,"Kalal Majra, Khanna - PPCB",17-04-2024 21:00:00,30.736056 ,76.209694,PM10,54,93,77
India,Punjab,Khanna,"Kalal Majra, Khanna - PPCB",17-04-2024 21:00:00,30.736056 ,76.209694,NH3,15,15,15
India,Punjab,Ludhiana,"Punjab Agricultural University, Ludhiana - PPCB",17-04-2024 21:00:00,30.9028,75.8086,NO2,23,23,23
India,Punjab,Ludhiana,"Punjab Agricultural University, Ludhiana - PPCB",17-04-2024 21:00:00,30.9028,75.8086,SO2,4,10,7
India,Punjab,Ludhiana,"Punjab Agricultural University, Ludhiana - PPCB",17-04-2024 21:00:00,30.9028,75.8086,CO,20,41,30
India,Punjab,Mandi Gobindgarh,"RIMT University, Mandi Gobindgarh - PPCB",17-04-2024 21:00:00,30.649961,76.331442,CO,9,29,13
India,Punjab,Patiala,"Model Town, Patiala - PPCB",17-04-2024 21:00:00,30.349388,76.366642,NO2,25,39,30
India,Punjab,Patiala,"Model Town, Patiala - PPCB",17-04-2024 21:00:00,30.349388,76.366642,NH3,5,6,6
India,Punjab,Patiala,"Model Town, Patiala - PPCB",17-04-2024 21:00:00,30.349388,76.366642,SO2,5,17,11
India,Rajasthan,Ajmer,"Civil Lines,  Ajmer - RSPCB",17-04-2024 21:00:00,26.470859,74.646594,PM2.5,31,76,49
India,Rajasthan,Alwar,"Moti Doongri, Alwar - RSPCB",17-04-2024 21:00:00,27.554793,76.611536,SO2,11,49,22
India,Rajasthan,Banswara,"Rati Talai, Banswara - RSPCB",17-04-2024 21:00:00,23.555190,74.440010,PM2.5,NA,NA,NA
India,Rajasthan,Banswara,"Rati Talai, Banswara - RSPCB",17-04-2024 21:00:00,23.555190,74.440010,NH3,NA,NA,NA
India,Rajasthan,Banswara,"Rati Talai, Banswara - RSPCB",17-04-2024 21:00:00,23.555190,74.440010,SO2,NA,NA,NA
India,Rajasthan,Baran,"Bamboliya, Baran - RSPCB",17-04-2024 21:00:00,25.106006,76.469948,NO2,NA,NA,NA
India,Rajasthan,Baran,"Bamboliya, Baran - RSPCB",17-04-2024 21:00:00,25.106006,76.469948,SO2,NA,NA,NA
India,Rajasthan,Barmer,"Railway Colony, Barmer - RSPCB",17-04-2024 21:00:00,25.747299,71.393989,PM10,63,159,91
India,Rajasthan,Bharatpur,"Krishna Nagar, Bharatpur - RSPCB",17-04-2024 21:00:00,27.215415,77.50873,PM10,115,427,197
India,Rajasthan,Bhilwara,"Pratap Nagar, Bhilwara - RSPCB",17-04-2024 21:00:00,25.339605,74.618883,NO2,11,111,30
India,Rajasthan,Bhilwara,"Pratap Nagar, Bhilwara - RSPCB",17-04-2024 21:00:00,25.339605,74.618883,CO,16,103,31
India,Rajasthan,Bhiwadi,"RIICO Ind. Area III, Bhiwadi - RSPCB",17-04-2024 21:00:00,28.194909,76.862296,SO2,5,62,35
India,Rajasthan,Bhiwadi,"Vasundhara Nagar_UIT, Bhiwadi - RSPCB",17-04-2024 21:00:00,28.207266,76.829265,NO2,11,50,26
India,Rajasthan,Bikaner,"MM Ground, Bikaner - RSPCB",17-04-2024 21:00:00,28.018792,73.292658,PM2.5,3,81,37
India,Rajasthan,Bundi,"New Colony, Bundi - RSPCB",17-04-2024 21:00:00,25.435774,75.644272,PM10,55,135,81
India,Rajasthan,Chittorgarh,"Shastri Nagar, Chittorgarh - RSPCB",17-04-2024 21:00:00,24.892047,74.623527,NH3,7,13,11
India,Rajasthan,Churu,"Subash Chowk, Churu - RSPCB",17-04-2024 21:00:00,28.296139,74.961696,PM2.5,8,66,38
India,Rajasthan,Churu,"Subash Chowk, Churu - RSPCB",17-04-2024 21:00:00,28.296139,74.961696,NH3,3,13,7
India,Rajasthan,Dausa,"Khatikan Mohalla, Dausa - RSPCB",17-04-2024 21:00:00,26.895552,76.334753,NO2,39,89,58
India,Rajasthan,Dholpur,"Raja Ganj, Dholpur - RSPCB",17-04-2024 21:00:00,26.699557,77.898881,PM2.5,40,177,69
India,Rajasthan,Dholpur,"Raja Ganj, Dholpur - RSPCB",17-04-2024 21:00:00,26.699557,77.898881,PM10,117,402,182
India,Rajasthan,Dholpur,"Raja Ganj, Dholpur - RSPCB",17-04-2024 21:00:00,26.699557,77.898881,SO2,3,6,5
India,Rajasthan,Dholpur,"Raja Ganj, Dholpur - RSPCB",17-04-2024 21:00:00,26.699557,77.898881,CO,8,28,12
India,Rajasthan,Dholpur,"Raja Ganj, Dholpur - RSPCB",17-04-2024 21:00:00,26.699557,77.898881,OZONE,2,8,6
India,Rajasthan,Hanumangarh,"Housing Board, Hanumangarh - RSPCB",17-04-2024 21:00:00,29.610750,74.283608,SO2,1,23,10
India,Rajasthan,Jaipur,"Adarsh Nagar, Jaipur - RSPCB",17-04-2024 21:00:00,26.902909,75.836858,NH3,4,8,5
India,Rajasthan,Jaipur,"Mansarovar Sector-12, Jaipur - RSPCB",17-04-2024 21:00:00,26.843698,75.766894,NO2,12,39,24
India,Rajasthan,Jaipur,"Sector-2 Murlipura, Jaipur - RSPCB",17-04-2024 21:00:00,26.960669,75.771817,SO2,6,41,14
India,Rajasthan,Jaipur,"Shastri Nagar, Jaipur - RSPCB",17-04-2024 21:00:00,26.9502929,75.730943,OZONE,26,47,39
India,Rajasthan,Jaisalmer,"Sadar Bazar, Jaisalmer - RSPCB",17-04-2024 21:00:00,26.912329,70.909168,PM2.5,7,43,25
India,Rajasthan,Jaisalmer,"Sadar Bazar, Jaisalmer - RSPCB",17-04-2024 21:00:00,26.912329,70.909168,NO2,8,71,23
India,Rajasthan,Jalore,"Mudtra Sili, Jalore - RSPCB",17-04-2024 21:00:00,25.344694,72.626208,NO2,8,135,42
India,Rajasthan,Jhalawar,"Rajlaxmi Nagar, Jhalawar - RSPCB",17-04-2024 21:00:00,24.588397,76.172782,SO2,5,20,11
India,Rajasthan,Jhunjhunu,"Indra Nagar, Jhunjhunu - RSPCB",17-04-2024 21:00:00,28.108988,75.386577,PM2.5,23,84,39
India,Rajasthan,Jhunjhunu,"Indra Nagar, Jhunjhunu - RSPCB",17-04-2024 21:00:00,28.108988,75.386577,NO2,6,77,15
India,Rajasthan,Jodhpur,"Collectorate, Jodhpur - RSPCB",17-04-2024 21:00:00,26.268249,73.0193853,NO2,9,56,26
India,Rajasthan,Jodhpur,"Collectorate, Jodhpur - RSPCB",17-04-2024 21:00:00,26.268249,73.0193853,CO,44,100,69
India,Rajasthan,Jodhpur,"Jhalamand, Jodhpur - RSPCB",17-04-2024 21:00:00,26.215415,73.070156,NO2,6,92,20
India,Rajasthan,Jodhpur,"Mandor, Jodhpur - RSPCB",17-04-2024 21:00:00,26.358805,73.047444,NH3,5,11,8
India,Rajasthan,Jodhpur,"Mandor, Jodhpur - RSPCB",17-04-2024 21:00:00,26.358805,73.047444,OZONE,45,96,84
India,Rajasthan,Jodhpur,"Samrat Ashok Udhyan, Jodhpur - RSPCB",17-04-2024 21:00:00,26.253384,72.976571,PM10,55,176,102
India,Rajasthan,Jodhpur,"Samrat Ashok Udhyan, Jodhpur - RSPCB",17-04-2024 21:00:00,26.253384,72.976571,OZONE,34,154,100
India,Rajasthan,Karauli,"Satyawati Vihar, Karauli - RSPCB",17-04-2024 21:00:00,26.506177,77.025989,SO2,16,28,22
India,Rajasthan,Kota,"Dhanmandi, Kota - RSPCB",17-04-2024 21:00:00,25.164090,75.858137,PM10,70,137,100
India,Rajasthan,Kota,"Dhanmandi, Kota - RSPCB",17-04-2024 21:00:00,25.164090,75.858137,OZONE,2,96,67
India,Rajasthan,Kota,"Nayapura, Kota - RSPCB",17-04-2024 21:00:00,25.196024,75.855668,PM2.5,20,124,60
India,Rajasthan,Kota,"Nayapura, Kota - RSPCB",17-04-2024 21:00:00,25.196024,75.855668,PM10,55,157,107
India,Rajasthan,Kota,"Shrinath Puram, Kota - RSPCB",17-04-2024 21:00:00,25.14389,75.821256,PM10,77,156,109
India,Rajasthan,Kota,"Shrinath Puram, Kota - RSPCB",17-04-2024 21:00:00,25.14389,75.821256,CO,12,64,38
India,Rajasthan,Nagaur,"Karni Colony, Nagaur - RSPCB",17-04-2024 21:00:00,27.213494,73.734444,PM2.5,3,53,26
India,Rajasthan,Nagaur,"Karni Colony, Nagaur - RSPCB",17-04-2024 21:00:00,27.213494,73.734444,PM10,61,147,98
India,Rajasthan,Nagaur,"Karni Colony, Nagaur - RSPCB",17-04-2024 21:00:00,27.213494,73.734444,SO2,3,8,5
India,Rajasthan,Pali,"Indira Colony Vistar, Pali - RSPCB",17-04-2024 21:00:00,25.771061, 73.340227,SO2,8,11,9
India,Rajasthan,Pali,"Indira Colony Vistar, Pali - RSPCB",17-04-2024 21:00:00,25.771061, 73.340227,OZONE,29,105,76
India,Rajasthan,Pratapgarh,"Pragati Nagar, Pratapgarh - RSPCB",17-04-2024 21:00:00,24.041198,74.780702,PM2.5,11,219,31
India,Rajasthan,Pratapgarh,"Pragati Nagar, Pratapgarh - RSPCB",17-04-2024 21:00:00,24.041198,74.780702,CO,12,38,19
India,Rajasthan,Rajsamand,"Dhoinda, Rajsamand - RSPCB",17-04-2024 21:00:00,25.036360,73.883502,NH3,5,12,9
India,Rajasthan,Rajsamand,"Dhoinda, Rajsamand - RSPCB",17-04-2024 21:00:00,25.036360,73.883502,SO2,9,21,16
India,Rajasthan,Sawai Madhopur,"Sahu Nagar, Sawai Madhopur - RSPCB",17-04-2024 21:00:00,26.031443,76.359327,PM10,75,164,102
India,Rajasthan,Sikar,"Radhakishan Pura, Sikar - RSPCB",17-04-2024 21:00:00,27.608912,75.153302,NO2,8,39,20
India,Rajasthan,Sirohi,"Vedhaynath Colony, Sirohi - RSPCB",17-04-2024 21:00:00,24.885261,72.857549,PM10,35,124,68
India,Rajasthan,Sirohi,"Vedhaynath Colony, Sirohi - RSPCB",17-04-2024 21:00:00,24.885261,72.857549,SO2,4,20,11
India,Rajasthan,Sri Ganganagar,"Old City, Sri Ganganagar - RSPCB",17-04-2024 21:00:00,29.931624,73.864511,SO2,4,11,7
India,Rajasthan,Tonk,"Shastri Nagar, Tonk - RSPCB",17-04-2024 21:00:00,26.159933,75.780517,PM10,63,142,105
India,Rajasthan,Tonk,"Shastri Nagar, Tonk - RSPCB",17-04-2024 21:00:00,26.159933,75.780517,NH3,3,6,4
India,Rajasthan,Udaipur,"Ashok Nagar, Udaipur - RSPCB",17-04-2024 21:00:00,24.5886166,73.6321397,PM10,50,109,79
India,TamilNadu,Ariyalur,"Keelapalur, Ariyalur - TNPCB",17-04-2024 21:00:00,11.06825,79.07033,PM2.5,30,53,40
India,TamilNadu,Ariyalur,"Keelapalur, Ariyalur - TNPCB",17-04-2024 21:00:00,11.06825,79.07033,PM10,22,45,32
India,TamilNadu,Chengalpattu,"Crescent University, Chengalpattu - TNPCB",17-04-2024 21:00:00,12.8777316,80.0834807,OZONE,6,6,6
India,TamilNadu,Chennai,"Alandur Bus Depot, Chennai - CPCB",17-04-2024 21:00:00,12.9099161,80.1076538,PM2.5,29,56,41
India,TamilNadu,Chennai,"Alandur Bus Depot, Chennai - CPCB",17-04-2024 21:00:00,12.9099161,80.1076538,CO,41,105,52
India,TamilNadu,Chennai,"Arumbakkam, Chennai - TNPCB",17-04-2024 21:00:00,13.0664,80.2112 ,SO2,1,7,4
India,TamilNadu,Chennai,"Kodungaiyur, Chennai - TNPCB",17-04-2024 21:00:00,13.1278,80.2642,PM10,16,88,50
India,TamilNadu,Chennai,"Manali, Chennai - CPCB",17-04-2024 21:00:00,13.164544,80.26285,NH3,4,5,4
India,TamilNadu,Chennai,"Manali, Chennai - CPCB",17-04-2024 21:00:00,13.164544,80.26285,CO,56,106,83
India,TamilNadu,Chennai,"Perungudi, Chennai - TNPCB",17-04-2024 21:00:00,12.9533,80.2357,NH3,2,3,2
India,TamilNadu,Chennai,"Perungudi, Chennai - TNPCB",17-04-2024 21:00:00,12.9533,80.2357,CO,8,80,17
India,TamilNadu,Chennai,"Perungudi, Chennai - TNPCB",17-04-2024 21:00:00,12.9533,80.2357,OZONE,2,8,6
India,TamilNadu,Chennai,"Royapuram, Chennai - TNPCB",17-04-2024 21:00:00,13.1036,80.2909,SO2,1,9,4
India,TamilNadu,Chennai,"Velachery Res. Area, Chennai - CPCB",17-04-2024 21:00:00,13.0052189,80.2398125,NO2,NA,NA,NA
India,TamilNadu,Chennai,"Velachery Res. Area, Chennai - CPCB",17-04-2024 21:00:00,13.0052189,80.2398125,NH3,NA,NA,NA
India,TamilNadu,Chennai,"Velachery Res. Area, Chennai - CPCB",17-04-2024 21:00:00,13.0052189,80.2398125,SO2,11,11,11
India,TamilNadu,Coimbatore,"PSG College of Arts and Science, Coimbatore - TNPCB",17-04-2024 21:00:00,11.0328,77.0349,PM2.5,32,67,48
India,TamilNadu,Coimbatore,"PSG College of Arts and Science, Coimbatore - TNPCB",17-04-2024 21:00:00,11.0328,77.0349,SO2,22,26,24
India,TamilNadu,Cuddalore,"Kudikadu, Cuddalore - TNPCB",17-04-2024 21:00:00,11.6829898,79.7532099,NH3,4,4,4
India,TamilNadu,Gummidipoondi,"Anthoni Pillai Nagar, Gummidipoondi - TNPCB",17-04-2024 21:00:00,13.4127,80.1081,PM10,68,122,95
India,TamilNadu,Gummidipoondi,"Anthoni Pillai Nagar, Gummidipoondi - TNPCB",17-04-2024 21:00:00,13.4127,80.1081,SO2,3,107,39
India,TamilNadu,Kanchipuram,"Kilambi, Kanchipuram - TNPCB",17-04-2024 21:00:00,12.864618,79.659968,NO2,NA,NA,NA
India,TamilNadu,Kanchipuram,"Kilambi, Kanchipuram - TNPCB",17-04-2024 21:00:00,12.864618,79.659968,NH3,NA,NA,NA
India,TamilNadu,Kanchipuram,"Kilambi, Kanchipuram - TNPCB",17-04-2024 21:00:00,12.864618,79.659968,SO2,NA,NA,NA
India,TamilNadu,Kanchipuram,"Kilambi, Kanchipuram - TNPCB",17-04-2024 21:00:00,12.864618,79.659968,CO,NA,NA,NA
India,TamilNadu,Ooty,"Bombay Castel, Ooty - TNPCB",17-04-2024 21:00:00,11.4068288,76.7138973,SO2,NA,NA,NA
India,TamilNadu,Ooty,"Bombay Castel, Ooty - TNPCB",17-04-2024 21:00:00,11.4068288,76.7138973,OZONE,NA,NA,NA
India,TamilNadu,Ramanathapuram,"Chalai Bazaar, Ramanathapuram - TNPCB",17-04-2024 21:00:00,9.36399,78.831977,PM2.5,15,58,34
India,TamilNadu,Salem,"Sona College of Technology, Salem - TNPCB",17-04-2024 21:00:00,11.679111,78.125052,OZONE,1,4,3
India,TamilNadu,Virudhunagar,"Collectorate Office, Virudhunagar - TNPCB",17-04-2024 21:00:00,9.559382,77.948828,NH3,5,7,6
India,TamilNadu,Virudhunagar,"Collectorate Office, Virudhunagar - TNPCB",17-04-2024 21:00:00,9.559382,77.948828,OZONE,6,6,6
India,Telangana,Hyderabad,"IITH Kandi, Hyderabad - TSPCB",17-04-2024 21:00:00,17.585705,78.126199,PM2.5,27,73,42
India,Telangana,Hyderabad,"New Malakpet, Hyderabad - TSPCB",17-04-2024 21:00:00,17.37206,78.50864,PM10,71,107,88
India,Telangana,Hyderabad,"New Malakpet, Hyderabad - TSPCB",17-04-2024 21:00:00,17.37206,78.50864,NO2,13,34,20
India,Telangana,Hyderabad,"New Malakpet, Hyderabad - TSPCB",17-04-2024 21:00:00,17.37206,78.50864,OZONE,12,56,43
India,Telangana,Hyderabad,"Sanathnagar, Hyderabad - TSPCB",17-04-2024 21:00:00,17.4559458,78.4332152,PM2.5,66,97,76
India,Telangana,Hyderabad,"Sanathnagar, Hyderabad - TSPCB",17-04-2024 21:00:00,17.4559458,78.4332152,NO2,26,69,34
India,Telangana,Hyderabad,"Somajiguda, Hyderabad - TSPCB",17-04-2024 21:00:00,17.417094,78.457437,NH3,6,9,7
India,Telangana,Hyderabad,"Somajiguda, Hyderabad - TSPCB",17-04-2024 21:00:00,17.417094,78.457437,SO2,17,19,18
India,Telangana,Hyderabad,"Somajiguda, Hyderabad - TSPCB",17-04-2024 21:00:00,17.417094,78.457437,CO,28,51,36
India,Telangana,Hyderabad,"Zoo Park, Hyderabad - TSPCB",17-04-2024 21:00:00,17.349694,78.451437,PM2.5,44,158,67
India,Tripura,Agartala,"Bardowali, Agartala - Tripura SPCB",17-04-2024 21:00:00,23.8175497,91.2726974,CO,14,32,23
India,Uttar_Pradesh,Agra,"Sector-3B Avas Vikas Colony, Agra - UPPCB",17-04-2024 21:00:00,27.19412,77.96237,PM10,42,94,66
India,Uttar_Pradesh,Agra,"Shahjahan Garden, Agra - UPPCB",17-04-2024 21:00:00,27.169338,78.03582,PM10,35,148,92
India,Uttar_Pradesh,Agra,"Shahjahan Garden, Agra - UPPCB",17-04-2024 21:00:00,27.169338,78.03582,NO2,24,25,25
India,Uttar_Pradesh,Agra,"Shastripuram, Agra - UPPCB",17-04-2024 21:00:00,27.19862,77.92066,SO2,14,16,15
India,Uttar_Pradesh,Bareilly,"Civil Lines, Bareilly - UPPCB",17-04-2024 21:00:00,28.359581,79.414455,PM2.5,NA,NA,NA
India,Uttar_Pradesh,Bareilly,"Rajendra Nagar, Bareilly - UPPCB",17-04-2024 21:00:00,28.38910936,79.42963708,PM2.5,13,28,18
India,Uttar_Pradesh,Bareilly,"Rajendra Nagar, Bareilly - UPPCB",17-04-2024 21:00:00,28.38910936,79.42963708,SO2,44,46,45
India,Uttar_Pradesh,Firozabad,"Vibhab Nagar, Firozabad - UPPCB",17-04-2024 21:00:00,27.1594,78.3953,NH3,2,2,2
India,Uttar_Pradesh,Firozabad,"Vibhab Nagar, Firozabad - UPPCB",17-04-2024 21:00:00,27.1594,78.3953,CO,14,24,15
India,Uttar_Pradesh,Firozabad,"Vibhab Nagar, Firozabad - UPPCB",17-04-2024 21:00:00,27.1594,78.3953,OZONE,19,67,53
India,Uttar_Pradesh,Gorakhpur,"Madan Mohan Malaviya University of Technology, Gorakhpur - UPPCB",17-04-2024 21:00:00,26.730136,83.433859,CO,6,44,29
India,Uttar_Pradesh,Greater Noida,"Knowledge Park - III, Greater Noida - UPPCB",17-04-2024 21:00:00,28.47272,77.482000,PM2.5,35,97,53
India,Uttar_Pradesh,Greater Noida,"Knowledge Park - III, Greater Noida - UPPCB",17-04-2024 21:00:00,28.47272,77.482000,OZONE,46,138,116
India,Uttar_Pradesh,Greater Noida,"Knowledge Park - V, Greater Noida - UPPCB",17-04-2024 21:00:00,28.557054,77.453663,NO2,25,38,32
India,Uttar_Pradesh,Hapur,"Anand Vihar, Hapur - UPPCB",17-04-2024 21:00:00,28.725645,77.749675,PM10,48,138,88
India,Uttar_Pradesh,Jhansi,"Shivaji Nagar, Jhansi - UPPCB",17-04-2024 21:00:00,25.4547,78.6039,SO2,13,15,14
India,Uttar_Pradesh,Jhansi,"Shivaji Nagar, Jhansi - UPPCB",17-04-2024 21:00:00,25.4547,78.6039,OZONE,27,43,36
India,Uttar_Pradesh,Kanpur,"FTI Kidwai Nagar, Kanpur - UPPCB",17-04-2024 21:00:00,26.428282,80.327067,NH3,2,3,3
India,Uttar_Pradesh,Kanpur,"NSI Kalyanpur, Kanpur - UPPCB",17-04-2024 21:00:00,26.509954,80.249612,NO2,11,11,11
India,Uttar_Pradesh,Kanpur,"NSI Kalyanpur, Kanpur - UPPCB",17-04-2024 21:00:00,26.509954,80.249612,CO,31,44,33
India,Uttar_Pradesh,Kanpur,"Nehru Nagar, Kanpur - UPPCB",17-04-2024 21:00:00,26.4703136,80.3229863,SO2,5,9,7
India,Uttar_Pradesh,Khurja,"Kalindi Kunj, Khurja - UPPCB",17-04-2024 21:00:00,28.2348927,77.8683002,NO2,3,4,3
India,Uttar_Pradesh,Khurja,"Kalindi Kunj, Khurja - UPPCB",17-04-2024 21:00:00,28.2348927,77.8683002,OZONE,30,75,46
India,Uttar_Pradesh,Lucknow,"B R Ambedkar University, Lucknow - UPPCB",17-04-2024 21:00:00,26.766433,80.927299,PM2.5,42,97,59
India,Uttar_Pradesh,Lucknow,"B R Ambedkar University, Lucknow - UPPCB",17-04-2024 21:00:00,26.766433,80.927299,PM10,104,182,143
India,Uttar_Pradesh,Lucknow,"B R Ambedkar University, Lucknow - UPPCB",17-04-2024 21:00:00,26.766433,80.927299,SO2,31,39,34
India,Uttar_Pradesh,Lucknow,"Kendriya Vidyalaya, Lucknow - CPCB",17-04-2024 21:00:00,26.906111,80.948222,PM10,114,193,148
India,Uttar_Pradesh,Lucknow,"Kendriya Vidyalaya, Lucknow - CPCB",17-04-2024 21:00:00,26.906111,80.948222,SO2,2,7,5
India,Uttar_Pradesh,Lucknow,"Kukrail Picnic Spot-1, Lucknow - UPPCB",17-04-2024 21:00:00,26.90723,80.98579,NH3,2,2,2
India,Uttar_Pradesh,Lucknow,"Lalbagh, Lucknow - CPCB",17-04-2024 21:00:00,26.8458805,80.9365541,PM2.5,61,129,75
India,Uttar_Pradesh,Lucknow,"Lalbagh, Lucknow - CPCB",17-04-2024 21:00:00,26.8458805,80.9365541,NO2,2,12,4
India,Uttar_Pradesh,Lucknow,"Lalbagh, Lucknow - CPCB",17-04-2024 21:00:00,26.8458805,80.9365541,NH3,27,29,28
India,Uttar_Pradesh,Lucknow,"Lalbagh, Lucknow - CPCB",17-04-2024 21:00:00,26.8458805,80.9365541,OZONE,24,37,35
India,Uttar_Pradesh,Lucknow,"Talkatora District Industries Center, Lucknow - CPCB",17-04-2024 21:00:00,26.83399722,80.8917361,NH3,9,18,12
India,Uttar_Pradesh,Lucknow,"Talkatora District Industries Center, Lucknow - CPCB",17-04-2024 21:00:00,26.83399722,80.8917361,OZONE,2,80,44
India,Uttar_Pradesh,Meerut,"Ganga Nagar, Meerut - UPPCB",17-04-2024 21:00:00,28.999264,77.7590354,PM2.5,13,43,23
India,Uttar_Pradesh,Meerut,"Ganga Nagar, Meerut - UPPCB",17-04-2024 21:00:00,28.999264,77.7590354,NO2,17,30,21
India,Uttar_Pradesh,Meerut,"Jai Bhim Nagar, Meerut - UPPCB",17-04-2024 21:00:00,28.9535882,77.7622941,CO,26,48,36
India,Uttar_Pradesh,Meerut,"Jai Bhim Nagar, Meerut - UPPCB",17-04-2024 21:00:00,28.9535882,77.7622941,OZONE,58,122,103
India,Uttar_Pradesh,Meerut,"Pallavpuram Phase 2, Meerut - UPPCB",17-04-2024 21:00:00,29.063510,77.709723,PM10,57,146,104
India,Uttar_Pradesh,Meerut,"Pallavpuram Phase 2, Meerut - UPPCB",17-04-2024 21:00:00,29.063510,77.709723,SO2,9,27,17
India,Uttar_Pradesh,Meerut,"Pallavpuram Phase 2, Meerut - UPPCB",17-04-2024 21:00:00,29.063510,77.709723,CO,21,52,29
India,Uttar_Pradesh,Meerut,"Pallavpuram Phase 2, Meerut - UPPCB",17-04-2024 21:00:00,29.063510,77.709723,OZONE,36,109,83
India,Uttar_Pradesh,Moradabad,"Buddhi Vihar, Moradabad - UPPCB",17-04-2024 21:00:00,28.83526,78.74460,NO2,23,23,23
India,Uttar_Pradesh,Moradabad,"Buddhi Vihar, Moradabad - UPPCB",17-04-2024 21:00:00,28.83526,78.74460,SO2,4,5,4
India,Uttar_Pradesh,Moradabad,"Buddhi Vihar, Moradabad - UPPCB",17-04-2024 21:00:00,28.83526,78.74460,CO,17,24,18
India,Uttar_Pradesh,Moradabad,"Eco Herbal Park, Moradabad - UPPCB",17-04-2024 21:00:00,28.840739,78.697531,PM10,29,105,54
India,Uttar_Pradesh,Moradabad,"Eco Herbal Park, Moradabad - UPPCB",17-04-2024 21:00:00,28.840739,78.697531,SO2,6,20,12
India,Uttar_Pradesh,Moradabad,"Employment Office, Moradabad - UPPCB",17-04-2024 21:00:00,28.88528,78.73880,CO,6,20,15
India,Uttar_Pradesh,Moradabad,"Employment Office, Moradabad - UPPCB",17-04-2024 21:00:00,28.88528,78.73880,OZONE,7,102,59
India,Uttar_Pradesh,Moradabad,"Jigar Colony, Moradabad - UPPCB",17-04-2024 21:00:00,28.856664,78.772638,NO2,17,19,18
India,Uttar_Pradesh,Moradabad,"Jigar Colony, Moradabad - UPPCB",17-04-2024 21:00:00,28.856664,78.772638,NH3,4,5,4
India,Uttar_Pradesh,Moradabad,"Transport Nagar, Moradabad - UPPCB",17-04-2024 21:00:00,28.802625,78.753728,PM10,31,118,71
India,Uttar_Pradesh,Moradabad,"Transport Nagar, Moradabad - UPPCB",17-04-2024 21:00:00,28.802625,78.753728,NO2,1,11,4
India,Uttar_Pradesh,Muzaffarnagar,"New Mandi, Muzaffarnagar - UPPCB",17-04-2024 21:00:00,29.4723508,77.7194031,NH3,10,12,11
India,Uttar_Pradesh,Noida,"Sector - 125, Noida - UPPCB",17-04-2024 21:00:00,28.5447608,77.3231257,PM2.5,NA,NA,NA
India,Uttar_Pradesh,Noida,"Sector - 125, Noida - UPPCB",17-04-2024 21:00:00,28.5447608,77.3231257,NH3,1,14,8
India,Uttar_Pradesh,Noida,"Sector - 62, Noida - IMD",17-04-2024 21:00:00,28.6245479,77.3577104,PM10,NA,NA,NA
India,Uttar_Pradesh,Noida,"Sector - 62, Noida - IMD",17-04-2024 21:00:00,28.6245479,77.3577104,CO,48,52,51
India,Uttar_Pradesh,Noida,"Sector-1, Noida - UPPCB",17-04-2024 21:00:00,28.5898,77.3101,PM2.5,24,90,43
India,Uttar_Pradesh,Noida,"Sector-1, Noida - UPPCB",17-04-2024 21:00:00,28.5898,77.3101,CO,9,70,31
India,Uttar_Pradesh,Noida,"Sector-116, Noida - UPPCB",17-04-2024 21:00:00,28.569230,77.393848,PM2.5,28,73,46
India,Uttar_Pradesh,Noida,"Sector-116, Noida - UPPCB",17-04-2024 21:00:00,28.569230,77.393848,CO,28,62,40
India,Uttar_Pradesh,Prayagraj,"Jhunsi, Prayagraj - UPPCB",17-04-2024 21:00:00,25.425602,81.917152,NO2,6,6,6
India,Uttar_Pradesh,Prayagraj,"Jhunsi, Prayagraj - UPPCB",17-04-2024 21:00:00,25.425602,81.917152,NH3,5,5,5
India,Uttar_Pradesh,Prayagraj,"Jhunsi, Prayagraj - UPPCB",17-04-2024 21:00:00,25.425602,81.917152,CO,3,26,8
India,Uttar_Pradesh,Prayagraj,"Nagar Nigam, Prayagraj - UPPCB",17-04-2024 21:00:00,25.44919916 ,81.82735986 ,OZONE,11,12,12
India,Uttar_Pradesh,Varanasi,"Bhelupur, Varanasi - UPPCB",17-04-2024 21:00:00,25.301778,82.996789,PM10,34,82,45
India,Uttar_Pradesh,Varanasi,"Bhelupur, Varanasi - UPPCB",17-04-2024 21:00:00,25.301778,82.996789,NO2,8,8,8
India,Uttar_Pradesh,Varanasi,"Maldahiya, Varanasi - UPPCB",17-04-2024 21:00:00,25.32393,82.99687,NH3,1,1,1
India,Uttar_Pradesh,Vrindavan,"Omex Eternity, Vrindavan - UPPCB",17-04-2024 21:00:00,27.5714090,77.6557570,PM10,46,112,73
India,Uttarakhand,Dehradun,"Doon University, Dehradun - UKPCB",17-04-2024 21:00:00,30.269444,78.044167,PM2.5,38,160,60
India,Uttarakhand,Kashipur,"Govt. Girls Inter College, Kashipur - UKPCB",17-04-2024 21:00:00,29.2124114,78.9611753,NO2,8,17,11
India,West_Bengal,Asansol,"Asansol Court Area, Asansol - WBPCB",17-04-2024 21:00:00,23.685297,86.945968,PM2.5,111,298,194
India,West_Bengal,Asansol,"Asansol Court Area, Asansol - WBPCB",17-04-2024 21:00:00,23.685297,86.945968,PM10,121,203,149
India,West_Bengal,Asansol,"Asansol Court Area, Asansol - WBPCB",17-04-2024 21:00:00,23.685297,86.945968,NH3,7,19,10
India,West_Bengal,Barrackpore,"SVSPA Campus, Barrackpore - WBPCB",17-04-2024 21:00:00,22.7605581,88.3617589,PM10,97,149,126
India,West_Bengal,Barrackpore,"SVSPA Campus, Barrackpore - WBPCB",17-04-2024 21:00:00,22.7605581,88.3617589,OZONE,22,78,56
India,West_Bengal,Durgapur,"Sidhu Kanhu Indoor Stadium, Durgapur - WBPCB",17-04-2024 21:00:00,23.5404352,87.2892225,PM10,122,224,157
India,West_Bengal,Durgapur,"Sidhu Kanhu Indoor Stadium, Durgapur - WBPCB",17-04-2024 21:00:00,23.5404352,87.2892225,SO2,14,41,24
India,West_Bengal,Howrah,"Belur Math, Howrah - WBPCB",17-04-2024 21:00:00,22.629801,88.352017,PM10,77,126,105
India,West_Bengal,Howrah,"Ghusuri, Howrah - WBPCB",17-04-2024 21:00:00,22.611968,88.347422,NO2,12,24,17
India,West_Bengal,Howrah,"Ghusuri, Howrah - WBPCB",17-04-2024 21:00:00,22.611968,88.347422,CO,2,51,21
India,West_Bengal,Howrah,"Padmapukur, Howrah - WBPCB",17-04-2024 21:00:00,22.5687319,88.2797276,PM2.5,NA,NA,NA
India,West_Bengal,Howrah,"Padmapukur, Howrah - WBPCB",17-04-2024 21:00:00,22.5687319,88.2797276,PM10,NA,NA,NA
India,West_Bengal,Howrah,"Padmapukur, Howrah - WBPCB",17-04-2024 21:00:00,22.5687319,88.2797276,NH3,NA,NA,NA
India,West_Bengal,Howrah,"Padmapukur, Howrah - WBPCB",17-04-2024 21:00:00,22.5687319,88.2797276,OZONE,33,79,59
India,West_Bengal,Kolkata,"Ballygunge, Kolkata - WBPCB",17-04-2024 21:00:00,22.5367507,88.3638022,NO2,16,45,30
India,West_Bengal,Kolkata,"Ballygunge, Kolkata - WBPCB",17-04-2024 21:00:00,22.5367507,88.3638022,CO,8,23,18
India,West_Bengal,Kolkata,"Fort William, Kolkata - WBPCB",17-04-2024 21:00:00,22.556640,88.342674,CO,18,32,26
India,West_Bengal,Kolkata,"Jadavpur, Kolkata - WBPCB",17-04-2024 21:00:00,22.49929,88.36917,SO2,2,28,12
India,West_Bengal,Kolkata,"Rabindra Bharati University, Kolkata - WBPCB",17-04-2024 21:00:00,22.627847,88.380669,PM2.5,41,76,57
India,West_Bengal,Kolkata,"Rabindra Bharati University, Kolkata - WBPCB",17-04-2024 21:00:00,22.627847,88.380669,SO2,5,8,6
India,West_Bengal,Kolkata,"Rabindra Bharati University, Kolkata - WBPCB",17-04-2024 21:00:00,22.627847,88.380669,OZONE,24,139,82
India,West_Bengal,Kolkata,"Victoria, Kolkata - WBPCB",17-04-2024 21:00:00,22.5448082,88.3403691,SO2,11,27,15
India,West_Bengal,Siliguri,"Ward-32 Bapupara, Siliguri - WBPCB",17-04-2024 21:00:00,26.6879226,88.4152495,NO2,24,62,42
India,West_Bengal,Siliguri,"Ward-32 Bapupara, Siliguri - WBPCB",17-04-2024 21:00:00,26.6879226,88.4152495,NH3,5,13,9
India,West_Bengal,Siliguri,"Ward-32 Bapupara, Siliguri - WBPCB",17-04-2024 21:00:00,26.6879226,88.4152495,CO,20,48,30
India,Andhra_Pradesh,Anantapur,"Gulzarpet, Anantapur - APPCB",17-04-2024 21:00:00,14.675886,77.593027,PM2.5,NA,NA,NA
India,Andhra_Pradesh,Anantapur,"Gulzarpet, Anantapur - APPCB",17-04-2024 21:00:00,14.675886,77.593027,PM10,NA,NA,NA
India,Andhra_Pradesh,Anantapur,"Gulzarpet, Anantapur - APPCB",17-04-2024 21:00:00,14.675886,77.593027,OZONE,13,60,45
India,Andhra_Pradesh,Chittoor,"Gangineni Cheruvu, Chittoor - APPCB",17-04-2024 21:00:00,13.204880,79.097889,OZONE,11,60,11
India,Andhra_Pradesh,Tirupati,"Tirumala, Tirupati - APPCB",17-04-2024 21:00:00,13.67,79.35,PM2.5,31,90,49
India,Andhra_Pradesh,Tirupati,"Vaikuntapuram, Tirupati - APPCB",17-04-2024 21:00:00,13.615387,79.409230,SO2,NA,NA,NA
India,Andhra_Pradesh,Visakhapatnam,"GVM Corporation, Visakhapatnam - APPCB",17-04-2024 21:00:00,17.72,83.3,SO2,8,18,14
India,Andhra_Pradesh,Visakhapatnam,"GVM Corporation, Visakhapatnam - APPCB",17-04-2024 21:00:00,17.72,83.3,CO,16,103,29
India,Andhra_Pradesh,Visakhapatnam,"GVM Corporation, Visakhapatnam - APPCB",17-04-2024 21:00:00,17.72,83.3,OZONE,6,12,10
India,Arunachal_Pradesh,Naharlagun,"Naharlagun, Naharlagun - APSPCB",17-04-2024 21:00:00,27.103358,93.679645,PM2.5,44,136,77
India,Arunachal_Pradesh,Naharlagun,"Naharlagun, Naharlagun - APSPCB",17-04-2024 21:00:00,27.103358,93.679645,NO2,3,3,3
India,Assam,Byrnihat,"Central Academy for SFS, Byrnihat - PCBA",17-04-2024 21:00:00,26.071318,91.87488,NO2,42,123,65
India,Assam,Guwahati,"IITG, Guwahati - PCBA",17-04-2024 21:00:00,26.2028636,91.70046436,PM10,32,192,79
India,Assam,Guwahati,"IITG, Guwahati - PCBA",17-04-2024 21:00:00,26.2028636,91.70046436,NH3,5,6,5
India,Assam,Guwahati,"IITG, Guwahati - PCBA",17-04-2024 21:00:00,26.2028636,91.70046436,CO,10,17,11
India,Assam,Guwahati,"LGBI Airport, Guwahati - PCBA",17-04-2024 21:00:00,26.10887,91.589544,SO2,7,9,8
India,Assam,Guwahati,"Pan Bazaar, Guwahati - PCBA",17-04-2024 21:00:00,26.187500,91.744194,PM10,47,204,84
India,Assam,Guwahati,"Pan Bazaar, Guwahati - PCBA",17-04-2024 21:00:00,26.187500,91.744194,NO2,1,2,1
India,Assam,Guwahati,"Pan Bazaar, Guwahati - PCBA",17-04-2024 21:00:00,26.187500,91.744194,CO,24,40,26
India,Assam,Guwahati,"Railway Colony, Guwahati - PCBA",17-04-2024 21:00:00,26.181742,91.78063,NO2,3,4,3
India,Assam,Silchar,"Tarapur, Silchar - PCBA",17-04-2024 21:00:00,24.82827,92.79525,SO2,1,12,6
India,Assam,Sivasagar,"Girls College, Sivasagar - PCBA",17-04-2024 21:00:00,26.987634,94.636574,SO2,4,6,4
India,Bihar,Araria,"Kharahiya Basti, Araria - BSPCB",17-04-2024 21:00:00,26.146529,87.454184,NO2,4,12,7
India,Bihar,Araria,"Kharahiya Basti, Araria - BSPCB",17-04-2024 21:00:00,26.146529,87.454184,CO,20,32,24
India,Bihar,Arrah,"New DM Office, Arrah - BSPCB",17-04-2024 21:00:00,25.5626095,84.663264,OZONE,14,43,16
India,Bihar,Aurangabad,"Gurdeo Nagar, Aurangabad - BSPCB",17-04-2024 21:00:00,24.75746,84.366208,PM2.5,NA,NA,NA
India,Bihar,Aurangabad,"Gurdeo Nagar, Aurangabad - BSPCB",17-04-2024 21:00:00,24.75746,84.366208,OZONE,16,92,76
India,Bihar,Bettiah,"Kamalnath Nagar, Bettiah - BSPCB",17-04-2024 21:00:00,26.80365,84.51954,CO,64,70,66
India,Bihar,Bhagalpur,"Mayaganj, Bhagalpur - BSPCB",17-04-2024 21:00:00,25.265194,87.012947,PM2.5,55,290,104
India,Bihar,Bihar Sharif,"D M Colony, Bihar Sharif - BSPCB",17-04-2024 21:00:00,25.204762,85.514960,NH3,2,2,2
India,Bihar,Bihar Sharif,"D M Colony, Bihar Sharif - BSPCB",17-04-2024 21:00:00,25.204762,85.514960,SO2,1,16,10
India,Bihar,Bihar Sharif,"D M Colony, Bihar Sharif - BSPCB",17-04-2024 21:00:00,25.204762,85.514960,CO,49,68,52
India,Bihar,Chhapra,"Darshan Nagar, Chhapra - BSPCB",17-04-2024 21:00:00,25.7808257,84.7446768,SO2,6,104,34
India,Bihar,Gaya,"Kareemganj, Gaya - BSPCB",17-04-2024 21:00:00,24.792403,84.992416,PM10,70,140,102
India,Bihar,Gaya,"Kareemganj, Gaya - BSPCB",17-04-2024 21:00:00,24.792403,84.992416,SO2,4,12,9
India,Bihar,Gaya,"SFTI Kusdihra, Gaya - BSPCB",17-04-2024 21:00:00,24.762518,84.982348,PM2.5,NA,NA,NA
India,Bihar,Gaya,"SFTI Kusdihra, Gaya - BSPCB",17-04-2024 21:00:00,24.762518,84.982348,PM10,NA,NA,NA
India,Bihar,Hajipur,"Industrial Area, Hajipur - BSPCB",17-04-2024 21:00:00,25.697189,85.245900,NH3,5,9,8
India,Bihar,Hajipur,"Industrial Area, Hajipur - BSPCB",17-04-2024 21:00:00,25.697189,85.245900,SO2,5,8,6
India,Bihar,Katihar,"Mirchaibari, Katihar - BSPCB",17-04-2024 21:00:00,25.560083,87.553265,NH3,4,9,7
India,Bihar,Katihar,"Mirchaibari, Katihar - BSPCB",17-04-2024 21:00:00,25.560083,87.553265,OZONE,9,16,13
India,Bihar,Kishanganj,"SDM Office_Khagra, Kishanganj - BSPCB",17-04-2024 21:00:00,26.0881305,87.93840336,PM10,96,414,159
India,Bihar,Kishanganj,"SDM Office_Khagra, Kishanganj - BSPCB",17-04-2024 21:00:00,26.0881305,87.93840336,NH3,9,10,10
India,Bihar,Kishanganj,"SDM Office_Khagra, Kishanganj - BSPCB",17-04-2024 21:00:00,26.0881305,87.93840336,SO2,1,5,2
India,Bihar,Kishanganj,"SDM Office_Khagra, Kishanganj - BSPCB",17-04-2024 21:00:00,26.0881305,87.93840336,CO,2,14,8
India,Bihar,Munger,"Town Hall, Munger - BSPCB",17-04-2024 21:00:00,25.376776,86.471523,NO2,6,9,8
India,Bihar,Muzaffarpur,"Buddha Colony, Muzaffarpur - BSPCB",17-04-2024 21:00:00,26.11442,85.39813,PM2.5,321,382,351
India,Bihar,Muzaffarpur,"Buddha Colony, Muzaffarpur - BSPCB",17-04-2024 21:00:00,26.11442,85.39813,CO,15,65,29
India,Bihar,Muzaffarpur,"MIT-Daudpur Kothi, Muzaffarpur - BSPCB",17-04-2024 21:00:00,26.1403345,85.3650192,OZONE,27,63,63
India,Bihar,Muzaffarpur,"Muzaffarpur Collectorate, Muzaffarpur - BSPCB",17-04-2024 21:00:00,26.1209,85.3647,NO2,8,205,35
India,Bihar,Muzaffarpur,"Muzaffarpur Collectorate, Muzaffarpur - BSPCB",17-04-2024 21:00:00,26.1209,85.3647,CO,24,56,50
India,Bihar,Patna,"DRM Office Danapur, Patna - BSPCB",17-04-2024 21:00:00,25.586562,85.043586,PM2.5,139,344,239
India,Bihar,Patna,"Govt. High School Shikarpur, Patna - BSPCB",17-04-2024 21:00:00,25.592539,85.227158,NO2,17,23,20
India,Bihar,Patna,"Govt. High School Shikarpur, Patna - BSPCB",17-04-2024 21:00:00,25.592539,85.227158,NH3,5,5,5
India,Bihar,Patna,"IGSC Planetarium Complex, Patna - BSPCB",17-04-2024 21:00:00,25.610369,85.132568,PM2.5,75,475,204
India,Bihar,Patna,"IGSC Planetarium Complex, Patna - BSPCB",17-04-2024 21:00:00,25.610369,85.132568,SO2,5,5,5
India,Bihar,Patna,"Muradpur, Patna - BSPCB",17-04-2024 21:00:00,25.619651,85.147382,SO2,5,10,7
India,Bihar,Patna,"Rajbansi Nagar, Patna - BSPCB",17-04-2024 21:00:00,25.599486,85.113666,PM10,137,244,170
India,Bihar,Patna,"Samanpura, Patna - BSPCB",17-04-2024 21:00:00,25.596727,85.085624,PM10,170,474,286
India,Bihar,Purnia,"Mariam Nagar, Purnia - BSPCB",17-04-2024 21:00:00,25.366336,87.117468,NH3,6,9,7
India,Bihar,Rajgir,"Dangi Tola, Rajgir - BSPCB",17-04-2024 21:00:00,25.03280,85.41948,PM10,30,103,59
India,Bihar,Rajgir,"Dangi Tola, Rajgir - BSPCB",17-04-2024 21:00:00,25.03280,85.41948,OZONE,32,43,35
India,Bihar,Saharsa,"Police Line, Saharsa - BSPCB",17-04-2024 21:00:00,25.892357,86.590325,NO2,1,2,1
India,Bihar,Saharsa,"Police Line, Saharsa - BSPCB",17-04-2024 21:00:00,25.892357,86.590325,OZONE,6,87,41
India,Bihar,Samastipur,"DM Office_Kasipur, Samastipur - BSPCB",17-04-2024 21:00:00,25.859655,85.77944,SO2,8,10,9
India,Bihar,Siwan,"Chitragupta Nagar, Siwan - BSPCB",17-04-2024 21:00:00,26.2271665,84.3570427,PM2.5,NA,NA,NA
India,Bihar,Siwan,"Chitragupta Nagar, Siwan - BSPCB",17-04-2024 21:00:00,26.2271665,84.3570427,NO2,NA,NA,NA
India,Chandigarh,Chandigarh,"Sector-53, Chandigarh - CPCC",17-04-2024 21:00:00,30.719859,76.738637,PM2.5,17,80,48
India,Chandigarh,Chandigarh,"Sector-53, Chandigarh - CPCC",17-04-2024 21:00:00,30.719859,76.738637,NO2,10,29,18
India,Chhattisgarh,Bhilai,"Civic Center, Bhilai - Bhilai Steel Plant",17-04-2024 21:00:00,21.185571,81.343175,CO,28,64,41
India,Chhattisgarh,Bhilai,"Hathkhoj, Bhilai - CECB",17-04-2024 21:00:00,21.224231,81.408350,PM10,36,192,100
India,Chhattisgarh,Chhal,"Nawapara SECL Colony, Chhal - CECB",17-04-2024 21:00:00,22.118125,83.140608,PM10,52,75,61
India,Chhattisgarh,Chhal,"Nawapara SECL Colony, Chhal - CECB",17-04-2024 21:00:00,22.118125,83.140608,NO2,12,36,22
India,Chhattisgarh,Chhal,"Nawapara SECL Colony, Chhal - CECB",17-04-2024 21:00:00,22.118125,83.140608,OZONE,16,124,87
India,Chhattisgarh,Kunjemura,"OP Jindal School, Kunjemura - CECB",17-04-2024 21:00:00,22.126650,83.483212,PM2.5,32,130,82
India,Chhattisgarh,Raipur,"AIIMS, Raipur - CECB",17-04-2024 21:00:00,21.258815,81.578979,PM10,33,162,75
India,Chhattisgarh,Raipur,"Krishak Nagar, Raipur - CECB",17-04-2024 21:00:00,21.237755,81.705301,NO2,1,2,1
India,Chhattisgarh,Raipur,"Siltara Phase-II, Raipur - CECB",17-04-2024 21:00:00,21.371751,81.664929,NH3,3,3,3
India,Chhattisgarh,Tumidih,"OP Jindal Industrial Park, Tumidih - CECB",17-04-2024 21:00:00,22.06631475,83.33820077,OZONE,22,77,57
India,Delhi,Delhi,"Alipur, Delhi - DPCC",17-04-2024 21:00:00,28.815329,77.153010,SO2,12,32,16
India,Delhi,Delhi,"Anand Vihar, Delhi - DPCC",17-04-2024 21:00:00,28.647622,77.3158090,NO2,34,113,74
India,Delhi,Delhi,"Anand Vihar, Delhi - DPCC",17-04-2024 21:00:00,28.647622,77.3158090,NH3,4,11,7
India,Delhi,Delhi,"Anand Vihar, Delhi - DPCC",17-04-2024 21:00:00,28.647622,77.3158090,CO,2,56,36
India,Delhi,Delhi,"Ashok Vihar, Delhi - DPCC",17-04-2024 21:00:00,28.695381,77.181665,OZONE,10,33,28
India,Delhi,Delhi,"Bawana, Delhi - DPCC",17-04-2024 21:00:00,28.776200,77.051074,PM2.5,28,328,128
India,Delhi,Delhi,"Burari Crossing, Delhi - IMD",17-04-2024 21:00:00,28.7256504,77.2011573,CO,6,9,7
India,Delhi,Delhi,"DTU, Delhi - CPCB",17-04-2024 21:00:00,28.7500499,77.1112615,PM2.5,53,500,114
India,Delhi,Delhi,"DTU, Delhi - CPCB",17-04-2024 21:00:00,28.7500499,77.1112615,PM10,112,500,384
India,Delhi,Delhi,"IHBAS, Dilshad Garden, Delhi - CPCB",17-04-2024 21:00:00,28.6811736,77.3025234,CO,10,51,40
India,Delhi,Delhi,"IHBAS, Dilshad Garden, Delhi - CPCB",17-04-2024 21:00:00,28.6811736,77.3025234,OZONE,19,52,36
India,Delhi,Delhi,"Jahangirpuri, Delhi - DPCC",17-04-2024 21:00:00,28.732820,77.170633,PM2.5,26,270,86
India,Delhi,Delhi,"Jahangirpuri, Delhi - DPCC",17-04-2024 21:00:00,28.732820,77.170633,NO2,13,92,49
India,Delhi,Delhi,"Jahangirpuri, Delhi - DPCC",17-04-2024 21:00:00,28.732820,77.170633,NH3,23,29,26
India,Delhi,Delhi,"Jahangirpuri, Delhi - DPCC",17-04-2024 21:00:00,28.732820,77.170633,OZONE,15,78,65
India,Delhi,Delhi,"Lodhi Road, Delhi - IITM",17-04-2024 21:00:00,28.588333,77.221667,SO2,8,34,24
India,Delhi,Delhi,"Lodhi Road, Delhi - IITM",17-04-2024 21:00:00,28.588333,77.221667,OZONE,16,21,18
India,Delhi,Delhi,"Major Dhyan Chand National Stadium, Delhi - DPCC",17-04-2024 21:00:00,28.611281,77.237738,NH3,5,8,7
India,Delhi,Delhi,"Mandir Marg, Delhi - DPCC",17-04-2024 21:00:00,28.636429,77.201067,PM2.5,19,141,46
India,Delhi,Delhi,"Mandir Marg, Delhi - DPCC",17-04-2024 21:00:00,28.636429,77.201067,PM10,51,110,75
India,Delhi,Delhi,"Mundka, Delhi - DPCC",17-04-2024 21:00:00,28.684678,77.076574,CO,28,53,30
India,Delhi,Delhi,"Mundka, Delhi - DPCC",17-04-2024 21:00:00,28.684678,77.076574,OZONE,27,145,115
India,Delhi,Delhi,"NSIT Dwarka, Delhi - CPCB",17-04-2024 21:00:00,28.60909,77.0325413,PM10,128,194,153
India,Delhi,Delhi,"NSIT Dwarka, Delhi - CPCB",17-04-2024 21:00:00,28.60909,77.0325413,NO2,38,53,43
India,Delhi,Delhi,"Najafgarh, Delhi - DPCC",17-04-2024 21:00:00,28.570173,76.933762,PM10,51,272,130
India,Delhi,Delhi,"Najafgarh, Delhi - DPCC",17-04-2024 21:00:00,28.570173,76.933762,SO2,9,14,11
India,Delhi,Delhi,"Najafgarh, Delhi - DPCC",17-04-2024 21:00:00,28.570173,76.933762,OZONE,9,199,124
India,Delhi,Delhi,"Okhla Phase-2, Delhi - DPCC",17-04-2024 21:00:00,28.530785,77.271255,CO,50,100,88
India,Delhi,Delhi,"Patparganj, Delhi - DPCC",17-04-2024 21:00:00,28.623763,77.287209,PM2.5,20,103,47
India,Delhi,Delhi,"Patparganj, Delhi - DPCC",17-04-2024 21:00:00,28.623763,77.287209,SO2,2,9,5
India,Delhi,Delhi,"Punjabi Bagh, Delhi - DPCC",17-04-2024 21:00:00,28.674045,77.131023,PM10,103,150,124
India,Delhi,Delhi,"Pusa, Delhi - DPCC",17-04-2024 21:00:00,28.639652,77.146275,PM2.5,23,183,68
India,Delhi,Delhi,"R K Puram, Delhi - DPCC",17-04-2024 21:00:00,28.563262,77.186937,OZONE,44,180,150
India,Delhi,Delhi,"Shadipur, Delhi - CPCB",17-04-2024 21:00:00,28.6514781,77.1473105,NO2,46,84,57
India,Delhi,Delhi,"Shadipur, Delhi - CPCB",17-04-2024 21:00:00,28.6514781,77.1473105,NH3,8,16,10
India,Delhi,Delhi,"Sirifort, Delhi - CPCB",17-04-2024 21:00:00,28.5504249,77.2159377,CO,7,84,10
India,Delhi,Delhi,"Sonia Vihar, Delhi - DPCC",17-04-2024 21:00:00,28.710508,77.249485,NH3,5,8,6
India,Delhi,Delhi,"Sonia Vihar, Delhi - DPCC",17-04-2024 21:00:00,28.710508,77.249485,CO,48,64,51
India,Delhi,Delhi,"Vivek Vihar, Delhi - DPCC",17-04-2024 21:00:00,28.672342,77.315260,PM10,78,167,129
India,Delhi,Delhi,"Vivek Vihar, Delhi - DPCC",17-04-2024 21:00:00,28.672342,77.315260,CO,8,32,16
India,Delhi,Delhi,"Vivek Vihar, Delhi - DPCC",17-04-2024 21:00:00,28.672342,77.315260,OZONE,27,95,81
India,Gujarat,Ahmedabad,"Chandkheda, Ahmedabad - IITM",17-04-2024 21:00:00,23.107969,72.574648,SO2,9,24,12
India,Gujarat,Ahmedabad,"Chandkheda, Ahmedabad - IITM",17-04-2024 21:00:00,23.107969,72.574648,CO,78,112,96
India,Gujarat,Ahmedabad,"Gyaspur, Ahmedabad - IITM",17-04-2024 21:00:00,22.977134,72.553024,SO2,3,5,4
India,Gujarat,Ahmedabad,"Maninagar, Ahmedabad - GPCB",17-04-2024 21:00:00,23.002657,72.591912,PM2.5,23,74,45
India,Gujarat,Ahmedabad,"Maninagar, Ahmedabad - GPCB",17-04-2024 21:00:00,23.002657,72.591912,OZONE,13,68,47
India,Gujarat,Ahmedabad,"Raikhad, Ahmedabad - IITM",17-04-2024 21:00:00,23.020509,72.579261,PM10,NA,NA,NA
India,Gujarat,Ahmedabad,"Raikhad, Ahmedabad - IITM",17-04-2024 21:00:00,23.020509,72.579261,NH3,NA,NA,NA
India,Gujarat,Ahmedabad,"Raikhad, Ahmedabad - IITM",17-04-2024 21:00:00,23.020509,72.579261,CO,19,115,60
India,Gujarat,Ahmedabad,"Rakhial, Ahmedabad - IITM",17-04-2024 21:00:00,23.016834,72.625775,CO,18,70,34
India,Gujarat,Ahmedabad,"SAC ISRO Satellite, Ahmedabad - IITM",17-04-2024 21:00:00,23.023389,72.515201,PM2.5,126,129,127
India,Gujarat,Ahmedabad,"SAC ISRO Satellite, Ahmedabad - IITM",17-04-2024 21:00:00,23.023389,72.515201,PM10,99,101,100
India,Gujarat,Ahmedabad,"SAC ISRO Satellite, Ahmedabad - IITM",17-04-2024 21:00:00,23.023389,72.515201,SO2,3,18,7
India,Gujarat,Ahmedabad,"Sardar Vallabhbhai Patel Stadium, Ahmedabad - IITM",17-04-2024 21:00:00,23.043070,72.562968,PM2.5,53,303,79
India,Gujarat,Ahmedabad,"Sardar Vallabhbhai Patel Stadium, Ahmedabad - IITM",17-04-2024 21:00:00,23.043070,72.562968,PM10,61,196,85
India,Gujarat,Ahmedabad,"Sardar Vallabhbhai Patel Stadium, Ahmedabad - IITM",17-04-2024 21:00:00,23.043070,72.562968,OZONE,7,19,14
India,Gujarat,Ankleshwar,"GIDC, Ankleshwar - GPCB",17-04-2024 21:00:00,21.613267,73.010555,PM2.5,33,86,61
India,Gujarat,Ankleshwar,"GIDC, Ankleshwar - GPCB",17-04-2024 21:00:00,21.613267,73.010555,CO,56,112,68
India,Gujarat,Gandhinagar,"IIPHG Lekawada, Gandhinagar - IITM",17-04-2024 21:00:00,23.243639,72.68994,PM10,60,108,85
India,Gujarat,Gandhinagar,"Sector-10, Gandhinagar - GPCB",17-04-2024 21:00:00,23.221714,72.654328,NO2,17,28,19
India,Gujarat,Surat,"Science Center, Surat - SMC",17-04-2024 21:00:00,21.170046,72.795405,CO,28,60,39
India,Gujarat,Vatva,"Phase-4 GIDC, Vatva - GPCB",17-04-2024 21:00:00,22.969611,72.643500,PM10,47,78,60
India,Gujarat,Vatva,"Phase-4 GIDC, Vatva - GPCB",17-04-2024 21:00:00,22.969611,72.643500,OZONE,NA,NA,NA
India,Haryana,Ambala,"Patti Mehar, Ambala - HSPCB",17-04-2024 21:00:00,30.379589,76.778328,NO2,3,4,4
India,Haryana,Ambala,"Patti Mehar, Ambala - HSPCB",17-04-2024 21:00:00,30.379589,76.778328,SO2,1,13,6
India,Haryana,Ambala,"Patti Mehar, Ambala - HSPCB",17-04-2024 21:00:00,30.379589,76.778328,OZONE,31,50,37
India,Haryana,Bahadurgarh,"Arya Nagar, Bahadurgarh - HSPCB",17-04-2024 21:00:00,28.6701,76.9254,PM10,71,122,98
India,Haryana,Bahadurgarh,"Arya Nagar, Bahadurgarh - HSPCB",17-04-2024 21:00:00,28.6701,76.9254,NH3,10,12,11
India,Haryana,Ballabgarh,"Nathu Colony, Ballabgarh - HSPCB",17-04-2024 21:00:00,28.3419248,77.319699,PM10,122,165,137
India,Haryana,Ballabgarh,"Nathu Colony, Ballabgarh - HSPCB",17-04-2024 21:00:00,28.3419248,77.319699,NO2,6,14,13
India,Haryana,Ballabgarh,"Nathu Colony, Ballabgarh - HSPCB",17-04-2024 21:00:00,28.3419248,77.319699,SO2,6,132,29
India,Haryana,Bhiwani,"H.B. Colony, Bhiwani - HSPCB",17-04-2024 21:00:00,28.806223,76.141105,NO2,6,11,9
India,Haryana,Dharuhera,"Municipal Corporation Office, Dharuhera -  HSPCB",17-04-2024 21:00:00,28.206800,76.799700,NH3,9,26,19
India,Haryana,Faridabad,"New Industrial Town, Faridabad - HSPCB",17-04-2024 21:00:00,28.39072,77.30059,NH3,1,4,3
India,Haryana,Faridabad,"Sector 11, Faridabad - HSPCB",17-04-2024 21:00:00,28.376058,77.315741,NO2,30,32,31
India,Haryana,Faridabad,"Sector 11, Faridabad - HSPCB",17-04-2024 21:00:00,28.376058,77.315741,SO2,4,121,11
India,Haryana,Faridabad,"Sector 30, Faridabad - HSPCB",17-04-2024 21:00:00,28.4417,77.3217,NO2,NA,NA,NA
India,Haryana,Faridabad,"Sector- 16A, Faridabad - HSPCB",17-04-2024 21:00:00,28.4088421,77.3099081,NO2,13,43,23
India,Haryana,Fatehabad,"Huda Sector, Fatehabad - HSPCB",17-04-2024 21:00:00,29.503664,75.467934,OZONE,38,59,49
India,Haryana,Gurugram,"Sector-51, Gurugram - HSPCB",17-04-2024 21:00:00,28.4227,77.0667,NO2,13,29,23
India,Haryana,Gurugram,"Teri Gram, Gurugram - HSPCB",17-04-2024 21:00:00,28.4275,77.1465,PM2.5,59,288,160
India,Haryana,Gurugram,"Teri Gram, Gurugram - HSPCB",17-04-2024 21:00:00,28.4275,77.1465,NO2,29,41,36
India,Haryana,Gurugram,"Teri Gram, Gurugram - HSPCB",17-04-2024 21:00:00,28.4275,77.1465,OZONE,28,40,35
India,Haryana,Gurugram,"Vikas Sadan, Gurugram - HSPCB",17-04-2024 21:00:00,28.4501238,77.0263051,PM2.5,51,500,200
India,Haryana,Hisar,"Urban Estate-II, Hisar - HSPCB",17-04-2024 21:00:00,29.140560,75.744941,PM2.5,29,49,40
India,Haryana,Hisar,"Urban Estate-II, Hisar - HSPCB",17-04-2024 21:00:00,29.140560,75.744941,NO2,21,34,25
India,Haryana,Jind,"Police Lines, Jind - HSPCB",17-04-2024 21:00:00,29.307814,76.337619,PM10,47,92,69
India,Haryana,Jind,"Police Lines, Jind - HSPCB",17-04-2024 21:00:00,29.307814,76.337619,SO2,1,30,11
India,Haryana,Kaithal,"Rishi Nagar, Kaithal - HSPCB",17-04-2024 21:00:00,29.8006,76.4155,PM10,49,98,74
India,Haryana,Karnal,"Sector-12, Karnal - HSPCB",17-04-2024 21:00:00,29.695300,77.002700,NO2,7,12,10
India,Haryana,Mandikhera,"General Hospital, Mandikhera - HSPCB",17-04-2024 21:00:00,27.9002,76.9938,PM2.5,12,33,23
India,Haryana,Mandikhera,"General Hospital, Mandikhera - HSPCB",17-04-2024 21:00:00,27.9002,76.9938,PM10,67,92,77
India,Haryana,Mandikhera,"General Hospital, Mandikhera - HSPCB",17-04-2024 21:00:00,27.9002,76.9938,SO2,32,36,34
India,Haryana,Manesar,"Sector-2 IMT, Manesar - HSPCB",17-04-2024 21:00:00,28.360699,76.936090,PM2.5,31,75,50
India,Haryana,Manesar,"Sector-2 IMT, Manesar - HSPCB",17-04-2024 21:00:00,28.360699,76.936090,CO,12,35,19
India,Haryana,Palwal,"Shyam Nagar, Palwal - HSPCB",17-04-2024 21:00:00,28.1485564,77.3320667,OZONE,16,28,23
India,Haryana,Panchkula,"Sector-6, Panchkula - HSPCB ",17-04-2024 21:00:00,30.7057778,76.8531805555555,NO2,9,11,10
India,Haryana,Panchkula,"Sector-6, Panchkula - HSPCB ",17-04-2024 21:00:00,30.7057778,76.8531805555555,OZONE,37,56,51
India,Haryana,Panipat,"Sector-18, Panipat - HSPCB",17-04-2024 21:00:00,29.497973,76.993331,PM10,81,89,87
India,Haryana,Panipat,"Sector-18, Panipat - HSPCB",17-04-2024 21:00:00,29.497973,76.993331,NO2,31,32,31
India,Haryana,Rohtak,"MD University, Rohtak - HSPCB",17-04-2024 21:00:00,28.52123,76.37138,OZONE,45,54,49
India,Haryana,Sirsa,"F-Block, Sirsa - HSPCB",17-04-2024 21:00:00,29.536400,75.015800,PM10,43,98,73
India,Haryana,Sonipat,"Murthal, Sonipat - HSPCB",17-04-2024 21:00:00,29.027200,77.062100,SO2,12,29,20
India,Haryana,Sonipat,"Murthal, Sonipat - HSPCB",17-04-2024 21:00:00,29.027200,77.062100,OZONE,17,36,31
India,Haryana,Yamuna Nagar,"Gobind Pura, Yamuna Nagar - HSPCB",17-04-2024 21:00:00,30.1480566,77.2893471,PM2.5,32,95,50
India,Haryana,Yamuna Nagar,"Gobind Pura, Yamuna Nagar - HSPCB",17-04-2024 21:00:00,30.1480566,77.2893471,NO2,11,29,18
India,Haryana,Yamuna Nagar,"Gobind Pura, Yamuna Nagar - HSPCB",17-04-2024 21:00:00,30.1480566,77.2893471,NH3,1,6,4
India,Himachal Pradesh,Baddi,"HIMUDA Complex Phase-1, Baddi - HPPCB",17-04-2024 21:00:00,30.943887,76.801991,NO2,8,31,20
India,Himachal Pradesh,Baddi,"HIMUDA Complex Phase-1, Baddi - HPPCB",17-04-2024 21:00:00,30.943887,76.801991,OZONE,24,167,146
India,Jharkhand,Dhanbad,"Kalakusuma, Dhanbad - DMC",17-04-2024 21:00:00,23.811548,86.481238,PM2.5,5,158,49
India,Jharkhand,Dhanbad,"Kalakusuma, Dhanbad - DMC",17-04-2024 21:00:00,23.811548,86.481238,PM10,93,200,142
India,Jharkhand,Dhanbad,"Kalakusuma, Dhanbad - DMC",17-04-2024 21:00:00,23.811548,86.481238,NO2,68,432,271
India,Jharkhand,Dhanbad,"Kalakusuma, Dhanbad - DMC",17-04-2024 21:00:00,23.811548,86.481238,CO,128,135,130
India,Karnataka,Bagalkot,"Vidayagiri, Bagalkot - KSPCB",17-04-2024 21:00:00,16.172806,75.659694,PM10,46,46,46
India,Karnataka,Bagalkot,"Vidayagiri, Bagalkot - KSPCB",17-04-2024 21:00:00,16.172806,75.659694,CO,26,55,37
India,Karnataka,Bengaluru,"BTM Layout, Bengaluru - CPCB",17-04-2024 21:00:00,12.9135218,77.5950804,PM2.5,16,24,20
India,Karnataka,Bengaluru,"BTM Layout, Bengaluru - CPCB",17-04-2024 21:00:00,12.9135218,77.5950804,SO2,8,17,12
India,Karnataka,Bengaluru,"Hebbal, Bengaluru - KSPCB",17-04-2024 21:00:00,13.029152,77.585901,PM10,65,166,94
India,Karnataka,Bengaluru,"Hebbal, Bengaluru - KSPCB",17-04-2024 21:00:00,13.029152,77.585901,CO,5,54,35
India,Karnataka,Bengaluru,"Hombegowda Nagar, Bengaluru - KSPCB",17-04-2024 21:00:00,12.938539,77.590100,OZONE,4,5,4
India,Karnataka,Bengaluru,"Jayanagar 5th Block, Bengaluru - KSPCB",17-04-2024 21:00:00,12.920984,77.584908,CO,NA,NA,NA
India,Karnataka,Bengaluru,"Peenya, Bengaluru - CPCB",17-04-2024 21:00:00,13.0270199,77.494094,PM10,79,112,92
India,Karnataka,Bengaluru,"RVCE-Mailasandra, Bengaluru - KSPCB",17-04-2024 21:00:00,12.921418,77.502466,SO2,8,11,9
India,Karnataka,Bengaluru,"RVCE-Mailasandra, Bengaluru - KSPCB",17-04-2024 21:00:00,12.921418,77.502466,OZONE,39,39,39
India,Karnataka,Bengaluru,"Sanegurava Halli, Bengaluru - KSPCB",17-04-2024 21:00:00,12.990328,77.5431385,PM10,39,103,60
India,Karnataka,Bengaluru,"Shivapura_Peenya, Bengaluru - KSPCB",17-04-2024 21:00:00,13.0246342,77.5080115,PM10,58,96,69
India,Karnataka,Bengaluru,"Silk Board, Bengaluru - KSPCB",17-04-2024 21:00:00,12.917348,77.622813,PM10,27,111,77
India,Karnataka,Bengaluru,"Silk Board, Bengaluru - KSPCB",17-04-2024 21:00:00,12.917348,77.622813,SO2,1,18,8
India,Karnataka,Bidar,"Naubad, Bidar - KSPCB",17-04-2024 21:00:00,17.930306,77.482194,NO2,7,10,8
India,Karnataka,Chikkaballapur,"Chikkaballapur Rural, Chikkaballapur - KSPCB",17-04-2024 21:00:00,13.428828,77.731418,OZONE,25,26,26
India,Karnataka,Chikkamagaluru,"Kalyana Nagara, Chikkamagaluru - KSPCB",17-04-2024 21:00:00,13.328028,75.797056,PM2.5,2,61,17
India,Karnataka,Davanagere,"Devaraj Urs Badavane, Davanagere - KSPCB",17-04-2024 21:00:00,14.475800,75.905200,NO2,10,17,12
India,Karnataka,Dharwad,"Kalabhavan, Dharwad - KSPCB",17-04-2024 21:00:00,15.459706,75.008381,SO2,2,25,4
India,Karnataka,Gadag,"Panchal Nagar, Gadag - KSPCB",17-04-2024 21:00:00,15.411456,75.638133,NO2,NA,NA,NA
India,Karnataka,Hassan,"B.Katihalli, Hassan - KSPCB",17-04-2024 21:00:00,13.008556,76.125258,SO2,18,33,25
India,Karnataka,Hassan,"B.Katihalli, Hassan - KSPCB",17-04-2024 21:00:00,13.008556,76.125258,OZONE,4,28,6
India,Karnataka,Haveri,"Ashwini Nagar, Haveri - KSPCB",17-04-2024 21:00:00,14.791800,75.389600,PM2.5,31,54,43
India,Karnataka,Haveri,"Ashwini Nagar, Haveri - KSPCB",17-04-2024 21:00:00,14.791800,75.389600,OZONE,18,21,20
India,Karnataka,Hubballi,"Deshpande Nagar, Hubballi - KSPCB",17-04-2024 21:00:00,15.351773,75.140726,PM10,NA,NA,NA
India,Karnataka,Hubballi,"Deshpande Nagar, Hubballi - KSPCB",17-04-2024 21:00:00,15.351773,75.140726,NO2,25,27,26
India,Karnataka,Hubballi,"Deshpande Nagar, Hubballi - KSPCB",17-04-2024 21:00:00,15.351773,75.140726,NH3,5,6,5
India,Karnataka,Hubballi,"Deshpande Nagar, Hubballi - KSPCB",17-04-2024 21:00:00,15.351773,75.140726,OZONE,3,29,18
India,Karnataka,Kalaburagi,"Lal Bahadur Shastri Nagar, Kalaburagi - KSPCB",17-04-2024 21:00:00,17.321993,76.822628,PM2.5,17,155,51
