country,state,city,station,last_update,latitude,longitude,pollutant_id,pollutant_min,pollutant_max,pollutant_avg
India,Andhra_Pradesh,Amaravati,"Secretariat, Amaravati - APPCB",08-04-2024 09:00:00,16.5150833,80.5181667,NO2,3,9,5
India,Andhra_Pradesh,Amaravati,"Secretariat, Amaravati - APPCB",08-04-2024 09:00:00,16.5150833,80.5181667,CO,12,36,23
India,Andhra_Pradesh,Anantapur,"Gulzarpet, Anantapur - APPCB",08-04-2024 09:00:00,14.675886,77.593027,CO,26,102,32
India,Andhra_Pradesh,Rajamahendravaram,"Anand Kala Kshetram, Rajamahendravaram - APPCB",08-04-2024 09:00:00,16.9872867,81.7363176,OZONE,15,35,20
India,Andhra_Pradesh,Tirupati,"Tirumala, Tirupati - APPCB",08-04-2024 09:00:00,13.67,79.35,PM10,40,153,68
India,Andhra_Pradesh,Tirupati,"Vaikuntapuram, Tirupati - APPCB",08-04-2024 09:00:00,13.615387,79.409230,NH3,NA,NA,NA
India,Andhra_Pradesh,Vijayawada,"HB Colony, Vijayawada - APPCB",08-04-2024 09:00:00,16.536107,80.594233,NO2,5,16,8
India,Andhra_Pradesh,Vijayawada,"HB Colony, Vijayawada - APPCB",08-04-2024 09:00:00,16.536107,80.594233,CO,37,38,37
India,Andhra_Pradesh,Vijayawada,"Rajiv Gandhi Park, Vijayawada - APPCB",08-04-2024 09:00:00,16.509717,80.612222,OZONE,7,97,13
India,Andhra_Pradesh,Vijayawada,"Rajiv Nagar, Vijayawada - APPCB",08-04-2024 09:00:00,16.554731,80.649110,OZONE,5,52,9
India,Andhra_Pradesh,Visakhapatnam,"GVM Corporation, Visakhapatnam - APPCB",08-04-2024 09:00:00,17.72,83.3,OZONE,9,37,17
India,Assam,Byrnihat,"Central Academy for SFS, Byrnihat - PCBA",08-04-2024 09:00:00,26.071318,91.87488,PM2.5,33,500,353
India,Assam,Byrnihat,"Central Academy for SFS, Byrnihat - PCBA",08-04-2024 09:00:00,26.071318,91.87488,NO2,42,100,62
India,Assam,Byrnihat,"Central Academy for SFS, Byrnihat - PCBA",08-04-2024 09:00:00,26.071318,91.87488,OZONE,19,23,22
India,Assam,Guwahati,"IITG, Guwahati - PCBA",08-04-2024 09:00:00,26.2028636,91.70046436,PM2.5,76,305,160
India,Assam,Guwahati,"IITG, Guwahati - PCBA",08-04-2024 09:00:00,26.2028636,91.70046436,SO2,11,16,13
India,Assam,Guwahati,"LGBI Airport, Guwahati - PCBA",08-04-2024 09:00:00,26.10887,91.589544,PM2.5,43,257,129
India,Assam,Guwahati,"LGBI Airport, Guwahati - PCBA",08-04-2024 09:00:00,26.10887,91.589544,NO2,18,97,63
India,Assam,Guwahati,"Pan Bazaar, Guwahati - PCBA",08-04-2024 09:00:00,26.187500,91.744194,NH3,3,6,5
India,Assam,Guwahati,"Railway Colony, Guwahati - PCBA",08-04-2024 09:00:00,26.181742,91.78063,PM2.5,100,407,180
India,Assam,Nagaon,"Christianpatty, Nagaon - PCBA",08-04-2024 09:00:00,26.349082,92.68449,NO2,5,40,13
India,Assam,Nalbari,"Bata Chowk, Nalbari - PCBA",08-04-2024 09:00:00,26.446912,91.439057,NH3,1,1,1
India,Assam,Nalbari,"Bata Chowk, Nalbari - PCBA",08-04-2024 09:00:00,26.446912,91.439057,OZONE,49,132,70
India,Assam,Silchar,"Tarapur, Silchar - PCBA",08-04-2024 09:00:00,24.82827,92.79525,PM10,38,79,63
India,Assam,Silchar,"Tarapur, Silchar - PCBA",08-04-2024 09:00:00,24.82827,92.79525,SO2,NA,NA,NA
India,Assam,Silchar,"Tarapur, Silchar - PCBA",08-04-2024 09:00:00,24.82827,92.79525,CO,19,28,27
India,Assam,Sivasagar,"Girls College, Sivasagar - PCBA",08-04-2024 09:00:00,26.987634,94.636574,SO2,4,6,4
India,Bihar,Araria,"Kharahiya Basti, Araria - BSPCB",08-04-2024 09:00:00,26.146529,87.454184,PM10,NA,NA,NA
India,Bihar,Arrah,"New DM Office, Arrah - BSPCB",08-04-2024 09:00:00,25.5626095,84.663264,PM2.5,23,62,40
India,Bihar,Arrah,"New DM Office, Arrah - BSPCB",08-04-2024 09:00:00,25.5626095,84.663264,SO2,9,25,17
India,Bihar,Aurangabad,"Gurdeo Nagar, Aurangabad - BSPCB",08-04-2024 09:00:00,24.75746,84.366208,NH3,2,6,5
India,Bihar,Bettiah,"Kamalnath Nagar, Bettiah - BSPCB",08-04-2024 09:00:00,26.80365,84.51954,PM10,49,152,97
India,Bihar,Bettiah,"Kamalnath Nagar, Bettiah - BSPCB",08-04-2024 09:00:00,26.80365,84.51954,CO,60,70,63
India,Bihar,Bhagalpur,"DM Office_Kachari Chowk, Bhagalpur - BSPCB",08-04-2024 09:00:00,25.251013,86.989001,PM10,76,169,127
India,Bihar,Bhagalpur,"DM Office_Kachari Chowk, Bhagalpur - BSPCB",08-04-2024 09:00:00,25.251013,86.989001,NH3,7,10,8
India,Bihar,Bhagalpur,"Mayaganj, Bhagalpur - BSPCB",08-04-2024 09:00:00,25.265194,87.012947,PM2.5,50,173,92
India,Bihar,Bihar Sharif,"D M Colony, Bihar Sharif - BSPCB",08-04-2024 09:00:00,25.204762,85.514960,NO2,9,10,9
India,Bihar,Bihar Sharif,"D M Colony, Bihar Sharif - BSPCB",08-04-2024 09:00:00,25.204762,85.514960,CO,48,62,58
India,Bihar,Buxar,"Charitra Van, Buxar - BSPCB (Formerly known as Central Jail)",08-04-2024 09:00:00,25.567520,83.966379,NO2,28,102,49
India,Bihar,Buxar,"Charitra Van, Buxar - BSPCB (Formerly known as Central Jail)",08-04-2024 09:00:00,25.567520,83.966379,SO2,19,25,21
India,Bihar,Buxar,"Charitra Van, Buxar - BSPCB (Formerly known as Central Jail)",08-04-2024 09:00:00,25.567520,83.966379,CO,48,78,65
India,Bihar,Gaya,"Collectorate, Gaya - BSPCB",08-04-2024 09:00:00,24.7955,84.9994,SO2,1,13,9
India,Bihar,Gaya,"Kareemganj, Gaya - BSPCB",08-04-2024 09:00:00,24.792403,84.992416,OZONE,2,27,12
India,Bihar,Gaya,"SFTI Kusdihra, Gaya - BSPCB",08-04-2024 09:00:00,24.762518,84.982348,PM10,42,104,69
India,Bihar,Gaya,"SFTI Kusdihra, Gaya - BSPCB",08-04-2024 09:00:00,24.762518,84.982348,OZONE,8,74,17
India,Bihar,Hajipur,"Industrial Area, Hajipur - BSPCB",08-04-2024 09:00:00,25.697189,85.245900,PM2.5,28,250,69
India,Bihar,Hajipur,"Industrial Area, Hajipur - BSPCB",08-04-2024 09:00:00,25.697189,85.245900,NO2,44,67,53
India,Bihar,Kishanganj,"SDM Office_Khagra, Kishanganj - BSPCB",08-04-2024 09:00:00,26.0881305,87.93840336,PM10,138,432,192
India,Bihar,Kishanganj,"SDM Office_Khagra, Kishanganj - BSPCB",08-04-2024 09:00:00,26.0881305,87.93840336,CO,4,10,5
India,Bihar,Manguraha,"Forest Rest House, Manguraha - BSPCB",08-04-2024 09:00:00,27.308328,84.531742,PM2.5,NA,NA,NA
India,Bihar,Motihari,"Gandak Colony, Motihari - BSPCB",08-04-2024 09:00:00,26.63086,84.90051,NO2,NA,NA,NA
India,Bihar,Motihari,"Gandak Colony, Motihari - BSPCB",08-04-2024 09:00:00,26.63086,84.90051,SO2,NA,NA,NA
India,Bihar,Motihari,"Gandak Colony, Motihari - BSPCB",08-04-2024 09:00:00,26.63086,84.90051,CO,NA,NA,NA
India,Bihar,Munger,"Town Hall, Munger - BSPCB",08-04-2024 09:00:00,25.376776,86.471523,PM2.5,35,143,71
India,Bihar,Munger,"Town Hall, Munger - BSPCB",08-04-2024 09:00:00,25.376776,86.471523,NO2,7,10,9
India,Bihar,Munger,"Town Hall, Munger - BSPCB",08-04-2024 09:00:00,25.376776,86.471523,CO,1,15,4
India,Bihar,Muzaffarpur,"Buddha Colony, Muzaffarpur - BSPCB",08-04-2024 09:00:00,26.11442,85.39813,NH3,5,8,6
India,Bihar,Muzaffarpur,"MIT-Daudpur Kothi, Muzaffarpur - BSPCB",08-04-2024 09:00:00,26.1403345,85.3650192,OZONE,NA,NA,NA
India,Bihar,Patna,"Govt. High School Shikarpur, Patna - BSPCB",08-04-2024 09:00:00,25.592539,85.227158,SO2,10,11,10
India,Bihar,Patna,"IGSC Planetarium Complex, Patna - BSPCB",08-04-2024 09:00:00,25.610369,85.132568,PM2.5,42,149,72
India,Bihar,Patna,"IGSC Planetarium Complex, Patna - BSPCB",08-04-2024 09:00:00,25.610369,85.132568,OZONE,31,54,52
India,Bihar,Patna,"Muradpur, Patna - BSPCB",08-04-2024 09:00:00,25.619651,85.147382,NO2,9,17,14
India,Bihar,Patna,"Muradpur, Patna - BSPCB",08-04-2024 09:00:00,25.619651,85.147382,SO2,10,28,14
India,Bihar,Patna,"Muradpur, Patna - BSPCB",08-04-2024 09:00:00,25.619651,85.147382,OZONE,5,82,12
India,Bihar,Patna,"Rajbansi Nagar, Patna - BSPCB",08-04-2024 09:00:00,25.599486,85.113666,PM2.5,71,249,135
India,Bihar,Patna,"Rajbansi Nagar, Patna - BSPCB",08-04-2024 09:00:00,25.599486,85.113666,NH3,5,8,6
India,Bihar,Patna,"Rajbansi Nagar, Patna - BSPCB",08-04-2024 09:00:00,25.599486,85.113666,SO2,8,43,16
India,Bihar,Purnia,"Mariam Nagar, Purnia - BSPCB",08-04-2024 09:00:00,25.366336,87.117468,SO2,7,16,11
India,Bihar,Rajgir,"Dangi Tola, Rajgir - BSPCB",08-04-2024 09:00:00,25.03280,85.41948,OZONE,32,36,34
India,Bihar,Saharsa,"Police Line, Saharsa - BSPCB",08-04-2024 09:00:00,25.892357,86.590325,PM10,68,165,115
India,Bihar,Samastipur,"DM Office_Kasipur, Samastipur - BSPCB",08-04-2024 09:00:00,25.859655,85.77944,PM10,NA,NA,NA
India,Bihar,Sasaram,"Dada Peer, Sasaram - BSPCB",08-04-2024 09:00:00,24.952822,84.002396,OZONE,6,93,25
India,Bihar,Siwan,"Chitragupta Nagar, Siwan - BSPCB",08-04-2024 09:00:00,26.2271665,84.3570427,NH3,1,11,3
India,Chandigarh,Chandigarh,"Sector 22, Chandigarh - CPCC",08-04-2024 09:00:00,30.735567,76.775714,SO2,6,61,14
India,Chandigarh,Chandigarh,"Sector-25, Chandigarh - CPCC",08-04-2024 09:00:00,30.751462,76.762879,PM2.5,76,147,94
India,Chandigarh,Chandigarh,"Sector-25, Chandigarh - CPCC",08-04-2024 09:00:00,30.751462,76.762879,SO2,8,28,13
India,Chandigarh,Chandigarh,"Sector-53, Chandigarh - CPCC",08-04-2024 09:00:00,30.719859,76.738637,SO2,9,54,17
India,Chhattisgarh,Bhilai,"Civic Center, Bhilai - Bhilai Steel Plant",08-04-2024 09:00:00,21.185571,81.343175,NH3,5,5,5
India,Chhattisgarh,Bilaspur,"Mangala, Bilaspur - NTPC",08-04-2024 09:00:00,22.08815,82.13737,SO2,16,24,20
India,Chhattisgarh,Chhal,"Nawapara SECL Colony, Chhal - CECB",08-04-2024 09:00:00,22.118125,83.140608,SO2,5,39,17
India,Chhattisgarh,Chhal,"Nawapara SECL Colony, Chhal - CECB",08-04-2024 09:00:00,22.118125,83.140608,OZONE,NA,NA,NA
India,Chhattisgarh,Korba,"Rampur, Korba - CECB",08-04-2024 09:00:00,22.368195,82.746431,PM10,18,403,73
India,Chhattisgarh,Korba,"Urja Nagar, Korba - CECB",08-04-2024 09:00:00,22.348441,82.549611,PM2.5,3,41,13
India,Chhattisgarh,Korba,"Urja Nagar, Korba - CECB",08-04-2024 09:00:00,22.348441,82.549611,PM10,11,81,37
India,Chhattisgarh,Kunjemura,"OP Jindal School, Kunjemura - CECB",08-04-2024 09:00:00,22.126650,83.483212,NO2,15,97,42
India,Chhattisgarh,Milupara,"Govt. Higher Secondary School, Milupara - CECB",08-04-2024 09:00:00,22.1910172,83.5197009,OZONE,3,4,3
India,Chhattisgarh,Raipur,"AIIMS, Raipur - CECB",08-04-2024 09:00:00,21.258815,81.578979,NO2,32,53,41
India,Chhattisgarh,Raipur,"Bhatagaon New ISBT, Raipur - CECB",08-04-2024 09:00:00,21.219665,81.630094,NH3,2,2,2
India,Chhattisgarh,Raipur,"Krishak Nagar, Raipur - CECB",08-04-2024 09:00:00,21.237755,81.705301,PM2.5,16,68,34
India,Chhattisgarh,Raipur,"Krishak Nagar, Raipur - CECB",08-04-2024 09:00:00,21.237755,81.705301,OZONE,3,13,4
India,Chhattisgarh,Tumidih,"OP Jindal Industrial Park, Tumidih - CECB",08-04-2024 09:00:00,22.06631475,83.33820077,PM2.5,NA,NA,NA
India,Chhattisgarh,Tumidih,"OP Jindal Industrial Park, Tumidih - CECB",08-04-2024 09:00:00,22.06631475,83.33820077,NO2,NA,NA,NA
India,Chhattisgarh,Tumidih,"OP Jindal Industrial Park, Tumidih - CECB",08-04-2024 09:00:00,22.06631475,83.33820077,NH3,NA,NA,NA
India,Delhi,Delhi,"Alipur, Delhi - DPCC",08-04-2024 09:00:00,28.815329,77.153010,PM2.5,20,424,194
India,Delhi,Delhi,"Alipur, Delhi - DPCC",08-04-2024 09:00:00,28.815329,77.153010,SO2,9,104,31
India,Delhi,Delhi,"Anand Vihar, Delhi - DPCC",08-04-2024 09:00:00,28.647622,77.3158090,PM10,105,420,251
India,Delhi,Delhi,"Ashok Vihar, Delhi - DPCC",08-04-2024 09:00:00,28.695381,77.181665,NH3,1,10,5
India,Delhi,Delhi,"Aya Nagar, Delhi - IMD",08-04-2024 09:00:00,28.4706914,77.1099364,PM2.5,55,320,144
India,Delhi,Delhi,"Bawana, Delhi - DPCC",08-04-2024 09:00:00,28.776200,77.051074,NO2,12,98,47
India,Delhi,Delhi,"Bawana, Delhi - DPCC",08-04-2024 09:00:00,28.776200,77.051074,SO2,7,118,38
India,Delhi,Delhi,"CRRI Mathura Road, Delhi - IMD",08-04-2024 09:00:00,28.5512005,77.2735737,NO2,16,53,31
India,Delhi,Delhi,"CRRI Mathura Road, Delhi - IMD",08-04-2024 09:00:00,28.5512005,77.2735737,CO,21,113,108
India,Delhi,Delhi,"IGI Airport (T3), Delhi - IMD",08-04-2024 09:00:00,28.5627763,77.1180053,NO2,25,84,54
India,Delhi,Delhi,"IHBAS, Dilshad Garden, Delhi - CPCB",08-04-2024 09:00:00,28.6811736,77.3025234,PM10,84,178,136
India,Delhi,Delhi,"IHBAS, Dilshad Garden, Delhi - CPCB",08-04-2024 09:00:00,28.6811736,77.3025234,OZONE,6,60,10
India,Delhi,Delhi,"ITO, Delhi - CPCB",08-04-2024 09:00:00,28.628624,77.241060,NO2,17,168,71
India,Delhi,Delhi,"ITO, Delhi - CPCB",08-04-2024 09:00:00,28.628624,77.241060,NH3,2,12,6
India,Delhi,Delhi,"ITO, Delhi - CPCB",08-04-2024 09:00:00,28.628624,77.241060,SO2,6,37,17
India,Delhi,Delhi,"ITO, Delhi - CPCB",08-04-2024 09:00:00,28.628624,77.241060,CO,22,112,66
India,Delhi,Delhi,"Jahangirpuri, Delhi - DPCC",08-04-2024 09:00:00,28.732820,77.170633,CO,36,115,84
India,Delhi,Delhi,"Jawaharlal Nehru Stadium, Delhi - DPCC",08-04-2024 09:00:00,28.580280,77.233829,CO,15,109,83
India,Delhi,Delhi,"Lodhi Road, Delhi - IITM",08-04-2024 09:00:00,28.588333,77.221667,PM2.5,62,402,242
India,Delhi,Delhi,"Lodhi Road, Delhi - IMD",08-04-2024 09:00:00,28.5918245,77.2273074,PM10,54,223,109
India,Delhi,Delhi,"Lodhi Road, Delhi - IMD",08-04-2024 09:00:00,28.5918245,77.2273074,NO2,3,5,4
India,Delhi,Delhi,"Major Dhyan Chand National Stadium, Delhi - DPCC",08-04-2024 09:00:00,28.611281,77.237738,PM2.5,22,367,118
India,Delhi,Delhi,"Major Dhyan Chand National Stadium, Delhi - DPCC",08-04-2024 09:00:00,28.611281,77.237738,PM10,43,296,114
India,Delhi,Delhi,"Major Dhyan Chand National Stadium, Delhi - DPCC",08-04-2024 09:00:00,28.611281,77.237738,NH3,4,9,6
India,Delhi,Delhi,"Major Dhyan Chand National Stadium, Delhi - DPCC",08-04-2024 09:00:00,28.611281,77.237738,OZONE,2,182,7
India,Delhi,Delhi,"Mundka, Delhi - DPCC",08-04-2024 09:00:00,28.684678,77.076574,SO2,7,129,66
India,Delhi,Delhi,"NSIT Dwarka, Delhi - CPCB",08-04-2024 09:00:00,28.60909,77.0325413,NH3,6,15,9
India,Delhi,Delhi,"NSIT Dwarka, Delhi - CPCB",08-04-2024 09:00:00,28.60909,77.0325413,CO,26,76,47
India,Delhi,Delhi,"Najafgarh, Delhi - DPCC",08-04-2024 09:00:00,28.570173,76.933762,PM10,41,194,119
India,Delhi,Delhi,"Narela, Delhi - DPCC",08-04-2024 09:00:00,28.822836,77.101981,NO2,10,85,41
India,Delhi,Delhi,"Nehru Nagar, Delhi - DPCC",08-04-2024 09:00:00,28.567890,77.250515,PM2.5,21,347,134
India,Delhi,Delhi,"Nehru Nagar, Delhi - DPCC",08-04-2024 09:00:00,28.567890,77.250515,CO,52,70,58
India,Delhi,Delhi,"Okhla Phase-2, Delhi - DPCC",08-04-2024 09:00:00,28.530785,77.271255,CO,80,126,112
India,Delhi,Delhi,"Patparganj, Delhi - DPCC",08-04-2024 09:00:00,28.623763,77.287209,OZONE,4,129,10
India,Delhi,Delhi,"Punjabi Bagh, Delhi - DPCC",08-04-2024 09:00:00,28.674045,77.131023,PM2.5,23,392,172
India,Delhi,Delhi,"Punjabi Bagh, Delhi - DPCC",08-04-2024 09:00:00,28.674045,77.131023,NO2,42,97,68
India,Delhi,Delhi,"Pusa, Delhi - IMD",08-04-2024 09:00:00,28.636110,77.173332,PM10,91,322,165
India,Delhi,Delhi,"Pusa, Delhi - IMD",08-04-2024 09:00:00,28.636110,77.173332,NO2,13,38,25
India,Delhi,Delhi,"R K Puram, Delhi - DPCC",08-04-2024 09:00:00,28.563262,77.186937,NH3,4,6,5
India,Delhi,Delhi,"R K Puram, Delhi - DPCC",08-04-2024 09:00:00,28.563262,77.186937,OZONE,8,8,8
India,Delhi,Delhi,"Rohini, Delhi - DPCC",08-04-2024 09:00:00,28.732528,77.119920,PM10,61,481,252
India,Delhi,Delhi,"Rohini, Delhi - DPCC",08-04-2024 09:00:00,28.732528,77.119920,CO,11,114,71
India,Delhi,Delhi,"Shadipur, Delhi - CPCB",08-04-2024 09:00:00,28.6514781,77.1473105,NH3,NA,NA,NA
India,Delhi,Delhi,"Shadipur, Delhi - CPCB",08-04-2024 09:00:00,28.6514781,77.1473105,OZONE,18,60,26
India,Delhi,Delhi,"Sirifort, Delhi - CPCB",08-04-2024 09:00:00,28.5504249,77.2159377,CO,8,105,84
India,Delhi,Delhi,"Sonia Vihar, Delhi - DPCC",08-04-2024 09:00:00,28.710508,77.249485,NH3,4,6,5
India,Delhi,Delhi,"Sonia Vihar, Delhi - DPCC",08-04-2024 09:00:00,28.710508,77.249485,SO2,8,72,23
India,Delhi,Delhi,"Sonia Vihar, Delhi - DPCC",08-04-2024 09:00:00,28.710508,77.249485,CO,48,104,96
India,Delhi,Delhi,"Sri Aurobindo Marg, Delhi - DPCC",08-04-2024 09:00:00,28.531346,77.190156,PM2.5,22,365,102
India,Delhi,Delhi,"Vivek Vihar, Delhi - DPCC",08-04-2024 09:00:00,28.672342,77.315260,OZONE,5,94,16
India,Delhi,Delhi,"Wazirpur, Delhi - DPCC",08-04-2024 09:00:00,28.699793,77.165453,NH3,8,10,9
India,Delhi,Delhi,"Wazirpur, Delhi - DPCC",08-04-2024 09:00:00,28.699793,77.165453,OZONE,4,98,29
India,Gujarat,Ahmedabad,"Chandkheda, Ahmedabad - IITM",08-04-2024 09:00:00,23.107969,72.574648,NH3,5,6,5
India,Gujarat,Ahmedabad,"Chandkheda, Ahmedabad - IITM",08-04-2024 09:00:00,23.107969,72.574648,OZONE,4,50,14
India,Gujarat,Ahmedabad,"Maninagar, Ahmedabad - GPCB",08-04-2024 09:00:00,23.002657,72.591912,CO,24,99,43
India,Gujarat,Ahmedabad,"Raikhad, Ahmedabad - IITM",08-04-2024 09:00:00,23.020509,72.579261,PM2.5,78,298,160
India,Gujarat,Ahmedabad,"SAC ISRO Satellite, Ahmedabad - IITM",08-04-2024 09:00:00,23.023389,72.515201,NO2,17,17,17
India,Gujarat,Ahmedabad,"SAC ISRO Satellite, Ahmedabad - IITM",08-04-2024 09:00:00,23.023389,72.515201,CO,27,44,30
India,Gujarat,Ahmedabad,"SVPI Airport Hansol, Ahmedabad - IITM",08-04-2024 09:00:00,23.076793,72.627874,CO,12,101,22
India,Gujarat,Ahmedabad,"Sardar Vallabhbhai Patel Stadium, Ahmedabad - IITM",08-04-2024 09:00:00,23.043070,72.562968,PM2.5,42,130,76
India,Gujarat,Ankleshwar,"GIDC, Ankleshwar - GPCB",08-04-2024 09:00:00,21.613267,73.010555,NH3,6,6,6
India,Gujarat,Gandhinagar,"IIPHG Lekawada, Gandhinagar - IITM",08-04-2024 09:00:00,23.243639,72.68994,PM10,NA,NA,NA
India,Gujarat,Gandhinagar,"Sector-10, Gandhinagar - GPCB",08-04-2024 09:00:00,23.221714,72.654328,PM2.5,15,68,40
India,Gujarat,Nandesari,"GIDC, Nandesari - Nandesari Ind. Association",08-04-2024 09:00:00,22.410802,73.097923,PM2.5,50,335,180
India,Gujarat,Nandesari,"GIDC, Nandesari - Nandesari Ind. Association",08-04-2024 09:00:00,22.410802,73.097923,SO2,2,15,10
India,Gujarat,Surat,"Science Center, Surat - SMC",08-04-2024 09:00:00,21.170046,72.795405,PM10,NA,NA,NA
India,Gujarat,Surat,"Science Center, Surat - SMC",08-04-2024 09:00:00,21.170046,72.795405,NO2,35,59,49
India,Gujarat,Vapi,"Phase-1 GIDC, Vapi - GPCB",08-04-2024 09:00:00,20.362421,72.918013,PM2.5,35,99,53
India,Gujarat,Vapi,"Phase-1 GIDC, Vapi - GPCB",08-04-2024 09:00:00,20.362421,72.918013,SO2,51,53,52
India,Gujarat,Vatva,"Phase-4 GIDC, Vatva - GPCB",08-04-2024 09:00:00,22.969611,72.643500,PM2.5,28,119,54
India,Haryana,Ambala,"Patti Mehar, Ambala - HSPCB",08-04-2024 09:00:00,30.379589,76.778328,PM2.5,23,73,44
India,Haryana,Ambala,"Patti Mehar, Ambala - HSPCB",08-04-2024 09:00:00,30.379589,76.778328,PM10,31,183,73
India,Haryana,Ambala,"Patti Mehar, Ambala - HSPCB",08-04-2024 09:00:00,30.379589,76.778328,NO2,7,20,14
India,Haryana,Ambala,"Patti Mehar, Ambala - HSPCB",08-04-2024 09:00:00,30.379589,76.778328,CO,30,60,51
India,Haryana,Ambala,"Patti Mehar, Ambala - HSPCB",08-04-2024 09:00:00,30.379589,76.778328,OZONE,31,54,38
India,Haryana,Bahadurgarh,"Arya Nagar, Bahadurgarh - HSPCB",08-04-2024 09:00:00,28.6701,76.9254,PM2.5,25,277,118
India,Haryana,Bahadurgarh,"Arya Nagar, Bahadurgarh - HSPCB",08-04-2024 09:00:00,28.6701,76.9254,PM10,65,252,138
India,Haryana,Bahadurgarh,"Arya Nagar, Bahadurgarh - HSPCB",08-04-2024 09:00:00,28.6701,76.9254,NH3,10,12,11
India,Haryana,Ballabgarh,"Nathu Colony, Ballabgarh - HSPCB",08-04-2024 09:00:00,28.3419248,77.319699,PM10,94,429,180
India,Haryana,Ballabgarh,"Nathu Colony, Ballabgarh - HSPCB",08-04-2024 09:00:00,28.3419248,77.319699,NO2,12,13,12
India,Haryana,Ballabgarh,"Nathu Colony, Ballabgarh - HSPCB",08-04-2024 09:00:00,28.3419248,77.319699,SO2,8,69,26
India,Haryana,Charkhi Dadri,"Mini Secretariat, Charkhi Dadri - HSPCB",08-04-2024 09:00:00,28.593883,76.270653,NO2,14,21,18
India,Haryana,Dharuhera,"Municipal Corporation Office, Dharuhera -  HSPCB",08-04-2024 09:00:00,28.206800,76.799700,PM2.5,19,282,127
India,Haryana,Dharuhera,"Municipal Corporation Office, Dharuhera -  HSPCB",08-04-2024 09:00:00,28.206800,76.799700,NO2,45,111,72
India,Haryana,Dharuhera,"Municipal Corporation Office, Dharuhera -  HSPCB",08-04-2024 09:00:00,28.206800,76.799700,CO,7,57,39
India,Haryana,Faridabad,"New Industrial Town, Faridabad - HSPCB",08-04-2024 09:00:00,28.39072,77.30059,PM10,102,411,175
India,Haryana,Faridabad,"Sector 11, Faridabad - HSPCB",08-04-2024 09:00:00,28.376058,77.315741,PM10,NA,NA,NA
India,Haryana,Faridabad,"Sector 11, Faridabad - HSPCB",08-04-2024 09:00:00,28.376058,77.315741,OZONE,3,21,4
India,Haryana,Gurugram,"Sector-51, Gurugram - HSPCB",08-04-2024 09:00:00,28.4227,77.0667,SO2,2,5,3
India,Haryana,Gurugram,"Sector-51, Gurugram - HSPCB",08-04-2024 09:00:00,28.4227,77.0667,CO,27,103,78
India,Haryana,Gurugram,"Teri Gram, Gurugram - HSPCB",08-04-2024 09:00:00,28.4275,77.1465,PM2.5,84,365,165
India,Haryana,Gurugram,"Teri Gram, Gurugram - HSPCB",08-04-2024 09:00:00,28.4275,77.1465,PM10,128,418,216
India,Haryana,Gurugram,"Teri Gram, Gurugram - HSPCB",08-04-2024 09:00:00,28.4275,77.1465,NH3,50,90,64
India,Haryana,Gurugram,"Teri Gram, Gurugram - HSPCB",08-04-2024 09:00:00,28.4275,77.1465,SO2,3,6,4
India,Haryana,Gurugram,"Vikas Sadan, Gurugram - HSPCB",08-04-2024 09:00:00,28.4501238,77.0263051,CO,54,150,99
India,Haryana,Hisar,"Urban Estate-II, Hisar - HSPCB",08-04-2024 09:00:00,29.140560,75.744941,NO2,16,26,23
India,Haryana,Hisar,"Urban Estate-II, Hisar - HSPCB",08-04-2024 09:00:00,29.140560,75.744941,NH3,5,10,9
India,Haryana,Jind,"Police Lines, Jind - HSPCB",08-04-2024 09:00:00,29.307814,76.337619,PM2.5,26,126,52
India,Haryana,Jind,"Police Lines, Jind - HSPCB",08-04-2024 09:00:00,29.307814,76.337619,PM10,43,121,67
India,Haryana,Kaithal,"Rishi Nagar, Kaithal - HSPCB",08-04-2024 09:00:00,29.8006,76.4155,PM10,41,114,68
India,Haryana,Karnal,"Sector-12, Karnal - HSPCB",08-04-2024 09:00:00,29.695300,77.002700,PM2.5,17,31,24
India,Haryana,Karnal,"Sector-12, Karnal - HSPCB",08-04-2024 09:00:00,29.695300,77.002700,SO2,12,13,13
India,Haryana,Kurukshetra,"Sector-7, Kurukshetra - HSPCB",08-04-2024 09:00:00,29.966942,76.875879,NO2,10,11,10
India,Haryana,Kurukshetra,"Sector-7, Kurukshetra - HSPCB",08-04-2024 09:00:00,29.966942,76.875879,OZONE,15,99,30
India,Haryana,Mandikhera,"General Hospital, Mandikhera - HSPCB",08-04-2024 09:00:00,27.9002,76.9938,NH3,16,19,18
India,Haryana,Narnaul,"Shastri Nagar, Narnaul - HSPCB",08-04-2024 09:00:00,28.060249,76.113115,SO2,13,13,13
India,Haryana,Palwal,"Shyam Nagar, Palwal - HSPCB",08-04-2024 09:00:00,28.1485564,77.3320667,PM10,48,120,86
India,Haryana,Palwal,"Shyam Nagar, Palwal - HSPCB",08-04-2024 09:00:00,28.1485564,77.3320667,OZONE,11,73,18
India,Haryana,Panchkula,"Sector-6, Panchkula - HSPCB ",08-04-2024 09:00:00,30.7057778,76.8531805555555,SO2,2,8,3
India,Haryana,Panipat,"Sector-18, Panipat - HSPCB",08-04-2024 09:00:00,29.497973,76.993331,SO2,18,19,19
India,Haryana,Rohtak,"MD University, Rohtak - HSPCB",08-04-2024 09:00:00,28.52123,76.37138,NO2,47,56,51
India,Haryana,Sirsa,"F-Block, Sirsa - HSPCB",08-04-2024 09:00:00,29.536400,75.015800,NO2,9,10,10
India,Haryana,Sirsa,"F-Block, Sirsa - HSPCB",08-04-2024 09:00:00,29.536400,75.015800,CO,25,54,39
India,Haryana,Sonipat,"Murthal, Sonipat - HSPCB",08-04-2024 09:00:00,29.027200,77.062100,CO,2,62,20
India,Haryana,Yamuna Nagar,"Gobind Pura, Yamuna Nagar - HSPCB",08-04-2024 09:00:00,30.1480566,77.2893471,PM2.5,41,137,65
India,Jharkhand,Dhanbad,"Kalakusuma, Dhanbad - DMC",08-04-2024 09:00:00,23.811548,86.481238,PM2.5,78,102,86
India,Jharkhand,Dhanbad,"Kalakusuma, Dhanbad - DMC",08-04-2024 09:00:00,23.811548,86.481238,OZONE,22,22,22
India,Karnataka,Bagalkot,"Vidayagiri, Bagalkot - KSPCB",08-04-2024 09:00:00,16.172806,75.659694,PM10,49,50,50
India,Karnataka,Bagalkot,"Vidayagiri, Bagalkot - KSPCB",08-04-2024 09:00:00,16.172806,75.659694,NO2,9,10,9
India,Karnataka,Bagalkot,"Vidayagiri, Bagalkot - KSPCB",08-04-2024 09:00:00,16.172806,75.659694,CO,19,57,35
India,Karnataka,Belgaum,"Ramteerth Nagar, Belgaum - KSPCB",08-04-2024 09:00:00,15.888653,74.541751,SO2,9,10,9
India,Karnataka,Belgaum,"Ramteerth Nagar, Belgaum - KSPCB",08-04-2024 09:00:00,15.888653,74.541751,OZONE,19,20,19
India,Karnataka,Bengaluru,"BTM Layout, Bengaluru - CPCB",08-04-2024 09:00:00,12.9135218,77.5950804,NH3,4,4,4
India,Karnataka,Bengaluru,"Hebbal, Bengaluru - KSPCB",08-04-2024 09:00:00,13.029152,77.585901,PM2.5,NA,NA,NA
India,Karnataka,Bengaluru,"Hombegowda Nagar, Bengaluru - KSPCB",08-04-2024 09:00:00,12.938539,77.590100,OZONE,4,5,4
India,Karnataka,Bengaluru,"Jigani, Bengaluru - KSPCB",08-04-2024 09:00:00,12.7816279,77.6299145,PM2.5,11,305,63
India,Karnataka,Bengaluru,"RVCE-Mailasandra, Bengaluru - KSPCB",08-04-2024 09:00:00,12.921418,77.502466,PM2.5,25,158,92
India,Karnataka,Bengaluru,"RVCE-Mailasandra, Bengaluru - KSPCB",08-04-2024 09:00:00,12.921418,77.502466,OZONE,39,39,39
India,Karnataka,Bengaluru,"Silk Board, Bengaluru - KSPCB",08-04-2024 09:00:00,12.917348,77.622813,SO2,3,16,8
India,Karnataka,Chamarajanagar,"Urban, Chamarajanagar - KSPCB",08-04-2024 09:00:00,11.55358,76.55521,PM10,34,56,45
India,Karnataka,Chamarajanagar,"Urban, Chamarajanagar - KSPCB",08-04-2024 09:00:00,11.55358,76.55521,SO2,2,8,5
India,Karnataka,Chikkaballapur,"Chikkaballapur Rural, Chikkaballapur - KSPCB",08-04-2024 09:00:00,13.428828,77.731418,PM2.5,45,89,63
India,Karnataka,Chikkaballapur,"Chikkaballapur Rural, Chikkaballapur - KSPCB",08-04-2024 09:00:00,13.428828,77.731418,PM10,52,116,77
India,Karnataka,Chikkaballapur,"Chikkaballapur Rural, Chikkaballapur - KSPCB",08-04-2024 09:00:00,13.428828,77.731418,NH3,1,1,1
India,Karnataka,Chikkaballapur,"Chikkaballapur Rural, Chikkaballapur - KSPCB",08-04-2024 09:00:00,13.428828,77.731418,CO,10,52,21
India,Karnataka,Chikkamagaluru,"Kalyana Nagara, Chikkamagaluru - KSPCB",08-04-2024 09:00:00,13.328028,75.797056,NO2,14,34,20
India,Karnataka,Chikkamagaluru,"Kalyana Nagara, Chikkamagaluru - KSPCB",08-04-2024 09:00:00,13.328028,75.797056,SO2,1,6,2
India,Karnataka,Davanagere,"Devaraj Urs Badavane, Davanagere - KSPCB",08-04-2024 09:00:00,14.475800,75.905200,SO2,3,7,5
India,Karnataka,Gadag,"Panchal Nagar, Gadag - KSPCB",08-04-2024 09:00:00,15.411456,75.638133,NO2,5,23,13
India,Karnataka,Haveri,"Ashwini Nagar, Haveri - KSPCB",08-04-2024 09:00:00,14.791800,75.389600,NH3,3,3,3
India,Karnataka,Haveri,"Ashwini Nagar, Haveri - KSPCB",08-04-2024 09:00:00,14.791800,75.389600,OZONE,18,21,19
India,Karnataka,Hubballi,"Lingaraj Nagar, Hubballi - KSPCB",08-04-2024 09:00:00,15.3714823,75.1160168,CO,16,48,28
India,Karnataka,Kalaburagi,"Mahatma Basaveswar Colony, Kalaburgi - KSPCB",08-04-2024 09:00:00,17.336318,76.847397,NH3,NA,NA,NA
India,Karnataka,Karwar,"KHB Colony, Karwar - KSPCB",08-04-2024 09:00:00,14.816666,74.141003,PM2.5,42,83,56
India,Karnataka,Karwar,"KHB Colony, Karwar - KSPCB",08-04-2024 09:00:00,14.816666,74.141003,SO2,18,20,19
India,Karnataka,Karwar,"KHB Colony, Karwar - KSPCB",08-04-2024 09:00:00,14.816666,74.141003,OZONE,21,22,21
India,Karnataka,Koppal,"Diwator Nagar, Koppal - KSPCB",08-04-2024 09:00:00,15.347630,76.181767,NH3,NA,NA,NA
India,Karnataka,Madikeri,"Stuart Hill, Madikeri - KSPCB",08-04-2024 09:00:00,12.415911,75.735050,NH3,1,1,1
India,Karnataka,Madikeri,"Stuart Hill, Madikeri - KSPCB",08-04-2024 09:00:00,12.415911,75.735050,OZONE,28,41,34
India,Karnataka,Mysuru,"Hebbal 1st Stage, Mysuru - KSPCB",08-04-2024 09:00:00,12.21041,76.37376,SO2,NA,NA,NA
India,Karnataka,Raichur,"Haji Colony, Raichur - KSPCB",08-04-2024 09:00:00,16.208139,77.348417,NO2,27,65,42
India,Karnataka,Raichur,"Haji Colony, Raichur - KSPCB",08-04-2024 09:00:00,16.208139,77.348417,NH3,NA,NA,NA
India,Karnataka,Raichur,"Haji Colony, Raichur - KSPCB",08-04-2024 09:00:00,16.208139,77.348417,OZONE,3,23,7
India,Karnataka,Shivamogga,"Vinoba Nagara, Shivamogga - KSPCB",08-04-2024 09:00:00,13.940000,75.555917,NO2,11,15,13
India,Karnataka,Shivamogga,"Vinoba Nagara, Shivamogga - KSPCB",08-04-2024 09:00:00,13.940000,75.555917,CO,10,48,23
India,Karnataka,Tumakuru,"Thimmalapura, Tumakuru - KSPCB",08-04-2024 09:00:00,13.377516,77.099072,PM10,12,74,31
India,Karnataka,Tumakuru,"Thimmalapura, Tumakuru - KSPCB",08-04-2024 09:00:00,13.377516,77.099072,CO,29,34,32
India,Karnataka,Vijayapura,"Ibrahimpur, Vijayapura - KSPCB",08-04-2024 09:00:00,16.802639,75.722694,SO2,NA,NA,NA
India,Karnataka,Yadgir,"Collector Office, Yadgir - KSPCB",08-04-2024 09:00:00,16.7602,77.1428,NO2,NA,NA,NA
India,Karnataka,Yadgir,"Collector Office, Yadgir - KSPCB",08-04-2024 09:00:00,16.7602,77.1428,SO2,NA,NA,NA
India,Kerala,Kollam,"Polayathode, Kollam - Kerala PCB",08-04-2024 09:00:00,8.8787,76.6073,PM2.5,57,177,87
India,Kerala,Kollam,"Polayathode, Kollam - Kerala PCB",08-04-2024 09:00:00,8.8787,76.6073,CO,10,27,24
India,Kerala,Thiruvananthapuram,"Kariavattom, Thiruvananthapuram - Kerala PCB",08-04-2024 09:00:00,8.563700,76.886500,CO,18,42,20
India,Kerala,Thiruvananthapuram,"Plammoodu, Thiruvananthapuram - Kerala PCB",08-04-2024 09:00:00,8.5149093,76.9435879,NH3,1,1,1
India,Madhya Pradesh,Bhopal,"Idgah Hills, Bhopal - MPPCB",08-04-2024 09:00:00,23.264759,77.381568,PM2.5,37,100,55
India,Madhya Pradesh,Bhopal,"Paryavaran Parisar, Bhopal - MPPCB",08-04-2024 09:00:00,23.210494,77.425409,PM2.5,35,193,70
India,Madhya Pradesh,Bhopal,"Paryavaran Parisar, Bhopal - MPPCB",08-04-2024 09:00:00,23.210494,77.425409,PM10,62,147,94
India,Madhya Pradesh,Bhopal,"Paryavaran Parisar, Bhopal - MPPCB",08-04-2024 09:00:00,23.210494,77.425409,NO2,14,110,35
India,Madhya Pradesh,Bhopal,"T T Nagar, Bhopal - MPPCB",08-04-2024 09:00:00,23.233584,77.400574,PM10,57,185,109
India,Madhya Pradesh,Dewas,"Bhopal Chauraha, Dewas - MPPCB",08-04-2024 09:00:00,22.9682591,76.064118,SO2,17,43,27
India,Madhya Pradesh,Dewas,"Bhopal Chauraha, Dewas - MPPCB",08-04-2024 09:00:00,22.9682591,76.064118,OZONE,19,94,28
India,Madhya Pradesh,Gwalior,"City Center, Gwalior - MPPCB",08-04-2024 09:00:00,26.203442,78.193251,PM10,34,152,99
India,Madhya Pradesh,Gwalior,"Maharaj Bada, Gwalior - MPPCB",08-04-2024 09:00:00,26.200388,78.147714,PM10,22,238,120
India,Madhya Pradesh,Indore,"Chhoti Gwaltoli, Indore - MPPCB",08-04-2024 09:00:00,22.4310,75.5213,PM10,109,297,175
India,Madhya Pradesh,Indore,"Regional Park, Indore - IMC",08-04-2024 09:00:00,22.6780,75.8559,PM2.5,51,233,112
India,Madhya Pradesh,Indore,"Residency Area, Indore - IMC",08-04-2024 09:00:00,22.7084,75.8815,CO,14,26,22
India,Madhya Pradesh,Jabalpur,"Gupteshwar, Jabalpur - JMC",08-04-2024 09:00:00,23.142888,79.916147,NO2,19,38,24
India,Madhya Pradesh,Jabalpur,"Suhagi, Jabalpur - JMC",08-04-2024 09:00:00,23.218135,79.957770,NH3,4,4,4
India,Madhya Pradesh,Katni,"Gole Bazar, Katni - MPPCB",08-04-2024 09:00:00,23.50016,80.23284,NO2,31,83,48
India,Madhya Pradesh,Katni,"Gole Bazar, Katni - MPPCB",08-04-2024 09:00:00,23.50016,80.23284,NH3,7,10,8
India,Madhya Pradesh,Katni,"Gole Bazar, Katni - MPPCB",08-04-2024 09:00:00,23.50016,80.23284,CO,46,122,73
India,Madhya Pradesh,Mandideep,"Sector-D Industrial Area, Mandideep - MPPCB",08-04-2024 09:00:00,23.108440,77.511428,PM2.5,52,282,135
India,Madhya Pradesh,Pithampur,"Sector-2 Industrial Area, Pithampur - MPPCB",08-04-2024 09:00:00,22.624758,75.675238,CO,22,52,30
India,Madhya Pradesh,Ratlam,"Shasthri Nagar, Ratlam - IPCA Lab",08-04-2024 09:00:00,23.331731,75.045981,PM2.5,26,276,72
India,Madhya Pradesh,Ratlam,"Shasthri Nagar, Ratlam - IPCA Lab",08-04-2024 09:00:00,23.331731,75.045981,NO2,11,76,32
India,Madhya Pradesh,Sagar,"Civil Lines, Sagar - MPPCB",08-04-2024 09:00:00,23.838586,78.759431,OZONE,26,135,47
India,Madhya Pradesh,Satna,"Bandhavgar Colony, Satna - Birla Cement",08-04-2024 09:00:00,24.58434363,80.8549414,PM10,39,119,68
India,Madhya Pradesh,Ujjain,"Mahakaleshwar Temple, Ujjain - MPPCB",08-04-2024 09:00:00,23.182719 ,75.768218 ,CO,6,177,62
India,Maharashtra,Ahmednagar,"Tarakpur, Ahmednagar - MPCB",08-04-2024 09:00:00,19.10122,74.73339,CO,22,60,27
India,Maharashtra,Aurangabad,"MIDC Chilkalthana, Aurangabad - MPCB",08-04-2024 09:00:00,19.875620,75.387310,PM10,68,379,132
India,Maharashtra,Aurangabad,"MIDC Chilkalthana, Aurangabad - MPCB",08-04-2024 09:00:00,19.875620,75.387310,NH3,3,4,4
India,Maharashtra,Aurangabad,"MIDC Chilkalthana, Aurangabad - MPCB",08-04-2024 09:00:00,19.875620,75.387310,CO,17,89,46
India,Maharashtra,Aurangabad,"Rachnakar Colony, Aurangabad - MPCB",08-04-2024 09:00:00,19.863756,75.321188,PM2.5,42,154,77
India,Maharashtra,Aurangabad,"Rachnakar Colony, Aurangabad - MPCB",08-04-2024 09:00:00,19.863756,75.321188,OZONE,21,99,32
India,Maharashtra,Badlapur,"Katrap, Badlapur - MPCB",08-04-2024 09:00:00,19.16485,73.23409,CO,10,102,53
India,Maharashtra,Belapur,"CBD Belapur, Belapur - MPCB",08-04-2024 09:00:00,19.0243902,73.0406721,NO2,7,32,19
India,Maharashtra,Belapur,"CBD Belapur, Belapur - MPCB",08-04-2024 09:00:00,19.0243902,73.0406721,NH3,8,23,12
India,Maharashtra,Belapur,"CBD Belapur, Belapur - MPCB",08-04-2024 09:00:00,19.0243902,73.0406721,CO,15,38,24
India,Maharashtra,Chandrapur,"Chauhan Colony, Chandrapur - MPCB",08-04-2024 09:00:00,19.962900,79.298714,NH3,1,14,5
India,Maharashtra,Chandrapur,"Chauhan Colony, Chandrapur - MPCB",08-04-2024 09:00:00,19.962900,79.298714,SO2,3,35,12
India,Maharashtra,Chandrapur,"MIDC Khutala, Chandrapur - MPCB",08-04-2024 09:00:00,19.9775302,79.2337086,PM10,56,93,73
India,Maharashtra,Chandrapur,"MIDC Khutala, Chandrapur - MPCB",08-04-2024 09:00:00,19.9775302,79.2337086,NO2,30,73,46
India,Maharashtra,Chandrapur,"MIDC Khutala, Chandrapur - MPCB",08-04-2024 09:00:00,19.9775302,79.2337086,SO2,20,22,21
India,Maharashtra,Chandrapur,"MIDC Khutala, Chandrapur - MPCB",08-04-2024 09:00:00,19.9775302,79.2337086,OZONE,28,80,43
India,Maharashtra,Dhule,"Deopur, Dhule - MPCB",08-04-2024 09:00:00,20.918946,74.776388,PM2.5,86,182,123
India,Maharashtra,Dhule,"Deopur, Dhule - MPCB",08-04-2024 09:00:00,20.918946,74.776388,PM10,86,137,110
India,Maharashtra,Dhule,"Deopur, Dhule - MPCB",08-04-2024 09:00:00,20.918946,74.776388,NO2,5,27,10
India,Maharashtra,Dhule,"Deopur, Dhule - MPCB",08-04-2024 09:00:00,20.918946,74.776388,NH3,3,9,5
India,Maharashtra,Dhule,"Deopur, Dhule - MPCB",08-04-2024 09:00:00,20.918946,74.776388,OZONE,8,98,22
India,Maharashtra,Jalgaon,"Prabhat Colony, Jalgaon - MPCB",08-04-2024 09:00:00,21.001264,75.565602,CO,10,64,11
India,Maharashtra,Jalgaon,"Prabhat Colony, Jalgaon - MPCB",08-04-2024 09:00:00,21.001264,75.565602,OZONE,5,99,20
India,Maharashtra,Jalna,"Old MIDC, Jalna - MPCB",08-04-2024 09:00:00,19.854616,75.905894,NH3,6,8,7
India,Maharashtra,Kalyan,"Khadakpada, Kalyan - MPCB",08-04-2024 09:00:00,19.25292,73.142019,PM10,48,128,89
India,Maharashtra,Kalyan,"Khadakpada, Kalyan - MPCB",08-04-2024 09:00:00,19.25292,73.142019,NH3,1,1,1
India,Maharashtra,Kolhapur,"Shivaji University, Kolhapur - MPCB",08-04-2024 09:00:00,16.6870449,74.2505872,PM2.5,67,311,152
India,Maharashtra,Kolhapur,"Sinchan Bhavan, Kolhapur - MPCB",08-04-2024 09:00:00,16.7143745,74.2426398,PM2.5,56,151,82
India,Maharashtra,Latur,"Sawe Wadi, Latur - MPCB",08-04-2024 09:00:00,18.39963,76.57452,PM2.5,38,94,67
India,Maharashtra,Latur,"Sawe Wadi, Latur - MPCB",08-04-2024 09:00:00,18.39963,76.57452,SO2,8,28,13
India,Maharashtra,Latur,"Sawe Wadi, Latur - MPCB",08-04-2024 09:00:00,18.39963,76.57452,CO,2,31,25
India,Maharashtra,Latur,"Sawe Wadi, Latur - MPCB",08-04-2024 09:00:00,18.39963,76.57452,OZONE,29,71,34
India,Maharashtra,Mahad,"Kamble Tarf Birwadi, Mahad - MPCB",08-04-2024 09:00:00,18.1023399,73.4783687,NO2,23,405,81
India,Maharashtra,Mahad,"Kamble Tarf Birwadi, Mahad - MPCB",08-04-2024 09:00:00,18.1023399,73.4783687,OZONE,3,126,6
India,Maharashtra,Malegaon,"Mahesh Nagar, Malegaon - MPCB",08-04-2024 09:00:00,20.555712,74.529236,SO2,4,16,9
India,Maharashtra,Mira-Bhayandar,"Bhayandar West, Mira-Bhayandar - MPCB",08-04-2024 09:00:00,19.296481,72.840923,PM10,104,108,106
India,Maharashtra,Mira-Bhayandar,"Bhayandar West, Mira-Bhayandar - MPCB",08-04-2024 09:00:00,19.296481,72.840923,NH3,5,5,5
India,Maharashtra,Mira-Bhayandar,"Bhayandar West, Mira-Bhayandar - MPCB",08-04-2024 09:00:00,19.296481,72.840923,CO,40,40,40
India,Maharashtra,Mira-Bhayandar,"Bhayandar West, Mira-Bhayandar - MPCB",08-04-2024 09:00:00,19.296481,72.840923,OZONE,79,81,80
India,Maharashtra,Mumbai,"Borivali East, Mumbai - IITM",08-04-2024 09:00:00,19.23241,72.86895,OZONE,29,131,37
India,Maharashtra,Mumbai,"Borivali East, Mumbai - MPCB",08-04-2024 09:00:00,19.2243333,72.8658113,NH3,1,2,2
India,Maharashtra,Mumbai,"Borivali East, Mumbai - MPCB",08-04-2024 09:00:00,19.2243333,72.8658113,OZONE,14,15,15
India,Maharashtra,Mumbai,"Byculla, Mumbai - BMC",08-04-2024 09:00:00,18.9767,72.8380,PM10,25,58,40
India,Maharashtra,Mumbai,"Chakala-Andheri East, Mumbai - IITM",08-04-2024 09:00:00,19.11074,72.86084,NO2,53,98,72
India,Maharashtra,Mumbai,"Chhatrapati Shivaji Intl. Airport (T2), Mumbai - MPCB",08-04-2024 09:00:00,19.10078,72.87462,PM10,54,201,84
India,Maharashtra,Mumbai,"Colaba, Mumbai - MPCB",08-04-2024 09:00:00,18.910000,72.820000,PM10,44,105,65
India,Maharashtra,Mumbai,"Colaba, Mumbai - MPCB",08-04-2024 09:00:00,18.910000,72.820000,NH3,1,1,1
India,Maharashtra,Mumbai,"Ghatkopar, Mumbai - BMC",08-04-2024 09:00:00,19.083694,72.920967,CO,2,12,6
India,Maharashtra,Mumbai,"Ghatkopar, Mumbai - BMC",08-04-2024 09:00:00,19.083694,72.920967,OZONE,1,48,6
India,Maharashtra,Mumbai,"Kandivali West, Mumbai - BMC",08-04-2024 09:00:00,19.215859,72.831718,PM10,21,51,37
India,Maharashtra,Mumbai,"Kandivali West, Mumbai - BMC",08-04-2024 09:00:00,19.215859,72.831718,NO2,8,48,18
India,Maharashtra,Mumbai,"Kandivali West, Mumbai - BMC",08-04-2024 09:00:00,19.215859,72.831718,SO2,1,6,3
India,Maharashtra,Mumbai,"Khindipada-Bhandup West, Mumbai - IITM",08-04-2024 09:00:00,19.1653323,72.922099,PM2.5,27,76,45
India,Maharashtra,Mumbai,"Khindipada-Bhandup West, Mumbai - IITM",08-04-2024 09:00:00,19.1653323,72.922099,NH3,5,8,6
India,Maharashtra,Mumbai,"Khindipada-Bhandup West, Mumbai - IITM",08-04-2024 09:00:00,19.1653323,72.922099,CO,1,33,6
India,Maharashtra,Mumbai,"Kurla, Mumbai - MPCB",08-04-2024 09:00:00,19.0863,72.8888,PM2.5,16,92,44
India,Maharashtra,Mumbai,"Mindspace-Malad West, Mumbai - MPCB",08-04-2024 09:00:00,19.1878657,72.8304069,PM2.5,28,68,46
India,Maharashtra,Mumbai,"Mindspace-Malad West, Mumbai - MPCB",08-04-2024 09:00:00,19.1878657,72.8304069,OZONE,6,94,14
India,Maharashtra,Mumbai,"Mulund West, Mumbai - MPCB",08-04-2024 09:00:00,19.1750,72.9419,SO2,13,13,13
India,Maharashtra,Mumbai,"Mulund West, Mumbai - MPCB",08-04-2024 09:00:00,19.1750,72.9419,OZONE,7,7,7
India,Maharashtra,Mumbai,"Navy Nagar-Colaba, Mumbai - IITM",08-04-2024 09:00:00,18.897756,72.813320,SO2,1,8,4
India,Maharashtra,Mumbai,"Powai, Mumbai - MPCB",08-04-2024 09:00:00,19.137500,72.915056,PM2.5,16,51,34
India,Maharashtra,Mumbai,"Powai, Mumbai - MPCB",08-04-2024 09:00:00,19.137500,72.915056,PM10,48,113,80
India,Maharashtra,Mumbai,"Powai, Mumbai - MPCB",08-04-2024 09:00:00,19.137500,72.915056,NH3,NA,NA,NA
India,Maharashtra,Mumbai,"Powai, Mumbai - MPCB",08-04-2024 09:00:00,19.137500,72.915056,CO,30,35,32
India,Maharashtra,Mumbai,"Sewri, Mumbai - BMC",08-04-2024 09:00:00,19.000084,72.856730,PM2.5,15,40,26
India,Maharashtra,Mumbai,"Sewri, Mumbai - BMC",08-04-2024 09:00:00,19.000084,72.856730,NH3,3,6,5
India,Maharashtra,Mumbai,"Sewri, Mumbai - BMC",08-04-2024 09:00:00,19.000084,72.856730,SO2,4,14,7
India,Maharashtra,Mumbai,"Shivaji Nagar, Mumbai - BMC",08-04-2024 09:00:00,19.060498,72.923356,SO2,2,29,8
India,Maharashtra,Mumbai,"Shivaji Nagar, Mumbai - BMC",08-04-2024 09:00:00,19.060498,72.923356,OZONE,10,80,22
India,Maharashtra,Mumbai,"Sion, Mumbai - MPCB",08-04-2024 09:00:00,19.047000,72.874600,NO2,11,39,22
India,Maharashtra,Mumbai,"Sion, Mumbai - MPCB",08-04-2024 09:00:00,19.047000,72.874600,OZONE,26,32,27
India,Maharashtra,Mumbai,"Vasai West, Mumbai - MPCB",08-04-2024 09:00:00,19.383200,72.820400,NH3,4,4,4
India,Maharashtra,Mumbai,"Vasai West, Mumbai - MPCB",08-04-2024 09:00:00,19.383200,72.820400,SO2,16,16,16
India,Maharashtra,Mumbai,"Vasai West, Mumbai - MPCB",08-04-2024 09:00:00,19.383200,72.820400,OZONE,18,88,29
India,Maharashtra,Mumbai,"Vile Parle West, Mumbai - MPCB",08-04-2024 09:00:00,19.10861,72.83622,NH3,10,11,11
India,Maharashtra,Mumbai,"Worli, Mumbai - MPCB",08-04-2024 09:00:00,18.9936162,72.8128113,PM10,NA,NA,NA
India,Maharashtra,Nagpur,"Mahal, Nagpur - MPCB",08-04-2024 09:00:00,21.14472,79.107595,NO2,6,34,20
India,Maharashtra,Nagpur,"Opp GPO Civil Lines, Nagpur - MPCB",08-04-2024 09:00:00,21.152875,79.0517531,PM2.5,94,199,126
India,Maharashtra,Nagpur,"Opp GPO Civil Lines, Nagpur - MPCB",08-04-2024 09:00:00,21.152875,79.0517531,SO2,9,37,18
India,Maharashtra,Nanded,"Sneh Nagar, Nanded - MPCB",08-04-2024 09:00:00,19.173852,77.296291,CO,31,41,35
India,Maharashtra,Navi Mumbai,"Mahape, Navi Mumbai - MPCB",08-04-2024 09:00:00,19.1135051,73.008978,PM2.5,12,42,27
India,Maharashtra,Navi Mumbai,"Mahape, Navi Mumbai - MPCB",08-04-2024 09:00:00,19.1135051,73.008978,NH3,3,3,3
India,Maharashtra,Navi Mumbai,"Mahape, Navi Mumbai - MPCB",08-04-2024 09:00:00,19.1135051,73.008978,CO,44,60,55
India,Maharashtra,Navi Mumbai,"Nerul, Navi Mumbai - MPCB",08-04-2024 09:00:00,19.008751,73.016620,PM2.5,34,157,70
India,Maharashtra,Navi Mumbai,"Nerul, Navi Mumbai - MPCB",08-04-2024 09:00:00,19.008751,73.016620,NH3,2,4,3
India,Maharashtra,Navi Mumbai,"Sector-2E Kalamboli, Navi Mumbai - MPCB",08-04-2024 09:00:00,19.02579,73.10297,CO,7,56,30
India,Maharashtra,Parbhani,"Masoom Colony, Parbhani - MPCB",08-04-2024 09:00:00,19.265594,76.761463,PM10,NA,NA,NA
India,Maharashtra,Parbhani,"Masoom Colony, Parbhani - MPCB",08-04-2024 09:00:00,19.265594,76.761463,NH3,NA,NA,NA
India,Maharashtra,Pimpri-Chinchwad,"Park Street Wakad, Pimpri Chinchwad - MPCB",08-04-2024 09:00:00,18.59051,73.77946,NO2,70,120,93
India,Maharashtra,Pimpri-Chinchwad,"Park Street Wakad, Pimpri Chinchwad - MPCB",08-04-2024 09:00:00,18.59051,73.77946,CO,16,57,43
India,Maharashtra,Pimpri-Chinchwad,"Thergaon, Pimpri Chinchwad - MPCB",08-04-2024 09:00:00,18.616318,73.765797,PM10,NA,NA,NA
India,Maharashtra,Pimpri-Chinchwad,"Thergaon, Pimpri Chinchwad - MPCB",08-04-2024 09:00:00,18.616318,73.765797,NH3,NA,NA,NA
India,Maharashtra,Pimpri-Chinchwad,"Thergaon, Pimpri Chinchwad - MPCB",08-04-2024 09:00:00,18.616318,73.765797,SO2,NA,NA,NA
India,Maharashtra,Pimpri-Chinchwad,"Thergaon, Pimpri Chinchwad - MPCB",08-04-2024 09:00:00,18.616318,73.765797,OZONE,NA,NA,NA
India,Maharashtra,Pune,"Bhosari, Pune - IITM",08-04-2024 09:00:00,18.640051,73.848956,PM2.5,NA,NA,NA
India,Maharashtra,Pune,"Bhosari, Pune - IITM",08-04-2024 09:00:00,18.640051,73.848956,NO2,NA,NA,NA
India,Maharashtra,Pune,"Karve Road, Pune - MPCB",08-04-2024 09:00:00,18.5011743,73.8165527,PM2.5,88,88,88
India,Maharashtra,Pune,"Katraj Dairy, Pune - MPCB",08-04-2024 09:00:00,18.454450,73.854155,NH3,2,5,3
India,Maharashtra,Pune,"Revenue Colony-Shivajinagar, Pune - IITM",08-04-2024 09:00:00,18.530085,73.849598,PM2.5,15,43,22
India,Maharashtra,Pune,"Savitribai Phule Pune University, Pune - MPCB",08-04-2024 09:00:00,18.547056,73.826908,PM2.5,32,87,55
India,Maharashtra,Pune,"Transport Nagar-Nigdi, Pune - IITM",08-04-2024 09:00:00,18.664282,73.763966,PM10,26,89,49
India,Maharashtra,Pune,"Transport Nagar-Nigdi, Pune - IITM",08-04-2024 09:00:00,18.664282,73.763966,CO,46,62,53
India,Maharashtra,Sangli,"Vijay Nagar, Sangli - MPCB",08-04-2024 09:00:00, 16.5038,74.3623,NH3,1,3,3
India,Maharashtra,Solapur,"Dnyaneshwar Nagar, Solapur - MPCB",08-04-2024 09:00:00,17.6336264,75.9132495,OZONE,34,88,44
India,Maharashtra,Solapur,"Ratandeep Housing Society, Solapur - MPCB",08-04-2024 09:00:00,17.65439,75.90649,NO2,20,107,46
India,Maharashtra,Thane,"Pimpleshwar Mandir, Thane - MPCB",08-04-2024 09:00:00,19.192056,72.9585188,SO2,4,68,22
India,Maharashtra,Thane,"Upvan Fort, Thane - MPCB",08-04-2024 09:00:00,19.222279,72.957979,PM10,42,90,70
India,Maharashtra,Ulhasnagar,"Sidhi Vinayak Nagar, Ulhasnagar - MPCB",08-04-2024 09:00:00,19.235581,73.159121,NO2,6,32,13
India,Maharashtra,Ulhasnagar,"Sidhi Vinayak Nagar, Ulhasnagar - MPCB",08-04-2024 09:00:00,19.235581,73.159121,SO2,2,49,11
India,Maharashtra,Ulhasnagar,"Sidhi Vinayak Nagar, Ulhasnagar - MPCB",08-04-2024 09:00:00,19.235581,73.159121,CO,6,56,23
India,Maharashtra,Virar,"Bolinj, Virar - MPCB",08-04-2024 09:00:00,19.4458210,72.7988231,NO2,8,61,30
India,Maharashtra,Virar,"Bolinj, Virar - MPCB",08-04-2024 09:00:00,19.4458210,72.7988231,NH3,6,12,8
India,Manipur,Imphal,"DM College of Science, Imphal - Manipur PCB",08-04-2024 09:00:00,24.8207389,93.9423085,OZONE,NA,NA,NA
India,Meghalaya,Shillong,"Lumpyngngad, Shillong - Meghalaya PCB",08-04-2024 09:00:00,25.5586,91.8985,PM2.5,27,157,56
India,Meghalaya,Shillong,"Lumpyngngad, Shillong - Meghalaya PCB",08-04-2024 09:00:00,25.5586,91.8985,PM10,29,321,80
India,Meghalaya,Shillong,"Lumpyngngad, Shillong - Meghalaya PCB",08-04-2024 09:00:00,25.5586,91.8985,CO,6,11,8
India,Meghalaya,Shillong,"Lumpyngngad, Shillong - Meghalaya PCB",08-04-2024 09:00:00,25.5586,91.8985,OZONE,134,197,169
India,Mizoram,Aizawl,"Sikulpuikawn, Aizawl - Mizoram PCB",08-04-2024 09:00:00,23.7176342,92.7192841,PM10,41,131,72
India,Mizoram,Aizawl,"Sikulpuikawn, Aizawl - Mizoram PCB",08-04-2024 09:00:00,23.7176342,92.7192841,OZONE,1,28,10
India,Nagaland,Kohima,"PWD Juction, Kohima - NPCB",08-04-2024 09:00:00,25.6635413,94.0989878,NO2,3,4,3
India,Nagaland,Kohima,"PWD Juction, Kohima - NPCB",08-04-2024 09:00:00,25.6635413,94.0989878,NH3,1,1,1
India,Nagaland,Kohima,"PWD Juction, Kohima - NPCB",08-04-2024 09:00:00,25.6635413,94.0989878,OZONE,9,29,11
India,Odisha,Angul,"Hakimapada, Angul - OSPCB",08-04-2024 09:00:00,20.832874,85.104082,PM10,44,243,137
India,Odisha,Balasore,"Kalidaspur, Balasore - OSPCB",08-04-2024 09:00:00,21.51161,86.89088,NH3,1,3,2
India,Odisha,Barbil,"Forest Office, Barbil - OSPCB",08-04-2024 09:00:00,22.1166054,85.3945546,NH3,1,1,1
India,Odisha,Baripada,"Meher Colony, Baripada - OSPCB",08-04-2024 09:00:00,21.941841,86.728318,PM2.5,48,239,125
India,Odisha,Baripada,"Meher Colony, Baripada - OSPCB",08-04-2024 09:00:00,21.941841,86.728318,NO2,2,3,2
India,Odisha,Baripada,"Meher Colony, Baripada - OSPCB",08-04-2024 09:00:00,21.941841,86.728318,SO2,1,4,3
India,Odisha,Baripada,"Meher Colony, Baripada - OSPCB",08-04-2024 09:00:00,21.941841,86.728318,OZONE,2,39,11
India,Odisha,Bhubaneswar,"Lingraj Mandir, Bhubaneswar - OSPCB",08-04-2024 09:00:00,20.240790,85.836784,PM2.5,NA,NA,NA
India,Odisha,Bhubaneswar,"Lingraj Mandir, Bhubaneswar - OSPCB",08-04-2024 09:00:00,20.240790,85.836784,NO2,NA,NA,NA
India,Odisha,Bhubaneswar,"Lingraj Mandir, Bhubaneswar - OSPCB",08-04-2024 09:00:00,20.240790,85.836784,NH3,NA,NA,NA
India,Odisha,Bhubaneswar,"Patia, Bhubaneswar - OSPCB",08-04-2024 09:00:00,20.34652,85.81630,SO2,NA,NA,NA
India,Odisha,Brajrajnagar,"GM Office, Brajrajnagar - OSPCB",08-04-2024 09:00:00,21.8004996,83.8396977,SO2,21,21,21
India,Odisha,Byasanagar,"Ferro Chrome Colony, Byasanagar - OSPCB",08-04-2024 09:00:00,20.94185,86.11510,CO,72,106,89
India,Odisha,Byasanagar,"Ferro Chrome Colony, Byasanagar - OSPCB",08-04-2024 09:00:00,20.94185,86.11510,OZONE,21,162,33
India,Odisha,Cuttack,"CDA Area, Cuttack - OSPCB",08-04-2024 09:00:00,20.48891     ,85.84768     ,PM10,32,133,77
India,Odisha,Cuttack,"CDA Area, Cuttack - OSPCB",08-04-2024 09:00:00,20.48891     ,85.84768     ,SO2,1,29,6
India,Odisha,Keonjhar,"Jagamohanpur, Keonjhar - OSPCB",08-04-2024 09:00:00,21.643900,85.599355,PM10,NA,NA,NA
India,Odisha,Nayagarh,"Dabuna, Nayagarh - OSPCB",08-04-2024 09:00:00,21.847279,85.416905,CO,11,42,19
India,Odisha,Rairangpur,"Divisional Forest Office, Rairangpur - OSPCB",08-04-2024 09:00:00,22.265816,86.174829,PM2.5,42,133,63
India,Odisha,Rairangpur,"Divisional Forest Office, Rairangpur - OSPCB",08-04-2024 09:00:00,22.265816,86.174829,NO2,7,8,7
India,Odisha,Rairangpur,"Divisional Forest Office, Rairangpur - OSPCB",08-04-2024 09:00:00,22.265816,86.174829,NH3,5,5,5
India,Odisha,Rourkela,"Raghunathpali, Rourkela - OSPCB",08-04-2024 09:00:00,22.220833,84.809444,SO2,3,16,7
India,Odisha,Suakati,"OMC Colony, Suakati - OSPCB",08-04-2024 09:00:00,21.606865,85.510538,PM10,85,158,111
India,Odisha,Suakati,"OMC Colony, Suakati - OSPCB",08-04-2024 09:00:00,21.606865,85.510538,SO2,2,45,13
India,Odisha,Suakati,"OMC Colony, Suakati - OSPCB",08-04-2024 09:00:00,21.606865,85.510538,CO,20,24,20
India,Odisha,Talcher,"Talcher Coalfields,Talcher - OSPCB",08-04-2024 09:00:00,20.9360711,85.1707021,PM10,NA,NA,NA
India,Odisha,Talcher,"Talcher Coalfields,Talcher - OSPCB",08-04-2024 09:00:00,20.9360711,85.1707021,NO2,NA,NA,NA
India,Odisha,Tensa,"Barsua Iron Ore Mines, Tensa - OSPCB",08-04-2024 09:00:00,21.869985,85.167016,OZONE,37,139,50
India,Punjab,Amritsar,"Golden Temple, Amritsar - PPCB",08-04-2024 09:00:00,31.620000,74.876512,PM10,50,66,52
India,Punjab,Amritsar,"Golden Temple, Amritsar - PPCB",08-04-2024 09:00:00,31.620000,74.876512,NH3,4,5,5
India,Punjab,Bathinda,"Hardev Nagar, Bathinda - PPCB",08-04-2024 09:00:00,30.233011,74.907758,PM10,19,152,86
India,Punjab,Jalandhar,"Civil Line, Jalandhar - PPCB",08-04-2024 09:00:00,31.321907,75.578914,NH3,5,5,5
India,Punjab,Jalandhar,"Civil Line, Jalandhar - PPCB",08-04-2024 09:00:00,31.321907,75.578914,SO2,8,13,10
India,Punjab,Khanna,"Kalal Majra, Khanna - PPCB",08-04-2024 09:00:00,30.736056 ,76.209694,NO2,32,33,32
India,Punjab,Khanna,"Kalal Majra, Khanna - PPCB",08-04-2024 09:00:00,30.736056 ,76.209694,OZONE,6,78,17
India,Punjab,Ludhiana,"Punjab Agricultural University, Ludhiana - PPCB",08-04-2024 09:00:00,30.9028,75.8086,PM10,44,108,69
India,Punjab,Ludhiana,"Punjab Agricultural University, Ludhiana - PPCB",08-04-2024 09:00:00,30.9028,75.8086,OZONE,8,40,11
India,Punjab,Mandi Gobindgarh,"RIMT University, Mandi Gobindgarh - PPCB",08-04-2024 09:00:00,30.649961,76.331442,NO2,32,32,32
India,Punjab,Mandi Gobindgarh,"RIMT University, Mandi Gobindgarh - PPCB",08-04-2024 09:00:00,30.649961,76.331442,NH3,9,9,9
India,Punjab,Mandi Gobindgarh,"RIMT University, Mandi Gobindgarh - PPCB",08-04-2024 09:00:00,30.649961,76.331442,SO2,5,46,20
India,Punjab,Patiala,"Model Town, Patiala - PPCB",08-04-2024 09:00:00,30.349388,76.366642,CO,17,34,28
India,Punjab,Patiala,"Model Town, Patiala - PPCB",08-04-2024 09:00:00,30.349388,76.366642,OZONE,6,42,9
India,Rajasthan,Ajmer,"Civil Lines,  Ajmer - RSPCB",08-04-2024 09:00:00,26.470859,74.646594,NO2,11,14,12
India,Rajasthan,Alwar,"Moti Doongri, Alwar - RSPCB",08-04-2024 09:00:00,27.554793,76.611536,PM2.5,50,126,81
India,Rajasthan,Alwar,"Moti Doongri, Alwar - RSPCB",08-04-2024 09:00:00,27.554793,76.611536,SO2,12,75,31
India,Rajasthan,Banswara,"Rati Talai, Banswara - RSPCB",08-04-2024 09:00:00,23.555190,74.440010,PM10,64,340,143
India,Rajasthan,Barmer,"Railway Colony, Barmer - RSPCB",08-04-2024 09:00:00,25.747299,71.393989,SO2,7,119,16
India,Rajasthan,Bharatpur,"Krishna Nagar, Bharatpur - RSPCB",08-04-2024 09:00:00,27.215415,77.50873,NH3,2,6,4
India,Rajasthan,Bhiwadi,"Vasundhara Nagar_UIT, Bhiwadi - RSPCB",08-04-2024 09:00:00,28.207266,76.829265,NH3,7,20,13
India,Rajasthan,Churu,"Subash Chowk, Churu - RSPCB",08-04-2024 09:00:00,28.296139,74.961696,NO2,10,105,36
India,Rajasthan,Churu,"Subash Chowk, Churu - RSPCB",08-04-2024 09:00:00,28.296139,74.961696,NH3,6,11,9
India,Rajasthan,Churu,"Subash Chowk, Churu - RSPCB",08-04-2024 09:00:00,28.296139,74.961696,SO2,7,20,12
India,Rajasthan,Churu,"Subash Chowk, Churu - RSPCB",08-04-2024 09:00:00,28.296139,74.961696,OZONE,22,154,77
India,Rajasthan,Dausa,"Khatikan Mohalla, Dausa - RSPCB",08-04-2024 09:00:00,26.895552,76.334753,SO2,6,13,9
India,Rajasthan,Dausa,"Khatikan Mohalla, Dausa - RSPCB",08-04-2024 09:00:00,26.895552,76.334753,CO,54,107,75
India,Rajasthan,Dholpur,"Raja Ganj, Dholpur - RSPCB",08-04-2024 09:00:00,26.699557,77.898881,NO2,8,97,37
India,Rajasthan,Dholpur,"Raja Ganj, Dholpur - RSPCB",08-04-2024 09:00:00,26.699557,77.898881,CO,8,55,36
India,Rajasthan,Dholpur,"Raja Ganj, Dholpur - RSPCB",08-04-2024 09:00:00,26.699557,77.898881,OZONE,11,87,22
India,Rajasthan,Hanumangarh,"Housing Board, Hanumangarh - RSPCB",08-04-2024 09:00:00,29.610750,74.283608,CO,36,89,68
India,Rajasthan,Jaipur,"Adarsh Nagar, Jaipur - RSPCB",08-04-2024 09:00:00,26.902909,75.836858,PM10,48,106,72
India,Rajasthan,Jaipur,"Adarsh Nagar, Jaipur - RSPCB",08-04-2024 09:00:00,26.902909,75.836858,NO2,19,137,54
India,Rajasthan,Jaipur,"Adarsh Nagar, Jaipur - RSPCB",08-04-2024 09:00:00,26.902909,75.836858,OZONE,9,44,32
India,Rajasthan,Jaipur,"Police Commissionerate, Jaipur - RSPCB",08-04-2024 09:00:00,26.9164092,75.7994901,CO,24,99,32
India,Rajasthan,Jaipur,"RIICO Sitapura, Jaipur - RSPCB",08-04-2024 09:00:00,26.786682,75.827928,SO2,NA,NA,NA
India,Rajasthan,Jaipur,"RIICO Sitapura, Jaipur - RSPCB",08-04-2024 09:00:00,26.786682,75.827928,CO,NA,NA,NA
India,Rajasthan,Jaipur,"Sector-2 Murlipura, Jaipur - RSPCB",08-04-2024 09:00:00,26.960669,75.771817,CO,27,106,47
India,Rajasthan,Jaipur,"Sector-2 Murlipura, Jaipur - RSPCB",08-04-2024 09:00:00,26.960669,75.771817,OZONE,2,87,47
India,Rajasthan,Jaipur,"Shastri Nagar, Jaipur - RSPCB",08-04-2024 09:00:00,26.9502929,75.730943,NH3,2,21,7
India,Rajasthan,Jaipur,"Shastri Nagar, Jaipur - RSPCB",08-04-2024 09:00:00,26.9502929,75.730943,OZONE,24,79,62
India,Rajasthan,Jaisalmer,"Sadar Bazar, Jaisalmer - RSPCB",08-04-2024 09:00:00,26.912329,70.909168,OZONE,3,116,59
India,Rajasthan,Jalore,"Mudtra Sili, Jalore - RSPCB",08-04-2024 09:00:00,25.344694,72.626208,PM10,74,403,133
India,Rajasthan,Jhalawar,"Rajlaxmi Nagar, Jhalawar - RSPCB",08-04-2024 09:00:00,24.588397,76.172782,NO2,14,45,22
India,Rajasthan,Jhalawar,"Rajlaxmi Nagar, Jhalawar - RSPCB",08-04-2024 09:00:00,24.588397,76.172782,SO2,2,44,9
India,Rajasthan,Jhalawar,"Rajlaxmi Nagar, Jhalawar - RSPCB",08-04-2024 09:00:00,24.588397,76.172782,CO,12,70,48
India,Rajasthan,Jhalawar,"Rajlaxmi Nagar, Jhalawar - RSPCB",08-04-2024 09:00:00,24.588397,76.172782,OZONE,17,106,32
India,Rajasthan,Jhunjhunu,"Indra Nagar, Jhunjhunu - RSPCB",08-04-2024 09:00:00,28.108988,75.386577,PM10,34,387,100
India,Rajasthan,Jodhpur,"Jhalamand, Jodhpur - RSPCB",08-04-2024 09:00:00,26.215415,73.070156,NO2,28,62,41
India,Rajasthan,Jodhpur,"Jhalamand, Jodhpur - RSPCB",08-04-2024 09:00:00,26.215415,73.070156,NH3,3,12,8
India,Rajasthan,Jodhpur,"Jhalamand, Jodhpur - RSPCB",08-04-2024 09:00:00,26.215415,73.070156,OZONE,18,100,35
India,Rajasthan,Jodhpur,"Mandor, Jodhpur - RSPCB",08-04-2024 09:00:00,26.358805,73.047444,PM2.5,2,63,26
India,Rajasthan,Jodhpur,"Samrat Ashok Udhyan, Jodhpur - RSPCB",08-04-2024 09:00:00,26.253384,72.976571,NO2,4,138,57
India,Rajasthan,Jodhpur,"Samrat Ashok Udhyan, Jodhpur - RSPCB",08-04-2024 09:00:00,26.253384,72.976571,NH3,1,7,4
India,Rajasthan,Karauli,"Satyawati Vihar, Karauli - RSPCB",08-04-2024 09:00:00,26.506177,77.025989,PM2.5,37,157,69
India,Rajasthan,Karauli,"Satyawati Vihar, Karauli - RSPCB",08-04-2024 09:00:00,26.506177,77.025989,NH3,4,10,6
India,Rajasthan,Kota,"Dhanmandi, Kota - RSPCB",08-04-2024 09:00:00,25.164090,75.858137,OZONE,6,132,23
India,Rajasthan,Kota,"Shrinath Puram, Kota - RSPCB",08-04-2024 09:00:00,25.14389,75.821256,PM2.5,71,229,150
India,Rajasthan,Rajsamand,"Dhoinda, Rajsamand - RSPCB",08-04-2024 09:00:00,25.036360,73.883502,SO2,8,8,8
India,Rajasthan,Sikar,"Radhakishan Pura, Sikar - RSPCB",08-04-2024 09:00:00,27.608912,75.153302,NO2,7,108,32
India,Rajasthan,Sikar,"Radhakishan Pura, Sikar - RSPCB",08-04-2024 09:00:00,27.608912,75.153302,SO2,1,12,4
India,Rajasthan,Sirohi,"Vedhaynath Colony, Sirohi - RSPCB",08-04-2024 09:00:00,24.885261,72.857549,PM2.5,44,131,64
India,Rajasthan,Sirohi,"Vedhaynath Colony, Sirohi - RSPCB",08-04-2024 09:00:00,24.885261,72.857549,SO2,1,8,5
India,Rajasthan,Sirohi,"Vedhaynath Colony, Sirohi - RSPCB",08-04-2024 09:00:00,24.885261,72.857549,OZONE,38,143,56
India,Rajasthan,Sri Ganganagar,"Old City, Sri Ganganagar - RSPCB",08-04-2024 09:00:00,29.931624,73.864511,PM2.5,15,324,128
India,Rajasthan,Sri Ganganagar,"Old City, Sri Ganganagar - RSPCB",08-04-2024 09:00:00,29.931624,73.864511,PM10,111,500,236
India,Rajasthan,Sri Ganganagar,"Old City, Sri Ganganagar - RSPCB",08-04-2024 09:00:00,29.931624,73.864511,SO2,2,20,10
India,Rajasthan,Tonk,"Shastri Nagar, Tonk - RSPCB",08-04-2024 09:00:00,26.159933,75.780517,PM2.5,18,197,69
India,Rajasthan,Tonk,"Shastri Nagar, Tonk - RSPCB",08-04-2024 09:00:00,26.159933,75.780517,PM10,55,335,136
India,Rajasthan,Tonk,"Shastri Nagar, Tonk - RSPCB",08-04-2024 09:00:00,26.159933,75.780517,SO2,3,15,7
India,Rajasthan,Tonk,"Shastri Nagar, Tonk - RSPCB",08-04-2024 09:00:00,26.159933,75.780517,OZONE,5,93,53
India,Rajasthan,Udaipur,"Ashok Nagar, Udaipur - RSPCB",08-04-2024 09:00:00,24.5886166,73.6321397,PM2.5,94,225,138
India,Rajasthan,Udaipur,"Ashok Nagar, Udaipur - RSPCB",08-04-2024 09:00:00,24.5886166,73.6321397,OZONE,3,78,18
India,TamilNadu,Ariyalur,"Keelapalur, Ariyalur - TNPCB",08-04-2024 09:00:00,11.06825,79.07033,NO2,148,246,194
India,TamilNadu,Chengalpattu,"Crescent University, Chengalpattu - TNPCB",08-04-2024 09:00:00,12.8777316,80.0834807,PM10,43,43,43
India,TamilNadu,Chengalpattu,"Crescent University, Chengalpattu - TNPCB",08-04-2024 09:00:00,12.8777316,80.0834807,NH3,24,24,24
India,TamilNadu,Chennai,"Alandur Bus Depot, Chennai - CPCB",08-04-2024 09:00:00,12.9099161,80.1076538,PM2.5,31,85,49
India,TamilNadu,Chennai,"Arumbakkam, Chennai - TNPCB",08-04-2024 09:00:00,13.0664,80.2112 ,PM10,16,71,41
India,TamilNadu,Chennai,"Kodungaiyur, Chennai - TNPCB",08-04-2024 09:00:00,13.1278,80.2642,PM2.5,8,25,16
India,TamilNadu,Chennai,"Kodungaiyur, Chennai - TNPCB",08-04-2024 09:00:00,13.1278,80.2642,NH3,3,7,3
India,TamilNadu,Chennai,"Manali, Chennai - CPCB",08-04-2024 09:00:00,13.164544,80.26285,SO2,3,18,6
India,TamilNadu,Chennai,"Manali, Chennai - CPCB",08-04-2024 09:00:00,13.164544,80.26285,CO,90,106,101
India,TamilNadu,Chennai,"Perungudi, Chennai - TNPCB",08-04-2024 09:00:00,12.9533,80.2357,PM10,11,70,36
India,TamilNadu,Chennai,"Perungudi, Chennai - TNPCB",08-04-2024 09:00:00,12.9533,80.2357,SO2,1,6,3
India,TamilNadu,Chennai,"Royapuram, Chennai - TNPCB",08-04-2024 09:00:00,13.1036,80.2909,NH3,NA,NA,NA
India,TamilNadu,Chennai,"Royapuram, Chennai - TNPCB",08-04-2024 09:00:00,13.1036,80.2909,SO2,2,7,4
India,TamilNadu,Chennai,"Velachery Res. Area, Chennai - CPCB",08-04-2024 09:00:00,13.0052189,80.2398125,NH3,10,16,13
India,TamilNadu,Chennai,"Velachery Res. Area, Chennai - CPCB",08-04-2024 09:00:00,13.0052189,80.2398125,SO2,10,11,11
India,TamilNadu,Coimbatore,"PSG College of Arts and Science, Coimbatore - TNPCB",08-04-2024 09:00:00,11.0328,77.0349,SO2,21,27,25
India,TamilNadu,Cuddalore,"Kudikadu, Cuddalore - TNPCB",08-04-2024 09:00:00,11.6829898,79.7532099,NH3,4,4,4
India,TamilNadu,Cuddalore,"Semmandalam, Cuddalore - TNPCB",08-04-2024 09:00:00,11.7637683,79.7499835,NH3,2,3,3
India,TamilNadu,Ooty,"Bombay Castel, Ooty - TNPCB",08-04-2024 09:00:00,11.4068288,76.7138973,SO2,NA,NA,NA
India,TamilNadu,Ramanathapuram,"Chalai Bazaar, Ramanathapuram - TNPCB",08-04-2024 09:00:00,9.36399,78.831977,CO,2,10,4
India,TamilNadu,Vellore,"Vasanthapuram, Vellore - TNPCB",08-04-2024 09:00:00,12.909494,79.131861,PM2.5,NA,NA,NA
India,Telangana,Hyderabad,"Bollaram Industrial Area, Hyderabad - TSPCB",08-04-2024 09:00:00,17.540891,78.358528,PM2.5,61,156,86
India,Telangana,Hyderabad,"ECIL Kapra, Hyderabad - TSPCB",08-04-2024 09:00:00,17.470431,78.566959,SO2,10,73,25
India,Telangana,Hyderabad,"IITH Kandi, Hyderabad - TSPCB",08-04-2024 09:00:00,17.585705,78.126199,PM10,NA,NA,NA
India,Telangana,Hyderabad,"Kompally Municipal Office, Hyderabad - TSPCB",08-04-2024 09:00:00,17.544899,78.486949,NH3,4,4,4
India,Telangana,Hyderabad,"Kompally Municipal Office, Hyderabad - TSPCB",08-04-2024 09:00:00,17.544899,78.486949,CO,15,69,35
India,Telangana,Hyderabad,"Nacharam_TSIIC IALA, Hyderabad - TSPCB",08-04-2024 09:00:00,17.429398,78.569354,CO,36,45,45
India,Telangana,Hyderabad,"Nacharam_TSIIC IALA, Hyderabad - TSPCB",08-04-2024 09:00:00,17.429398,78.569354,OZONE,42,65,65
India,Telangana,Hyderabad,"New Malakpet, Hyderabad - TSPCB",08-04-2024 09:00:00,17.37206,78.50864,PM2.5,32,57,45
India,Telangana,Hyderabad,"New Malakpet, Hyderabad - TSPCB",08-04-2024 09:00:00,17.37206,78.50864,OZONE,17,59,22
India,Telangana,Hyderabad,"Ramachandrapuram, Hyderabad - TSPCB",08-04-2024 09:00:00,17.528544,78.286195,NO2,9,11,10
India,Telangana,Hyderabad,"Sanathnagar, Hyderabad - TSPCB",08-04-2024 09:00:00,17.4559458,78.4332152,PM2.5,51,112,82
India,Telangana,Hyderabad,"Sanathnagar, Hyderabad - TSPCB",08-04-2024 09:00:00,17.4559458,78.4332152,CO,36,62,53
India,Telangana,Hyderabad,"Sanathnagar, Hyderabad - TSPCB",08-04-2024 09:00:00,17.4559458,78.4332152,OZONE,14,17,16
India,Telangana,Hyderabad,"Somajiguda, Hyderabad - TSPCB",08-04-2024 09:00:00,17.417094,78.457437,PM2.5,NA,NA,NA
India,Telangana,Hyderabad,"Somajiguda, Hyderabad - TSPCB",08-04-2024 09:00:00,17.417094,78.457437,NH3,NA,NA,NA
India,Telangana,Hyderabad,"Zoo Park, Hyderabad - TSPCB",08-04-2024 09:00:00,17.349694,78.451437,NO2,19,41,27
India,Telangana,Hyderabad,"Zoo Park, Hyderabad - TSPCB",08-04-2024 09:00:00,17.349694,78.451437,CO,28,82,53
India,Uttar_Pradesh,Agra,"Manoharpur, Agra - UPPCB",08-04-2024 09:00:00,27.23711,78.01936,PM2.5,17,204,63
India,Uttar_Pradesh,Agra,"Manoharpur, Agra - UPPCB",08-04-2024 09:00:00,27.23711,78.01936,OZONE,1,46,5
India,Uttar_Pradesh,Agra,"Sanjay Palace, Agra - UPPCB",08-04-2024 09:00:00,27.19865833,78.00598056,PM10,22,77,50
India,Uttar_Pradesh,Agra,"Sanjay Palace, Agra - UPPCB",08-04-2024 09:00:00,27.19865833,78.00598056,CO,6,84,57
India,Uttar_Pradesh,Agra,"Sector-3B Avas Vikas Colony, Agra - UPPCB",08-04-2024 09:00:00,27.19412,77.96237,PM10,29,126,69
India,Uttar_Pradesh,Agra,"Sector-3B Avas Vikas Colony, Agra - UPPCB",08-04-2024 09:00:00,27.19412,77.96237,OZONE,2,9,3
India,Uttar_Pradesh,Agra,"Shastripuram, Agra - UPPCB",08-04-2024 09:00:00,27.19862,77.92066,PM2.5,8,186,62
India,Uttar_Pradesh,Agra,"Shastripuram, Agra - UPPCB",08-04-2024 09:00:00,27.19862,77.92066,SO2,11,14,12
India,Uttar_Pradesh,Agra,"Shastripuram, Agra - UPPCB",08-04-2024 09:00:00,27.19862,77.92066,CO,9,20,15
India,Uttar_Pradesh,Baghpat,"Sardar Patel Inter College, Baghpat - UPPCB",08-04-2024 09:00:00,28.964949,77.278761,NO2,11,84,40
India,Uttar_Pradesh,Baghpat,"Sardar Patel Inter College, Baghpat - UPPCB",08-04-2024 09:00:00,28.964949,77.278761,SO2,2,116,39
India,Uttar_Pradesh,Bareilly,"Civil Lines, Bareilly - UPPCB",08-04-2024 09:00:00,28.359581,79.414455,PM2.5,3,13,8
India,Uttar_Pradesh,Firozabad,"Nagla Bhau, Firozabad - UPPCB",08-04-2024 09:00:00,27.168897,78.376960,NO2,17,19,17
India,Uttar_Pradesh,Firozabad,"Nagla Bhau, Firozabad - UPPCB",08-04-2024 09:00:00,27.168897,78.376960,OZONE,16,18,17
India,Uttar_Pradesh,Firozabad,"Vibhab Nagar, Firozabad - UPPCB",08-04-2024 09:00:00,27.1594,78.3953,PM10,32,62,42
India,Uttar_Pradesh,Ghaziabad,"Sanjay Nagar, Ghaziabad - UPPCB",08-04-2024 09:00:00,28.685382,77.453839,NH3,6,14,9
India,Uttar_Pradesh,Ghaziabad,"Vasundhara, Ghaziabad - UPPCB",08-04-2024 09:00:00,28.6603346,77.3572563,PM10,63,159,113
India,Uttar_Pradesh,Ghaziabad,"Vasundhara, Ghaziabad - UPPCB",08-04-2024 09:00:00,28.6603346,77.3572563,NH3,11,26,17
India,Uttar_Pradesh,Ghaziabad,"Vasundhara, Ghaziabad - UPPCB",08-04-2024 09:00:00,28.6603346,77.3572563,CO,2,106,43
India,Uttar_Pradesh,Greater Noida,"Knowledge Park - V, Greater Noida - UPPCB",08-04-2024 09:00:00,28.557054,77.453663,NH3,3,5,4
India,Uttar_Pradesh,Hapur,"Anand Vihar, Hapur - UPPCB",08-04-2024 09:00:00,28.725645,77.749675,PM2.5,NA,NA,NA
India,Uttar_Pradesh,Hapur,"Anand Vihar, Hapur - UPPCB",08-04-2024 09:00:00,28.725645,77.749675,NO2,11,144,52
India,Uttar_Pradesh,Kanpur,"NSI Kalyanpur, Kanpur - UPPCB",08-04-2024 09:00:00,26.509954,80.249612,NO2,10,11,11
India,Uttar_Pradesh,Kanpur,"NSI Kalyanpur, Kanpur - UPPCB",08-04-2024 09:00:00,26.509954,80.249612,NH3,2,2,2
India,Uttar_Pradesh,Khurja,"Kalindi Kunj, Khurja - UPPCB",08-04-2024 09:00:00,28.2348927,77.8683002,NH3,1,2,1
India,Uttar_Pradesh,Lucknow,"B R Ambedkar University, Lucknow - UPPCB",08-04-2024 09:00:00,26.766433,80.927299,OZONE,6,85,34
India,Uttar_Pradesh,Lucknow,"Kendriya Vidyalaya, Lucknow - CPCB",08-04-2024 09:00:00,26.906111,80.948222,PM10,83,122,96
India,Uttar_Pradesh,Lucknow,"Kendriya Vidyalaya, Lucknow - CPCB",08-04-2024 09:00:00,26.906111,80.948222,SO2,2,6,5
India,Uttar_Pradesh,Lucknow,"Lalbagh, Lucknow - CPCB",08-04-2024 09:00:00,26.8458805,80.9365541,NO2,3,16,8
India,Uttar_Pradesh,Lucknow,"Lalbagh, Lucknow - CPCB",08-04-2024 09:00:00,26.8458805,80.9365541,CO,32,78,56
India,Uttar_Pradesh,Lucknow,"Talkatora District Industries Center, Lucknow - CPCB",08-04-2024 09:00:00,26.83399722,80.8917361,PM2.5,21,221,64
India,Uttar_Pradesh,Lucknow,"Talkatora District Industries Center, Lucknow - CPCB",08-04-2024 09:00:00,26.83399722,80.8917361,CO,4,40,22
India,Uttar_Pradesh,Meerut,"Ganga Nagar, Meerut - UPPCB",08-04-2024 09:00:00,28.999264,77.7590354,SO2,6,70,25
India,Uttar_Pradesh,Meerut,"Ganga Nagar, Meerut - UPPCB",08-04-2024 09:00:00,28.999264,77.7590354,CO,17,72,50
India,Uttar_Pradesh,Meerut,"Jai Bhim Nagar, Meerut - UPPCB",08-04-2024 09:00:00,28.9535882,77.7622941,PM2.5,16,238,63
India,Uttar_Pradesh,Meerut,"Jai Bhim Nagar, Meerut - UPPCB",08-04-2024 09:00:00,28.9535882,77.7622941,NO2,1,42,21
India,Uttar_Pradesh,Meerut,"Jai Bhim Nagar, Meerut - UPPCB",08-04-2024 09:00:00,28.9535882,77.7622941,CO,36,88,69
India,Uttar_Pradesh,Meerut,"Pallavpuram Phase 2, Meerut - UPPCB",08-04-2024 09:00:00,29.063510,77.709723,PM10,71,208,132
India,Uttar_Pradesh,Meerut,"Pallavpuram Phase 2, Meerut - UPPCB",08-04-2024 09:00:00,29.063510,77.709723,NH3,7,15,10
India,Uttar_Pradesh,Moradabad,"Buddhi Vihar, Moradabad - UPPCB",08-04-2024 09:00:00,28.83526,78.74460,NO2,23,23,23
India,Uttar_Pradesh,Moradabad,"Eco Herbal Park, Moradabad - UPPCB",08-04-2024 09:00:00,28.840739,78.697531,PM2.5,13,180,71
India,Uttar_Pradesh,Moradabad,"Eco Herbal Park, Moradabad - UPPCB",08-04-2024 09:00:00,28.840739,78.697531,NH3,4,21,8
India,Uttar_Pradesh,Moradabad,"Employment Office, Moradabad - UPPCB",08-04-2024 09:00:00,28.88528,78.73880,NO2,18,19,19
India,Uttar_Pradesh,Moradabad,"Kashiram Nagar, Moradabad - UPPCB",08-04-2024 09:00:00,28.849399,78.742362,PM10,38,207,119
India,Uttar_Pradesh,Moradabad,"Kashiram Nagar, Moradabad - UPPCB",08-04-2024 09:00:00,28.849399,78.742362,NH3,4,4,4
India,Uttar_Pradesh,Moradabad,"Transport Nagar, Moradabad - UPPCB",08-04-2024 09:00:00,28.802625,78.753728,NH3,NA,NA,NA
India,Uttar_Pradesh,Muzaffarnagar,"New Mandi, Muzaffarnagar - UPPCB",08-04-2024 09:00:00,29.4723508,77.7194031,OZONE,28,110,47
India,Uttar_Pradesh,Noida,"Sector - 125, Noida - UPPCB",08-04-2024 09:00:00,28.5447608,77.3231257,PM10,53,245,132
India,Uttar_Pradesh,Noida,"Sector - 62, Noida - IMD",08-04-2024 09:00:00,28.6245479,77.3577104,PM2.5,9,302,131
India,Uttar_Pradesh,Noida,"Sector - 62, Noida - IMD",08-04-2024 09:00:00,28.6245479,77.3577104,NO2,16,198,78
India,Uttar_Pradesh,Noida,"Sector - 62, Noida - IMD",08-04-2024 09:00:00,28.6245479,77.3577104,CO,50,88,82
India,Uttar_Pradesh,Noida,"Sector - 62, Noida - IMD",08-04-2024 09:00:00,28.6245479,77.3577104,OZONE,6,36,12
India,Uttar_Pradesh,Noida,"Sector-116, Noida - UPPCB",08-04-2024 09:00:00,28.569230,77.393848,PM2.5,21,313,113
India,Uttar_Pradesh,Noida,"Sector-116, Noida - UPPCB",08-04-2024 09:00:00,28.569230,77.393848,PM10,82,292,157
India,Uttar_Pradesh,Noida,"Sector-116, Noida - UPPCB",08-04-2024 09:00:00,28.569230,77.393848,SO2,24,103,45
India,Uttar_Pradesh,Prayagraj,"Jhunsi, Prayagraj - UPPCB",08-04-2024 09:00:00,25.425602,81.917152,NH3,5,5,5
India,Uttar_Pradesh,Prayagraj,"Jhunsi, Prayagraj - UPPCB",08-04-2024 09:00:00,25.425602,81.917152,OZONE,2,80,9
India,Uttar_Pradesh,Prayagraj,"Motilal Nehru NIT, Prayagraj - UPPCB",08-04-2024 09:00:00,25.494,81.863,NO2,11,12,12
India,Uttar_Pradesh,Prayagraj,"Nagar Nigam, Prayagraj - UPPCB",08-04-2024 09:00:00,25.44919916 ,81.82735986 ,PM2.5,25,74,44
India,Uttar_Pradesh,Prayagraj,"Nagar Nigam, Prayagraj - UPPCB",08-04-2024 09:00:00,25.44919916 ,81.82735986 ,OZONE,11,13,12
India,Uttar_Pradesh,Varanasi,"Bhelupur, Varanasi - UPPCB",08-04-2024 09:00:00,25.301778,82.996789,OZONE,1,81,2
India,Uttar_Pradesh,Varanasi,"Maldahiya, Varanasi - UPPCB",08-04-2024 09:00:00,25.32393,82.99687,NO2,1,2,2
India,Uttar_Pradesh,Varanasi,"Maldahiya, Varanasi - UPPCB",08-04-2024 09:00:00,25.32393,82.99687,SO2,25,28,26
India,Uttar_Pradesh,Vrindavan,"Omex Eternity, Vrindavan - UPPCB",08-04-2024 09:00:00,27.5714090,77.6557570,OZONE,26,33,32
India,Uttarakhand,Dehradun,"Doon University, Dehradun - UKPCB",08-04-2024 09:00:00,30.269444,78.044167,NO2,1,5,2
India,Uttarakhand,Dehradun,"Doon University, Dehradun - UKPCB",08-04-2024 09:00:00,30.269444,78.044167,SO2,2,6,3
India,Uttarakhand,Dehradun,"Doon University, Dehradun - UKPCB",08-04-2024 09:00:00,30.269444,78.044167,OZONE,54,158,66
India,Uttarakhand,Kashipur,"Govt. Girls Inter College, Kashipur - UKPCB",08-04-2024 09:00:00,29.2124114,78.9611753,NH3,2,4,3
India,Uttarakhand,Kashipur,"Govt. Girls Inter College, Kashipur - UKPCB",08-04-2024 09:00:00,29.2124114,78.9611753,CO,NA,NA,NA
India,Uttarakhand,Kashipur,"Govt. Girls Inter College, Kashipur - UKPCB",08-04-2024 09:00:00,29.2124114,78.9611753,OZONE,18,104,29
India,Uttarakhand,Rishikesh,"Shivaji Nagar, Rishikesh - UKPCB",08-04-2024 09:00:00,30.075911,78.2859547,PM10,48,83,66
India,Uttarakhand,Rishikesh,"Shivaji Nagar, Rishikesh - UKPCB",08-04-2024 09:00:00,30.075911,78.2859547,NH3,2,3,3
India,West_Bengal,Asansol,"Asansol Court Area, Asansol - WBPCB",08-04-2024 09:00:00,23.685297,86.945968,NO2,25,75,44
India,West_Bengal,Barrackpore,"SVSPA Campus, Barrackpore - WBPCB",08-04-2024 09:00:00,22.7605581,88.3617589,PM10,46,145,103
India,West_Bengal,Durgapur,"PCBL Residential Complex, Durgapur - WBPCB",08-04-2024 09:00:00,23.5087640,87.3544400,PM2.5,77,306,148
India,West_Bengal,Durgapur,"PCBL Residential Complex, Durgapur - WBPCB",08-04-2024 09:00:00,23.5087640,87.3544400,PM10,108,197,148
India,West_Bengal,Durgapur,"PCBL Residential Complex, Durgapur - WBPCB",08-04-2024 09:00:00,23.5087640,87.3544400,SO2,3,112,41
India,West_Bengal,Durgapur,"Sidhu Kanhu Indoor Stadium, Durgapur - WBPCB",08-04-2024 09:00:00,23.5404352,87.2892225,NO2,17,51,31
India,West_Bengal,Howrah,"Ghusuri, Howrah - WBPCB",08-04-2024 09:00:00,22.611968,88.347422,NO2,6,24,15
India,West_Bengal,Howrah,"Ghusuri, Howrah - WBPCB",08-04-2024 09:00:00,22.611968,88.347422,OZONE,13,23,16
India,West_Bengal,Kolkata,"Ballygunge, Kolkata - WBPCB",08-04-2024 09:00:00,22.5367507,88.3638022,PM2.5,45,91,70
India,West_Bengal,Kolkata,"Ballygunge, Kolkata - WBPCB",08-04-2024 09:00:00,22.5367507,88.3638022,PM10,48,88,72
India,West_Bengal,Kolkata,"Ballygunge, Kolkata - WBPCB",08-04-2024 09:00:00,22.5367507,88.3638022,CO,16,56,19
India,West_Bengal,Kolkata,"Bidhannagar, Kolkata - WBPCB",08-04-2024 09:00:00,22.58157048,88.41002457,PM2.5,43,70,58
India,West_Bengal,Kolkata,"Bidhannagar, Kolkata - WBPCB",08-04-2024 09:00:00,22.58157048,88.41002457,PM10,60,85,69
India,West_Bengal,Kolkata,"Bidhannagar, Kolkata - WBPCB",08-04-2024 09:00:00,22.58157048,88.41002457,NO2,23,54,31
India,West_Bengal,Kolkata,"Fort William, Kolkata - WBPCB",08-04-2024 09:00:00,22.556640,88.342674,PM2.5,54,82,64
India,West_Bengal,Kolkata,"Fort William, Kolkata - WBPCB",08-04-2024 09:00:00,22.556640,88.342674,NH3,3,5,4
India,West_Bengal,Kolkata,"Jadavpur, Kolkata - WBPCB",08-04-2024 09:00:00,22.49929,88.36917,PM10,53,90,67
India,West_Bengal,Kolkata,"Rabindra Sarobar, Kolkata - WBPCB",08-04-2024 09:00:00,22.51106,88.35142,NO2,16,97,38
India,West_Bengal,Kolkata,"Rabindra Sarobar, Kolkata - WBPCB",08-04-2024 09:00:00,22.51106,88.35142,OZONE,5,108,8
India,West_Bengal,Kolkata,"Victoria, Kolkata - WBPCB",08-04-2024 09:00:00,22.5448082,88.3403691,PM2.5,40,77,60
India,West_Bengal,Kolkata,"Victoria, Kolkata - WBPCB",08-04-2024 09:00:00,22.5448082,88.3403691,PM10,70,108,86
India,West_Bengal,Siliguri,"Ward-32 Bapupara, Siliguri - WBPCB",08-04-2024 09:00:00,26.6879226,88.4152495,SO2,7,15,11
India,Andhra_Pradesh,Amaravati,"Secretariat, Amaravati - APPCB",08-04-2024 09:00:00,16.5150833,80.5181667,PM2.5,15,62,34
India,Andhra_Pradesh,Anantapur,"Gulzarpet, Anantapur - APPCB",08-04-2024 09:00:00,14.675886,77.593027,SO2,6,10,8
India,Andhra_Pradesh,Rajamahendravaram,"Anand Kala Kshetram, Rajamahendravaram - APPCB",08-04-2024 09:00:00,16.9872867,81.7363176,NO2,8,23,15
India,Andhra_Pradesh,Vijayawada,"HB Colony, Vijayawada - APPCB",08-04-2024 09:00:00,16.536107,80.594233,PM2.5,37,54,46
India,Andhra_Pradesh,Vijayawada,"Kanuru, Vijayawada - APPCB",08-04-2024 09:00:00,16.486692,80.699436,PM10,55,89,69
India,Andhra_Pradesh,Vijayawada,"Kanuru, Vijayawada - APPCB",08-04-2024 09:00:00,16.486692,80.699436,NO2,14,17,15
India,Andhra_Pradesh,Vijayawada,"Kanuru, Vijayawada - APPCB",08-04-2024 09:00:00,16.486692,80.699436,CO,24,51,32
India,Andhra_Pradesh,Vijayawada,"Rajiv Gandhi Park, Vijayawada - APPCB",08-04-2024 09:00:00,16.509717,80.612222,NO2,11,54,24
India,Andhra_Pradesh,Vijayawada,"Rajiv Gandhi Park, Vijayawada - APPCB",08-04-2024 09:00:00,16.509717,80.612222,NH3,4,6,6
India,Andhra_Pradesh,Vijayawada,"Rajiv Nagar, Vijayawada - APPCB",08-04-2024 09:00:00,16.554731,80.649110,PM2.5,42,61,46
India,Arunachal_Pradesh,Naharlagun,"Naharlagun, Naharlagun - APSPCB",08-04-2024 09:00:00,27.103358,93.679645,PM10,60,141,96
India,Arunachal_Pradesh,Naharlagun,"Naharlagun, Naharlagun - APSPCB",08-04-2024 09:00:00,27.103358,93.679645,NO2,3,3,3
India,Arunachal_Pradesh,Naharlagun,"Naharlagun, Naharlagun - APSPCB",08-04-2024 09:00:00,27.103358,93.679645,SO2,4,4,4
India,Assam,Byrnihat,"Central Academy for SFS, Byrnihat - PCBA",08-04-2024 09:00:00,26.071318,91.87488,CO,32,74,45
India,Assam,Guwahati,"IITG, Guwahati - PCBA",08-04-2024 09:00:00,26.2028636,91.70046436,PM10,104,468,186
India,Assam,Guwahati,"Pan Bazaar, Guwahati - PCBA",08-04-2024 09:00:00,26.187500,91.744194,NO2,1,5,3
India,Assam,Guwahati,"Railway Colony, Guwahati - PCBA",08-04-2024 09:00:00,26.181742,91.78063,CO,17,46,26
India,Assam,Nagaon,"Christianpatty, Nagaon - PCBA",08-04-2024 09:00:00,26.349082,92.68449,CO,29,100,34
India,Assam,Nalbari,"Bata Chowk, Nalbari - PCBA",08-04-2024 09:00:00,26.446912,91.439057,PM2.5,82,157,128
India,Assam,Nalbari,"Bata Chowk, Nalbari - PCBA",08-04-2024 09:00:00,26.446912,91.439057,CO,8,121,22
India,Assam,Silchar,"Tarapur, Silchar - PCBA",08-04-2024 09:00:00,24.82827,92.79525,NO2,10,10,10
India,Assam,Silchar,"Tarapur, Silchar - PCBA",08-04-2024 09:00:00,24.82827,92.79525,NH3,1,1,1
India,Assam,Sivasagar,"Girls College, Sivasagar - PCBA",08-04-2024 09:00:00,26.987634,94.636574,PM2.5,21,80,47
India,Assam,Sivasagar,"Girls College, Sivasagar - PCBA",08-04-2024 09:00:00,26.987634,94.636574,NH3,1,1,1
India,Bihar,Aurangabad,"Gurdeo Nagar, Aurangabad - BSPCB",08-04-2024 09:00:00,24.75746,84.366208,PM10,NA,NA,NA
India,Bihar,Aurangabad,"Gurdeo Nagar, Aurangabad - BSPCB",08-04-2024 09:00:00,24.75746,84.366208,OZONE,24,77,33
India,Bihar,Bettiah,"Kamalnath Nagar, Bettiah - BSPCB",08-04-2024 09:00:00,26.80365,84.51954,PM2.5,43,217,100
India,Bihar,Bettiah,"Kamalnath Nagar, Bettiah - BSPCB",08-04-2024 09:00:00,26.80365,84.51954,OZONE,3,14,5
India,Bihar,Bhagalpur,"DM Office_Kachari Chowk, Bhagalpur - BSPCB",08-04-2024 09:00:00,25.251013,86.989001,CO,32,86,47
India,Bihar,Bhagalpur,"Mayaganj, Bhagalpur - BSPCB",08-04-2024 09:00:00,25.265194,87.012947,NH3,6,9,8
India,Bihar,Bihar Sharif,"D M Colony, Bihar Sharif - BSPCB",08-04-2024 09:00:00,25.204762,85.514960,SO2,NA,NA,NA
India,Bihar,Chhapra,"Darshan Nagar, Chhapra - BSPCB",08-04-2024 09:00:00,25.7808257,84.7446768,PM2.5,73,300,145
India,Bihar,Gaya,"Collectorate, Gaya - BSPCB",08-04-2024 09:00:00,24.7955,84.9994,CO,8,35,30
India,Bihar,Gaya,"SFTI Kusdihra, Gaya - BSPCB",08-04-2024 09:00:00,24.762518,84.982348,NH3,5,7,6
India,Bihar,Gaya,"SFTI Kusdihra, Gaya - BSPCB",08-04-2024 09:00:00,24.762518,84.982348,CO,8,32,18
India,Bihar,Hajipur,"Industrial Area, Hajipur - BSPCB",08-04-2024 09:00:00,25.697189,85.245900,PM10,106,237,165
India,Bihar,Hajipur,"Industrial Area, Hajipur - BSPCB",08-04-2024 09:00:00,25.697189,85.245900,NH3,6,8,7
India,Bihar,Hajipur,"Industrial Area, Hajipur - BSPCB",08-04-2024 09:00:00,25.697189,85.245900,CO,23,44,27
India,Bihar,Hajipur,"Industrial Area, Hajipur - BSPCB",08-04-2024 09:00:00,25.697189,85.245900,OZONE,3,75,14
India,Bihar,Katihar,"Mirchaibari, Katihar - BSPCB",08-04-2024 09:00:00,25.560083,87.553265,PM2.5,17,68,44
India,Bihar,Kishanganj,"SDM Office_Khagra, Kishanganj - BSPCB",08-04-2024 09:00:00,26.0881305,87.93840336,NO2,29,33,30
India,Bihar,Kishanganj,"SDM Office_Khagra, Kishanganj - BSPCB",08-04-2024 09:00:00,26.0881305,87.93840336,NH3,9,10,10
India,Bihar,Manguraha,"Forest Rest House, Manguraha - BSPCB",08-04-2024 09:00:00,27.308328,84.531742,CO,44,105,69
India,Bihar,Munger,"Town Hall, Munger - BSPCB",08-04-2024 09:00:00,25.376776,86.471523,SO2,22,36,29
India,Bihar,Muzaffarpur,"Buddha Colony, Muzaffarpur - BSPCB",08-04-2024 09:00:00,26.11442,85.39813,NO2,14,42,26
India,Bihar,Muzaffarpur,"MIT-Daudpur Kothi, Muzaffarpur - BSPCB",08-04-2024 09:00:00,26.1403345,85.3650192,NH3,3,4,3
India,Bihar,Muzaffarpur,"Muzaffarpur Collectorate, Muzaffarpur - BSPCB",08-04-2024 09:00:00,26.1209,85.3647,PM2.5,34,250,75
India,Bihar,Muzaffarpur,"Muzaffarpur Collectorate, Muzaffarpur - BSPCB",08-04-2024 09:00:00,26.1209,85.3647,OZONE,44,126,44
India,Bihar,Patna,"DRM Office Danapur, Patna - BSPCB",08-04-2024 09:00:00,25.586562,85.043586,PM10,69,143,105
India,Bihar,Patna,"DRM Office Danapur, Patna - BSPCB",08-04-2024 09:00:00,25.586562,85.043586,NH3,3,3,3
India,Bihar,Patna,"DRM Office Danapur, Patna - BSPCB",08-04-2024 09:00:00,25.586562,85.043586,SO2,10,23,13
India,Bihar,Purnia,"Mariam Nagar, Purnia - BSPCB",08-04-2024 09:00:00,25.366336,87.117468,NH3,1,3,2
India,Bihar,Purnia,"Mariam Nagar, Purnia - BSPCB",08-04-2024 09:00:00,25.366336,87.117468,OZONE,8,17,10
India,Bihar,Rajgir,"Dangi Tola, Rajgir - BSPCB",08-04-2024 09:00:00,25.03280,85.41948,NO2,17,20,18
India,Bihar,Rajgir,"Dangi Tola, Rajgir - BSPCB",08-04-2024 09:00:00,25.03280,85.41948,SO2,2,5,4
India,Bihar,Saharsa,"Police Line, Saharsa - BSPCB",08-04-2024 09:00:00,25.892357,86.590325,PM2.5,17,63,38
India,Bihar,Saharsa,"Police Line, Saharsa - BSPCB",08-04-2024 09:00:00,25.892357,86.590325,NO2,6,8,7
India,Bihar,Saharsa,"Police Line, Saharsa - BSPCB",08-04-2024 09:00:00,25.892357,86.590325,NH3,9,9,9
India,Bihar,Saharsa,"Police Line, Saharsa - BSPCB",08-04-2024 09:00:00,25.892357,86.590325,CO,16,36,26
India,Bihar,Samastipur,"DM Office_Kasipur, Samastipur - BSPCB",08-04-2024 09:00:00,25.859655,85.77944,PM2.5,NA,NA,NA
India,Bihar,Samastipur,"DM Office_Kasipur, Samastipur - BSPCB",08-04-2024 09:00:00,25.859655,85.77944,CO,2,31,20
India,Bihar,Sasaram,"Dada Peer, Sasaram - BSPCB",08-04-2024 09:00:00,24.952822,84.002396,SO2,21,23,23
India,Bihar,Sasaram,"Dada Peer, Sasaram - BSPCB",08-04-2024 09:00:00,24.952822,84.002396,CO,102,114,105
India,Bihar,Siwan,"Chitragupta Nagar, Siwan - BSPCB",08-04-2024 09:00:00,26.2271665,84.3570427,PM2.5,20,117,49
India,Bihar,Siwan,"Chitragupta Nagar, Siwan - BSPCB",08-04-2024 09:00:00,26.2271665,84.3570427,SO2,24,34,32
India,Chandigarh,Chandigarh,"Sector 22, Chandigarh - CPCC",08-04-2024 09:00:00,30.735567,76.775714,CO,30,50,43
India,Chandigarh,Chandigarh,"Sector 22, Chandigarh - CPCC",08-04-2024 09:00:00,30.735567,76.775714,OZONE,33,191,55
India,Chandigarh,Chandigarh,"Sector-25, Chandigarh - CPCC",08-04-2024 09:00:00,30.751462,76.762879,NH3,9,15,12
India,Chandigarh,Chandigarh,"Sector-53, Chandigarh - CPCC",08-04-2024 09:00:00,30.719859,76.738637,PM10,45,137,79
India,Chandigarh,Chandigarh,"Sector-53, Chandigarh - CPCC",08-04-2024 09:00:00,30.719859,76.738637,NH3,4,7,5
India,Chhattisgarh,Bhilai,"Civic Center, Bhilai - Bhilai Steel Plant",08-04-2024 09:00:00,21.185571,81.343175,CO,28,63,38
India,Chhattisgarh,Bhilai,"Hathkhoj, Bhilai - CECB",08-04-2024 09:00:00,21.224231,81.408350,SO2,10,30,13
India,Chhattisgarh,Chhal,"Nawapara SECL Colony, Chhal - CECB",08-04-2024 09:00:00,22.118125,83.140608,PM2.5,20,284,78
India,Chhattisgarh,Chhal,"Nawapara SECL Colony, Chhal - CECB",08-04-2024 09:00:00,22.118125,83.140608,PM10,18,168,64
India,Chhattisgarh,Chhal,"Nawapara SECL Colony, Chhal - CECB",08-04-2024 09:00:00,22.118125,83.140608,NH3,2,2,2
India,Chhattisgarh,Korba,"Rampur, Korba - CECB",08-04-2024 09:00:00,22.368195,82.746431,SO2,12,25,16
India,Chhattisgarh,Korba,"Urja Nagar, Korba - CECB",08-04-2024 09:00:00,22.348441,82.549611,SO2,2,5,4
India,Chhattisgarh,Kunjemura,"OP Jindal School, Kunjemura - CECB",08-04-2024 09:00:00,22.126650,83.483212,CO,20,44,31
India,Chhattisgarh,Kunjemura,"OP Jindal School, Kunjemura - CECB",08-04-2024 09:00:00,22.126650,83.483212,OZONE,9,53,25
India,Chhattisgarh,Raipur,"AIIMS, Raipur - CECB",08-04-2024 09:00:00,21.258815,81.578979,PM2.5,22,76,50
India,Chhattisgarh,Raipur,"AIIMS, Raipur - CECB",08-04-2024 09:00:00,21.258815,81.578979,NH3,5,6,5
India,Chhattisgarh,Raipur,"AIIMS, Raipur - CECB",08-04-2024 09:00:00,21.258815,81.578979,SO2,5,35,11
India,Chhattisgarh,Raipur,"AIIMS, Raipur - CECB",08-04-2024 09:00:00,21.258815,81.578979,OZONE,1,17,2
India,Chhattisgarh,Raipur,"Bhatagaon New ISBT, Raipur - CECB",08-04-2024 09:00:00,21.219665,81.630094,SO2,1,3,2
India,Chhattisgarh,Raipur,"Bhatagaon New ISBT, Raipur - CECB",08-04-2024 09:00:00,21.219665,81.630094,CO,12,54,16
India,Delhi,Delhi,"Alipur, Delhi - DPCC",08-04-2024 09:00:00,28.815329,77.153010,PM10,58,410,183
India,Delhi,Delhi,"Alipur, Delhi - DPCC",08-04-2024 09:00:00,28.815329,77.153010,NH3,3,11,5
India,Delhi,Delhi,"Alipur, Delhi - DPCC",08-04-2024 09:00:00,28.815329,77.153010,CO,24,80,60
India,Delhi,Delhi,"Anand Vihar, Delhi - DPCC",08-04-2024 09:00:00,28.647622,77.3158090,SO2,3,56,20
India,Delhi,Delhi,"Aya Nagar, Delhi - IMD",08-04-2024 09:00:00,28.4706914,77.1099364,PM10,75,247,130
India,Delhi,Delhi,"Aya Nagar, Delhi - IMD",08-04-2024 09:00:00,28.4706914,77.1099364,NO2,11,20,16
India,Delhi,Delhi,"Bawana, Delhi - DPCC",08-04-2024 09:00:00,28.776200,77.051074,PM2.5,30,485,237
India,Delhi,Delhi,"Burari Crossing, Delhi - IMD",08-04-2024 09:00:00,28.7256504,77.2011573,NO2,19,36,28
India,Delhi,Delhi,"Burari Crossing, Delhi - IMD",08-04-2024 09:00:00,28.7256504,77.2011573,CO,11,46,38
India,Delhi,Delhi,"Burari Crossing, Delhi - IMD",08-04-2024 09:00:00,28.7256504,77.2011573,OZONE,14,75,18
India,Delhi,Delhi,"CRRI Mathura Road, Delhi - IMD",08-04-2024 09:00:00,28.5512005,77.2735737,OZONE,1,72,3
India,Delhi,Delhi,"Chandni Chowk, Delhi - IITM",08-04-2024 09:00:00,28.656756,77.227234,CO,46,50,49
India,Delhi,Delhi,"Dr. Karni Singh Shooting Range, Delhi - DPCC",08-04-2024 09:00:00,28.498571,77.264840,PM10,77,272,140
India,Delhi,Delhi,"Dr. Karni Singh Shooting Range, Delhi - DPCC",08-04-2024 09:00:00,28.498571,77.264840,SO2,20,58,31
India,Delhi,Delhi,"Dwarka-Sector 8, Delhi - DPCC ",08-04-2024 09:00:00,28.5710274,77.0719006,PM10,84,500,233
India,Delhi,Delhi,"Dwarka-Sector 8, Delhi - DPCC ",08-04-2024 09:00:00,28.5710274,77.0719006,NH3,3,6,4
India,Delhi,Delhi,"Dwarka-Sector 8, Delhi - DPCC ",08-04-2024 09:00:00,28.5710274,77.0719006,CO,39,122,88
India,Delhi,Delhi,"Dwarka-Sector 8, Delhi - DPCC ",08-04-2024 09:00:00,28.5710274,77.0719006,OZONE,2,79,8
India,Delhi,Delhi,"IHBAS, Dilshad Garden, Delhi - CPCB",08-04-2024 09:00:00,28.6811736,77.3025234,PM2.5,107,202,145
India,Delhi,Delhi,"IHBAS, Dilshad Garden, Delhi - CPCB",08-04-2024 09:00:00,28.6811736,77.3025234,NH3,6,20,10
India,Delhi,Delhi,"ITO, Delhi - CPCB",08-04-2024 09:00:00,28.628624,77.241060,PM10,29,154,73
India,Delhi,Delhi,"Jahangirpuri, Delhi - DPCC",08-04-2024 09:00:00,28.732820,77.170633,SO2,7,112,51
India,Delhi,Delhi,"Jawaharlal Nehru Stadium, Delhi - DPCC",08-04-2024 09:00:00,28.580280,77.233829,NO2,19,153,88
India,Delhi,Delhi,"Jawaharlal Nehru Stadium, Delhi - DPCC",08-04-2024 09:00:00,28.580280,77.233829,SO2,2,100,30
India,Delhi,Delhi,"Lodhi Road, Delhi - IITM",08-04-2024 09:00:00,28.588333,77.221667,CO,59,68,67
India,Delhi,Delhi,"Lodhi Road, Delhi - IMD",08-04-2024 09:00:00,28.5918245,77.2273074,PM2.5,8,340,101
India,Delhi,Delhi,"Lodhi Road, Delhi - IMD",08-04-2024 09:00:00,28.5918245,77.2273074,CO,14,34,31
India,Delhi,Delhi,"Mandir Marg, Delhi - DPCC",08-04-2024 09:00:00,28.636429,77.201067,PM2.5,21,328,99
India,Delhi,Delhi,"NSIT Dwarka, Delhi - CPCB",08-04-2024 09:00:00,28.60909,77.0325413,PM2.5,91,385,260
India,Delhi,Delhi,"NSIT Dwarka, Delhi - CPCB",08-04-2024 09:00:00,28.60909,77.0325413,NO2,43,77,58
India,Delhi,Delhi,"NSIT Dwarka, Delhi - CPCB",08-04-2024 09:00:00,28.60909,77.0325413,OZONE,4,82,12
India,Delhi,Delhi,"Najafgarh, Delhi - DPCC",08-04-2024 09:00:00,28.570173,76.933762,OZONE,9,154,29
India,Delhi,Delhi,"Narela, Delhi - DPCC",08-04-2024 09:00:00,28.822836,77.101981,PM10,72,416,189
India,Delhi,Delhi,"Narela, Delhi - DPCC",08-04-2024 09:00:00,28.822836,77.101981,NH3,3,7,6
India,Delhi,Delhi,"Nehru Nagar, Delhi - DPCC",08-04-2024 09:00:00,28.567890,77.250515,PM10,64,235,138
India,Delhi,Delhi,"Nehru Nagar, Delhi - DPCC",08-04-2024 09:00:00,28.567890,77.250515,NH3,3,4,3
India,Delhi,Delhi,"North Campus, DU, Delhi - IMD",08-04-2024 09:00:00,28.6573814,77.1585447,NO2,8,46,27
India,Delhi,Delhi,"Okhla Phase-2, Delhi - DPCC",08-04-2024 09:00:00,28.530785,77.271255,PM2.5,16,313,122
India,Delhi,Delhi,"Okhla Phase-2, Delhi - DPCC",08-04-2024 09:00:00,28.530785,77.271255,NO2,28,159,99
India,Delhi,Delhi,"Pusa, Delhi - DPCC",08-04-2024 09:00:00,28.639652,77.146275,PM2.5,23,340,109
India,Delhi,Delhi,"Pusa, Delhi - DPCC",08-04-2024 09:00:00,28.639652,77.146275,PM10,90,285,157
India,Delhi,Delhi,"Pusa, Delhi - DPCC",08-04-2024 09:00:00,28.639652,77.146275,NH3,5,11,8
India,Delhi,Delhi,"Pusa, Delhi - DPCC",08-04-2024 09:00:00,28.639652,77.146275,SO2,6,87,23
India,Delhi,Delhi,"Pusa, Delhi - IMD",08-04-2024 09:00:00,28.636110,77.173332,CO,61,98,93
India,Delhi,Delhi,"Rohini, Delhi - DPCC",08-04-2024 09:00:00,28.732528,77.119920,PM2.5,11,436,202
India,Delhi,Delhi,"Rohini, Delhi - DPCC",08-04-2024 09:00:00,28.732528,77.119920,NH3,6,21,11
India,Delhi,Delhi,"Shadipur, Delhi - CPCB",08-04-2024 09:00:00,28.6514781,77.1473105,PM10,111,452,204
India,Delhi,Delhi,"Shadipur, Delhi - CPCB",08-04-2024 09:00:00,28.6514781,77.1473105,SO2,12,40,22
India,Delhi,Delhi,"Sirifort, Delhi - CPCB",08-04-2024 09:00:00,28.5504249,77.2159377,NO2,43,78,60
India,Delhi,Delhi,"Sirifort, Delhi - CPCB",08-04-2024 09:00:00,28.5504249,77.2159377,OZONE,7,36,8
India,Delhi,Delhi,"Sonia Vihar, Delhi - DPCC",08-04-2024 09:00:00,28.710508,77.249485,PM10,60,322,162
India,Delhi,Delhi,"Sonia Vihar, Delhi - DPCC",08-04-2024 09:00:00,28.710508,77.249485,NO2,16,112,62
India,Delhi,Delhi,"Sri Aurobindo Marg, Delhi - DPCC",08-04-2024 09:00:00,28.531346,77.190156,NO2,11,106,59
India,Delhi,Delhi,"Sri Aurobindo Marg, Delhi - DPCC",08-04-2024 09:00:00,28.531346,77.190156,OZONE,9,114,13
India,Delhi,Delhi,"Vivek Vihar, Delhi - DPCC",08-04-2024 09:00:00,28.672342,77.315260,PM10,78,315,162
India,Delhi,Delhi,"Vivek Vihar, Delhi - DPCC",08-04-2024 09:00:00,28.672342,77.315260,NO2,21,118,71
India,Delhi,Delhi,"Vivek Vihar, Delhi - DPCC",08-04-2024 09:00:00,28.672342,77.315260,CO,6,93,43
India,Delhi,Delhi,"Wazirpur, Delhi - DPCC",08-04-2024 09:00:00,28.699793,77.165453,PM10,88,417,206
India,Gujarat,Ahmedabad,"Chandkheda, Ahmedabad - IITM",08-04-2024 09:00:00,23.107969,72.574648,PM2.5,52,325,135
India,Gujarat,Ahmedabad,"Gyaspur, Ahmedabad - IITM",08-04-2024 09:00:00,22.977134,72.553024,NO2,21,69,38
India,Gujarat,Ahmedabad,"Gyaspur, Ahmedabad - IITM",08-04-2024 09:00:00,22.977134,72.553024,OZONE,2,32,5
India,Gujarat,Ahmedabad,"Maninagar, Ahmedabad - GPCB",08-04-2024 09:00:00,23.002657,72.591912,PM2.5,25,377,159
India,Gujarat,Ahmedabad,"Maninagar, Ahmedabad - GPCB",08-04-2024 09:00:00,23.002657,72.591912,NO2,22,105,43
India,Gujarat,Ahmedabad,"Raikhad, Ahmedabad - IITM",08-04-2024 09:00:00,23.020509,72.579261,NO2,28,122,53
India,Gujarat,Ahmedabad,"SVPI Airport Hansol, Ahmedabad - IITM",08-04-2024 09:00:00,23.076793,72.627874,PM2.5,56,180,100
India,Gujarat,Ahmedabad,"SVPI Airport Hansol, Ahmedabad - IITM",08-04-2024 09:00:00,23.076793,72.627874,PM10,73,158,108
India,Gujarat,Ahmedabad,"SVPI Airport Hansol, Ahmedabad - IITM",08-04-2024 09:00:00,23.076793,72.627874,NO2,14,18,16
India,Gujarat,Ahmedabad,"SVPI Airport Hansol, Ahmedabad - IITM",08-04-2024 09:00:00,23.076793,72.627874,NH3,4,5,4
India,Gujarat,Ahmedabad,"SVPI Airport Hansol, Ahmedabad - IITM",08-04-2024 09:00:00,23.076793,72.627874,SO2,3,23,10
India,Gujarat,Ahmedabad,"Sardar Vallabhbhai Patel Stadium, Ahmedabad - IITM",08-04-2024 09:00:00,23.043070,72.562968,PM10,50,122,86
India,Gujarat,Ahmedabad,"Sardar Vallabhbhai Patel Stadium, Ahmedabad - IITM",08-04-2024 09:00:00,23.043070,72.562968,SO2,4,16,9
India,Gujarat,Ahmedabad,"Sardar Vallabhbhai Patel Stadium, Ahmedabad - IITM",08-04-2024 09:00:00,23.043070,72.562968,CO,32,103,39
India,Gujarat,Ahmedabad,"Sardar Vallabhbhai Patel Stadium, Ahmedabad - IITM",08-04-2024 09:00:00,23.043070,72.562968,OZONE,5,20,12
India,Gujarat,Ankleshwar,"GIDC, Ankleshwar - GPCB",08-04-2024 09:00:00,21.613267,73.010555,PM10,40,66,54
India,Gujarat,Gandhinagar,"IIPHG Lekawada, Gandhinagar - IITM",08-04-2024 09:00:00,23.243639,72.68994,PM2.5,NA,NA,NA
India,Gujarat,Gandhinagar,"IIPHG Lekawada, Gandhinagar - IITM",08-04-2024 09:00:00,23.243639,72.68994,CO,NA,NA,NA
India,Gujarat,Gandhinagar,"Sector-10, Gandhinagar - GPCB",08-04-2024 09:00:00,23.221714,72.654328,PM10,27,96,54
India,Gujarat,Gandhinagar,"Sector-10, Gandhinagar - GPCB",08-04-2024 09:00:00,23.221714,72.654328,CO,15,84,34
India,Gujarat,Vapi,"Phase-1 GIDC, Vapi - GPCB",08-04-2024 09:00:00,20.362421,72.918013,NO2,6,7,7
India,Gujarat,Vapi,"Phase-1 GIDC, Vapi - GPCB",08-04-2024 09:00:00,20.362421,72.918013,OZONE,1,3,1
India,Gujarat,Vatva,"Phase-4 GIDC, Vatva - GPCB",08-04-2024 09:00:00,22.969611,72.643500,NO2,36,140,75
India,Haryana,Bahadurgarh,"Arya Nagar, Bahadurgarh - HSPCB",08-04-2024 09:00:00,28.6701,76.9254,NO2,33,39,36
India,Haryana,Bhiwani,"H.B. Colony, Bhiwani - HSPCB",08-04-2024 09:00:00,28.806223,76.141105,PM10,52,141,88
India,Haryana,Bhiwani,"H.B. Colony, Bhiwani - HSPCB",08-04-2024 09:00:00,28.806223,76.141105,SO2,2,17,10
India,Haryana,Charkhi Dadri,"Mini Secretariat, Charkhi Dadri - HSPCB",08-04-2024 09:00:00,28.593883,76.270653,NH3,6,8,7
India,Haryana,Charkhi Dadri,"Mini Secretariat, Charkhi Dadri - HSPCB",08-04-2024 09:00:00,28.593883,76.270653,CO,14,73,56
India,Haryana,Faridabad,"New Industrial Town, Faridabad - HSPCB",08-04-2024 09:00:00,28.39072,77.30059,CO,7,42,36
India,Haryana,Faridabad,"Sector 11, Faridabad - HSPCB",08-04-2024 09:00:00,28.376058,77.315741,NH3,NA,NA,NA
India,Haryana,Faridabad,"Sector 11, Faridabad - HSPCB",08-04-2024 09:00:00,28.376058,77.315741,SO2,NA,NA,NA
India,Haryana,Faridabad,"Sector 11, Faridabad - HSPCB",08-04-2024 09:00:00,28.376058,77.315741,CO,32,59,55
India,Haryana,Faridabad,"Sector- 16A, Faridabad - HSPCB",08-04-2024 09:00:00,28.4088421,77.3099081,SO2,2,24,13
India,Haryana,Fatehabad,"Huda Sector, Fatehabad - HSPCB",08-04-2024 09:00:00,29.503664,75.467934,PM2.5,15,152,52
India,Haryana,Fatehabad,"Huda Sector, Fatehabad - HSPCB",08-04-2024 09:00:00,29.503664,75.467934,NO2,37,38,37
India,Haryana,Fatehabad,"Huda Sector, Fatehabad - HSPCB",08-04-2024 09:00:00,29.503664,75.467934,SO2,10,11,11
India,Haryana,Gurugram,"Sector-51, Gurugram - HSPCB",08-04-2024 09:00:00,28.4227,77.0667,PM10,81,331,169
India,Haryana,Gurugram,"Sector-51, Gurugram - HSPCB",08-04-2024 09:00:00,28.4227,77.0667,NO2,13,29,23
India,Haryana,Gurugram,"Teri Gram, Gurugram - HSPCB",08-04-2024 09:00:00,28.4275,77.1465,CO,11,32,30
India,Haryana,Gurugram,"Vikas Sadan, Gurugram - HSPCB",08-04-2024 09:00:00,28.4501238,77.0263051,PM2.5,75,316,157
India,Haryana,Gurugram,"Vikas Sadan, Gurugram - HSPCB",08-04-2024 09:00:00,28.4501238,77.0263051,OZONE,8,68,11
India,Haryana,Hisar,"Urban Estate-II, Hisar - HSPCB",08-04-2024 09:00:00,29.140560,75.744941,SO2,11,48,30
India,Haryana,Jind,"Police Lines, Jind - HSPCB",08-04-2024 09:00:00,29.307814,76.337619,NH3,2,5,4
India,Haryana,Kaithal,"Rishi Nagar, Kaithal - HSPCB",08-04-2024 09:00:00,29.8006,76.4155,NO2,24,26,25
India,Haryana,Kaithal,"Rishi Nagar, Kaithal - HSPCB",08-04-2024 09:00:00,29.8006,76.4155,OZONE,7,11,8
India,Haryana,Kurukshetra,"Sector-7, Kurukshetra - HSPCB",08-04-2024 09:00:00,29.966942,76.875879,PM2.5,38,113,64
India,Haryana,Kurukshetra,"Sector-7, Kurukshetra - HSPCB",08-04-2024 09:00:00,29.966942,76.875879,PM10,59,106,75
India,Haryana,Kurukshetra,"Sector-7, Kurukshetra - HSPCB",08-04-2024 09:00:00,29.966942,76.875879,CO,8,30,19
India,Haryana,Mandikhera,"General Hospital, Mandikhera - HSPCB",08-04-2024 09:00:00,27.9002,76.9938,SO2,30,37,34
India,Haryana,Manesar,"Sector-2 IMT, Manesar - HSPCB",08-04-2024 09:00:00,28.360699,76.936090,SO2,11,24,18
India,Haryana,Manesar,"Sector-2 IMT, Manesar - HSPCB",08-04-2024 09:00:00,28.360699,76.936090,CO,14,57,44
India,Haryana,Narnaul,"Shastri Nagar, Narnaul - HSPCB",08-04-2024 09:00:00,28.060249,76.113115,PM2.5,31,303,69
India,Haryana,Palwal,"Shyam Nagar, Palwal - HSPCB",08-04-2024 09:00:00,28.1485564,77.3320667,SO2,4,16,9
India,Haryana,Panchkula,"Sector-6, Panchkula - HSPCB ",08-04-2024 09:00:00,30.7057778,76.8531805555555,CO,6,12,9
India,Haryana,Rohtak,"MD University, Rohtak - HSPCB",08-04-2024 09:00:00,28.52123,76.37138,PM2.5,2,380,146
India,Haryana,Rohtak,"MD University, Rohtak - HSPCB",08-04-2024 09:00:00,28.52123,76.37138,CO,1,102,39
India,Haryana,Sirsa,"F-Block, Sirsa - HSPCB",08-04-2024 09:00:00,29.536400,75.015800,SO2,69,81,78
India,Haryana,Sonipat,"Murthal, Sonipat - HSPCB",08-04-2024 09:00:00,29.027200,77.062100,PM10,98,101,100
India,Haryana,Yamuna Nagar,"Gobind Pura, Yamuna Nagar - HSPCB",08-04-2024 09:00:00,30.1480566,77.2893471,NO2,11,29,18
India,Karnataka,Bagalkot,"Vidayagiri, Bagalkot - KSPCB",08-04-2024 09:00:00,16.172806,75.659694,PM2.5,27,41,39
India,Karnataka,Bagalkot,"Vidayagiri, Bagalkot - KSPCB",08-04-2024 09:00:00,16.172806,75.659694,NH3,1,2,1
India,Karnataka,Belgaum,"Ramteerth Nagar, Belgaum - KSPCB",08-04-2024 09:00:00,15.888653,74.541751,NO2,26,29,27
India,Karnataka,Bengaluru,"BTM Layout, Bengaluru - CPCB",08-04-2024 09:00:00,12.9135218,77.5950804,PM10,34,84,54
India,Karnataka,Bengaluru,"BTM Layout, Bengaluru - CPCB",08-04-2024 09:00:00,12.9135218,77.5950804,NO2,27,27,27
India,Karnataka,Bengaluru,"BTM Layout, Bengaluru - CPCB",08-04-2024 09:00:00,12.9135218,77.5950804,CO,46,48,46
India,Karnataka,Bengaluru,"Bapuji Nagar, Bengaluru - KSPCB",08-04-2024 09:00:00,12.951913,77.539784,PM2.5,63,108,85
India,Karnataka,Bengaluru,"Bapuji Nagar, Bengaluru - KSPCB",08-04-2024 09:00:00,12.951913,77.539784,NO2,10,11,11
India,Karnataka,Bengaluru,"Bapuji Nagar, Bengaluru - KSPCB",08-04-2024 09:00:00,12.951913,77.539784,NH3,1,1,1
India,Karnataka,Bengaluru,"Hebbal, Bengaluru - KSPCB",08-04-2024 09:00:00,13.029152,77.585901,PM10,NA,NA,NA
India,Karnataka,Bengaluru,"Hebbal, Bengaluru - KSPCB",08-04-2024 09:00:00,13.029152,77.585901,CO,18,18,18
India,Karnataka,Bengaluru,"Hombegowda Nagar, Bengaluru - KSPCB",08-04-2024 09:00:00,12.938539,77.590100,CO,9,15,12
India,Karnataka,Bengaluru,"Kasturi Nagar, Bengaluru - KSPCB",08-04-2024 09:00:00,13.003872,77.664217,PM10,82,500,119
India,Karnataka,Bengaluru,"RVCE-Mailasandra, Bengaluru - KSPCB",08-04-2024 09:00:00,12.921418,77.502466,CO,28,66,32
India,Karnataka,Bengaluru,"Sanegurava Halli, Bengaluru - KSPCB",08-04-2024 09:00:00,12.990328,77.5431385,NO2,22,56,28
India,Karnataka,Bengaluru,"Shivapura_Peenya, Bengaluru - KSPCB",08-04-2024 09:00:00,13.0246342,77.5080115,PM10,33,70,53
India,Karnataka,Bengaluru,"Shivapura_Peenya, Bengaluru - KSPCB",08-04-2024 09:00:00,13.0246342,77.5080115,NO2,15,16,16
India,Karnataka,Bengaluru,"Shivapura_Peenya, Bengaluru - KSPCB",08-04-2024 09:00:00,13.0246342,77.5080115,CO,29,74,36
India,Karnataka,Bengaluru,"Silk Board, Bengaluru - KSPCB",08-04-2024 09:00:00,12.917348,77.622813,PM10,37,82,60
India,Karnataka,Bengaluru,"Silk Board, Bengaluru - KSPCB",08-04-2024 09:00:00,12.917348,77.622813,NH3,4,5,4
India,Karnataka,Bengaluru,"Silk Board, Bengaluru - KSPCB",08-04-2024 09:00:00,12.917348,77.622813,OZONE,9,43,21
India,Karnataka,Bidar,"Naubad, Bidar - KSPCB",08-04-2024 09:00:00,17.930306,77.482194,PM2.5,55,182,93
India,Karnataka,Bidar,"Naubad, Bidar - KSPCB",08-04-2024 09:00:00,17.930306,77.482194,SO2,16,23,19
India,Karnataka,Bidar,"Naubad, Bidar - KSPCB",08-04-2024 09:00:00,17.930306,77.482194,CO,64,98,80
India,Karnataka,Chamarajanagar,"Urban, Chamarajanagar - KSPCB",08-04-2024 09:00:00,11.55358,76.55521,PM2.5,20,40,29
India,Karnataka,Chamarajanagar,"Urban, Chamarajanagar - KSPCB",08-04-2024 09:00:00,11.55358,76.55521,NH3,1,2,1
India,Karnataka,Chamarajanagar,"Urban, Chamarajanagar - KSPCB",08-04-2024 09:00:00,11.55358,76.55521,CO,19,26,21
India,Karnataka,Chikkaballapur,"Chikkaballapur Rural, Chikkaballapur - KSPCB",08-04-2024 09:00:00,13.428828,77.731418,SO2,16,27,20
India,Karnataka,Chikkamagaluru,"Kalyana Nagara, Chikkamagaluru - KSPCB",08-04-2024 09:00:00,13.328028,75.797056,OZONE,18,38,21
India,Karnataka,Davanagere,"Devaraj Urs Badavane, Davanagere - KSPCB",08-04-2024 09:00:00,14.475800,75.905200,PM10,44,110,74
India,Karnataka,Dharwad,"Kalabhavan, Dharwad - KSPCB",08-04-2024 09:00:00,15.459706,75.008381,NH3,NA,NA,NA
India,Karnataka,Haveri,"Ashwini Nagar, Haveri - KSPCB",08-04-2024 09:00:00,14.791800,75.389600,PM2.5,40,70,54
India,Karnataka,Hubballi,"Deshpande Nagar, Hubballi - KSPCB",08-04-2024 09:00:00,15.351773,75.140726,PM2.5,46,78,56
India,Karnataka,Hubballi,"Deshpande Nagar, Hubballi - KSPCB",08-04-2024 09:00:00,15.351773,75.140726,NO2,26,27,27
India,Karnataka,Hubballi,"Deshpande Nagar, Hubballi - KSPCB",08-04-2024 09:00:00,15.351773,75.140726,CO,NA,NA,NA
India,Karnataka,Hubballi,"Lingaraj Nagar, Hubballi - KSPCB",08-04-2024 09:00:00,15.3714823,75.1160168,PM10,49,74,61
India,Karnataka,Hubballi,"Lingaraj Nagar, Hubballi - KSPCB",08-04-2024 09:00:00,15.3714823,75.1160168,NO2,5,12,8
India,Karnataka,Kalaburagi,"Lal Bahadur Shastri Nagar, Kalaburagi - KSPCB",08-04-2024 09:00:00,17.321993,76.822628,PM10,45,157,87
India,Karnataka,Kalaburagi,"Mahatma Basaveswar Colony, Kalaburgi - KSPCB",08-04-2024 09:00:00,17.336318,76.847397,CO,42,58,55
India,Karnataka,Kolar,"Tamaka Ind. Area, Kolar - KSPCB",08-04-2024 09:00:00,13.1276288,78.1570122,PM2.5,NA,NA,NA
India,Karnataka,Kolar,"Tamaka Ind. Area, Kolar - KSPCB",08-04-2024 09:00:00,13.1276288,78.1570122,PM10,NA,NA,NA
India,Karnataka,Koppal,"Diwator Nagar, Koppal - KSPCB",08-04-2024 09:00:00,15.347630,76.181767,OZONE,37,66,40
India,Karnataka,Madikeri,"Stuart Hill, Madikeri - KSPCB",08-04-2024 09:00:00,12.415911,75.735050,PM2.5,28,50,36
India,Karnataka,Madikeri,"Stuart Hill, Madikeri - KSPCB",08-04-2024 09:00:00,12.415911,75.735050,SO2,4,4,4
India,Karnataka,Madikeri,"Stuart Hill, Madikeri - KSPCB",08-04-2024 09:00:00,12.415911,75.735050,CO,3,102,31
India,Karnataka,Mysuru,"Hebbal 1st Stage, Mysuru - KSPCB",08-04-2024 09:00:00,12.21041,76.37376,PM10,35,54,39
India,Karnataka,Mysuru,"Hebbal 1st Stage, Mysuru - KSPCB",08-04-2024 09:00:00,12.21041,76.37376,OZONE,11,99,15
India,Karnataka,Ramanagara,"Vijay Nagar, Ramanagara - KSPCB",08-04-2024 09:00:00,12.733409,77.298051,PM2.5,NA,NA,NA
India,Karnataka,Ramanagara,"Vijay Nagar, Ramanagara - KSPCB",08-04-2024 09:00:00,12.733409,77.298051,NO2,NA,NA,NA
India,Karnataka,Shivamogga,"Vinoba Nagara, Shivamogga - KSPCB",08-04-2024 09:00:00,13.940000,75.555917,NH3,2,3,3
India,Karnataka,Shivamogga,"Vinoba Nagara, Shivamogga - KSPCB",08-04-2024 09:00:00,13.940000,75.555917,SO2,3,11,8
India,Karnataka,Shivamogga,"Vinoba Nagara, Shivamogga - KSPCB",08-04-2024 09:00:00,13.940000,75.555917,OZONE,29,81,46
India,Karnataka,Yadgir,"Collector Office, Yadgir - KSPCB",08-04-2024 09:00:00,16.7602,77.1428,CO,20,28,24
India,Kerala,Kollam,"Polayathode, Kollam - Kerala PCB",08-04-2024 09:00:00,8.8787,76.6073,OZONE,33,37,34
India,Kerala,Thiruvananthapuram,"Kariavattom, Thiruvananthapuram - Kerala PCB",08-04-2024 09:00:00,8.563700,76.886500,NO2,8,9,9
India,Kerala,Thiruvananthapuram,"Plammoodu, Thiruvananthapuram - Kerala PCB",08-04-2024 09:00:00,8.5149093,76.9435879,PM2.5,7,43,22
India,Madhya Pradesh,Bhopal,"Idgah Hills, Bhopal - MPPCB",08-04-2024 09:00:00,23.264759,77.381568,PM10,62,177,101
India,Madhya Pradesh,Bhopal,"Idgah Hills, Bhopal - MPPCB",08-04-2024 09:00:00,23.264759,77.381568,NO2,23,49,33
India,Madhya Pradesh,Bhopal,"Paryavaran Parisar, Bhopal - MPPCB",08-04-2024 09:00:00,23.210494,77.425409,CO,6,86,20
India,Madhya Pradesh,Bhopal,"Paryavaran Parisar, Bhopal - MPPCB",08-04-2024 09:00:00,23.210494,77.425409,OZONE,5,125,40
India,Madhya Pradesh,Bhopal,"T T Nagar, Bhopal - MPPCB",08-04-2024 09:00:00,23.233584,77.400574,OZONE,31,131,55
India,Madhya Pradesh,Gwalior,"City Center, Gwalior - MPPCB",08-04-2024 09:00:00,26.203442,78.193251,NO2,8,82,31
India,Madhya Pradesh,Gwalior,"City Center, Gwalior - MPPCB",08-04-2024 09:00:00,26.203442,78.193251,SO2,2,102,26
India,Madhya Pradesh,Gwalior,"Deen Dayal Nagar, Gwalior - MPPCB",08-04-2024 09:00:00,26.259242,78.216432,OZONE,24,188,59
