country,state,city,station,last_update,latitude,longitude,pollutant_id,pollutant_min,pollutant_max,pollutant_avg
India,Andhra_Pradesh,Amaravati,"Secretariat, Amaravati - APPCB",03-02-2024 07:00:00,16.5150833,80.5181667,PM2.5,13,46,26
India,Andhra_Pradesh,Amaravati,"Secretariat, Amaravati - APPCB",03-02-2024 07:00:00,16.5150833,80.5181667,PM10,25,72,46
India,Andhra_Pradesh,Anantapur,"Gulzarpet, Anantapur - APPCB",03-02-2024 07:00:00,14.675886,77.593027,PM2.5,NA,NA,NA
India,Andhra_Pradesh,Anantapur,"Gulzarpet, Anantapur - APPCB",03-02-2024 07:00:00,14.675886,77.593027,CO,26,66,41
India,Andhra_Pradesh,Kadapa,"Yerramukkapalli, Kadapa - APPCB",03-02-2024 07:00:00,14.465052,78.824187,SO2,1,2,2
India,Andhra_Pradesh,Tirupati,"Tirumala, Tirupati - APPCB",03-02-2024 07:00:00,13.67,79.35,PM10,37,73,59
India,Andhra_Pradesh,Tirupati,"Vaikuntapuram, Tirupati - APPCB",03-02-2024 07:00:00,13.615387,79.409230,NO2,15,25,20
India,Andhra_Pradesh,Tirupati,"Vaikuntapuram, Tirupati - APPCB",03-02-2024 07:00:00,13.615387,79.409230,CO,8,16,13
India,Andhra_Pradesh,Vijayawada,"HB Colony, Vijayawada - APPCB",03-02-2024 07:00:00,16.536107,80.594233,PM2.5,29,41,36
India,Andhra_Pradesh,Vijayawada,"Kanuru, Vijayawada - APPCB",03-02-2024 07:00:00,16.486692,80.699436,PM2.5,49,63,56
India,Andhra_Pradesh,Vijayawada,"Kanuru, Vijayawada - APPCB",03-02-2024 07:00:00,16.486692,80.699436,NH3,1,1,1
India,Andhra_Pradesh,Vijayawada,"Rajiv Gandhi Park, Vijayawada - APPCB",03-02-2024 07:00:00,16.509717,80.612222,NH3,2,7,6
India,Andhra_Pradesh,Vijayawada,"Rajiv Nagar, Vijayawada - APPCB",03-02-2024 07:00:00,16.554731,80.649110,NH3,1,3,2
India,Andhra_Pradesh,Visakhapatnam,"GVM Corporation, Visakhapatnam - APPCB",03-02-2024 07:00:00,17.72,83.3,NO2,33,63,44
India,Arunachal_Pradesh,Naharlagun,"Naharlagun, Naharlagun - APSPCB",03-02-2024 07:00:00,27.103358,93.679645,PM10,10,111,55
India,Assam,Byrnihat,"Central Academy for SFS, Byrnihat - PCBA",03-02-2024 07:00:00,26.071318,91.87488,PM10,NA,NA,NA
India,Assam,Byrnihat,"Central Academy for SFS, Byrnihat - PCBA",03-02-2024 07:00:00,26.071318,91.87488,NO2,37,127,58
India,Assam,Byrnihat,"Central Academy for SFS, Byrnihat - PCBA",03-02-2024 07:00:00,26.071318,91.87488,NH3,3,8,7
India,Assam,Guwahati,"IITG, Guwahati - PCBA",03-02-2024 07:00:00,26.2028636,91.70046436,PM10,65,163,124
India,Assam,Guwahati,"IITG, Guwahati - PCBA",03-02-2024 07:00:00,26.2028636,91.70046436,NH3,5,6,6
India,Assam,Guwahati,"IITG, Guwahati - PCBA",03-02-2024 07:00:00,26.2028636,91.70046436,CO,4,20,11
India,Assam,Guwahati,"LGBI Airport, Guwahati - PCBA",03-02-2024 07:00:00,26.10887,91.589544,PM2.5,47,308,154
India,Assam,Guwahati,"LGBI Airport, Guwahati - PCBA",03-02-2024 07:00:00,26.10887,91.589544,CO,NA,NA,NA
India,Assam,Guwahati,"Railway Colony, Guwahati - PCBA",03-02-2024 07:00:00,26.181742,91.78063,PM10,54,176,112
India,Assam,Nagaon,"Christianpatty, Nagaon - PCBA",03-02-2024 07:00:00,26.349082,92.68449,NO2,NA,NA,NA
India,Assam,Nagaon,"Christianpatty, Nagaon - PCBA",03-02-2024 07:00:00,26.349082,92.68449,SO2,NA,NA,NA
India,Assam,Nalbari,"Bata Chowk, Nalbari - PCBA",03-02-2024 07:00:00,26.446912,91.439057,NH3,1,26,2
India,Assam,Nalbari,"Bata Chowk, Nalbari - PCBA",03-02-2024 07:00:00,26.446912,91.439057,OZONE,18,135,28
India,Assam,Silchar,"Tarapur, Silchar - PCBA",03-02-2024 07:00:00,24.82827,92.79525,PM2.5,27,51,34
India,Assam,Silchar,"Tarapur, Silchar - PCBA",03-02-2024 07:00:00,24.82827,92.79525,OZONE,NA,NA,NA
India,Assam,Sivasagar,"Girls College, Sivasagar - PCBA",03-02-2024 07:00:00,26.987634,94.636574,PM2.5,14,22,18
India,Assam,Sivasagar,"Girls College, Sivasagar - PCBA",03-02-2024 07:00:00,26.987634,94.636574,NO2,14,22,18
India,Assam,Sivasagar,"Girls College, Sivasagar - PCBA",03-02-2024 07:00:00,26.987634,94.636574,NH3,2,2,2
India,Assam,Sivasagar,"Girls College, Sivasagar - PCBA",03-02-2024 07:00:00,26.987634,94.636574,CO,8,19,15
India,Bihar,Araria,"Kharahiya Basti, Araria - BSPCB",03-02-2024 07:00:00,26.146529,87.454184,SO2,15,18,17
India,Bihar,Araria,"Kharahiya Basti, Araria - BSPCB",03-02-2024 07:00:00,26.146529,87.454184,OZONE,9,11,10
India,Bihar,Arrah,"New DM Office, Arrah - BSPCB",03-02-2024 07:00:00,25.5626095,84.663264,PM2.5,97,356,244
India,Bihar,Arrah,"New DM Office, Arrah - BSPCB",03-02-2024 07:00:00,25.5626095,84.663264,CO,4,22,9
India,Bihar,Bettiah,"Kamalnath Nagar, Bettiah - BSPCB",03-02-2024 07:00:00,26.80365,84.51954,SO2,10,26,19
India,Bihar,Bhagalpur,"Mayaganj, Bhagalpur - BSPCB",03-02-2024 07:00:00,25.265194,87.012947,PM2.5,110,321,225
India,Bihar,Bihar Sharif,"D M Colony, Bihar Sharif - BSPCB",03-02-2024 07:00:00,25.204762,85.514960,PM10,80,202,136
India,Bihar,Bihar Sharif,"D M Colony, Bihar Sharif - BSPCB",03-02-2024 07:00:00,25.204762,85.514960,NH3,2,2,2
India,Bihar,Bihar Sharif,"D M Colony, Bihar Sharif - BSPCB",03-02-2024 07:00:00,25.204762,85.514960,CO,5,56,32
India,Bihar,Buxar,"Charitra Van, Buxar - BSPCB (Formerly known as Central Jail)",03-02-2024 07:00:00,25.567520,83.966379,NO2,14,17,15
India,Bihar,Buxar,"Charitra Van, Buxar - BSPCB (Formerly known as Central Jail)",03-02-2024 07:00:00,25.567520,83.966379,NH3,NA,NA,NA
India,Bihar,Chhapra,"Darshan Nagar, Chhapra - BSPCB",03-02-2024 07:00:00,25.7808257,84.7446768,PM2.5,NA,NA,NA
India,Bihar,Chhapra,"Darshan Nagar, Chhapra - BSPCB",03-02-2024 07:00:00,25.7808257,84.7446768,NO2,17,31,23
India,Bihar,Chhapra,"Darshan Nagar, Chhapra - BSPCB",03-02-2024 07:00:00,25.7808257,84.7446768,CO,24,52,31
India,Bihar,Gaya,"Kareemganj, Gaya - BSPCB",03-02-2024 07:00:00,24.792403,84.992416,PM10,89,240,140
India,Bihar,Gaya,"Kareemganj, Gaya - BSPCB",03-02-2024 07:00:00,24.792403,84.992416,NO2,30,31,30
India,Bihar,Gaya,"Kareemganj, Gaya - BSPCB",03-02-2024 07:00:00,24.792403,84.992416,SO2,7,12,10
India,Bihar,Gaya,"SFTI Kusdihra, Gaya - BSPCB",03-02-2024 07:00:00,24.762518,84.982348,PM2.5,69,202,98
India,Bihar,Hajipur,"Industrial Area, Hajipur - BSPCB",03-02-2024 07:00:00,25.697189,85.245900,PM2.5,70,228,137
India,Bihar,Hajipur,"Industrial Area, Hajipur - BSPCB",03-02-2024 07:00:00,25.697189,85.245900,OZONE,NA,NA,NA
India,Bihar,Katihar,"Mirchaibari, Katihar - BSPCB",03-02-2024 07:00:00,25.560083,87.553265,PM10,76,199,143
India,Bihar,Katihar,"Mirchaibari, Katihar - BSPCB",03-02-2024 07:00:00,25.560083,87.553265,NH3,2,4,3
India,Bihar,Kishanganj,"SDM Office_Khagra, Kishanganj - BSPCB",03-02-2024 07:00:00,26.0881305,87.93840336,PM10,121,280,168
India,Bihar,Kishanganj,"SDM Office_Khagra, Kishanganj - BSPCB",03-02-2024 07:00:00,26.0881305,87.93840336,CO,1,6,3
India,Bihar,Manguraha,"Forest Rest House, Manguraha - BSPCB",03-02-2024 07:00:00,27.308328,84.531742,PM2.5,NA,NA,NA
India,Bihar,Manguraha,"Forest Rest House, Manguraha - BSPCB",03-02-2024 07:00:00,27.308328,84.531742,PM10,NA,NA,NA
India,Bihar,Manguraha,"Forest Rest House, Manguraha - BSPCB",03-02-2024 07:00:00,27.308328,84.531742,NH3,NA,NA,NA
India,Bihar,Motihari,"Gandak Colony, Motihari - BSPCB",03-02-2024 07:00:00,26.63086,84.90051,NO2,30,58,44
India,Bihar,Munger,"Town Hall, Munger - BSPCB",03-02-2024 07:00:00,25.376776,86.471523,PM2.5,70,247,137
India,Bihar,Muzaffarpur,"Buddha Colony, Muzaffarpur - BSPCB",03-02-2024 07:00:00,26.11442,85.39813,NO2,NA,NA,NA
India,Bihar,Patna,"Govt. High School Shikarpur, Patna - BSPCB",03-02-2024 07:00:00,25.592539,85.227158,NH3,4,6,5
India,Bihar,Patna,"Govt. High School Shikarpur, Patna - BSPCB",03-02-2024 07:00:00,25.592539,85.227158,CO,26,116,68
India,Bihar,Patna,"IGSC Planetarium Complex, Patna - BSPCB",03-02-2024 07:00:00,25.610369,85.132568,PM2.5,32,106,58
India,Bihar,Patna,"Muradpur, Patna - BSPCB",03-02-2024 07:00:00,25.619651,85.147382,PM2.5,93,353,248
India,Bihar,Patna,"Muradpur, Patna - BSPCB",03-02-2024 07:00:00,25.619651,85.147382,NH3,2,5,4
India,Bihar,Patna,"Muradpur, Patna - BSPCB",03-02-2024 07:00:00,25.619651,85.147382,SO2,8,18,13
India,Bihar,Patna,"Rajbansi Nagar, Patna - BSPCB",03-02-2024 07:00:00,25.599486,85.113666,SO2,9,14,11
India,Bihar,Patna,"Rajbansi Nagar, Patna - BSPCB",03-02-2024 07:00:00,25.599486,85.113666,CO,22,89,37
India,Bihar,Patna,"Samanpura, Patna - BSPCB",03-02-2024 07:00:00,25.596727,85.085624,PM10,178,500,319
India,Bihar,Patna,"Samanpura, Patna - BSPCB",03-02-2024 07:00:00,25.596727,85.085624,NO2,30,111,54
India,Bihar,Patna,"Samanpura, Patna - BSPCB",03-02-2024 07:00:00,25.596727,85.085624,NH3,4,18,7
India,Bihar,Saharsa,"Police Line, Saharsa - BSPCB",03-02-2024 07:00:00,25.892357,86.590325,PM2.5,90,372,231
India,Bihar,Saharsa,"Police Line, Saharsa - BSPCB",03-02-2024 07:00:00,25.892357,86.590325,NH3,9,9,9
India,Bihar,Saharsa,"Police Line, Saharsa - BSPCB",03-02-2024 07:00:00,25.892357,86.590325,CO,2,48,32
India,Bihar,Samastipur,"DM Office_Kasipur, Samastipur - BSPCB",03-02-2024 07:00:00,25.859655,85.77944,NO2,1,10,5
India,Bihar,Sasaram,"Dada Peer, Sasaram - BSPCB",03-02-2024 07:00:00,24.952822,84.002396,OZONE,4,5,4
India,Bihar,Siwan,"Chitragupta Nagar, Siwan - BSPCB",03-02-2024 07:00:00,26.2271665,84.3570427,PM2.5,47,257,93
India,Bihar,Siwan,"Chitragupta Nagar, Siwan - BSPCB",03-02-2024 07:00:00,26.2271665,84.3570427,NH3,1,9,3
India,Bihar,Siwan,"Chitragupta Nagar, Siwan - BSPCB",03-02-2024 07:00:00,26.2271665,84.3570427,SO2,14,43,31
India,Bihar,Siwan,"Chitragupta Nagar, Siwan - BSPCB",03-02-2024 07:00:00,26.2271665,84.3570427,OZONE,6,87,37
India,Chandigarh,Chandigarh,"Sector-25, Chandigarh - CPCC",03-02-2024 07:00:00,30.751462,76.762879,OZONE,2,29,13
India,Chandigarh,Chandigarh,"Sector-53, Chandigarh - CPCC",03-02-2024 07:00:00,30.719859,76.738637,SO2,8,9,9
India,Chhattisgarh,Bhilai,"32Bungalows, Bhilai - CECB",03-02-2024 07:00:00,21.194815,81.314770,PM10,47,90,70
India,Chhattisgarh,Bhilai,"32Bungalows, Bhilai - CECB",03-02-2024 07:00:00,21.194815,81.314770,CO,30,42,39
India,Chhattisgarh,Bhilai,"32Bungalows, Bhilai - CECB",03-02-2024 07:00:00,21.194815,81.314770,OZONE,4,8,4
India,Chhattisgarh,Bhilai,"Civic Center, Bhilai - Bhilai Steel Plant",03-02-2024 07:00:00,21.185571,81.343175,PM10,NA,NA,NA
India,Chhattisgarh,Bhilai,"Civic Center, Bhilai - Bhilai Steel Plant",03-02-2024 07:00:00,21.185571,81.343175,NH3,NA,NA,NA
India,Chhattisgarh,Bhilai,"Hathkhoj, Bhilai - CECB",03-02-2024 07:00:00,21.224231,81.408350,NH3,7,8,7
India,Chhattisgarh,Bhilai,"Hathkhoj, Bhilai - CECB",03-02-2024 07:00:00,21.224231,81.408350,SO2,15,79,37
India,Chhattisgarh,Bilaspur,"Mangala, Bilaspur - NTPC",03-02-2024 07:00:00,22.08815,82.13737,PM2.5,19,75,49
India,Chhattisgarh,Bilaspur,"Mangala, Bilaspur - NTPC",03-02-2024 07:00:00,22.08815,82.13737,PM10,32,77,58
India,Chhattisgarh,Korba,"Rampur, Korba - CECB",03-02-2024 07:00:00,22.368195,82.746431,PM10,NA,NA,NA
India,Chhattisgarh,Korba,"Rampur, Korba - CECB",03-02-2024 07:00:00,22.368195,82.746431,NO2,NA,NA,NA
India,Chhattisgarh,Korba,"Rampur, Korba - CECB",03-02-2024 07:00:00,22.368195,82.746431,OZONE,NA,NA,NA
India,Chhattisgarh,Kunjemura,"OP Jindal School, Kunjemura - CECB",03-02-2024 07:00:00,22.126650,83.483212,PM10,44,500,186
India,Chhattisgarh,Milupara,"Govt. Higher Secondary School, Milupara - CECB",03-02-2024 07:00:00,22.1910172,83.5197009,NO2,11,38,21
India,Chhattisgarh,Raipur,"AIIMS, Raipur - CECB",03-02-2024 07:00:00,21.258815,81.578979,OZONE,1,6,1
India,Chhattisgarh,Raipur,"Bhatagaon New ISBT, Raipur - CECB",03-02-2024 07:00:00,21.219665,81.630094,PM10,69,126,86
India,Chhattisgarh,Raipur,"Bhatagaon New ISBT, Raipur - CECB",03-02-2024 07:00:00,21.219665,81.630094,NO2,62,94,74
India,Chhattisgarh,Raipur,"Bhatagaon New ISBT, Raipur - CECB",03-02-2024 07:00:00,21.219665,81.630094,CO,36,56,46
India,Chhattisgarh,Raipur,"Krishak Nagar, Raipur - CECB",03-02-2024 07:00:00,21.237755,81.705301,SO2,7,11,9
India,Chhattisgarh,Raipur,"Siltara Phase-II, Raipur - CECB",03-02-2024 07:00:00,21.371751,81.664929,PM10,47,113,91
India,Chhattisgarh,Raipur,"Siltara Phase-II, Raipur - CECB",03-02-2024 07:00:00,21.371751,81.664929,CO,28,64,53
India,Delhi,Delhi,"Alipur, Delhi - DPCC",03-02-2024 07:00:00,28.815329,77.153010,PM2.5,65,307,167
India,Delhi,Delhi,"Anand Vihar, Delhi - DPCC",03-02-2024 07:00:00,28.647622,77.3158090,NO2,48,143,91
India,Delhi,Delhi,"Anand Vihar, Delhi - DPCC",03-02-2024 07:00:00,28.647622,77.3158090,OZONE,14,16,15
India,Delhi,Delhi,"Ashok Vihar, Delhi - DPCC",03-02-2024 07:00:00,28.695381,77.181665,OZONE,4,13,5
India,Delhi,Delhi,"Bawana, Delhi - DPCC",03-02-2024 07:00:00,28.776200,77.051074,PM2.5,99,328,238
India,Delhi,Delhi,"Bawana, Delhi - DPCC",03-02-2024 07:00:00,28.776200,77.051074,PM10,66,172,129
India,Delhi,Delhi,"Bawana, Delhi - DPCC",03-02-2024 07:00:00,28.776200,77.051074,NO2,14,39,25
India,Delhi,Delhi,"Bawana, Delhi - DPCC",03-02-2024 07:00:00,28.776200,77.051074,OZONE,3,35,5
India,Delhi,Delhi,"Burari Crossing, Delhi - IMD",03-02-2024 07:00:00,28.7256504,77.2011573,PM10,81,243,156
India,Delhi,Delhi,"CRRI Mathura Road, Delhi - IMD",03-02-2024 07:00:00,28.5512005,77.2735737,PM10,71,186,140
India,Delhi,Delhi,"CRRI Mathura Road, Delhi - IMD",03-02-2024 07:00:00,28.5512005,77.2735737,NO2,31,40,36
India,Delhi,Delhi,"DTU, Delhi - CPCB",03-02-2024 07:00:00,28.7500499,77.1112615,PM10,49,212,143
India,Delhi,Delhi,"Dr. Karni Singh Shooting Range, Delhi - DPCC",03-02-2024 07:00:00,28.498571,77.264840,SO2,3,9,6
India,Delhi,Delhi,"Dwarka-Sector 8, Delhi - DPCC ",03-02-2024 07:00:00,28.5710274,77.0719006,PM2.5,133,325,251
India,Delhi,Delhi,"Dwarka-Sector 8, Delhi - DPCC ",03-02-2024 07:00:00,28.5710274,77.0719006,OZONE,2,19,3
India,Delhi,Delhi,"IHBAS, Dilshad Garden, Delhi - CPCB",03-02-2024 07:00:00,28.6811736,77.3025234,PM2.5,55,156,83
India,Delhi,Delhi,"IHBAS, Dilshad Garden, Delhi - CPCB",03-02-2024 07:00:00,28.6811736,77.3025234,PM10,66,191,112
India,Delhi,Delhi,"IHBAS, Dilshad Garden, Delhi - CPCB",03-02-2024 07:00:00,28.6811736,77.3025234,NO2,6,35,25
India,Delhi,Delhi,"IHBAS, Dilshad Garden, Delhi - CPCB",03-02-2024 07:00:00,28.6811736,77.3025234,NH3,11,16,13
India,Delhi,Delhi,"IHBAS, Dilshad Garden, Delhi - CPCB",03-02-2024 07:00:00,28.6811736,77.3025234,CO,19,92,32
India,Delhi,Delhi,"ITO, Delhi - CPCB",03-02-2024 07:00:00,28.628624,77.241060,PM10,43,145,93
India,Delhi,Delhi,"ITO, Delhi - CPCB",03-02-2024 07:00:00,28.628624,77.241060,SO2,7,25,17
India,Delhi,Delhi,"Jahangirpuri, Delhi - DPCC",03-02-2024 07:00:00,28.732820,77.170633,PM2.5,125,394,290
India,Delhi,Delhi,"Jahangirpuri, Delhi - DPCC",03-02-2024 07:00:00,28.732820,77.170633,PM10,107,360,208
India,Delhi,Delhi,"Jahangirpuri, Delhi - DPCC",03-02-2024 07:00:00,28.732820,77.170633,SO2,12,28,18
India,Delhi,Delhi,"Lodhi Road, Delhi - IMD",03-02-2024 07:00:00,28.5918245,77.2273074,OZONE,13,50,14
India,Delhi,Delhi,"Mundka, Delhi - DPCC",03-02-2024 07:00:00,28.684678,77.076574,PM2.5,93,352,254
India,Delhi,Delhi,"NSIT Dwarka, Delhi - CPCB",03-02-2024 07:00:00,28.60909,77.0325413,NO2,17,39,27
India,Delhi,Delhi,"Najafgarh, Delhi - DPCC",03-02-2024 07:00:00,28.570173,76.933762,PM2.5,70,270,170
India,Delhi,Delhi,"Narela, Delhi - DPCC",03-02-2024 07:00:00,28.822836,77.101981,PM2.5,85,314,217
India,Delhi,Delhi,"Nehru Nagar, Delhi - DPCC",03-02-2024 07:00:00,28.567890,77.250515,CO,20,99,55
India,Delhi,Delhi,"Okhla Phase-2, Delhi - DPCC",03-02-2024 07:00:00,28.530785,77.271255,PM2.5,98,343,248
India,Delhi,Delhi,"Okhla Phase-2, Delhi - DPCC",03-02-2024 07:00:00,28.530785,77.271255,NO2,49,94,71
India,Delhi,Delhi,"Patparganj, Delhi - DPCC",03-02-2024 07:00:00,28.623763,77.287209,NO2,32,61,49
India,Delhi,Delhi,"Patparganj, Delhi - DPCC",03-02-2024 07:00:00,28.623763,77.287209,NH3,6,16,11
India,Delhi,Delhi,"Patparganj, Delhi - DPCC",03-02-2024 07:00:00,28.623763,77.287209,CO,10,68,27
India,Delhi,Delhi,"Punjabi Bagh, Delhi - DPCC",03-02-2024 07:00:00,28.674045,77.131023,PM2.5,115,339,265
India,Delhi,Delhi,"Pusa, Delhi - DPCC",03-02-2024 07:00:00,28.639652,77.146275,NH3,16,35,24
India,Delhi,Delhi,"Pusa, Delhi - DPCC",03-02-2024 07:00:00,28.639652,77.146275,CO,7,112,34
India,Delhi,Delhi,"Pusa, Delhi - IMD",03-02-2024 07:00:00,28.636110,77.173332,PM2.5,21,337,133
India,Delhi,Delhi,"Pusa, Delhi - IMD",03-02-2024 07:00:00,28.636110,77.173332,PM10,30,170,99
India,Delhi,Delhi,"R K Puram, Delhi - DPCC",03-02-2024 07:00:00,28.563262,77.186937,PM10,68,202,144
India,Delhi,Delhi,"R K Puram, Delhi - DPCC",03-02-2024 07:00:00,28.563262,77.186937,SO2,20,108,29
India,Delhi,Delhi,"R K Puram, Delhi - DPCC",03-02-2024 07:00:00,28.563262,77.186937,OZONE,7,49,8
India,Delhi,Delhi,"Rohini, Delhi - DPCC",03-02-2024 07:00:00,28.732528,77.119920,PM2.5,NA,NA,NA
India,Delhi,Delhi,"Shadipur, Delhi - CPCB",03-02-2024 07:00:00,28.6514781,77.1473105,PM2.5,47,323,211
India,Delhi,Delhi,"Shadipur, Delhi - CPCB",03-02-2024 07:00:00,28.6514781,77.1473105,CO,22,94,36
India,Delhi,Delhi,"Sirifort, Delhi - CPCB",03-02-2024 07:00:00,28.5504249,77.2159377,CO,30,66,35
India,Delhi,Delhi,"Sri Aurobindo Marg, Delhi - DPCC",03-02-2024 07:00:00,28.531346,77.190156,PM10,93,172,132
India,Delhi,Delhi,"Sri Aurobindo Marg, Delhi - DPCC",03-02-2024 07:00:00,28.531346,77.190156,CO,24,52,35
India,Delhi,Delhi,"Vivek Vihar, Delhi - DPCC",03-02-2024 07:00:00,28.672342,77.315260,NH3,4,12,7
India,Delhi,Delhi,"Wazirpur, Delhi - DPCC",03-02-2024 07:00:00,28.699793,77.165453,SO2,4,50,28
India,Gujarat,Ahmedabad,"Chandkheda, Ahmedabad - IITM",03-02-2024 07:00:00,23.107969,72.574648,OZONE,9,15,12
India,Gujarat,Ahmedabad,"Gyaspur, Ahmedabad - IITM",03-02-2024 07:00:00,22.977134,72.553024,PM2.5,61,412,243
India,Gujarat,Ahmedabad,"Gyaspur, Ahmedabad - IITM",03-02-2024 07:00:00,22.977134,72.553024,PM10,70,412,190
India,Gujarat,Ahmedabad,"Gyaspur, Ahmedabad - IITM",03-02-2024 07:00:00,22.977134,72.553024,NH3,2,4,3
India,Gujarat,Ahmedabad,"Gyaspur, Ahmedabad - IITM",03-02-2024 07:00:00,22.977134,72.553024,SO2,16,33,24
India,Gujarat,Ahmedabad,"Maninagar, Ahmedabad - GPCB",03-02-2024 07:00:00,23.002657,72.591912,NO2,13,207,79
India,Gujarat,Ahmedabad,"Maninagar, Ahmedabad - GPCB",03-02-2024 07:00:00,23.002657,72.591912,OZONE,7,135,11
India,Gujarat,Ahmedabad,"Raikhad, Ahmedabad - IITM",03-02-2024 07:00:00,23.020509,72.579261,NO2,6,18,13
India,Gujarat,Ahmedabad,"Raikhad, Ahmedabad - IITM",03-02-2024 07:00:00,23.020509,72.579261,NH3,3,4,4
India,Gujarat,Ahmedabad,"Rakhial, Ahmedabad - IITM",03-02-2024 07:00:00,23.016834,72.625775,PM2.5,48,311,151
India,Gujarat,Ahmedabad,"Rakhial, Ahmedabad - IITM",03-02-2024 07:00:00,23.016834,72.625775,SO2,4,34,8
India,Gujarat,Ahmedabad,"SVPI Airport Hansol, Ahmedabad - IITM",03-02-2024 07:00:00,23.076793,72.627874,PM2.5,60,311,169
India,Gujarat,Ahmedabad,"Sardar Vallabhbhai Patel Stadium, Ahmedabad - IITM",03-02-2024 07:00:00,23.043070,72.562968,PM10,86,168,135
India,Gujarat,Ahmedabad,"Sardar Vallabhbhai Patel Stadium, Ahmedabad - IITM",03-02-2024 07:00:00,23.043070,72.562968,NH3,3,3,3
India,Gujarat,Ahmedabad,"Sardar Vallabhbhai Patel Stadium, Ahmedabad - IITM",03-02-2024 07:00:00,23.043070,72.562968,SO2,16,18,17
India,Gujarat,Ankleshwar,"GIDC, Ankleshwar - GPCB",03-02-2024 07:00:00,21.613267,73.010555,PM10,60,118,93
India,Gujarat,Ankleshwar,"GIDC, Ankleshwar - GPCB",03-02-2024 07:00:00,21.613267,73.010555,SO2,12,132,53
India,Gujarat,Gandhinagar,"IIPHG Lekawada, Gandhinagar - IITM",03-02-2024 07:00:00,23.243639,72.68994,PM2.5,47,247,101
India,Gujarat,Surat,"Science Center, Surat - SMC",03-02-2024 07:00:00,21.170046,72.795405,SO2,15,22,18
India,Gujarat,Vapi,"Phase-1 GIDC, Vapi - GPCB",03-02-2024 07:00:00,20.362421,72.918013,PM2.5,75,331,185
India,Gujarat,Vatva,"Phase-4 GIDC, Vatva - GPCB",03-02-2024 07:00:00,22.969611,72.643500,NH3,1,2,1
India,Gujarat,Vatva,"Phase-4 GIDC, Vatva - GPCB",03-02-2024 07:00:00,22.969611,72.643500,SO2,2,13,5
India,Haryana,Ambala,"Patti Mehar, Ambala - HSPCB",03-02-2024 07:00:00,30.379589,76.778328,NO2,1,221,103
India,Haryana,Ambala,"Patti Mehar, Ambala - HSPCB",03-02-2024 07:00:00,30.379589,76.778328,OZONE,32,46,39
India,Haryana,Bahadurgarh,"Arya Nagar, Bahadurgarh - HSPCB",03-02-2024 07:00:00,28.6701,76.9254,NO2,32,40,36
India,Haryana,Bahadurgarh,"Arya Nagar, Bahadurgarh - HSPCB",03-02-2024 07:00:00,28.6701,76.9254,SO2,8,20,14
India,Haryana,Bahadurgarh,"Arya Nagar, Bahadurgarh - HSPCB",03-02-2024 07:00:00,28.6701,76.9254,OZONE,38,52,46
India,Haryana,Ballabgarh,"Nathu Colony, Ballabgarh - HSPCB",03-02-2024 07:00:00,28.3419248,77.319699,NH3,1,2,2
India,Haryana,Bhiwani,"H.B. Colony, Bhiwani - HSPCB",03-02-2024 07:00:00,28.806223,76.141105,NH3,5,6,6
India,Haryana,Dharuhera,"Municipal Corporation Office, Dharuhera -  HSPCB",03-02-2024 07:00:00,28.206800,76.799700,PM10,NA,NA,NA
India,Haryana,Dharuhera,"Municipal Corporation Office, Dharuhera -  HSPCB",03-02-2024 07:00:00,28.206800,76.799700,NH3,NA,NA,NA
India,Haryana,Faridabad,"Sector 11, Faridabad - HSPCB",03-02-2024 07:00:00,28.376058,77.315741,PM10,10,136,93
India,Haryana,Faridabad,"Sector 30, Faridabad - HSPCB",03-02-2024 07:00:00,28.4417,77.3217,PM10,128,139,133
India,Haryana,Faridabad,"Sector- 16A, Faridabad - HSPCB",03-02-2024 07:00:00,28.4088421,77.3099081,CO,4,132,67
India,Haryana,Faridabad,"Sector- 16A, Faridabad - HSPCB",03-02-2024 07:00:00,28.4088421,77.3099081,OZONE,14,14,14
India,Haryana,Fatehabad,"Huda Sector, Fatehabad - HSPCB",03-02-2024 07:00:00,29.503664,75.467934,PM10,45,116,77
India,Haryana,Gurugram,"Teri Gram, Gurugram - HSPCB",03-02-2024 07:00:00,28.4275,77.1465,PM2.5,21,325,195
India,Haryana,Gurugram,"Teri Gram, Gurugram - HSPCB",03-02-2024 07:00:00,28.4275,77.1465,PM10,23,247,155
India,Haryana,Gurugram,"Teri Gram, Gurugram - HSPCB",03-02-2024 07:00:00,28.4275,77.1465,OZONE,10,24,12
India,Haryana,Gurugram,"Vikas Sadan, Gurugram - HSPCB",03-02-2024 07:00:00,28.4501238,77.0263051,CO,54,140,109
India,Haryana,Hisar,"Urban Estate-II, Hisar - HSPCB",03-02-2024 07:00:00,29.140560,75.744941,PM10,NA,NA,NA
India,Haryana,Jind,"Police Lines, Jind - HSPCB",03-02-2024 07:00:00,29.307814,76.337619,OZONE,NA,NA,NA
India,Haryana,Kaithal,"Rishi Nagar, Kaithal - HSPCB",03-02-2024 07:00:00,29.8006,76.4155,PM2.5,48,140,75
India,Haryana,Kaithal,"Rishi Nagar, Kaithal - HSPCB",03-02-2024 07:00:00,29.8006,76.4155,PM10,39,86,70
India,Haryana,Kaithal,"Rishi Nagar, Kaithal - HSPCB",03-02-2024 07:00:00,29.8006,76.4155,NH3,8,8,8
India,Haryana,Kaithal,"Rishi Nagar, Kaithal - HSPCB",03-02-2024 07:00:00,29.8006,76.4155,CO,2,42,5
India,Haryana,Kaithal,"Rishi Nagar, Kaithal - HSPCB",03-02-2024 07:00:00,29.8006,76.4155,OZONE,1,15,6
India,Haryana,Mandikhera,"General Hospital, Mandikhera - HSPCB",03-02-2024 07:00:00,27.9002,76.9938,NO2,17,21,19
India,Haryana,Narnaul,"Shastri Nagar, Narnaul - HSPCB",03-02-2024 07:00:00,28.060249,76.113115,NO2,16,58,35
India,Haryana,Narnaul,"Shastri Nagar, Narnaul - HSPCB",03-02-2024 07:00:00,28.060249,76.113115,OZONE,9,86,38
India,Haryana,Palwal,"Shyam Nagar, Palwal - HSPCB",03-02-2024 07:00:00,28.1485564,77.3320667,OZONE,1,24,2
India,Haryana,Rohtak,"MD University, Rohtak - HSPCB",03-02-2024 07:00:00,28.52123,76.37138,SO2,6,8,7
India,Haryana,Sonipat,"Murthal, Sonipat - HSPCB",03-02-2024 07:00:00,29.027200,77.062100,SO2,13,29,20
India,Jammu_and_Kashmir,Srinagar,"Rajbagh, Srinagar - JKSPCB",03-02-2024 07:00:00,34.066206,74.819820,PM10,NA,NA,NA
India,Jharkhand,Dhanbad,"Sardar Patel Nagar, Dhanbad - JSPCB",03-02-2024 07:00:00,23.80569,86.44268,SO2,NA,NA,NA
India,Karnataka,Bagalkot,"Vidayagiri, Bagalkot - KSPCB",03-02-2024 07:00:00,16.172806,75.659694,PM10,50,51,51
India,Karnataka,Bengaluru,"BTM Layout, Bengaluru - CPCB",03-02-2024 07:00:00,12.9135218,77.5950804,NO2,21,38,33
India,Karnataka,Bengaluru,"BTM Layout, Bengaluru - CPCB",03-02-2024 07:00:00,12.9135218,77.5950804,CO,35,36,36
India,Karnataka,Bengaluru,"City Railway Station, Bengaluru - KSPCB",03-02-2024 07:00:00,12.9756843,77.5660749,CO,51,113,69
India,Karnataka,Bengaluru,"Hebbal, Bengaluru - KSPCB",03-02-2024 07:00:00,13.029152,77.585901,NO2,NA,NA,NA
India,Karnataka,Bengaluru,"Hebbal, Bengaluru - KSPCB",03-02-2024 07:00:00,13.029152,77.585901,CO,NA,NA,NA
India,Karnataka,Bengaluru,"Hebbal, Bengaluru - KSPCB",03-02-2024 07:00:00,13.029152,77.585901,OZONE,NA,NA,NA
India,Karnataka,Bengaluru,"Hombegowda Nagar, Bengaluru - KSPCB",03-02-2024 07:00:00,12.938539,77.590100,CO,16,22,19
India,Karnataka,Bengaluru,"Jayanagar 5th Block, Bengaluru - KSPCB",03-02-2024 07:00:00,12.920984,77.584908,OZONE,17,19,18
India,Karnataka,Bengaluru,"Jigani, Bengaluru - KSPCB",03-02-2024 07:00:00,12.7816279,77.6299145,PM10,29,302,115
India,Karnataka,Bengaluru,"Peenya, Bengaluru - CPCB",03-02-2024 07:00:00,13.0270199,77.494094,NH3,5,6,6
India,Karnataka,Bengaluru,"RVCE-Mailasandra, Bengaluru - KSPCB",03-02-2024 07:00:00,12.921418,77.502466,CO,39,87,49
India,Karnataka,Bengaluru,"RVCE-Mailasandra, Bengaluru - KSPCB",03-02-2024 07:00:00,12.921418,77.502466,OZONE,45,48,48
India,Karnataka,Bengaluru,"Sanegurava Halli, Bengaluru - KSPCB",03-02-2024 07:00:00,12.990328,77.5431385,PM10,14,299,112
India,Karnataka,Bengaluru,"Shivapura_Peenya, Bengaluru - KSPCB",03-02-2024 07:00:00,13.0246342,77.5080115,PM2.5,23,206,94
India,Karnataka,Bengaluru,"Silk Board, Bengaluru - KSPCB",03-02-2024 07:00:00,12.917348,77.622813,CO,7,78,41
India,Karnataka,Bidar,"Naubad, Bidar - KSPCB",03-02-2024 07:00:00,17.930306,77.482194,NO2,7,9,8
India,Karnataka,Chamarajanagar,"Urban, Chamarajanagar - KSPCB",03-02-2024 07:00:00,11.55358,76.55521,PM10,34,58,44
India,Karnataka,Chamarajanagar,"Urban, Chamarajanagar - KSPCB",03-02-2024 07:00:00,11.55358,76.55521,NO2,23,43,31
India,Karnataka,Chamarajanagar,"Urban, Chamarajanagar - KSPCB",03-02-2024 07:00:00,11.55358,76.55521,CO,19,28,19
India,Karnataka,Chikkaballapur,"Chikkaballapur Rural, Chikkaballapur - KSPCB",03-02-2024 07:00:00,13.428828,77.731418,NH3,1,1,1
India,Karnataka,Chikkamagaluru,"Kalyana Nagara, Chikkamagaluru - KSPCB",03-02-2024 07:00:00,13.328028,75.797056,SO2,1,7,3
India,Karnataka,Dharwad,"Kalabhavan, Dharwad - KSPCB",03-02-2024 07:00:00,15.459706,75.008381,PM10,52,132,82
India,Karnataka,Dharwad,"Kalabhavan, Dharwad - KSPCB",03-02-2024 07:00:00,15.459706,75.008381,NH3,3,3,3
India,Karnataka,Hassan,"B.Katihalli, Hassan - KSPCB",03-02-2024 07:00:00,13.008556,76.125258,PM2.5,NA,NA,NA
India,Karnataka,Hubballi,"Lingaraj Nagar, Hubballi - KSPCB",03-02-2024 07:00:00,15.3714823,75.1160168,SO2,1,21,3
India,Karnataka,Kalaburagi,"Mahatma Basaveswar Colony, Kalaburgi - KSPCB",03-02-2024 07:00:00,17.336318,76.847397,NO2,8,17,12
India,Karnataka,Kalaburagi,"Mahatma Basaveswar Colony, Kalaburgi - KSPCB",03-02-2024 07:00:00,17.336318,76.847397,NH3,3,4,3
India,Karnataka,Karwar,"KHB Colony, Karwar - KSPCB",03-02-2024 07:00:00,14.816666,74.141003,PM10,46,143,79
India,Karnataka,Kolar,"Tamaka Ind. Area, Kolar - KSPCB",03-02-2024 07:00:00,13.1276288,78.1570122,OZONE,14,16,14
India,Karnataka,Koppal,"Diwator Nagar, Koppal - KSPCB",03-02-2024 07:00:00,15.347630,76.181767,NO2,1,27,11
India,Karnataka,Koppal,"Diwator Nagar, Koppal - KSPCB",03-02-2024 07:00:00,15.347630,76.181767,CO,96,115,103
India,Karnataka,Madikeri,"Stuart Hill, Madikeri - KSPCB",03-02-2024 07:00:00,12.415911,75.735050,PM10,4,70,30
India,Karnataka,Madikeri,"Stuart Hill, Madikeri - KSPCB",03-02-2024 07:00:00,12.415911,75.735050,NH3,NA,NA,NA
India,Karnataka,Madikeri,"Stuart Hill, Madikeri - KSPCB",03-02-2024 07:00:00,12.415911,75.735050,SO2,4,4,4
India,Karnataka,Mangalore,"Kadri, Mangalore - KSPCB",03-02-2024 07:00:00,12.889250,74.853000,CO,24,52,42
India,Karnataka,Mysuru,"Hebbal 1st Stage, Mysuru - KSPCB",03-02-2024 07:00:00,12.21041,76.37376,PM2.5,29,52,40
India,Karnataka,Mysuru,"Hebbal 1st Stage, Mysuru - KSPCB",03-02-2024 07:00:00,12.21041,76.37376,SO2,1,8,3
India,Karnataka,Raichur,"Haji Colony, Raichur - KSPCB",03-02-2024 07:00:00,16.208139,77.348417,SO2,NA,NA,NA
India,Karnataka,Raichur,"Haji Colony, Raichur - KSPCB",03-02-2024 07:00:00,16.208139,77.348417,CO,NA,NA,NA
India,Karnataka,Shivamogga,"Vinoba Nagara, Shivamogga - KSPCB",03-02-2024 07:00:00,13.940000,75.555917,NH3,2,8,4
India,Karnataka,Tumakuru,"Thimmalapura, Tumakuru - KSPCB",03-02-2024 07:00:00,13.377516,77.099072,PM2.5,41,332,145
India,Karnataka,Tumakuru,"Thimmalapura, Tumakuru - KSPCB",03-02-2024 07:00:00,13.377516,77.099072,OZONE,6,47,12
India,Karnataka,Udupi,"Brahmagiri, Udupi - KSPCB",03-02-2024 07:00:00,13.34194444,74.74694444,PM10,26,52,36
India,Karnataka,Udupi,"Brahmagiri, Udupi - KSPCB",03-02-2024 07:00:00,13.34194444,74.74694444,NO2,13,14,14
India,Karnataka,Udupi,"Brahmagiri, Udupi - KSPCB",03-02-2024 07:00:00,13.34194444,74.74694444,SO2,21,23,22
India,Karnataka,Vijayapura,"Ibrahimpur, Vijayapura - KSPCB",03-02-2024 07:00:00,16.802639,75.722694,SO2,1,5,3
India,Kerala,Eloor,"Udyogamandal, Eloor - Kerala PCB",03-02-2024 07:00:00,10.073232,76.302765,PM2.5,34,56,45
India,Kerala,Eloor,"Udyogamandal, Eloor - Kerala PCB",03-02-2024 07:00:00,10.073232,76.302765,NO2,4,4,4
India,Kerala,Kannur,"Thavakkara, Kannur - Kerala PCB",03-02-2024 07:00:00,11.875000,75.373200,PM2.5,44,52,47
India,Kerala,Kannur,"Thavakkara, Kannur - Kerala PCB",03-02-2024 07:00:00,11.875000,75.373200,NO2,6,7,6
India,Kerala,Kannur,"Thavakkara, Kannur - Kerala PCB",03-02-2024 07:00:00,11.875000,75.373200,NH3,1,1,1
India,Kerala,Kannur,"Thavakkara, Kannur - Kerala PCB",03-02-2024 07:00:00,11.875000,75.373200,CO,30,36,32
India,Kerala,Kochi,"Vyttila, Kochi - Kerala PCB",03-02-2024 07:00:00,9.969447,76.321186,PM2.5,48,48,48
India,Kerala,Kochi,"Vyttila, Kochi - Kerala PCB",03-02-2024 07:00:00,9.969447,76.321186,CO,58,62,59
India,Kerala,Kollam,"Polayathode, Kollam - Kerala PCB",03-02-2024 07:00:00,8.8787,76.6073,SO2,1,54,10
India,Kerala,Thiruvananthapuram,"Kariavattom, Thiruvananthapuram - Kerala PCB",03-02-2024 07:00:00,8.563700,76.886500,NH3,1,1,1
India,Kerala,Thiruvananthapuram,"Plammoodu, Thiruvananthapuram - Kerala PCB",03-02-2024 07:00:00,8.5149093,76.9435879,NH3,2,2,2
India,Kerala,Thiruvananthapuram,"Plammoodu, Thiruvananthapuram - Kerala PCB",03-02-2024 07:00:00,8.5149093,76.9435879,OZONE,9,58,22
India,Madhya Pradesh,Bhopal,"Idgah Hills, Bhopal - MPPCB",03-02-2024 07:00:00,23.264759,77.381568,NO2,12,37,23
India,Madhya Pradesh,Bhopal,"Idgah Hills, Bhopal - MPPCB",03-02-2024 07:00:00,23.264759,77.381568,OZONE,34,89,44
India,Madhya Pradesh,Bhopal,"T T Nagar, Bhopal - MPPCB",03-02-2024 07:00:00,23.233584,77.400574,NH3,2,6,4
India,Madhya Pradesh,Bhopal,"T T Nagar, Bhopal - MPPCB",03-02-2024 07:00:00,23.233584,77.400574,SO2,15,44,30
India,Madhya Pradesh,Bhopal,"T T Nagar, Bhopal - MPPCB",03-02-2024 07:00:00,23.233584,77.400574,CO,49,84,67
India,Madhya Pradesh,Dewas,"Bhopal Chauraha, Dewas - MPPCB",03-02-2024 07:00:00,22.9682591,76.064118,PM10,45,164,83
India,Madhya Pradesh,Dewas,"Bhopal Chauraha, Dewas - MPPCB",03-02-2024 07:00:00,22.9682591,76.064118,SO2,31,52,41
India,Madhya Pradesh,Dewas,"Bhopal Chauraha, Dewas - MPPCB",03-02-2024 07:00:00,22.9682591,76.064118,CO,13,66,18
India,Madhya Pradesh,Gwalior,"Deen Dayal Nagar, Gwalior - MPPCB",03-02-2024 07:00:00,26.259242,78.216432,NO2,14,95,39
India,Madhya Pradesh,Gwalior,"Deen Dayal Nagar, Gwalior - MPPCB",03-02-2024 07:00:00,26.259242,78.216432,SO2,17,25,20
India,Madhya Pradesh,Gwalior,"Maharaj Bada, Gwalior - MPPCB",03-02-2024 07:00:00,26.200388,78.147714,PM2.5,55,315,140
India,Madhya Pradesh,Gwalior,"Maharaj Bada, Gwalior - MPPCB",03-02-2024 07:00:00,26.200388,78.147714,SO2,10,28,17
India,Madhya Pradesh,Indore,"Maguda Nagar, Indore - IMC",03-02-2024 07:00:00,22.7524,75.8872,CO,24,40,28
India,Madhya Pradesh,Indore,"Regional Park, Indore - IMC",03-02-2024 07:00:00,22.6780,75.8559,SO2,41,44,43
India,Madhya Pradesh,Indore,"Residency Area, Indore - IMC",03-02-2024 07:00:00,22.7084,75.8815,PM10,31,132,63
India,Madhya Pradesh,Indore,"Residency Area, Indore - IMC",03-02-2024 07:00:00,22.7084,75.8815,CO,6,18,11
India,Madhya Pradesh,Jabalpur,"Govindh Bhavan Colony, Jabalpur - JMC",03-02-2024 07:00:00,23.163174,79.973061,NH3,5,6,5
India,Madhya Pradesh,Jabalpur,"Gupteshwar, Jabalpur - JMC",03-02-2024 07:00:00,23.142888,79.916147,SO2,5,19,11
India,Madhya Pradesh,Jabalpur,"Gupteshwar, Jabalpur - JMC",03-02-2024 07:00:00,23.142888,79.916147,CO,22,121,57
India,Madhya Pradesh,Jabalpur,"Gupteshwar, Jabalpur - JMC",03-02-2024 07:00:00,23.142888,79.916147,OZONE,3,107,21
India,Madhya Pradesh,Jabalpur,"Marhatal, Jabalpur - MPPCB",03-02-2024 07:00:00,23.168606,79.932247,NH3,3,6,4
India,Madhya Pradesh,Jabalpur,"Marhatal, Jabalpur - MPPCB",03-02-2024 07:00:00,23.168606,79.932247,OZONE,3,22,9
India,Madhya Pradesh,Jabalpur,"Suhagi, Jabalpur - JMC",03-02-2024 07:00:00,23.218135,79.957770,PM2.5,NA,NA,NA
India,Madhya Pradesh,Jabalpur,"Suhagi, Jabalpur - JMC",03-02-2024 07:00:00,23.218135,79.957770,NH3,NA,NA,NA
India,Madhya Pradesh,Maihar,"Sahilara, Maihar - KJS Cements",03-02-2024 07:00:00,24.2613009,80.7231783,CO,19,36,25
India,Madhya Pradesh,Mandideep,"Sector-D Industrial Area, Mandideep - MPPCB",03-02-2024 07:00:00,23.108440,77.511428,PM10,NA,NA,NA
India,Madhya Pradesh,Mandideep,"Sector-D Industrial Area, Mandideep - MPPCB",03-02-2024 07:00:00,23.108440,77.511428,NO2,NA,NA,NA
India,Madhya Pradesh,Mandideep,"Sector-D Industrial Area, Mandideep - MPPCB",03-02-2024 07:00:00,23.108440,77.511428,NH3,NA,NA,NA
India,Madhya Pradesh,Mandideep,"Sector-D Industrial Area, Mandideep - MPPCB",03-02-2024 07:00:00,23.108440,77.511428,SO2,NA,NA,NA
India,Madhya Pradesh,Pithampur,"Sector-2 Industrial Area, Pithampur - MPPCB",03-02-2024 07:00:00,22.624758,75.675238,PM10,83,190,136
India,Madhya Pradesh,Pithampur,"Sector-2 Industrial Area, Pithampur - MPPCB",03-02-2024 07:00:00,22.624758,75.675238,CO,36,65,57
India,Madhya Pradesh,Ratlam,"Shasthri Nagar, Ratlam - IPCA Lab",03-02-2024 07:00:00,23.331731,75.045981,PM2.5,27,116,63
India,Madhya Pradesh,Ratlam,"Shasthri Nagar, Ratlam - IPCA Lab",03-02-2024 07:00:00,23.331731,75.045981,NO2,1,59,24
India,Madhya Pradesh,Sagar,"Civil Lines, Sagar - MPPCB",03-02-2024 07:00:00,23.838586,78.759431,NH3,6,12,8
India,Madhya Pradesh,Sagar,"Deen Dayal Nagar, Sagar - MPPCB",03-02-2024 07:00:00,23.8640158,78.80289321,PM2.5,28,66,48
India,Madhya Pradesh,Sagar,"Deen Dayal Nagar, Sagar - MPPCB",03-02-2024 07:00:00,23.8640158,78.80289321,CO,66,105,81
India,Madhya Pradesh,Satna,"Bandhavgar Colony, Satna - Birla Cement",03-02-2024 07:00:00,24.58434363,80.8549414,PM2.5,13,23,17
India,Madhya Pradesh,Singrauli,"Suryakiran Bhawan NCL, Singrauli - MPPCB",03-02-2024 07:00:00,24.108970,82.645580,NO2,2,13,6
India,Madhya Pradesh,Singrauli,"Suryakiran Bhawan NCL, Singrauli - MPPCB",03-02-2024 07:00:00,24.108970,82.645580,OZONE,19,62,39
India,Madhya Pradesh,Ujjain,"Mahakaleshwar Temple, Ujjain - MPPCB",03-02-2024 07:00:00,23.182719 ,75.768218 ,PM2.5,10,276,90
India,Madhya Pradesh,Ujjain,"Mahakaleshwar Temple, Ujjain - MPPCB",03-02-2024 07:00:00,23.182719 ,75.768218 ,NO2,3,68,26
India,Maharashtra,Akola,"Ramdaspeth, Akola - MPCB",03-02-2024 07:00:00,20.719516,77.000253,PM2.5,17,370,119
India,Maharashtra,Amravati,"Shivneri Colony, Amravati - MPCB",03-02-2024 07:00:00,20.9402359,77.7895248,NH3,1,3,2
India,Maharashtra,Amravati,"Shri Shivaji Science College, Amaravati - MPCB",03-02-2024 07:00:00,20.939198,77.765701,NO2,7,113,32
India,Maharashtra,Aurangabad,"More Chowk Waluj, Aurangabad - MPCB",03-02-2024 07:00:00,19.8389439,75.244448,OZONE,5,180,9
India,Maharashtra,Aurangabad,"Rachnakar Colony, Aurangabad - MPCB",03-02-2024 07:00:00,19.863756,75.321188,PM2.5,163,250,192
India,Maharashtra,Aurangabad,"Rachnakar Colony, Aurangabad - MPCB",03-02-2024 07:00:00,19.863756,75.321188,NO2,16,100,48
India,Maharashtra,Aurangabad,"Rachnakar Colony, Aurangabad - MPCB",03-02-2024 07:00:00,19.863756,75.321188,SO2,12,58,34
India,Maharashtra,Aurangabad,"Rachnakar Colony, Aurangabad - MPCB",03-02-2024 07:00:00,19.863756,75.321188,CO,17,64,38
India,Maharashtra,Aurangabad,"Rachnakar Colony, Aurangabad - MPCB",03-02-2024 07:00:00,19.863756,75.321188,OZONE,14,101,17
India,Maharashtra,Badlapur,"Katrap, Badlapur - MPCB",03-02-2024 07:00:00,19.16485,73.23409,PM2.5,61,239,116
India,Maharashtra,Badlapur,"Katrap, Badlapur - MPCB",03-02-2024 07:00:00,19.16485,73.23409,OZONE,1,49,18
India,Maharashtra,Belapur,"CBD Belapur, Belapur - MPCB",03-02-2024 07:00:00,19.0243902,73.0406721,OZONE,1,112,22
India,Maharashtra,Bhiwandi,"Gokul Nagar, Bhiwandi - MPCB",03-02-2024 07:00:00,19.309073,73.057223,SO2,9,24,13
India,Maharashtra,Boisar,"Khaira, Boisar - MPCB",03-02-2024 07:00:00,19.786089,72.757971,PM10,82,120,106
India,Maharashtra,Chandrapur,"Chauhan Colony, Chandrapur - MPCB",03-02-2024 07:00:00,19.962900,79.298714,NO2,13,88,30
India,Maharashtra,Jalgaon,"Prabhat Colony, Jalgaon - MPCB",03-02-2024 07:00:00,21.001264,75.565602,NO2,14,124,55
India,Maharashtra,Kalyan,"Khadakpada, Kalyan - MPCB",03-02-2024 07:00:00,19.25292,73.142019,PM10,58,145,99
India,Maharashtra,Kalyan,"Khadakpada, Kalyan - MPCB",03-02-2024 07:00:00,19.25292,73.142019,NO2,17,50,25
India,Maharashtra,Kalyan,"Khadakpada, Kalyan - MPCB",03-02-2024 07:00:00,19.25292,73.142019,CO,10,28,13
India,Maharashtra,Kolhapur,"Shivaji University, Kolhapur - MPCB",03-02-2024 07:00:00,16.6870449,74.2505872,SO2,2,16,6
India,Maharashtra,Kolhapur,"Shivaji University, Kolhapur - MPCB",03-02-2024 07:00:00,16.6870449,74.2505872,CO,40,108,71
India,Maharashtra,Kolhapur,"Shivaji University, Kolhapur - MPCB",03-02-2024 07:00:00,16.6870449,74.2505872,OZONE,1,95,9
India,Maharashtra,Kolhapur,"Sinchan Bhavan, Kolhapur - MPCB",03-02-2024 07:00:00,16.7143745,74.2426398,NH3,7,8,7
India,Maharashtra,Latur,"Sawe Wadi, Latur - MPCB",03-02-2024 07:00:00,18.39963,76.57452,PM10,57,103,81
India,Maharashtra,Mahad,"Kamble Tarf Birwadi, Mahad - MPCB",03-02-2024 07:00:00,18.1023399,73.4783687,OZONE,8,57,21
India,Maharashtra,Malegaon,"Mahesh Nagar, Malegaon - MPCB",03-02-2024 07:00:00,20.555712,74.529236,SO2,6,30,11
India,Maharashtra,Mumbai,"Borivali East, Mumbai - IITM",03-02-2024 07:00:00,19.23241,72.86895,PM2.5,27,241,87
India,Maharashtra,Mumbai,"Borivali East, Mumbai - IITM",03-02-2024 07:00:00,19.23241,72.86895,NH3,4,17,7
India,Maharashtra,Mumbai,"Borivali East, Mumbai - IITM",03-02-2024 07:00:00,19.23241,72.86895,CO,1,45,14
India,Maharashtra,Mumbai,"Borivali East, Mumbai - MPCB",03-02-2024 07:00:00,19.2243333,72.8658113,NH3,NA,NA,NA
India,Maharashtra,Mumbai,"Borivali East, Mumbai - MPCB",03-02-2024 07:00:00,19.2243333,72.8658113,CO,NA,NA,NA
India,Maharashtra,Mumbai,"Byculla, Mumbai - BMC",03-02-2024 07:00:00,18.9767,72.8380,PM2.5,27,99,61
India,Maharashtra,Mumbai,"Chakala-Andheri East, Mumbai - IITM",03-02-2024 07:00:00,19.11074,72.86084,CO,74,112,102
India,Maharashtra,Mumbai,"Chakala-Andheri East, Mumbai - IITM",03-02-2024 07:00:00,19.11074,72.86084,OZONE,1,66,11
India,Maharashtra,Mumbai,"Chembur, Mumbai - MPCB",03-02-2024 07:00:00,19.0364585,72.8954371,PM2.5,39,125,68
India,Maharashtra,Mumbai,"Chembur, Mumbai - MPCB",03-02-2024 07:00:00,19.0364585,72.8954371,OZONE,2,81,21
India,Maharashtra,Mumbai,"Chhatrapati Shivaji Intl. Airport (T2), Mumbai - MPCB",03-02-2024 07:00:00,19.10078,72.87462,NH3,3,6,5
India,Maharashtra,Mumbai,"Colaba, Mumbai - MPCB",03-02-2024 07:00:00,18.910000,72.820000,PM2.5,18,75,45
India,Maharashtra,Mumbai,"Kandivali East, Mumbai - MPCB",03-02-2024 07:00:00,19.205800,72.868200,SO2,34,123,87
India,Maharashtra,Mumbai,"Kandivali West, Mumbai - BMC",03-02-2024 07:00:00,19.215859,72.831718,PM2.5,36,99,59
India,Maharashtra,Mumbai,"Kandivali West, Mumbai - BMC",03-02-2024 07:00:00,19.215859,72.831718,NO2,14,46,26
India,Maharashtra,Mumbai,"Khindipada-Bhandup West, Mumbai - IITM",03-02-2024 07:00:00,19.1653323,72.922099,PM2.5,55,147,103
India,Maharashtra,Mumbai,"Kurla, Mumbai - MPCB",03-02-2024 07:00:00,19.0863,72.8888,SO2,32,32,32
India,Maharashtra,Mumbai,"Kurla, Mumbai - MPCB",03-02-2024 07:00:00,19.0863,72.8888,OZONE,29,58,30
India,Maharashtra,Mumbai,"Malad West, Mumbai - IITM",03-02-2024 07:00:00,19.19709,72.82204,OZONE,1,34,14
India,Maharashtra,Mumbai,"Mazgaon, Mumbai - IITM",03-02-2024 07:00:00,18.96702,72.84214,PM10,56,256,116
India,Maharashtra,Mumbai,"Mazgaon, Mumbai - IITM",03-02-2024 07:00:00,18.96702,72.84214,NH3,13,33,23
India,Maharashtra,Mumbai,"Mazgaon, Mumbai - IITM",03-02-2024 07:00:00,18.96702,72.84214,OZONE,2,84,30
India,Maharashtra,Mumbai,"Mindspace-Malad West, Mumbai - MPCB",03-02-2024 07:00:00,19.1878657,72.8304069,SO2,1,9,5
India,Maharashtra,Mumbai,"Mindspace-Malad West, Mumbai - MPCB",03-02-2024 07:00:00,19.1878657,72.8304069,CO,17,56,40
India,Maharashtra,Mumbai,"Mulund West, Mumbai - MPCB",03-02-2024 07:00:00,19.1750,72.9419,CO,31,32,31
India,Maharashtra,Mumbai,"Sewri, Mumbai - BMC",03-02-2024 07:00:00,19.000084,72.856730,OZONE,1,65,6
India,Maharashtra,Mumbai,"Shivaji Nagar, Mumbai - BMC",03-02-2024 07:00:00,19.060498,72.923356,PM2.5,44,91,64
India,Maharashtra,Mumbai,"Shivaji Nagar, Mumbai - BMC",03-02-2024 07:00:00,19.060498,72.923356,CO,10,71,32
India,Maharashtra,Mumbai,"Siddharth Nagar-Worli, Mumbai - IITM",03-02-2024 07:00:00,19.000083,72.813993,CO,12,60,48
India,Maharashtra,Mumbai,"Siddharth Nagar-Worli, Mumbai - IITM",03-02-2024 07:00:00,19.000083,72.813993,OZONE,4,76,33
India,Maharashtra,Mumbai,"Sion, Mumbai - MPCB",03-02-2024 07:00:00,19.047000,72.874600,CO,4,48,40
India,Maharashtra,Mumbai,"Sion, Mumbai - MPCB",03-02-2024 07:00:00,19.047000,72.874600,OZONE,11,18,12
India,Maharashtra,Mumbai,"Vasai West, Mumbai - MPCB",03-02-2024 07:00:00,19.383200,72.820400,NO2,26,28,27
India,Maharashtra,Mumbai,"Vile Parle West, Mumbai - MPCB",03-02-2024 07:00:00,19.10861,72.83622,PM10,30,103,62
India,Maharashtra,Nagpur,"Ambazari, Nagpur - MPCB",03-02-2024 07:00:00,21.121801,79.04952,PM2.5,64,147,94
India,Maharashtra,Nagpur,"Mahal, Nagpur - MPCB",03-02-2024 07:00:00,21.14472,79.107595,NO2,8,57,23
India,Maharashtra,Nagpur,"Opp GPO Civil Lines, Nagpur - MPCB",03-02-2024 07:00:00,21.152875,79.0517531,OZONE,3,84,21
India,Maharashtra,Nagpur,"Ram Nagar, Nagpur - MPCB",03-02-2024 07:00:00,21.143383,79.048912,PM10,88,170,121
India,Maharashtra,Nagpur,"Ram Nagar, Nagpur - MPCB",03-02-2024 07:00:00,21.143383,79.048912,NH3,4,6,5
India,Maharashtra,Nanded,"Sneh Nagar, Nanded - MPCB",03-02-2024 07:00:00,19.173852,77.296291,PM2.5,64,192,106
India,Maharashtra,Nanded,"Sneh Nagar, Nanded - MPCB",03-02-2024 07:00:00,19.173852,77.296291,PM10,86,126,107
India,Maharashtra,Nanded,"Sneh Nagar, Nanded - MPCB",03-02-2024 07:00:00,19.173852,77.296291,NH3,2,3,2
India,Maharashtra,Nanded,"Sneh Nagar, Nanded - MPCB",03-02-2024 07:00:00,19.173852,77.296291,SO2,14,20,17
India,Maharashtra,Nashik,"Gangapur Road, Nashik - MPCB",03-02-2024 07:00:00,20.0073285,73.7762427,PM2.5,60,232,108
India,Maharashtra,Nashik,"Hirawadi, Nashik - MPCB",03-02-2024 07:00:00,20.021503,73.813844,SO2,6,6,6
India,Maharashtra,Nashik,"Pandav Nagari, Nashik - MPCB",03-02-2024 07:00:00,19.9591346,73.7788008,NH3,7,28,13
India,Maharashtra,Nashik,"Pandav Nagari, Nashik - MPCB",03-02-2024 07:00:00,19.9591346,73.7788008,OZONE,1,74,1
India,Maharashtra,Navi Mumbai,"Kopripada-Vashi, Navi Mumbai - MPCB",03-02-2024 07:00:00,19.090337,73.014232,SO2,24,35,29
India,Maharashtra,Navi Mumbai,"Mahape, Navi Mumbai - MPCB",03-02-2024 07:00:00,19.1135051,73.008978,PM2.5,25,98,49
India,Maharashtra,Navi Mumbai,"Mahape, Navi Mumbai - MPCB",03-02-2024 07:00:00,19.1135051,73.008978,OZONE,17,34,24
India,Maharashtra,Navi Mumbai,"Nerul, Navi Mumbai - MPCB",03-02-2024 07:00:00,19.008751,73.016620,PM2.5,40,92,62
India,Maharashtra,Navi Mumbai,"Nerul, Navi Mumbai - MPCB",03-02-2024 07:00:00,19.008751,73.016620,SO2,13,19,14
India,Maharashtra,Navi Mumbai,"Nerul, Navi Mumbai - MPCB",03-02-2024 07:00:00,19.008751,73.016620,OZONE,35,45,44
India,Maharashtra,Navi Mumbai,"Sector-2E Kalamboli, Navi Mumbai - MPCB",03-02-2024 07:00:00,19.02579,73.10297,SO2,NA,NA,NA
India,Maharashtra,Navi Mumbai,"Sector-2E Kalamboli, Navi Mumbai - MPCB",03-02-2024 07:00:00,19.02579,73.10297,OZONE,NA,NA,NA
India,Maharashtra,Navi Mumbai,"Tondare-Taloja, Navi Mumbai - MPCB",03-02-2024 07:00:00,19.0630,73.1209,PM2.5,51,152,87
India,Maharashtra,Navi Mumbai,"Tondare-Taloja, Navi Mumbai - MPCB",03-02-2024 07:00:00,19.0630,73.1209,NO2,13,80,52
India,Maharashtra,Navi Mumbai,"Tondare-Taloja, Navi Mumbai - MPCB",03-02-2024 07:00:00,19.0630,73.1209,NH3,3,8,5
India,Maharashtra,Navi Mumbai,"Tondare-Taloja, Navi Mumbai - MPCB",03-02-2024 07:00:00,19.0630,73.1209,CO,6,50,37
India,Maharashtra,Pimpri-Chinchwad,"Park Street Wakad, Pimpri Chinchwad - MPCB",03-02-2024 07:00:00,18.59051,73.77946,NO2,62,155,104
India,Maharashtra,Pimpri-Chinchwad,"Park Street Wakad, Pimpri Chinchwad - MPCB",03-02-2024 07:00:00,18.59051,73.77946,CO,24,131,86
India,Maharashtra,Pimpri-Chinchwad,"Thergaon, Pimpri Chinchwad - MPCB",03-02-2024 07:00:00,18.616318,73.765797,PM10,102,178,138
India,Maharashtra,Pimpri-Chinchwad,"Thergaon, Pimpri Chinchwad - MPCB",03-02-2024 07:00:00,18.616318,73.765797,OZONE,1,136,1
India,Maharashtra,Pune,"Karve Road, Pune - MPCB",03-02-2024 07:00:00,18.5011743,73.8165527,PM2.5,71,74,73
India,Maharashtra,Pune,"Mhada Colony, Pune - IITM",03-02-2024 07:00:00,18.573040,73.927715,NO2,8,17,13
India,Maharashtra,Pune,"Savitribai Phule Pune University, Pune - MPCB",03-02-2024 07:00:00,18.547056,73.826908,NO2,12,57,31
India,Maharashtra,Pune,"Savitribai Phule Pune University, Pune - MPCB",03-02-2024 07:00:00,18.547056,73.826908,NH3,2,11,6
India,Maharashtra,Pune,"Savitribai Phule Pune University, Pune - MPCB",03-02-2024 07:00:00,18.547056,73.826908,SO2,3,9,5
India,Maharashtra,Pune,"Transport Nagar-Nigdi, Pune - IITM",03-02-2024 07:00:00,18.664282,73.763966,OZONE,2,58,6
India,Maharashtra,Sangli,"Vijay Nagar, Sangli - MPCB",03-02-2024 07:00:00, 16.5038,74.3623,PM10,67,232,121
India,Maharashtra,Solapur,"Ratandeep Housing Society, Solapur - MPCB",03-02-2024 07:00:00,17.65439,75.90649,PM2.5,78,277,135
India,Maharashtra,Solapur,"Ratandeep Housing Society, Solapur - MPCB",03-02-2024 07:00:00,17.65439,75.90649,SO2,7,17,12
India,Maharashtra,Thane,"Kasarvadavali, Thane - MPCB",03-02-2024 07:00:00,19.26777,72.97182,PM2.5,136,304,229
India,Maharashtra,Thane,"Pimpleshwar Mandir, Thane - MPCB",03-02-2024 07:00:00,19.192056,72.9585188,SO2,12,90,33
India,Maharashtra,Thane,"Pimpleshwar Mandir, Thane - MPCB",03-02-2024 07:00:00,19.192056,72.9585188,CO,2,112,61
India,Maharashtra,Virar,"Bolinj, Virar - MPCB",03-02-2024 07:00:00,19.4458210,72.7988231,NH3,4,6,4
India,Maharashtra,Virar,"Bolinj, Virar - MPCB",03-02-2024 07:00:00,19.4458210,72.7988231,CO,13,100,35
India,Meghalaya,Shillong,"Lumpyngngad, Shillong - Meghalaya PCB",03-02-2024 07:00:00,25.5586,91.8985,CO,10,24,20
India,Mizoram,Aizawl,"Sikulpuikawn, Aizawl - Mizoram PCB",03-02-2024 07:00:00,23.7176342,92.7192841,CO,10,16,10
India,Nagaland,Kohima,"PWD Juction, Kohima - NPCB",03-02-2024 07:00:00,25.6635413,94.0989878,OZONE,11,18,13
India,Odisha,Angul,"Hakimapada, Angul - OSPCB",03-02-2024 07:00:00,20.832874,85.104082,NO2,16,68,32
India,Odisha,Angul,"Hakimapada, Angul - OSPCB",03-02-2024 07:00:00,20.832874,85.104082,CO,8,100,42
India,Odisha,Balasore,"Kalidaspur, Balasore - OSPCB",03-02-2024 07:00:00,21.51161,86.89088,NO2,8,27,14
India,Odisha,Balasore,"Kalidaspur, Balasore - OSPCB",03-02-2024 07:00:00,21.51161,86.89088,NH3,3,5,4
India,Odisha,Barbil,"Forest Office, Barbil - OSPCB",03-02-2024 07:00:00,22.1166054,85.3945546,NH3,4,6,5
India,Odisha,Baripada,"Meher Colony, Baripada - OSPCB",03-02-2024 07:00:00,21.941841,86.728318,NO2,2,3,3
India,Odisha,Bhubaneswar,"Lingraj Mandir, Bhubaneswar - OSPCB",03-02-2024 07:00:00,20.240790,85.836784,PM2.5,30,197,65
India,Odisha,Bhubaneswar,"Patia, Bhubaneswar - OSPCB",03-02-2024 07:00:00,20.34652,85.81630,NH3,3,5,4
India,Odisha,Brajrajnagar,"GM Office, Brajrajnagar - OSPCB",03-02-2024 07:00:00,21.8004996,83.8396977,OZONE,18,20,19
India,Odisha,Byasanagar,"Ferro Chrome Colony, Byasanagar - OSPCB",03-02-2024 07:00:00,20.94185,86.11510,SO2,3,38,12
India,Odisha,Byasanagar,"Ferro Chrome Colony, Byasanagar - OSPCB",03-02-2024 07:00:00,20.94185,86.11510,OZONE,17,99,28
India,Odisha,Cuttack,"CDA Area, Cuttack - OSPCB",03-02-2024 07:00:00,20.48891     ,85.84768     ,SO2,2,49,9
India,Odisha,Cuttack,"CDA Area, Cuttack - OSPCB",03-02-2024 07:00:00,20.48891     ,85.84768     ,CO,26,60,38
India,Odisha,Keonjhar,"Jagamohanpur, Keonjhar - OSPCB",03-02-2024 07:00:00,21.643900,85.599355,SO2,11,18,13
India,Odisha,Nayagarh,"Dabuna, Nayagarh - OSPCB",03-02-2024 07:00:00,21.847279,85.416905,SO2,3,9,4
India,Odisha,Rairangpur,"Divisional Forest Office, Rairangpur - OSPCB",03-02-2024 07:00:00,22.265816,86.174829,OZONE,2,71,5
India,Odisha,Rourkela,"Fertilizer Township, Rourkela - OSPCB",03-02-2024 07:00:00,22.18972222,84.86277778,CO,14,24,18
India,Odisha,Rourkela,"Raghunathpali, Rourkela - OSPCB",03-02-2024 07:00:00,22.220833,84.809444,SO2,1,21,4
India,Odisha,Rourkela,"Sector-2, Rourkela - OSPCB",03-02-2024 07:00:00,22.24500000,84.88111111,PM10,89,137,112
India,Odisha,Suakati,"OMC Colony, Suakati - OSPCB",03-02-2024 07:00:00,21.606865,85.510538,PM2.5,81,165,115
India,Odisha,Suakati,"OMC Colony, Suakati - OSPCB",03-02-2024 07:00:00,21.606865,85.510538,PM10,98,135,113
India,Odisha,Suakati,"OMC Colony, Suakati - OSPCB",03-02-2024 07:00:00,21.606865,85.510538,NO2,62,339,115
India,Odisha,Suakati,"OMC Colony, Suakati - OSPCB",03-02-2024 07:00:00,21.606865,85.510538,SO2,4,73,22
India,Odisha,Tensa,"Barsua Iron Ore Mines, Tensa - OSPCB",03-02-2024 07:00:00,21.869985,85.167016,PM10,NA,NA,NA
India,Puducherry,Puducherry,"Jawahar Nagar, Puducherry - PPCC",03-02-2024 07:00:00,11.9309,79.8027,NH3,2,3,2
India,Punjab,Amritsar,"Golden Temple, Amritsar - PPCB",03-02-2024 07:00:00,31.620000,74.876512,PM2.5,35,254,74
India,Punjab,Khanna,"Kalal Majra, Khanna - PPCB",03-02-2024 07:00:00,30.736056 ,76.209694,PM10,17,77,42
India,Punjab,Khanna,"Kalal Majra, Khanna - PPCB",03-02-2024 07:00:00,30.736056 ,76.209694,CO,10,20,14
India,Punjab,Ludhiana,"Punjab Agricultural University, Ludhiana - PPCB",03-02-2024 07:00:00,30.9028,75.8086,SO2,2,16,7
India,Punjab,Patiala,"Model Town, Patiala - PPCB",03-02-2024 07:00:00,30.349388,76.366642,PM10,33,70,51
India,Punjab,Patiala,"Model Town, Patiala - PPCB",03-02-2024 07:00:00,30.349388,76.366642,CO,19,39,26
India,Punjab,Rupnagar,"Ratanpura, Rupnagar - Ambuja Cements",03-02-2024 07:00:00,31.0325454,76.5623046,SO2,9,13,11
India,Punjab,Rupnagar,"Ratanpura, Rupnagar - Ambuja Cements",03-02-2024 07:00:00,31.0325454,76.5623046,CO,24,43,29
India,Rajasthan,Ajmer,"Civil Lines,  Ajmer - RSPCB",03-02-2024 07:00:00,26.470859,74.646594,PM10,47,127,87
India,Rajasthan,Ajmer,"Civil Lines,  Ajmer - RSPCB",03-02-2024 07:00:00,26.470859,74.646594,NO2,15,46,25
India,Rajasthan,Ajmer,"Civil Lines,  Ajmer - RSPCB",03-02-2024 07:00:00,26.470859,74.646594,SO2,13,21,16
India,Rajasthan,Alwar,"Moti Doongri, Alwar - RSPCB",03-02-2024 07:00:00,27.554793,76.611536,NH3,6,9,8
India,Rajasthan,Alwar,"Moti Doongri, Alwar - RSPCB",03-02-2024 07:00:00,27.554793,76.611536,OZONE,7,21,9
India,Rajasthan,Banswara,"Rati Talai, Banswara - RSPCB",03-02-2024 07:00:00,23.555190,74.440010,OZONE,3,73,33
India,Rajasthan,Baran,"Bamboliya, Baran - RSPCB",03-02-2024 07:00:00,25.106006,76.469948,OZONE,21,99,38
India,Rajasthan,Barmer,"Railway Colony, Barmer - RSPCB",03-02-2024 07:00:00,25.747299,71.393989,PM10,NA,NA,NA
India,Rajasthan,Bharatpur,"Krishna Nagar, Bharatpur - RSPCB",03-02-2024 07:00:00,27.215415,77.50873,PM10,90,189,148
India,Rajasthan,Bhiwadi,"RIICO Ind. Area III, Bhiwadi - RSPCB",03-02-2024 07:00:00,28.194909,76.862296,PM10,74,155,119
India,Rajasthan,Bhiwadi,"RIICO Ind. Area III, Bhiwadi - RSPCB",03-02-2024 07:00:00,28.194909,76.862296,NO2,16,46,24
India,Rajasthan,Bundi,"New Colony, Bundi - RSPCB",03-02-2024 07:00:00,25.435774,75.644272,PM10,108,225,157
India,Rajasthan,Bundi,"New Colony, Bundi - RSPCB",03-02-2024 07:00:00,25.435774,75.644272,CO,34,74,51
India,Rajasthan,Churu,"Subash Chowk, Churu - RSPCB",03-02-2024 07:00:00,28.296139,74.961696,NO2,10,42,20
India,Rajasthan,Dausa,"Khatikan Mohalla, Dausa - RSPCB",03-02-2024 07:00:00,26.895552,76.334753,PM2.5,27,172,80
India,Rajasthan,Dholpur,"Raja Ganj, Dholpur - RSPCB",03-02-2024 07:00:00,26.699557,77.898881,NH3,2,14,6
India,Rajasthan,Dholpur,"Raja Ganj, Dholpur - RSPCB",03-02-2024 07:00:00,26.699557,77.898881,CO,12,57,43
India,Rajasthan,Dungarpur,"Bhoiwada, Dungarpur - RSPCB",03-02-2024 07:00:00,23.837789,73.714926,SO2,3,6,5
India,Rajasthan,Hanumangarh,"Housing Board, Hanumangarh - RSPCB",03-02-2024 07:00:00,29.610750,74.283608,PM10,77,193,136
India,Rajasthan,Hanumangarh,"Housing Board, Hanumangarh - RSPCB",03-02-2024 07:00:00,29.610750,74.283608,NH3,11,15,13
India,Rajasthan,Jaipur,"Adarsh Nagar, Jaipur - RSPCB",03-02-2024 07:00:00,26.902909,75.836858,PM10,55,124,87
India,Rajasthan,Jaipur,"Adarsh Nagar, Jaipur - RSPCB",03-02-2024 07:00:00,26.902909,75.836858,OZONE,27,70,40
India,Rajasthan,Jaipur,"Mansarovar Sector-12, Jaipur - RSPCB",03-02-2024 07:00:00,26.843698,75.766894,PM10,78,227,142
India,Rajasthan,Jaipur,"Mansarovar Sector-12, Jaipur - RSPCB",03-02-2024 07:00:00,26.843698,75.766894,CO,2,73,27
India,Rajasthan,Jaipur,"Police Commissionerate, Jaipur - RSPCB",03-02-2024 07:00:00,26.9164092,75.7994901,PM10,88,154,122
India,Rajasthan,Jaipur,"Police Commissionerate, Jaipur - RSPCB",03-02-2024 07:00:00,26.9164092,75.7994901,NH3,8,17,12
India,Rajasthan,Jaipur,"RIICO Sitapura, Jaipur - RSPCB",03-02-2024 07:00:00,26.786682,75.827928,OZONE,6,77,19
India,Rajasthan,Jaipur,"Sector-2 Murlipura, Jaipur - RSPCB",03-02-2024 07:00:00,26.960669,75.771817,OZONE,7,110,39
India,Rajasthan,Jaisalmer,"Sadar Bazar, Jaisalmer - RSPCB",03-02-2024 07:00:00,26.912329,70.909168,OZONE,40,116,55
India,Rajasthan,Jalore,"Mudtra Sili, Jalore - RSPCB",03-02-2024 07:00:00,25.344694,72.626208,NH3,4,7,6
India,Rajasthan,Jalore,"Mudtra Sili, Jalore - RSPCB",03-02-2024 07:00:00,25.344694,72.626208,SO2,4,9,6
India,Rajasthan,Jhalawar,"Rajlaxmi Nagar, Jhalawar - RSPCB",03-02-2024 07:00:00,24.588397,76.172782,PM2.5,75,286,169
India,Rajasthan,Jhalawar,"Rajlaxmi Nagar, Jhalawar - RSPCB",03-02-2024 07:00:00,24.588397,76.172782,NO2,17,28,21
India,Rajasthan,Jodhpur,"Collectorate, Jodhpur - RSPCB",03-02-2024 07:00:00,26.268249,73.0193853,OZONE,32,96,50
India,Rajasthan,Jodhpur,"Digari Kalan, Jodhpur - RSPCB",03-02-2024 07:00:00,26.295810,73.082283,NH3,4,7,6
India,Rajasthan,Jodhpur,"Mandor, Jodhpur - RSPCB",03-02-2024 07:00:00,26.358805,73.047444,NO2,23,86,41
India,Rajasthan,Karauli,"Satyawati Vihar, Karauli - RSPCB",03-02-2024 07:00:00,26.506177,77.025989,PM2.5,78,337,248
India,Rajasthan,Karauli,"Satyawati Vihar, Karauli - RSPCB",03-02-2024 07:00:00,26.506177,77.025989,PM10,96,250,177
India,Rajasthan,Kota,"Dhanmandi, Kota - RSPCB",03-02-2024 07:00:00,25.164090,75.858137,PM2.5,231,377,317
India,Rajasthan,Kota,"Dhanmandi, Kota - RSPCB",03-02-2024 07:00:00,25.164090,75.858137,SO2,1,9,4
India,Rajasthan,Kota,"Dhanmandi, Kota - RSPCB",03-02-2024 07:00:00,25.164090,75.858137,CO,42,113,65
India,Rajasthan,Kota,"Dhanmandi, Kota - RSPCB",03-02-2024 07:00:00,25.164090,75.858137,OZONE,1,90,37
India,Rajasthan,Kota,"Nayapura, Kota - RSPCB",03-02-2024 07:00:00,25.196024,75.855668,NO2,22,91,49
India,Rajasthan,Kota,"Nayapura, Kota - RSPCB",03-02-2024 07:00:00,25.196024,75.855668,NH3,8,12,9
India,Rajasthan,Kota,"Nayapura, Kota - RSPCB",03-02-2024 07:00:00,25.196024,75.855668,CO,11,16,13
India,Rajasthan,Kota,"Shrinath Puram, Kota - RSPCB",03-02-2024 07:00:00,25.14389,75.821256,CO,13,36,27
India,Rajasthan,Nagaur,"Karni Colony, Nagaur - RSPCB",03-02-2024 07:00:00,27.213494,73.734444,PM10,76,449,147
India,Rajasthan,Nagaur,"Karni Colony, Nagaur - RSPCB",03-02-2024 07:00:00,27.213494,73.734444,NH3,7,15,11
India,Rajasthan,Pali,"Indira Colony Vistar, Pali - RSPCB",03-02-2024 07:00:00,25.771061, 73.340227,CO,2,77,37
India,Rajasthan,Pali,"Indira Colony Vistar, Pali - RSPCB",03-02-2024 07:00:00,25.771061, 73.340227,OZONE,19,67,41
India,Rajasthan,Pratapgarh,"Pragati Nagar, Pratapgarh - RSPCB",03-02-2024 07:00:00,24.041198,74.780702,PM2.5,27,192,94
India,Rajasthan,Pratapgarh,"Pragati Nagar, Pratapgarh - RSPCB",03-02-2024 07:00:00,24.041198,74.780702,CO,14,37,33
India,Rajasthan,Rajsamand,"Dhoinda, Rajsamand - RSPCB",03-02-2024 07:00:00,25.036360,73.883502,CO,31,67,41
India,Rajasthan,Sawai Madhopur,"Sahu Nagar, Sawai Madhopur - RSPCB",03-02-2024 07:00:00,26.031443,76.359327,PM10,92,194,137
India,Rajasthan,Sawai Madhopur,"Sahu Nagar, Sawai Madhopur - RSPCB",03-02-2024 07:00:00,26.031443,76.359327,NO2,5,36,16
India,Rajasthan,Sikar,"Radhakishan Pura, Sikar - RSPCB",03-02-2024 07:00:00,27.608912,75.153302,PM2.5,19,317,139
India,Rajasthan,Sikar,"Radhakishan Pura, Sikar - RSPCB",03-02-2024 07:00:00,27.608912,75.153302,SO2,2,6,4
India,Rajasthan,Sikar,"Radhakishan Pura, Sikar - RSPCB",03-02-2024 07:00:00,27.608912,75.153302,OZONE,37,96,48
India,Rajasthan,Sirohi,"Vedhaynath Colony, Sirohi - RSPCB",03-02-2024 07:00:00,24.885261,72.857549,PM2.5,13,120,44
India,Rajasthan,Sirohi,"Vedhaynath Colony, Sirohi - RSPCB",03-02-2024 07:00:00,24.885261,72.857549,PM10,32,141,75
India,Rajasthan,Sirohi,"Vedhaynath Colony, Sirohi - RSPCB",03-02-2024 07:00:00,24.885261,72.857549,SO2,4,10,7
India,Rajasthan,Sri Ganganagar,"Old City, Sri Ganganagar - RSPCB",03-02-2024 07:00:00,29.931624,73.864511,NO2,22,86,48
India,Rajasthan,Sri Ganganagar,"Old City, Sri Ganganagar - RSPCB",03-02-2024 07:00:00,29.931624,73.864511,CO,2,69,22
India,Rajasthan,Tonk,"Shastri Nagar, Tonk - RSPCB",03-02-2024 07:00:00,26.159933,75.780517,SO2,2,45,8
India,Rajasthan,Tonk,"Shastri Nagar, Tonk - RSPCB",03-02-2024 07:00:00,26.159933,75.780517,CO,5,32,22
India,Rajasthan,Tonk,"Shastri Nagar, Tonk - RSPCB",03-02-2024 07:00:00,26.159933,75.780517,OZONE,35,68,44
India,Rajasthan,Udaipur,"Ashok Nagar, Udaipur - RSPCB",03-02-2024 07:00:00,24.5886166,73.6321397,NH3,6,13,7
India,Rajasthan,Udaipur,"Ashok Nagar, Udaipur - RSPCB",03-02-2024 07:00:00,24.5886166,73.6321397,SO2,4,53,18
India,Sikkim,Gangtok,"Zero Point GICI, Gangtok - SSPCB",03-02-2024 07:00:00,27.338530,88.614099,NO2,1,12,6
India,TamilNadu,Chengalpattu,"Crescent University, Chengalpattu - TNPCB",03-02-2024 07:00:00,12.8777316,80.0834807,PM2.5,NA,NA,NA
India,TamilNadu,Chennai,"Alandur Bus Depot, Chennai - CPCB",03-02-2024 07:00:00,12.9099161,80.1076538,PM2.5,101,299,186
India,TamilNadu,Chennai,"Gandhi Nagar_Ennore, Chennai - TNPCB",03-02-2024 07:00:00,13.218341,80.32027,SO2,13,14,13
India,TamilNadu,Chennai,"Gandhi Nagar_Ennore, Chennai - TNPCB",03-02-2024 07:00:00,13.218341,80.32027,OZONE,2,3,2
India,TamilNadu,Chennai,"Kodungaiyur, Chennai - TNPCB",03-02-2024 07:00:00,13.1278,80.2642,PM2.5,2,33,14
India,TamilNadu,Chennai,"Kodungaiyur, Chennai - TNPCB",03-02-2024 07:00:00,13.1278,80.2642,OZONE,5,6,6
India,TamilNadu,Chennai,"Manali, Chennai - CPCB",03-02-2024 07:00:00,13.164544,80.26285,PM2.5,24,78,44
India,TamilNadu,Chennai,"Perungudi, Chennai - TNPCB",03-02-2024 07:00:00,12.9533,80.2357,PM2.5,12,45,25
India,TamilNadu,Chennai,"Perungudi, Chennai - TNPCB",03-02-2024 07:00:00,12.9533,80.2357,NO2,2,35,23
India,TamilNadu,Chennai,"Royapuram, Chennai - TNPCB",03-02-2024 07:00:00,13.1036,80.2909,PM2.5,10,28,16
India,TamilNadu,Chennai,"Royapuram, Chennai - TNPCB",03-02-2024 07:00:00,13.1036,80.2909,NO2,11,21,16
India,TamilNadu,Chennai,"Velachery Res. Area, Chennai - CPCB",03-02-2024 07:00:00,13.0052189,80.2398125,PM2.5,16,52,34
India,TamilNadu,Coimbatore,"PSG College of Arts and Science, Coimbatore - TNPCB",03-02-2024 07:00:00,11.0328,77.0349,OZONE,3,5,4
India,TamilNadu,Cuddalore,"Kudikadu, Cuddalore - TNPCB",03-02-2024 07:00:00,11.6829898,79.7532099,SO2,NA,NA,NA
India,TamilNadu,Cuddalore,"Semmandalam, Cuddalore - TNPCB",03-02-2024 07:00:00,11.7637683,79.7499835,NO2,3,16,10
India,TamilNadu,Gummidipoondi,"Anthoni Pillai Nagar, Gummidipoondi - TNPCB",03-02-2024 07:00:00,13.4127,80.1081,PM2.5,18,314,86
India,TamilNadu,Palkalaiperur,"Bharathidasan University, Palkalaiperur - TNPCB",03-02-2024 07:00:00,10.681158,78.741746,PM2.5,12,36,22
India,TamilNadu,Palkalaiperur,"Bharathidasan University, Palkalaiperur - TNPCB",03-02-2024 07:00:00,10.681158,78.741746,PM10,13,45,26
India,TamilNadu,Ramanathapuram,"Chalai Bazaar, Ramanathapuram - TNPCB",03-02-2024 07:00:00,9.36399,78.831977,SO2,NA,NA,NA
India,TamilNadu,Ramanathapuram,"Chalai Bazaar, Ramanathapuram - TNPCB",03-02-2024 07:00:00,9.36399,78.831977,OZONE,NA,NA,NA
India,TamilNadu,Thoothukudi,"Meelavittan, Thoothukudi - TNPCB",03-02-2024 07:00:00,8.816428 ,78.099039,PM10,13,55,27
India,TamilNadu,Thoothukudi,"Meelavittan, Thoothukudi - TNPCB",03-02-2024 07:00:00,8.816428 ,78.099039,CO,6,63,18
India,TamilNadu,Tirupur,"Kumaran College, Tirupur - TNPCB",03-02-2024 07:00:00,11.0973603,77.3228673,PM2.5,8,75,25
India,TamilNadu,Tirupur,"Kumaran College, Tirupur - TNPCB",03-02-2024 07:00:00,11.0973603,77.3228673,CO,18,110,26
India,TamilNadu,Vellore,"Vasanthapuram, Vellore - TNPCB",03-02-2024 07:00:00,12.909494,79.131861,NO2,3,15,10
India,TamilNadu,Virudhunagar,"Collectorate Office, Virudhunagar - TNPCB",03-02-2024 07:00:00,9.559382,77.948828,SO2,16,16,16
India,TamilNadu,Virudhunagar,"Collectorate Office, Virudhunagar - TNPCB",03-02-2024 07:00:00,9.559382,77.948828,OZONE,3,11,3
India,Telangana,Hyderabad,"Bollaram Industrial Area, Hyderabad - TSPCB",03-02-2024 07:00:00,17.540891,78.358528,SO2,10,22,16
India,Telangana,Hyderabad,"Bollaram Industrial Area, Hyderabad - TSPCB",03-02-2024 07:00:00,17.540891,78.358528,OZONE,36,39,37
India,Telangana,Hyderabad,"Central University, Hyderabad - TSPCB",03-02-2024 07:00:00,17.460103,78.334361,CO,21,88,36
India,Telangana,Hyderabad,"ECIL Kapra, Hyderabad - TSPCB",03-02-2024 07:00:00,17.470431,78.566959,PM2.5,40,72,50
India,Telangana,Hyderabad,"ECIL Kapra, Hyderabad - TSPCB",03-02-2024 07:00:00,17.470431,78.566959,PM10,46,88,63
India,Telangana,Hyderabad,"ECIL Kapra, Hyderabad - TSPCB",03-02-2024 07:00:00,17.470431,78.566959,NO2,13,14,14
India,Telangana,Hyderabad,"ICRISAT Patancheru, Hyderabad - TSPCB",03-02-2024 07:00:00,17.518400,78.278777,PM10,43,141,80
India,Telangana,Hyderabad,"IITH Kandi, Hyderabad - TSPCB",03-02-2024 07:00:00,17.585705,78.126199,PM2.5,NA,NA,NA
India,Telangana,Hyderabad,"IITH Kandi, Hyderabad - TSPCB",03-02-2024 07:00:00,17.585705,78.126199,NH3,NA,NA,NA
India,Telangana,Hyderabad,"Kompally Municipal Office, Hyderabad - TSPCB",03-02-2024 07:00:00,17.544899,78.486949,PM2.5,NA,NA,NA
India,Telangana,Hyderabad,"New Malakpet, Hyderabad - TSPCB",03-02-2024 07:00:00,17.37206,78.50864,PM2.5,10,41,27
India,Telangana,Hyderabad,"Ramachandrapuram, Hyderabad - TSPCB",03-02-2024 07:00:00,17.528544,78.286195,PM10,61,82,69
India,Telangana,Hyderabad,"Sanathnagar, Hyderabad - TSPCB",03-02-2024 07:00:00,17.4559458,78.4332152,PM2.5,56,90,77
India,Telangana,Hyderabad,"Sanathnagar, Hyderabad - TSPCB",03-02-2024 07:00:00,17.4559458,78.4332152,OZONE,14,200,80
India,Telangana,Hyderabad,"Somajiguda, Hyderabad - TSPCB",03-02-2024 07:00:00,17.417094,78.457437,CO,4,40,10
India,Telangana,Hyderabad,"Zoo Park, Hyderabad - TSPCB",03-02-2024 07:00:00,17.349694,78.451437,NO2,12,39,28
India,Telangana,Hyderabad,"Zoo Park, Hyderabad - TSPCB",03-02-2024 07:00:00,17.349694,78.451437,OZONE,17,163,19
India,Tripura,Agartala,"Bardowali, Agartala - Tripura SPCB",03-02-2024 07:00:00,23.8175497,91.2726974,PM10,NA,NA,NA
India,Tripura,Agartala,"Bardowali, Agartala - Tripura SPCB",03-02-2024 07:00:00,23.8175497,91.2726974,NH3,NA,NA,NA
India,Tripura,Agartala,"Bardowali, Agartala - Tripura SPCB",03-02-2024 07:00:00,23.8175497,91.2726974,CO,NA,NA,NA
India,Tripura,Agartala,"Bardowali, Agartala - Tripura SPCB",03-02-2024 07:00:00,23.8175497,91.2726974,OZONE,NA,NA,NA
India,Uttar_Pradesh,Agra,"Rohta, Agra - UPPCB",03-02-2024 07:00:00,27.106972,78.000111,PM10,38,96,62
India,Uttar_Pradesh,Agra,"Sector-3B Avas Vikas Colony, Agra - UPPCB",03-02-2024 07:00:00,27.19412,77.96237,CO,2,14,8
India,Uttar_Pradesh,Agra,"Shastripuram, Agra - UPPCB",03-02-2024 07:00:00,27.19862,77.92066,NH3,1,6,2
India,Uttar_Pradesh,Agra,"Shastripuram, Agra - UPPCB",03-02-2024 07:00:00,27.19862,77.92066,SO2,17,19,18
India,Uttar_Pradesh,Baghpat,"Sardar Patel Inter College, Baghpat - UPPCB",03-02-2024 07:00:00,28.964949,77.278761,CO,22,66,36
India,Uttar_Pradesh,Bareilly,"Civil Lines, Bareilly - UPPCB",03-02-2024 07:00:00,28.359581,79.414455,SO2,40,42,41
India,Uttar_Pradesh,Bareilly,"Civil Lines, Bareilly - UPPCB",03-02-2024 07:00:00,28.359581,79.414455,OZONE,1,20,3
India,Uttar_Pradesh,Bareilly,"Rajendra Nagar, Bareilly - UPPCB",03-02-2024 07:00:00,28.38910936,79.42963708,PM10,22,62,44
India,Uttar_Pradesh,Bulandshahr,"Yamunapuram, Bulandshahr - UPPCB",03-02-2024 07:00:00,28.406963,77.849831,CO,22,132,66
India,Uttar_Pradesh,Firozabad,"Nagla Bhau, Firozabad - UPPCB",03-02-2024 07:00:00,27.168897,78.376960,PM10,26,108,43
India,Uttar_Pradesh,Firozabad,"Nagla Bhau, Firozabad - UPPCB",03-02-2024 07:00:00,27.168897,78.376960,NH3,2,2,2
India,Uttar_Pradesh,Firozabad,"Vibhab Nagar, Firozabad - UPPCB",03-02-2024 07:00:00,27.1594,78.3953,PM10,NA,NA,NA
India,Uttar_Pradesh,Firozabad,"Vibhab Nagar, Firozabad - UPPCB",03-02-2024 07:00:00,27.1594,78.3953,NH3,NA,NA,NA
India,Uttar_Pradesh,Ghaziabad,"Indirapuram, Ghaziabad - UPPCB",03-02-2024 07:00:00,28.646233,77.358075,PM10,86,174,139
India,Uttar_Pradesh,Ghaziabad,"Indirapuram, Ghaziabad - UPPCB",03-02-2024 07:00:00,28.646233,77.358075,NH3,2,7,4
India,Uttar_Pradesh,Ghaziabad,"Loni, Ghaziabad - UPPCB",03-02-2024 07:00:00,28.757294,77.278792,PM2.5,59,258,146
India,Uttar_Pradesh,Ghaziabad,"Loni, Ghaziabad - UPPCB",03-02-2024 07:00:00,28.757294,77.278792,PM10,45,147,102
India,Uttar_Pradesh,Ghaziabad,"Loni, Ghaziabad - UPPCB",03-02-2024 07:00:00,28.757294,77.278792,NH3,2,4,3
India,Uttar_Pradesh,Ghaziabad,"Sanjay Nagar, Ghaziabad - UPPCB",03-02-2024 07:00:00,28.685382,77.453839,CO,4,72,24
India,Uttar_Pradesh,Ghaziabad,"Vasundhara, Ghaziabad - UPPCB",03-02-2024 07:00:00,28.6603346,77.3572563,SO2,5,33,17
India,Uttar_Pradesh,Greater Noida,"Knowledge Park - III, Greater Noida - UPPCB",03-02-2024 07:00:00,28.47272,77.482000,NH3,8,12,10
India,Uttar_Pradesh,Greater Noida,"Knowledge Park - V, Greater Noida - UPPCB",03-02-2024 07:00:00,28.557054,77.453663,PM10,56,190,138
India,Uttar_Pradesh,Greater Noida,"Knowledge Park - V, Greater Noida - UPPCB",03-02-2024 07:00:00,28.557054,77.453663,NO2,15,32,23
India,Uttar_Pradesh,Hapur,"Anand Vihar, Hapur - UPPCB",03-02-2024 07:00:00,28.725645,77.749675,NH3,1,12,8
India,Uttar_Pradesh,Jhansi,"Shivaji Nagar, Jhansi - UPPCB",03-02-2024 07:00:00,25.4547,78.6039,SO2,11,13,11
India,Uttar_Pradesh,Jhansi,"Shivaji Nagar, Jhansi - UPPCB",03-02-2024 07:00:00,25.4547,78.6039,CO,32,82,64
India,Uttar_Pradesh,Kanpur,"FTI Kidwai Nagar, Kanpur - UPPCB",03-02-2024 07:00:00,26.428282,80.327067,NO2,14,54,16
India,Uttar_Pradesh,Kanpur,"NSI Kalyanpur, Kanpur - UPPCB",03-02-2024 07:00:00,26.509954,80.249612,NO2,16,16,16
India,Uttar_Pradesh,Kanpur,"NSI Kalyanpur, Kanpur - UPPCB",03-02-2024 07:00:00,26.509954,80.249612,NH3,3,3,3
India,Uttar_Pradesh,Kanpur,"NSI Kalyanpur, Kanpur - UPPCB",03-02-2024 07:00:00,26.509954,80.249612,OZONE,3,15,6
India,Uttar_Pradesh,Lucknow,"Kendriya Vidyalaya, Lucknow - CPCB",03-02-2024 07:00:00,26.906111,80.948222,PM10,63,112,95
India,Uttar_Pradesh,Lucknow,"Talkatora District Industries Center, Lucknow - CPCB",03-02-2024 07:00:00,26.83399722,80.8917361,PM10,90,124,107
India,Uttar_Pradesh,Lucknow,"Talkatora District Industries Center, Lucknow - CPCB",03-02-2024 07:00:00,26.83399722,80.8917361,NH3,19,28,23
India,Uttar_Pradesh,Lucknow,"Talkatora District Industries Center, Lucknow - CPCB",03-02-2024 07:00:00,26.83399722,80.8917361,CO,12,80,42
India,Uttar_Pradesh,Meerut,"Ganga Nagar, Meerut - UPPCB",03-02-2024 07:00:00,28.999264,77.7590354,PM10,57,120,83
India,Uttar_Pradesh,Meerut,"Ganga Nagar, Meerut - UPPCB",03-02-2024 07:00:00,28.999264,77.7590354,CO,19,39,24
India,Uttar_Pradesh,Meerut,"Jai Bhim Nagar, Meerut - UPPCB",03-02-2024 07:00:00,28.9535882,77.7622941,SO2,13,34,19
India,Uttar_Pradesh,Meerut,"Pallavpuram Phase 2, Meerut - UPPCB",03-02-2024 07:00:00,29.063510,77.709723,NH3,7,16,11
India,Uttar_Pradesh,Moradabad,"Eco Herbal Park, Moradabad - UPPCB",03-02-2024 07:00:00,28.840739,78.697531,NH3,2,19,4
India,Uttar_Pradesh,Moradabad,"Eco Herbal Park, Moradabad - UPPCB",03-02-2024 07:00:00,28.840739,78.697531,SO2,4,32,17
India,Uttar_Pradesh,Moradabad,"Employment Office, Moradabad - UPPCB",03-02-2024 07:00:00,28.88528,78.73880,PM10,51,92,70
India,Uttar_Pradesh,Moradabad,"Jigar Colony, Moradabad - UPPCB",03-02-2024 07:00:00,28.856664,78.772638,CO,10,30,26
India,Uttar_Pradesh,Moradabad,"Jigar Colony, Moradabad - UPPCB",03-02-2024 07:00:00,28.856664,78.772638,OZONE,3,56,11
India,Uttar_Pradesh,Moradabad,"Kashiram Nagar, Moradabad - UPPCB",03-02-2024 07:00:00,28.849399,78.742362,PM10,NA,NA,NA
India,Uttar_Pradesh,Moradabad,"Kashiram Nagar, Moradabad - UPPCB",03-02-2024 07:00:00,28.849399,78.742362,NO2,9,48,20
India,Uttar_Pradesh,Moradabad,"Transport Nagar, Moradabad - UPPCB",03-02-2024 07:00:00,28.802625,78.753728,NH3,6,6,6
India,Uttar_Pradesh,Moradabad,"Transport Nagar, Moradabad - UPPCB",03-02-2024 07:00:00,28.802625,78.753728,OZONE,15,22,18
India,Uttar_Pradesh,Noida,"Sector - 125, Noida - UPPCB",03-02-2024 07:00:00,28.5447608,77.3231257,PM2.5,60,300,144
India,Uttar_Pradesh,Noida,"Sector - 125, Noida - UPPCB",03-02-2024 07:00:00,28.5447608,77.3231257,NO2,49,120,80
India,Uttar_Pradesh,Noida,"Sector - 125, Noida - UPPCB",03-02-2024 07:00:00,28.5447608,77.3231257,CO,10,82,38
India,Uttar_Pradesh,Noida,"Sector - 62, Noida - IMD",03-02-2024 07:00:00,28.6245479,77.3577104,PM10,74,215,154
India,Uttar_Pradesh,Noida,"Sector - 62, Noida - IMD",03-02-2024 07:00:00,28.6245479,77.3577104,NO2,16,26,19
India,Uttar_Pradesh,Noida,"Sector-1, Noida - UPPCB",03-02-2024 07:00:00,28.5898,77.3101,PM10,107,184,149
India,Uttar_Pradesh,Noida,"Sector-1, Noida - UPPCB",03-02-2024 07:00:00,28.5898,77.3101,NH3,9,19,14
India,Uttar_Pradesh,Prayagraj,"Jhunsi, Prayagraj - UPPCB",03-02-2024 07:00:00,25.425602,81.917152,SO2,30,32,31
India,Uttar_Pradesh,Prayagraj,"Motilal Nehru NIT, Prayagraj - UPPCB",03-02-2024 07:00:00,25.494,81.863,PM10,66,140,98
India,Uttar_Pradesh,Prayagraj,"Motilal Nehru NIT, Prayagraj - UPPCB",03-02-2024 07:00:00,25.494,81.863,NO2,12,12,12
India,Uttar_Pradesh,Prayagraj,"Motilal Nehru NIT, Prayagraj - UPPCB",03-02-2024 07:00:00,25.494,81.863,SO2,20,39,25
India,Uttar_Pradesh,Prayagraj,"Nagar Nigam, Prayagraj - UPPCB",03-02-2024 07:00:00,25.44919916 ,81.82735986 ,SO2,10,62,30
India,Uttar_Pradesh,Varanasi,"Ardhali Bazar, Varanasi - UPPCB",03-02-2024 07:00:00,25.3505986,82.9083074,NO2,20,32,25
India,Uttar_Pradesh,Varanasi,"Bhelupur, Varanasi - UPPCB",03-02-2024 07:00:00,25.301778,82.996789,PM2.5,15,42,25
India,Uttar_Pradesh,Varanasi,"Bhelupur, Varanasi - UPPCB",03-02-2024 07:00:00,25.301778,82.996789,CO,24,54,30
India,Uttar_Pradesh,Varanasi,"IESD Banaras Hindu University, Varanasi - UPPCB",03-02-2024 07:00:00,25.262326,82.995408,NH3,1,2,2
India,Uttar_Pradesh,Varanasi,"IESD Banaras Hindu University, Varanasi - UPPCB",03-02-2024 07:00:00,25.262326,82.995408,OZONE,NA,NA,NA
India,Uttar_Pradesh,Varanasi,"Maldahiya, Varanasi - UPPCB",03-02-2024 07:00:00,25.32393,82.99687,PM2.5,12,34,19
India,Uttar_Pradesh,Varanasi,"Maldahiya, Varanasi - UPPCB",03-02-2024 07:00:00,25.32393,82.99687,NH3,1,1,1
India,Uttar_Pradesh,Varanasi,"Maldahiya, Varanasi - UPPCB",03-02-2024 07:00:00,25.32393,82.99687,SO2,35,36,36
India,Uttar_Pradesh,Varanasi,"Maldahiya, Varanasi - UPPCB",03-02-2024 07:00:00,25.32393,82.99687,CO,12,42,23
India,Uttar_Pradesh,Vrindavan,"Omex Eternity, Vrindavan - UPPCB",03-02-2024 07:00:00,27.5714090,77.6557570,PM2.5,13,49,34
India,Uttar_Pradesh,Vrindavan,"Omex Eternity, Vrindavan - UPPCB",03-02-2024 07:00:00,27.5714090,77.6557570,PM10,26,315,131
India,Uttar_Pradesh,Vrindavan,"Omex Eternity, Vrindavan - UPPCB",03-02-2024 07:00:00,27.5714090,77.6557570,NH3,3,12,6
India,Uttarakhand,Dehradun,"Doon University, Dehradun - UKPCB",03-02-2024 07:00:00,30.269444,78.044167,NO2,1,6,3
India,Uttarakhand,Kashipur,"Govt. Girls Inter College, Kashipur - UKPCB",03-02-2024 07:00:00,29.2124114,78.9611753,PM2.5,1,82,52
India,Uttarakhand,Kashipur,"Govt. Girls Inter College, Kashipur - UKPCB",03-02-2024 07:00:00,29.2124114,78.9611753,PM10,3,84,57
India,Uttarakhand,Kashipur,"Govt. Girls Inter College, Kashipur - UKPCB",03-02-2024 07:00:00,29.2124114,78.9611753,NH3,7,11,9
India,Uttarakhand,Kashipur,"Govt. Girls Inter College, Kashipur - UKPCB",03-02-2024 07:00:00,29.2124114,78.9611753,SO2,7,9,8
India,Uttarakhand,Rishikesh,"Shivaji Nagar, Rishikesh - UKPCB",03-02-2024 07:00:00,30.075911,78.2859547,PM2.5,5,50,24
India,Uttarakhand,Rishikesh,"Shivaji Nagar, Rishikesh - UKPCB",03-02-2024 07:00:00,30.075911,78.2859547,OZONE,2,35,5
India,West_Bengal,Asansol,"Asansol Court Area, Asansol - WBPCB",03-02-2024 07:00:00,23.685297,86.945968,NO2,35,85,50
India,West_Bengal,Asansol,"Asansol Court Area, Asansol - WBPCB",03-02-2024 07:00:00,23.685297,86.945968,SO2,13,31,18
India,West_Bengal,Barrackpore,"SVSPA Campus, Barrackpore - WBPCB",03-02-2024 07:00:00,22.7605581,88.3617589,PM2.5,81,306,219
India,West_Bengal,Barrackpore,"SVSPA Campus, Barrackpore - WBPCB",03-02-2024 07:00:00,22.7605581,88.3617589,NH3,3,5,4
India,West_Bengal,Barrackpore,"SVSPA Campus, Barrackpore - WBPCB",03-02-2024 07:00:00,22.7605581,88.3617589,OZONE,8,87,8
India,West_Bengal,Durgapur,"Sidhu Kanhu Indoor Stadium, Durgapur - WBPCB",03-02-2024 07:00:00,23.5404352,87.2892225,SO2,15,66,33
India,West_Bengal,Durgapur,"Sidhu Kanhu Indoor Stadium, Durgapur - WBPCB",03-02-2024 07:00:00,23.5404352,87.2892225,OZONE,2,23,2
India,West_Bengal,Haldia,"Priyambada Housing Estate, Haldia - WBPCB",03-02-2024 07:00:00,22.06047,88.109737,NH3,4,5,4
India,West_Bengal,Howrah,"Belur Math, Howrah - WBPCB",03-02-2024 07:00:00,22.629801,88.352017,PM10,NA,NA,NA
India,West_Bengal,Howrah,"Belur Math, Howrah - WBPCB",03-02-2024 07:00:00,22.629801,88.352017,SO2,NA,NA,NA
India,West_Bengal,Howrah,"Padmapukur, Howrah - WBPCB",03-02-2024 07:00:00,22.5687319,88.2797276,NH3,10,17,13
India,West_Bengal,Howrah,"Padmapukur, Howrah - WBPCB",03-02-2024 07:00:00,22.5687319,88.2797276,CO,8,69,26
India,West_Bengal,Kolkata,"Bidhannagar, Kolkata - WBPCB",03-02-2024 07:00:00,22.58157048,88.41002457,PM10,86,500,168
India,West_Bengal,Kolkata,"Bidhannagar, Kolkata - WBPCB",03-02-2024 07:00:00,22.58157048,88.41002457,NO2,17,53,27
India,West_Bengal,Kolkata,"Bidhannagar, Kolkata - WBPCB",03-02-2024 07:00:00,22.58157048,88.41002457,NH3,9,13,11
India,West_Bengal,Kolkata,"Fort William, Kolkata - WBPCB",03-02-2024 07:00:00,22.556640,88.342674,PM2.5,65,297,153
India,West_Bengal,Kolkata,"Fort William, Kolkata - WBPCB",03-02-2024 07:00:00,22.556640,88.342674,PM10,89,191,120
India,West_Bengal,Kolkata,"Fort William, Kolkata - WBPCB",03-02-2024 07:00:00,22.556640,88.342674,OZONE,12,87,16
India,West_Bengal,Kolkata,"Jadavpur, Kolkata - WBPCB",03-02-2024 07:00:00,22.49929,88.36917,PM10,76,162,110
India,West_Bengal,Kolkata,"Jadavpur, Kolkata - WBPCB",03-02-2024 07:00:00,22.49929,88.36917,NH3,3,4,3
India,West_Bengal,Kolkata,"Jadavpur, Kolkata - WBPCB",03-02-2024 07:00:00,22.49929,88.36917,OZONE,7,37,10
India,West_Bengal,Kolkata,"Victoria, Kolkata - WBPCB",03-02-2024 07:00:00,22.5448082,88.3403691,PM2.5,67,286,161
India,West_Bengal,Kolkata,"Victoria, Kolkata - WBPCB",03-02-2024 07:00:00,22.5448082,88.3403691,PM10,98,163,123
India,West_Bengal,Kolkata,"Victoria, Kolkata - WBPCB",03-02-2024 07:00:00,22.5448082,88.3403691,OZONE,5,81,7
India,West_Bengal,Siliguri,"Ward-32 Bapupara, Siliguri - WBPCB",03-02-2024 07:00:00,26.6879226,88.4152495,PM2.5,82,162,112
India,West_Bengal,Siliguri,"Ward-32 Bapupara, Siliguri - WBPCB",03-02-2024 07:00:00,26.6879226,88.4152495,NO2,31,99,58
India,West_Bengal,Siliguri,"Ward-32 Bapupara, Siliguri - WBPCB",03-02-2024 07:00:00,26.6879226,88.4152495,NH3,7,20,13
India,Andhra_Pradesh,Amaravati,"Secretariat, Amaravati - APPCB",03-02-2024 07:00:00,16.5150833,80.5181667,NH3,3,4,4
India,Andhra_Pradesh,Amaravati,"Secretariat, Amaravati - APPCB",03-02-2024 07:00:00,16.5150833,80.5181667,OZONE,1,42,8
India,Andhra_Pradesh,Anantapur,"Gulzarpet, Anantapur - APPCB",03-02-2024 07:00:00,14.675886,77.593027,NO2,NA,NA,NA
India,Andhra_Pradesh,Anantapur,"Gulzarpet, Anantapur - APPCB",03-02-2024 07:00:00,14.675886,77.593027,SO2,6,10,8
India,Andhra_Pradesh,Kadapa,"Yerramukkapalli, Kadapa - APPCB",03-02-2024 07:00:00,14.465052,78.824187,NO2,8,8,8
India,Andhra_Pradesh,Kadapa,"Yerramukkapalli, Kadapa - APPCB",03-02-2024 07:00:00,14.465052,78.824187,OZONE,11,53,24
India,Andhra_Pradesh,Rajamahendravaram,"Anand Kala Kshetram, Rajamahendravaram - APPCB",03-02-2024 07:00:00,16.9872867,81.7363176,NH3,4,8,5
India,Andhra_Pradesh,Tirupati,"Vaikuntapuram, Tirupati - APPCB",03-02-2024 07:00:00,13.615387,79.409230,PM10,17,37,24
India,Andhra_Pradesh,Tirupati,"Vaikuntapuram, Tirupati - APPCB",03-02-2024 07:00:00,13.615387,79.409230,SO2,4,5,5
India,Andhra_Pradesh,Vijayawada,"Kanuru, Vijayawada - APPCB",03-02-2024 07:00:00,16.486692,80.699436,CO,42,66,52
India,Andhra_Pradesh,Vijayawada,"Rajiv Gandhi Park, Vijayawada - APPCB",03-02-2024 07:00:00,16.509717,80.612222,PM2.5,20,86,67
India,Andhra_Pradesh,Vijayawada,"Rajiv Gandhi Park, Vijayawada - APPCB",03-02-2024 07:00:00,16.509717,80.612222,NO2,2,76,32
India,Andhra_Pradesh,Vijayawada,"Rajiv Nagar, Vijayawada - APPCB",03-02-2024 07:00:00,16.554731,80.649110,PM10,24,101,62
India,Andhra_Pradesh,Visakhapatnam,"GVM Corporation, Visakhapatnam - APPCB",03-02-2024 07:00:00,17.72,83.3,OZONE,6,35,13
India,Arunachal_Pradesh,Naharlagun,"Naharlagun, Naharlagun - APSPCB",03-02-2024 07:00:00,27.103358,93.679645,PM2.5,9,146,58
India,Assam,Guwahati,"LGBI Airport, Guwahati - PCBA",03-02-2024 07:00:00,26.10887,91.589544,OZONE,1,74,12
India,Assam,Guwahati,"Pan Bazaar, Guwahati - PCBA",03-02-2024 07:00:00,26.187500,91.744194,NO2,1,6,3
India,Assam,Guwahati,"Railway Colony, Guwahati - PCBA",03-02-2024 07:00:00,26.181742,91.78063,PM2.5,42,308,147
India,Assam,Guwahati,"Railway Colony, Guwahati - PCBA",03-02-2024 07:00:00,26.181742,91.78063,OZONE,9,40,24
India,Assam,Nagaon,"Christianpatty, Nagaon - PCBA",03-02-2024 07:00:00,26.349082,92.68449,NH3,NA,NA,NA
India,Assam,Nagaon,"Christianpatty, Nagaon - PCBA",03-02-2024 07:00:00,26.349082,92.68449,CO,NA,NA,NA
India,Assam,Nalbari,"Bata Chowk, Nalbari - PCBA",03-02-2024 07:00:00,26.446912,91.439057,NO2,17,30,22
India,Assam,Nalbari,"Bata Chowk, Nalbari - PCBA",03-02-2024 07:00:00,26.446912,91.439057,CO,2,136,41
India,Assam,Silchar,"Tarapur, Silchar - PCBA",03-02-2024 07:00:00,24.82827,92.79525,NH3,1,1,1
India,Assam,Silchar,"Tarapur, Silchar - PCBA",03-02-2024 07:00:00,24.82827,92.79525,SO2,3,10,5
India,Assam,Silchar,"Tarapur, Silchar - PCBA",03-02-2024 07:00:00,24.82827,92.79525,CO,19,30,26
India,Assam,Sivasagar,"Girls College, Sivasagar - PCBA",03-02-2024 07:00:00,26.987634,94.636574,SO2,5,5,5
India,Bihar,Araria,"Kharahiya Basti, Araria - BSPCB",03-02-2024 07:00:00,26.146529,87.454184,PM2.5,99,435,247
India,Bihar,Araria,"Kharahiya Basti, Araria - BSPCB",03-02-2024 07:00:00,26.146529,87.454184,NH3,6,8,7
India,Bihar,Arrah,"New DM Office, Arrah - BSPCB",03-02-2024 07:00:00,25.5626095,84.663264,NO2,14,66,31
India,Bihar,Aurangabad,"Gurdeo Nagar, Aurangabad - BSPCB",03-02-2024 07:00:00,24.75746,84.366208,NH3,3,12,6
India,Bihar,Aurangabad,"Gurdeo Nagar, Aurangabad - BSPCB",03-02-2024 07:00:00,24.75746,84.366208,CO,4,112,31
India,Bihar,Bhagalpur,"DM Office_Kachari Chowk, Bhagalpur - BSPCB",03-02-2024 07:00:00,25.251013,86.989001,NO2,45,124,73
India,Bihar,Bhagalpur,"DM Office_Kachari Chowk, Bhagalpur - BSPCB",03-02-2024 07:00:00,25.251013,86.989001,NH3,5,7,6
India,Bihar,Bhagalpur,"Mayaganj, Bhagalpur - BSPCB",03-02-2024 07:00:00,25.265194,87.012947,PM10,89,171,126
India,Bihar,Bhagalpur,"Mayaganj, Bhagalpur - BSPCB",03-02-2024 07:00:00,25.265194,87.012947,SO2,11,13,12
India,Bihar,Bhagalpur,"Mayaganj, Bhagalpur - BSPCB",03-02-2024 07:00:00,25.265194,87.012947,OZONE,12,83,34
India,Bihar,Bihar Sharif,"D M Colony, Bihar Sharif - BSPCB",03-02-2024 07:00:00,25.204762,85.514960,NO2,9,11,9
India,Bihar,Bihar Sharif,"D M Colony, Bihar Sharif - BSPCB",03-02-2024 07:00:00,25.204762,85.514960,OZONE,8,56,19
India,Bihar,Buxar,"Charitra Van, Buxar - BSPCB (Formerly known as Central Jail)",03-02-2024 07:00:00,25.567520,83.966379,CO,22,68,40
India,Bihar,Chhapra,"Darshan Nagar, Chhapra - BSPCB",03-02-2024 07:00:00,25.7808257,84.7446768,PM10,NA,NA,NA
India,Bihar,Chhapra,"Darshan Nagar, Chhapra - BSPCB",03-02-2024 07:00:00,25.7808257,84.7446768,NH3,10,18,14
India,Bihar,Chhapra,"Darshan Nagar, Chhapra - BSPCB",03-02-2024 07:00:00,25.7808257,84.7446768,SO2,1,78,36
India,Bihar,Chhapra,"Darshan Nagar, Chhapra - BSPCB",03-02-2024 07:00:00,25.7808257,84.7446768,OZONE,1,18,8
India,Bihar,Gaya,"Collectorate, Gaya - BSPCB",03-02-2024 07:00:00,24.7955,84.9994,OZONE,50,79,68
India,Bihar,Hajipur,"Industrial Area, Hajipur - BSPCB",03-02-2024 07:00:00,25.697189,85.245900,PM10,147,412,240
India,Bihar,Kishanganj,"SDM Office_Khagra, Kishanganj - BSPCB",03-02-2024 07:00:00,26.0881305,87.93840336,PM2.5,12,70,42
India,Bihar,Kishanganj,"SDM Office_Khagra, Kishanganj - BSPCB",03-02-2024 07:00:00,26.0881305,87.93840336,NO2,29,43,33
India,Bihar,Kishanganj,"SDM Office_Khagra, Kishanganj - BSPCB",03-02-2024 07:00:00,26.0881305,87.93840336,SO2,6,16,12
India,Bihar,Motihari,"Gandak Colony, Motihari - BSPCB",03-02-2024 07:00:00,26.63086,84.90051,PM2.5,53,287,103
India,Bihar,Motihari,"Gandak Colony, Motihari - BSPCB",03-02-2024 07:00:00,26.63086,84.90051,PM10,52,159,85
India,Bihar,Motihari,"Gandak Colony, Motihari - BSPCB",03-02-2024 07:00:00,26.63086,84.90051,CO,7,80,45
India,Bihar,Motihari,"Gandak Colony, Motihari - BSPCB",03-02-2024 07:00:00,26.63086,84.90051,OZONE,28,106,71
India,Bihar,Munger,"Town Hall, Munger - BSPCB",03-02-2024 07:00:00,25.376776,86.471523,CO,4,168,95
India,Bihar,Muzaffarpur,"Buddha Colony, Muzaffarpur - BSPCB",03-02-2024 07:00:00,26.11442,85.39813,PM10,NA,NA,NA
India,Bihar,Muzaffarpur,"Buddha Colony, Muzaffarpur - BSPCB",03-02-2024 07:00:00,26.11442,85.39813,SO2,NA,NA,NA
India,Bihar,Muzaffarpur,"Muzaffarpur Collectorate, Muzaffarpur - BSPCB",03-02-2024 07:00:00,26.1209,85.3647,SO2,4,10,6
India,Bihar,Patna,"DRM Office Danapur, Patna - BSPCB",03-02-2024 07:00:00,25.586562,85.043586,PM10,138,316,213
India,Bihar,Patna,"DRM Office Danapur, Patna - BSPCB",03-02-2024 07:00:00,25.586562,85.043586,NO2,17,99,43
India,Bihar,Patna,"IGSC Planetarium Complex, Patna - BSPCB",03-02-2024 07:00:00,25.610369,85.132568,SO2,5,8,5
India,Bihar,Patna,"Muradpur, Patna - BSPCB",03-02-2024 07:00:00,25.619651,85.147382,PM10,181,440,312
India,Bihar,Patna,"Rajbansi Nagar, Patna - BSPCB",03-02-2024 07:00:00,25.599486,85.113666,PM10,139,380,250
India,Bihar,Patna,"Samanpura, Patna - BSPCB",03-02-2024 07:00:00,25.596727,85.085624,PM2.5,189,500,329
India,Bihar,Purnia,"Mariam Nagar, Purnia - BSPCB",03-02-2024 07:00:00,25.366336,87.117468,CO,6,68,52
India,Bihar,Rajgir,"Dangi Tola, Rajgir - BSPCB",03-02-2024 07:00:00,25.03280,85.41948,PM2.5,NA,NA,NA
India,Bihar,Samastipur,"DM Office_Kasipur, Samastipur - BSPCB",03-02-2024 07:00:00,25.859655,85.77944,NH3,5,5,5
India,Bihar,Samastipur,"DM Office_Kasipur, Samastipur - BSPCB",03-02-2024 07:00:00,25.859655,85.77944,CO,8,30,24
India,Bihar,Samastipur,"DM Office_Kasipur, Samastipur - BSPCB",03-02-2024 07:00:00,25.859655,85.77944,OZONE,10,33,17
India,Bihar,Sasaram,"Dada Peer, Sasaram - BSPCB",03-02-2024 07:00:00,24.952822,84.002396,PM2.5,NA,NA,NA
India,Bihar,Sasaram,"Dada Peer, Sasaram - BSPCB",03-02-2024 07:00:00,24.952822,84.002396,NH3,4,7,6
India,Bihar,Sasaram,"Dada Peer, Sasaram - BSPCB",03-02-2024 07:00:00,24.952822,84.002396,SO2,20,23,22
India,Bihar,Siwan,"Chitragupta Nagar, Siwan - BSPCB",03-02-2024 07:00:00,26.2271665,84.3570427,NO2,12,80,28
India,Bihar,Siwan,"Chitragupta Nagar, Siwan - BSPCB",03-02-2024 07:00:00,26.2271665,84.3570427,CO,50,194,81
India,Chandigarh,Chandigarh,"Sector-25, Chandigarh - CPCC",03-02-2024 07:00:00,30.751462,76.762879,NO2,12,21,16
India,Chandigarh,Chandigarh,"Sector-53, Chandigarh - CPCC",03-02-2024 07:00:00,30.719859,76.738637,NH3,4,5,5
India,Chhattisgarh,Bhilai,"32Bungalows, Bhilai - CECB",03-02-2024 07:00:00,21.194815,81.314770,NO2,19,29,23
India,Chhattisgarh,Bhilai,"32Bungalows, Bhilai - CECB",03-02-2024 07:00:00,21.194815,81.314770,NH3,6,6,6
India,Chhattisgarh,Bhilai,"Civic Center, Bhilai - Bhilai Steel Plant",03-02-2024 07:00:00,21.185571,81.343175,OZONE,7,66,8
India,Chhattisgarh,Bhilai,"Hathkhoj, Bhilai - CECB",03-02-2024 07:00:00,21.224231,81.408350,PM2.5,50,89,71
India,Chhattisgarh,Bilaspur,"Mangala, Bilaspur - NTPC",03-02-2024 07:00:00,22.08815,82.13737,NO2,16,17,16
India,Chhattisgarh,Chhal,"Nawapara SECL Colony, Chhal - CECB",03-02-2024 07:00:00,22.118125,83.140608,SO2,9,57,20
India,Chhattisgarh,Korba,"Rampur, Korba - CECB",03-02-2024 07:00:00,22.368195,82.746431,CO,NA,NA,NA
India,Chhattisgarh,Milupara,"Govt. Higher Secondary School, Milupara - CECB",03-02-2024 07:00:00,22.1910172,83.5197009,PM10,33,73,50
India,Chhattisgarh,Milupara,"Govt. Higher Secondary School, Milupara - CECB",03-02-2024 07:00:00,22.1910172,83.5197009,NH3,1,2,2
India,Chhattisgarh,Raipur,"AIIMS, Raipur - CECB",03-02-2024 07:00:00,21.258815,81.578979,CO,32,46,35
India,Chhattisgarh,Raipur,"Krishak Nagar, Raipur - CECB",03-02-2024 07:00:00,21.237755,81.705301,NO2,19,36,28
India,Chhattisgarh,Raipur,"Krishak Nagar, Raipur - CECB",03-02-2024 07:00:00,21.237755,81.705301,NH3,1,1,1
India,Chhattisgarh,Raipur,"Siltara Phase-II, Raipur - CECB",03-02-2024 07:00:00,21.371751,81.664929,NO2,28,61,38
India,Delhi,Delhi,"Alipur, Delhi - DPCC",03-02-2024 07:00:00,28.815329,77.153010,PM10,46,142,104
India,Delhi,Delhi,"Alipur, Delhi - DPCC",03-02-2024 07:00:00,28.815329,77.153010,NO2,16,48,31
India,Delhi,Delhi,"Alipur, Delhi - DPCC",03-02-2024 07:00:00,28.815329,77.153010,SO2,7,12,9
India,Delhi,Delhi,"Ashok Vihar, Delhi - DPCC",03-02-2024 07:00:00,28.695381,77.181665,PM2.5,79,317,223
India,Delhi,Delhi,"Ashok Vihar, Delhi - DPCC",03-02-2024 07:00:00,28.695381,77.181665,NO2,29,105,54
India,Delhi,Delhi,"Ashok Vihar, Delhi - DPCC",03-02-2024 07:00:00,28.695381,77.181665,CO,1,184,167
India,Delhi,Delhi,"Aya Nagar, Delhi - IMD",03-02-2024 07:00:00,28.4706914,77.1099364,OZONE,6,16,7
India,Delhi,Delhi,"Burari Crossing, Delhi - IMD",03-02-2024 07:00:00,28.7256504,77.2011573,OZONE,20,37,24
India,Delhi,Delhi,"CRRI Mathura Road, Delhi - IMD",03-02-2024 07:00:00,28.5512005,77.2735737,CO,84,101,91
India,Delhi,Delhi,"DTU, Delhi - CPCB",03-02-2024 07:00:00,28.7500499,77.1112615,NH3,10,21,14
India,Delhi,Delhi,"Dr. Karni Singh Shooting Range, Delhi - DPCC",03-02-2024 07:00:00,28.498571,77.264840,PM10,112,181,145
India,Delhi,Delhi,"Dwarka-Sector 8, Delhi - DPCC ",03-02-2024 07:00:00,28.5710274,77.0719006,PM10,79,178,127
India,Delhi,Delhi,"IGI Airport (T3), Delhi - IMD",03-02-2024 07:00:00,28.5627763,77.1180053,PM10,110,180,138
India,Delhi,Delhi,"IGI Airport (T3), Delhi - IMD",03-02-2024 07:00:00,28.5627763,77.1180053,OZONE,11,21,11
India,Delhi,Delhi,"ITO, Delhi - CPCB",03-02-2024 07:00:00,28.628624,77.241060,PM2.5,60,307,156
India,Delhi,Delhi,"ITO, Delhi - CPCB",03-02-2024 07:00:00,28.628624,77.241060,NO2,6,60,25
India,Delhi,Delhi,"Jahangirpuri, Delhi - DPCC",03-02-2024 07:00:00,28.732820,77.170633,NO2,35,82,51
India,Delhi,Delhi,"Jahangirpuri, Delhi - DPCC",03-02-2024 07:00:00,28.732820,77.170633,NH3,10,69,18
India,Delhi,Delhi,"Jahangirpuri, Delhi - DPCC",03-02-2024 07:00:00,28.732820,77.170633,OZONE,4,43,7
India,Delhi,Delhi,"Jawaharlal Nehru Stadium, Delhi - DPCC",03-02-2024 07:00:00,28.580280,77.233829,CO,40,84,54
India,Delhi,Delhi,"Jawaharlal Nehru Stadium, Delhi - DPCC",03-02-2024 07:00:00,28.580280,77.233829,OZONE,1,48,3
India,Delhi,Delhi,"Narela, Delhi - DPCC",03-02-2024 07:00:00,28.822836,77.101981,PM10,62,166,126
India,Delhi,Delhi,"Nehru Nagar, Delhi - DPCC",03-02-2024 07:00:00,28.567890,77.250515,PM10,105,253,165
India,Delhi,Delhi,"Nehru Nagar, Delhi - DPCC",03-02-2024 07:00:00,28.567890,77.250515,NO2,12,32,21
India,Delhi,Delhi,"New Moti Bagh, Delhi - MHUA",03-02-2024 07:00:00,28.57834,77.18400,NO2,1,4,2
India,Delhi,Delhi,"Okhla Phase-2, Delhi - DPCC",03-02-2024 07:00:00,28.530785,77.271255,NH3,10,16,14
India,Delhi,Delhi,"Punjabi Bagh, Delhi - DPCC",03-02-2024 07:00:00,28.674045,77.131023,SO2,12,20,16
India,Delhi,Delhi,"Punjabi Bagh, Delhi - DPCC",03-02-2024 07:00:00,28.674045,77.131023,CO,14,84,41
India,Delhi,Delhi,"Punjabi Bagh, Delhi - DPCC",03-02-2024 07:00:00,28.674045,77.131023,OZONE,7,20,8
India,Delhi,Delhi,"Pusa, Delhi - DPCC",03-02-2024 07:00:00,28.639652,77.146275,SO2,7,12,10
India,Delhi,Delhi,"Pusa, Delhi - DPCC",03-02-2024 07:00:00,28.639652,77.146275,OZONE,14,25,16
India,Delhi,Delhi,"R K Puram, Delhi - DPCC",03-02-2024 07:00:00,28.563262,77.186937,NH3,1,14,7
India,Delhi,Delhi,"Rohini, Delhi - DPCC",03-02-2024 07:00:00,28.732528,77.119920,SO2,7,19,11
India,Delhi,Delhi,"Rohini, Delhi - DPCC",03-02-2024 07:00:00,28.732528,77.119920,CO,18,78,45
India,Delhi,Delhi,"Shadipur, Delhi - CPCB",03-02-2024 07:00:00,28.6514781,77.1473105,PM10,99,198,149
India,Delhi,Delhi,"Shadipur, Delhi - CPCB",03-02-2024 07:00:00,28.6514781,77.1473105,NO2,36,51,43
India,Delhi,Delhi,"Sirifort, Delhi - CPCB",03-02-2024 07:00:00,28.5504249,77.2159377,SO2,32,35,33
India,Delhi,Delhi,"Sirifort, Delhi - CPCB",03-02-2024 07:00:00,28.5504249,77.2159377,OZONE,5,72,6
India,Delhi,Delhi,"Sonia Vihar, Delhi - DPCC",03-02-2024 07:00:00,28.710508,77.249485,NH3,6,9,8
India,Delhi,Delhi,"Sri Aurobindo Marg, Delhi - DPCC",03-02-2024 07:00:00,28.531346,77.190156,PM2.5,107,329,227
India,Delhi,Delhi,"Sri Aurobindo Marg, Delhi - DPCC",03-02-2024 07:00:00,28.531346,77.190156,NH3,7,11,9
India,Delhi,Delhi,"Sri Aurobindo Marg, Delhi - DPCC",03-02-2024 07:00:00,28.531346,77.190156,OZONE,1,15,2
India,Gujarat,Ahmedabad,"Chandkheda, Ahmedabad - IITM",03-02-2024 07:00:00,23.107969,72.574648,PM10,53,210,116
India,Gujarat,Ahmedabad,"Chandkheda, Ahmedabad - IITM",03-02-2024 07:00:00,23.107969,72.574648,CO,20,118,105
India,Gujarat,Ahmedabad,"Gyaspur, Ahmedabad - IITM",03-02-2024 07:00:00,22.977134,72.553024,OZONE,9,16,9
India,Gujarat,Ahmedabad,"Maninagar, Ahmedabad - GPCB",03-02-2024 07:00:00,23.002657,72.591912,PM2.5,23,303,135
India,Gujarat,Ahmedabad,"Maninagar, Ahmedabad - GPCB",03-02-2024 07:00:00,23.002657,72.591912,CO,8,88,45
India,Gujarat,Ahmedabad,"Rakhial, Ahmedabad - IITM",03-02-2024 07:00:00,23.016834,72.625775,NO2,9,140,51
India,Gujarat,Ahmedabad,"Rakhial, Ahmedabad - IITM",03-02-2024 07:00:00,23.016834,72.625775,CO,18,114,77
India,Gujarat,Ahmedabad,"SVPI Airport Hansol, Ahmedabad - IITM",03-02-2024 07:00:00,23.076793,72.627874,NO2,13,16,16
India,Gujarat,Ahmedabad,"SVPI Airport Hansol, Ahmedabad - IITM",03-02-2024 07:00:00,23.076793,72.627874,SO2,22,24,23
India,Gujarat,Ankleshwar,"GIDC, Ankleshwar - GPCB",03-02-2024 07:00:00,21.613267,73.010555,OZONE,21,30,22
India,Gujarat,Gandhinagar,"GIFT City, Gandhinagar - IITM",03-02-2024 07:00:00,23.163798,72.677768,PM2.5,64,258,112
India,Gujarat,Gandhinagar,"IIPHG Lekawada, Gandhinagar - IITM",03-02-2024 07:00:00,23.243639,72.68994,NO2,12,14,13
India,Gujarat,Gandhinagar,"IIPHG Lekawada, Gandhinagar - IITM",03-02-2024 07:00:00,23.243639,72.68994,SO2,19,19,19
India,Gujarat,Gandhinagar,"Sector-10, Gandhinagar - GPCB",03-02-2024 07:00:00,23.221714,72.654328,NH3,1,2,2
India,Gujarat,Gandhinagar,"Sector-10, Gandhinagar - GPCB",03-02-2024 07:00:00,23.221714,72.654328,SO2,8,15,11
India,Gujarat,Gandhinagar,"Sector-10, Gandhinagar - GPCB",03-02-2024 07:00:00,23.221714,72.654328,CO,19,20,20
India,Gujarat,Surat,"Science Center, Surat - SMC",03-02-2024 07:00:00,21.170046,72.795405,PM2.5,15,60,37
India,Gujarat,Surat,"Science Center, Surat - SMC",03-02-2024 07:00:00,21.170046,72.795405,CO,43,70,55
India,Gujarat,Vapi,"Phase-1 GIDC, Vapi - GPCB",03-02-2024 07:00:00,20.362421,72.918013,CO,106,183,145
India,Gujarat,Vatva,"Phase-4 GIDC, Vatva - GPCB",03-02-2024 07:00:00,22.969611,72.643500,CO,38,40,39
India,Gujarat,Vatva,"Phase-4 GIDC, Vatva - GPCB",03-02-2024 07:00:00,22.969611,72.643500,OZONE,2,14,2
India,Haryana,Ambala,"Patti Mehar, Ambala - HSPCB",03-02-2024 07:00:00,30.379589,76.778328,PM10,19,51,35
India,Haryana,Ambala,"Patti Mehar, Ambala - HSPCB",03-02-2024 07:00:00,30.379589,76.778328,SO2,2,33,10
India,Haryana,Bahadurgarh,"Arya Nagar, Bahadurgarh - HSPCB",03-02-2024 07:00:00,28.6701,76.9254,PM10,42,117,87
India,Haryana,Bahadurgarh,"Arya Nagar, Bahadurgarh - HSPCB",03-02-2024 07:00:00,28.6701,76.9254,CO,40,62,53
India,Haryana,Bhiwani,"H.B. Colony, Bhiwani - HSPCB",03-02-2024 07:00:00,28.806223,76.141105,PM10,50,118,79
India,Haryana,Charkhi Dadri,"Mini Secretariat, Charkhi Dadri - HSPCB",03-02-2024 07:00:00,28.593883,76.270653,SO2,6,11,9
India,Haryana,Dharuhera,"Municipal Corporation Office, Dharuhera -  HSPCB",03-02-2024 07:00:00,28.206800,76.799700,PM2.5,NA,NA,NA
India,Haryana,Dharuhera,"Municipal Corporation Office, Dharuhera -  HSPCB",03-02-2024 07:00:00,28.206800,76.799700,NO2,NA,NA,NA
India,Haryana,Faridabad,"New Industrial Town, Faridabad - HSPCB",03-02-2024 07:00:00,28.39072,77.30059,PM10,111,170,148
India,Haryana,Faridabad,"Sector 11, Faridabad - HSPCB",03-02-2024 07:00:00,28.376058,77.315741,NO2,30,32,31
India,Haryana,Faridabad,"Sector 11, Faridabad - HSPCB",03-02-2024 07:00:00,28.376058,77.315741,OZONE,3,22,3
India,Haryana,Faridabad,"Sector 30, Faridabad - HSPCB",03-02-2024 07:00:00,28.4417,77.3217,NH3,9,9,9
India,Haryana,Faridabad,"Sector 30, Faridabad - HSPCB",03-02-2024 07:00:00,28.4417,77.3217,CO,62,108,73
India,Haryana,Faridabad,"Sector- 16A, Faridabad - HSPCB",03-02-2024 07:00:00,28.4088421,77.3099081,PM2.5,132,316,253
India,Haryana,Faridabad,"Sector- 16A, Faridabad - HSPCB",03-02-2024 07:00:00,28.4088421,77.3099081,NO2,7,37,20
India,Haryana,Gurugram,"NISE Gwal Pahari, Gurugram - IMD",03-02-2024 07:00:00,28.422681,77.148944,PM10,78,157,109
India,Haryana,Gurugram,"Sector-51, Gurugram - HSPCB",03-02-2024 07:00:00,28.4227,77.0667,NH3,6,14,9
India,Haryana,Gurugram,"Sector-51, Gurugram - HSPCB",03-02-2024 07:00:00,28.4227,77.0667,CO,44,80,52
India,Haryana,Gurugram,"Teri Gram, Gurugram - HSPCB",03-02-2024 07:00:00,28.4275,77.1465,SO2,3,5,4
India,Haryana,Gurugram,"Vikas Sadan, Gurugram - HSPCB",03-02-2024 07:00:00,28.4501238,77.0263051,PM2.5,96,252,164
India,Haryana,Gurugram,"Vikas Sadan, Gurugram - HSPCB",03-02-2024 07:00:00,28.4501238,77.0263051,NO2,5,26,14
India,Haryana,Hisar,"Urban Estate-II, Hisar - HSPCB",03-02-2024 07:00:00,29.140560,75.744941,OZONE,21,86,35
India,Haryana,Jind,"Police Lines, Jind - HSPCB",03-02-2024 07:00:00,29.307814,76.337619,PM2.5,NA,NA,NA
India,Haryana,Karnal,"Sector-12, Karnal - HSPCB",03-02-2024 07:00:00,29.695300,77.002700,PM10,30,86,56
India,Haryana,Karnal,"Sector-12, Karnal - HSPCB",03-02-2024 07:00:00,29.695300,77.002700,SO2,12,13,12
India,Haryana,Kurukshetra,"Sector-7, Kurukshetra - HSPCB",03-02-2024 07:00:00,29.966942,76.875879,PM10,52,100,74
India,Haryana,Kurukshetra,"Sector-7, Kurukshetra - HSPCB",03-02-2024 07:00:00,29.966942,76.875879,SO2,3,38,15
India,Haryana,Mandikhera,"General Hospital, Mandikhera - HSPCB",03-02-2024 07:00:00,27.9002,76.9938,NH3,18,21,19
India,Haryana,Manesar,"Sector-2 IMT, Manesar - HSPCB",03-02-2024 07:00:00,28.360699,76.936090,PM10,83,115,100
India,Haryana,Manesar,"Sector-2 IMT, Manesar - HSPCB",03-02-2024 07:00:00,28.360699,76.936090,SO2,32,63,48
India,Haryana,Narnaul,"Shastri Nagar, Narnaul - HSPCB",03-02-2024 07:00:00,28.060249,76.113115,PM10,49,101,74
India,Haryana,Narnaul,"Shastri Nagar, Narnaul - HSPCB",03-02-2024 07:00:00,28.060249,76.113115,NH3,5,18,11
India,Haryana,Panipat,"Sector-18, Panipat - HSPCB",03-02-2024 07:00:00,29.497973,76.993331,PM2.5,123,136,131
India,Haryana,Rohtak,"MD University, Rohtak - HSPCB",03-02-2024 07:00:00,28.52123,76.37138,OZONE,45,53,48
India,Haryana,Sonipat,"Murthal, Sonipat - HSPCB",03-02-2024 07:00:00,29.027200,77.062100,NO2,37,44,40
India,Haryana,Sonipat,"Murthal, Sonipat - HSPCB",03-02-2024 07:00:00,29.027200,77.062100,NH3,7,10,9
India,Haryana,Sonipat,"Murthal, Sonipat - HSPCB",03-02-2024 07:00:00,29.027200,77.062100,OZONE,17,36,19
India,Haryana,Yamuna Nagar,"Gobind Pura, Yamuna Nagar - HSPCB",03-02-2024 07:00:00,30.1480566,77.2893471,PM10,39,94,57
India,Haryana,Yamuna Nagar,"Gobind Pura, Yamuna Nagar - HSPCB",03-02-2024 07:00:00,30.1480566,77.2893471,CO,28,38,33
India,Himachal Pradesh,Baddi,"HIMUDA Complex Phase-1, Baddi - HPPCB",03-02-2024 07:00:00,30.943887,76.801991,PM10,NA,NA,NA
India,Jammu_and_Kashmir,Srinagar,"Rajbagh, Srinagar - JKSPCB",03-02-2024 07:00:00,34.066206,74.819820,SO2,NA,NA,NA
India,Jammu_and_Kashmir,Srinagar,"Rajbagh, Srinagar - JKSPCB",03-02-2024 07:00:00,34.066206,74.819820,OZONE,6,6,6
India,Jharkhand,Pathardih,"Mohalbani Ghat, Pathardih - DMC",03-02-2024 07:00:00,23.669880,86.411725,SO2,NA,NA,NA
India,Jharkhand,Pathardih,"Mohalbani Ghat, Pathardih - DMC",03-02-2024 07:00:00,23.669880,86.411725,CO,NA,NA,NA
India,Jharkhand,Pathardih,"Mohalbani Ghat, Pathardih - DMC",03-02-2024 07:00:00,23.669880,86.411725,OZONE,NA,NA,NA
India,Karnataka,Bagalkot,"Vidayagiri, Bagalkot - KSPCB",03-02-2024 07:00:00,16.172806,75.659694,CO,22,59,41
India,Karnataka,Belgaum,"Ramteerth Nagar, Belgaum - KSPCB",03-02-2024 07:00:00,15.888653,74.541751,PM10,30,100,62
India,Karnataka,Bengaluru,"BTM Layout, Bengaluru - CPCB",03-02-2024 07:00:00,12.9135218,77.5950804,PM2.5,34,89,56
India,Karnataka,Bengaluru,"BTM Layout, Bengaluru - CPCB",03-02-2024 07:00:00,12.9135218,77.5950804,PM10,47,103,77
India,Karnataka,Bengaluru,"City Railway Station, Bengaluru - KSPCB",03-02-2024 07:00:00,12.9756843,77.5660749,NO2,23,35,29
India,Karnataka,Bengaluru,"Hebbal, Bengaluru - KSPCB",03-02-2024 07:00:00,13.029152,77.585901,PM2.5,NA,NA,NA
India,Karnataka,Bengaluru,"Jayanagar 5th Block, Bengaluru - KSPCB",03-02-2024 07:00:00,12.920984,77.584908,NO2,10,12,11
India,Karnataka,Bengaluru,"Jigani, Bengaluru - KSPCB",03-02-2024 07:00:00,12.7816279,77.6299145,PM2.5,3,277,120
India,Karnataka,Bengaluru,"Jigani, Bengaluru - KSPCB",03-02-2024 07:00:00,12.7816279,77.6299145,NH3,2,4,3
India,Karnataka,Bengaluru,"Kasturi Nagar, Bengaluru - KSPCB",03-02-2024 07:00:00,13.003872,77.664217,NO2,16,17,17
India,Karnataka,Bengaluru,"Kasturi Nagar, Bengaluru - KSPCB",03-02-2024 07:00:00,13.003872,77.664217,NH3,3,4,4
India,Karnataka,Bengaluru,"RVCE-Mailasandra, Bengaluru - KSPCB",03-02-2024 07:00:00,12.921418,77.502466,NO2,31,31,31
India,Karnataka,Bengaluru,"RVCE-Mailasandra, Bengaluru - KSPCB",03-02-2024 07:00:00,12.921418,77.502466,SO2,4,5,4
India,Karnataka,Bengaluru,"Shivapura_Peenya, Bengaluru - KSPCB",03-02-2024 07:00:00,13.0246342,77.5080115,OZONE,6,125,45
India,Karnataka,Bengaluru,"Silk Board, Bengaluru - KSPCB",03-02-2024 07:00:00,12.917348,77.622813,PM2.5,42,180,77
India,Karnataka,Bengaluru,"Silk Board, Bengaluru - KSPCB",03-02-2024 07:00:00,12.917348,77.622813,NO2,21,28,25
India,Karnataka,Bengaluru,"Silk Board, Bengaluru - KSPCB",03-02-2024 07:00:00,12.917348,77.622813,OZONE,28,31,30
India,Karnataka,Bidar,"Naubad, Bidar - KSPCB",03-02-2024 07:00:00,17.930306,77.482194,NH3,2,3,3
India,Karnataka,Bidar,"Naubad, Bidar - KSPCB",03-02-2024 07:00:00,17.930306,77.482194,SO2,15,19,16
India,Karnataka,Chamarajanagar,"Urban, Chamarajanagar - KSPCB",03-02-2024 07:00:00,11.55358,76.55521,PM2.5,20,49,30
India,Karnataka,Chamarajanagar,"Urban, Chamarajanagar - KSPCB",03-02-2024 07:00:00,11.55358,76.55521,OZONE,14,41,15
India,Karnataka,Chikkaballapur,"Chikkaballapur Rural, Chikkaballapur - KSPCB",03-02-2024 07:00:00,13.428828,77.731418,PM10,40,169,91
India,Karnataka,Chikkaballapur,"Chikkaballapur Rural, Chikkaballapur - KSPCB",03-02-2024 07:00:00,13.428828,77.731418,NO2,7,28,11
India,Karnataka,Chikkaballapur,"Chikkaballapur Rural, Chikkaballapur - KSPCB",03-02-2024 07:00:00,13.428828,77.731418,SO2,13,23,19
India,Karnataka,Chikkamagaluru,"Kalyana Nagara, Chikkamagaluru - KSPCB",03-02-2024 07:00:00,13.328028,75.797056,PM10,24,67,46
India,Karnataka,Chikkamagaluru,"Kalyana Nagara, Chikkamagaluru - KSPCB",03-02-2024 07:00:00,13.328028,75.797056,NH3,3,5,3
India,Karnataka,Davanagere,"Devaraj Urs Badavane, Davanagere - KSPCB",03-02-2024 07:00:00,14.475800,75.905200,SO2,1,114,9
India,Karnataka,Davanagere,"Devaraj Urs Badavane, Davanagere - KSPCB",03-02-2024 07:00:00,14.475800,75.905200,OZONE,18,27,22
India,Karnataka,Dharwad,"Kalabhavan, Dharwad - KSPCB",03-02-2024 07:00:00,15.459706,75.008381,OZONE,2,37,7
India,Karnataka,Gadag,"Panchal Nagar, Gadag - KSPCB",03-02-2024 07:00:00,15.411456,75.638133,OZONE,17,58,20
India,Karnataka,Hassan,"B.Katihalli, Hassan - KSPCB",03-02-2024 07:00:00,13.008556,76.125258,NO2,NA,NA,NA
