country,state,city,station,last_update,latitude,longitude,pollutant_id,pollutant_min,pollutant_max,pollutant_avg
India,Andhra_Pradesh,Amaravati,"Secretariat, Amaravati - APPCB",22-02-2024 04:00:00,16.5150833,80.5181667,NH3,3,4,4
India,Andhra_Pradesh,Anantapur,"Gulzarpet, Anantapur - APPCB",22-02-2024 04:00:00,14.675886,77.593027,SO2,4,18,8
India,Andhra_Pradesh,Chittoor,"Gangineni Cheruvu, Chittoor - APPCB",22-02-2024 04:00:00,13.204880,79.097889,NO2,NA,NA,NA
India,Andhra_Pradesh,Chittoor,"Gangineni Cheruvu, Chittoor - APPCB",22-02-2024 04:00:00,13.204880,79.097889,SO2,NA,NA,NA
India,Andhra_Pradesh,Chittoor,"Gangineni Cheruvu, Chittoor - APPCB",22-02-2024 04:00:00,13.204880,79.097889,CO,42,42,42
India,Andhra_Pradesh,Chittoor,"Gangineni Cheruvu, Chittoor - APPCB",22-02-2024 04:00:00,13.204880,79.097889,OZONE,18,147,58
India,Andhra_Pradesh,Rajamahendravaram,"Anand Kala Kshetram, Rajamahendravaram - APPCB",22-02-2024 04:00:00,16.9872867,81.7363176,SO2,11,12,11
India,Andhra_Pradesh,Rajamahendravaram,"Anand Kala Kshetram, Rajamahendravaram - APPCB",22-02-2024 04:00:00,16.9872867,81.7363176,CO,26,42,34
India,Andhra_Pradesh,Tirupati,"Tirumala, Tirupati - APPCB",22-02-2024 04:00:00,13.67,79.35,PM10,36,95,70
India,Andhra_Pradesh,Tirupati,"Vaikuntapuram, Tirupati - APPCB",22-02-2024 04:00:00,13.615387,79.409230,PM10,19,214,53
India,Andhra_Pradesh,Vijayawada,"HB Colony, Vijayawada - APPCB",22-02-2024 04:00:00,16.536107,80.594233,NO2,7,28,15
India,Andhra_Pradesh,Vijayawada,"HB Colony, Vijayawada - APPCB",22-02-2024 04:00:00,16.536107,80.594233,CO,18,18,18
India,Andhra_Pradesh,Vijayawada,"Rajiv Gandhi Park, Vijayawada - APPCB",22-02-2024 04:00:00,16.509717,80.612222,SO2,5,34,11
India,Andhra_Pradesh,Vijayawada,"Rajiv Nagar, Vijayawada - APPCB",22-02-2024 04:00:00,16.554731,80.649110,PM10,14,436,106
India,Andhra_Pradesh,Visakhapatnam,"GVM Corporation, Visakhapatnam - APPCB",22-02-2024 04:00:00,17.72,83.3,CO,14,75,36
India,Arunachal_Pradesh,Naharlagun,"Naharlagun, Naharlagun - APSPCB",22-02-2024 04:00:00,27.103358,93.679645,PM2.5,2,90,33
India,Arunachal_Pradesh,Naharlagun,"Naharlagun, Naharlagun - APSPCB",22-02-2024 04:00:00,27.103358,93.679645,NO2,2,2,2
India,Assam,Byrnihat,"Central Academy for SFS, Byrnihat - PCBA",22-02-2024 04:00:00,26.071318,91.87488,PM10,82,500,218
India,Assam,Byrnihat,"Central Academy for SFS, Byrnihat - PCBA",22-02-2024 04:00:00,26.071318,91.87488,SO2,8,11,10
India,Assam,Guwahati,"IITG, Guwahati - PCBA",22-02-2024 04:00:00,26.2028636,91.70046436,OZONE,2,14,3
India,Assam,Nagaon,"Christianpatty, Nagaon - PCBA",22-02-2024 04:00:00,26.349082,92.68449,PM2.5,88,407,262
India,Assam,Nalbari,"Bata Chowk, Nalbari - PCBA",22-02-2024 04:00:00,26.446912,91.439057,PM10,44,276,134
India,Assam,Nalbari,"Bata Chowk, Nalbari - PCBA",22-02-2024 04:00:00,26.446912,91.439057,CO,77,116,98
India,Assam,Silchar,"Tarapur, Silchar - PCBA",22-02-2024 04:00:00,24.82827,92.79525,PM10,48,58,52
India,Assam,Silchar,"Tarapur, Silchar - PCBA",22-02-2024 04:00:00,24.82827,92.79525,NH3,1,1,1
India,Assam,Sivasagar,"Girls College, Sivasagar - PCBA",22-02-2024 04:00:00,26.987634,94.636574,PM10,11,38,28
India,Assam,Sivasagar,"Girls College, Sivasagar - PCBA",22-02-2024 04:00:00,26.987634,94.636574,OZONE,NA,NA,NA
India,Bihar,Araria,"Kharahiya Basti, Araria - BSPCB",22-02-2024 04:00:00,26.146529,87.454184,NO2,5,23,8
India,Bihar,Arrah,"New DM Office, Arrah - BSPCB",22-02-2024 04:00:00,25.5626095,84.663264,PM2.5,27,180,75
India,Bihar,Arrah,"New DM Office, Arrah - BSPCB",22-02-2024 04:00:00,25.5626095,84.663264,PM10,36,155,78
India,Bihar,Arrah,"New DM Office, Arrah - BSPCB",22-02-2024 04:00:00,25.5626095,84.663264,CO,3,16,10
India,Bihar,Arrah,"New DM Office, Arrah - BSPCB",22-02-2024 04:00:00,25.5626095,84.663264,OZONE,8,43,14
India,Bihar,Aurangabad,"Gurdeo Nagar, Aurangabad - BSPCB",22-02-2024 04:00:00,24.75746,84.366208,CO,12,70,42
India,Bihar,Bettiah,"Kamalnath Nagar, Bettiah - BSPCB",22-02-2024 04:00:00,26.80365,84.51954,SO2,9,20,15
India,Bihar,Bhagalpur,"DM Office_Kachari Chowk, Bhagalpur - BSPCB",22-02-2024 04:00:00,25.251013,86.989001,PM10,NA,NA,NA
India,Bihar,Bhagalpur,"Mayaganj, Bhagalpur - BSPCB",22-02-2024 04:00:00,25.265194,87.012947,PM2.5,15,356,161
India,Bihar,Bhagalpur,"Mayaganj, Bhagalpur - BSPCB",22-02-2024 04:00:00,25.265194,87.012947,PM10,11,192,92
India,Bihar,Bhagalpur,"Mayaganj, Bhagalpur - BSPCB",22-02-2024 04:00:00,25.265194,87.012947,SO2,11,13,12
India,Bihar,Bihar Sharif,"D M Colony, Bihar Sharif - BSPCB",22-02-2024 04:00:00,25.204762,85.514960,NH3,2,2,2
India,Bihar,Bihar Sharif,"D M Colony, Bihar Sharif - BSPCB",22-02-2024 04:00:00,25.204762,85.514960,SO2,1,11,6
India,Bihar,Buxar,"Charitra Van, Buxar - BSPCB (Formerly known as Central Jail)",22-02-2024 04:00:00,25.567520,83.966379,SO2,15,16,16
India,Bihar,Buxar,"Charitra Van, Buxar - BSPCB (Formerly known as Central Jail)",22-02-2024 04:00:00,25.567520,83.966379,CO,26,119,79
India,Bihar,Chhapra,"Darshan Nagar, Chhapra - BSPCB",22-02-2024 04:00:00,25.7808257,84.7446768,PM2.5,25,398,127
India,Bihar,Chhapra,"Darshan Nagar, Chhapra - BSPCB",22-02-2024 04:00:00,25.7808257,84.7446768,SO2,NA,NA,NA
India,Bihar,Gaya,"Kareemganj, Gaya - BSPCB",22-02-2024 04:00:00,24.792403,84.992416,SO2,7,11,8
India,Bihar,Gaya,"SFTI Kusdihra, Gaya - BSPCB",22-02-2024 04:00:00,24.762518,84.982348,PM2.5,47,112,66
India,Bihar,Katihar,"Mirchaibari, Katihar - BSPCB",22-02-2024 04:00:00,25.560083,87.553265,SO2,17,21,19
India,Bihar,Kishanganj,"SDM Office_Khagra, Kishanganj - BSPCB",22-02-2024 04:00:00,26.0881305,87.93840336,SO2,3,20,12
India,Bihar,Manguraha,"Forest Rest House, Manguraha - BSPCB",22-02-2024 04:00:00,27.308328,84.531742,PM2.5,NA,NA,NA
India,Bihar,Manguraha,"Forest Rest House, Manguraha - BSPCB",22-02-2024 04:00:00,27.308328,84.531742,NO2,4,15,10
India,Bihar,Manguraha,"Forest Rest House, Manguraha - BSPCB",22-02-2024 04:00:00,27.308328,84.531742,CO,22,82,70
India,Bihar,Manguraha,"Forest Rest House, Manguraha - BSPCB",22-02-2024 04:00:00,27.308328,84.531742,OZONE,14,83,22
India,Bihar,Motihari,"Gandak Colony, Motihari - BSPCB",22-02-2024 04:00:00,26.63086,84.90051,NH3,5,15,12
India,Bihar,Motihari,"Gandak Colony, Motihari - BSPCB",22-02-2024 04:00:00,26.63086,84.90051,OZONE,15,66,38
India,Bihar,Munger,"Town Hall, Munger - BSPCB",22-02-2024 04:00:00,25.376776,86.471523,PM10,23,302,104
India,Bihar,Munger,"Town Hall, Munger - BSPCB",22-02-2024 04:00:00,25.376776,86.471523,OZONE,9,14,11
India,Bihar,Muzaffarpur,"MIT-Daudpur Kothi, Muzaffarpur - BSPCB",22-02-2024 04:00:00,26.1403345,85.3650192,PM2.5,20,97,56
India,Bihar,Muzaffarpur,"MIT-Daudpur Kothi, Muzaffarpur - BSPCB",22-02-2024 04:00:00,26.1403345,85.3650192,OZONE,7,44,10
India,Bihar,Muzaffarpur,"Muzaffarpur Collectorate, Muzaffarpur - BSPCB",22-02-2024 04:00:00,26.1209,85.3647,SO2,4,12,6
India,Bihar,Patna,"DRM Office Danapur, Patna - BSPCB",22-02-2024 04:00:00,25.586562,85.043586,CO,16,123,61
India,Bihar,Patna,"DRM Office Danapur, Patna - BSPCB",22-02-2024 04:00:00,25.586562,85.043586,OZONE,2,45,4
India,Bihar,Patna,"Govt. High School Shikarpur, Patna - BSPCB",22-02-2024 04:00:00,25.592539,85.227158,PM2.5,12,147,73
India,Bihar,Patna,"Rajbansi Nagar, Patna - BSPCB",22-02-2024 04:00:00,25.599486,85.113666,CO,6,76,45
India,Bihar,Patna,"Rajbansi Nagar, Patna - BSPCB",22-02-2024 04:00:00,25.599486,85.113666,OZONE,2,53,4
India,Bihar,Patna,"Samanpura, Patna - BSPCB",22-02-2024 04:00:00,25.596727,85.085624,NH3,1,8,2
India,Bihar,Patna,"Samanpura, Patna - BSPCB",22-02-2024 04:00:00,25.596727,85.085624,SO2,16,18,16
India,Bihar,Purnia,"Mariam Nagar, Purnia - BSPCB",22-02-2024 04:00:00,25.366336,87.117468,SO2,17,21,19
India,Bihar,Purnia,"Mariam Nagar, Purnia - BSPCB",22-02-2024 04:00:00,25.366336,87.117468,CO,20,124,103
India,Bihar,Rajgir,"Dangi Tola, Rajgir - BSPCB",22-02-2024 04:00:00,25.03280,85.41948,PM10,25,121,70
India,Bihar,Rajgir,"Dangi Tola, Rajgir - BSPCB",22-02-2024 04:00:00,25.03280,85.41948,NH3,1,2,1
India,Bihar,Samastipur,"DM Office_Kasipur, Samastipur - BSPCB",22-02-2024 04:00:00,25.859655,85.77944,PM10,NA,NA,NA
India,Bihar,Samastipur,"DM Office_Kasipur, Samastipur - BSPCB",22-02-2024 04:00:00,25.859655,85.77944,NO2,NA,NA,NA
India,Bihar,Sasaram,"Dada Peer, Sasaram - BSPCB",22-02-2024 04:00:00,24.952822,84.002396,CO,49,106,93
India,Bihar,Siwan,"Chitragupta Nagar, Siwan - BSPCB",22-02-2024 04:00:00,26.2271665,84.3570427,NH3,2,26,5
India,Bihar,Siwan,"Chitragupta Nagar, Siwan - BSPCB",22-02-2024 04:00:00,26.2271665,84.3570427,CO,25,154,56
India,Chandigarh,Chandigarh,"Sector 22, Chandigarh - CPCC",22-02-2024 04:00:00,30.735567,76.775714,PM2.5,57,322,164
India,Chandigarh,Chandigarh,"Sector-25, Chandigarh - CPCC",22-02-2024 04:00:00,30.751462,76.762879,SO2,5,29,10
India,Chandigarh,Chandigarh,"Sector-53, Chandigarh - CPCC",22-02-2024 04:00:00,30.719859,76.738637,CO,33,72,57
India,Chandigarh,Chandigarh,"Sector-53, Chandigarh - CPCC",22-02-2024 04:00:00,30.719859,76.738637,OZONE,5,65,25
India,Chhattisgarh,Bhilai,"32Bungalows, Bhilai - CECB",22-02-2024 04:00:00,21.194815,81.314770,PM10,34,68,48
India,Chhattisgarh,Bhilai,"Civic Center, Bhilai - Bhilai Steel Plant",22-02-2024 04:00:00,21.185571,81.343175,NO2,NA,NA,NA
India,Chhattisgarh,Bhilai,"Civic Center, Bhilai - Bhilai Steel Plant",22-02-2024 04:00:00,21.185571,81.343175,NH3,NA,NA,NA
India,Chhattisgarh,Bhilai,"Civic Center, Bhilai - Bhilai Steel Plant",22-02-2024 04:00:00,21.185571,81.343175,CO,NA,NA,NA
India,Chhattisgarh,Bilaspur,"Mangala, Bilaspur - NTPC",22-02-2024 04:00:00,22.08815,82.13737,PM10,34,83,51
India,Chhattisgarh,Bilaspur,"Mangala, Bilaspur - NTPC",22-02-2024 04:00:00,22.08815,82.13737,SO2,NA,NA,NA
India,Chhattisgarh,Bilaspur,"Mangala, Bilaspur - NTPC",22-02-2024 04:00:00,22.08815,82.13737,CO,NA,NA,NA
India,Chhattisgarh,Chhal,"Nawapara SECL Colony, Chhal - CECB",22-02-2024 04:00:00,22.118125,83.140608,CO,27,81,66
India,Chhattisgarh,Chhal,"Nawapara SECL Colony, Chhal - CECB",22-02-2024 04:00:00,22.118125,83.140608,OZONE,2,73,7
India,Chhattisgarh,Korba,"Rampur, Korba - CECB",22-02-2024 04:00:00,22.368195,82.746431,PM2.5,11,29,22
India,Chhattisgarh,Korba,"Urja Nagar, Korba - CECB",22-02-2024 04:00:00,22.348441,82.549611,SO2,2,6,4
India,Chhattisgarh,Kunjemura,"OP Jindal School, Kunjemura - CECB",22-02-2024 04:00:00,22.126650,83.483212,PM10,72,187,111
India,Chhattisgarh,Milupara,"Govt. Higher Secondary School, Milupara - CECB",22-02-2024 04:00:00,22.1910172,83.5197009,NO2,16,72,31
India,Chhattisgarh,Milupara,"Govt. Higher Secondary School, Milupara - CECB",22-02-2024 04:00:00,22.1910172,83.5197009,SO2,NA,NA,NA
India,Chhattisgarh,Milupara,"Govt. Higher Secondary School, Milupara - CECB",22-02-2024 04:00:00,22.1910172,83.5197009,CO,5,55,27
India,Chhattisgarh,Raipur,"AIIMS, Raipur - CECB",22-02-2024 04:00:00,21.258815,81.578979,NO2,33,45,39
India,Chhattisgarh,Raipur,"AIIMS, Raipur - CECB",22-02-2024 04:00:00,21.258815,81.578979,NH3,4,4,4
India,Chhattisgarh,Raipur,"AIIMS, Raipur - CECB",22-02-2024 04:00:00,21.258815,81.578979,SO2,5,12,7
India,Chhattisgarh,Raipur,"AIIMS, Raipur - CECB",22-02-2024 04:00:00,21.258815,81.578979,OZONE,1,29,4
India,Chhattisgarh,Raipur,"Bhatagaon New ISBT, Raipur - CECB",22-02-2024 04:00:00,21.219665,81.630094,PM10,32,74,49
India,Chhattisgarh,Raipur,"Bhatagaon New ISBT, Raipur - CECB",22-02-2024 04:00:00,21.219665,81.630094,NH3,1,2,1
India,Chhattisgarh,Raipur,"Bhatagaon New ISBT, Raipur - CECB",22-02-2024 04:00:00,21.219665,81.630094,OZONE,3,11,3
India,Chhattisgarh,Raipur,"Siltara Phase-II, Raipur - CECB",22-02-2024 04:00:00,21.371751,81.664929,SO2,NA,NA,NA
India,Chhattisgarh,Tumidih,"OP Jindal Industrial Park, Tumidih - CECB",22-02-2024 04:00:00,22.06631475,83.33820077,PM10,48,450,115
India,Chhattisgarh,Tumidih,"OP Jindal Industrial Park, Tumidih - CECB",22-02-2024 04:00:00,22.06631475,83.33820077,SO2,5,11,6
India,Delhi,Delhi,"Alipur, Delhi - DPCC",22-02-2024 04:00:00,28.815329,77.153010,PM2.5,56,204,101
India,Delhi,Delhi,"Alipur, Delhi - DPCC",22-02-2024 04:00:00,28.815329,77.153010,CO,38,60,47
India,Delhi,Delhi,"Anand Vihar, Delhi - DPCC",22-02-2024 04:00:00,28.647622,77.3158090,PM10,147,289,199
India,Delhi,Delhi,"Anand Vihar, Delhi - DPCC",22-02-2024 04:00:00,28.647622,77.3158090,CO,60,109,69
India,Delhi,Delhi,"Aya Nagar, Delhi - IMD",22-02-2024 04:00:00,28.4706914,77.1099364,PM10,NA,NA,NA
India,Delhi,Delhi,"Bawana, Delhi - DPCC",22-02-2024 04:00:00,28.776200,77.051074,CO,20,38,30
India,Delhi,Delhi,"CRRI Mathura Road, Delhi - IMD",22-02-2024 04:00:00,28.5512005,77.2735737,NO2,21,29,25
India,Delhi,Delhi,"Chandni Chowk, Delhi - IITM",22-02-2024 04:00:00,28.656756,77.227234,PM10,95,169,124
India,Delhi,Delhi,"Chandni Chowk, Delhi - IITM",22-02-2024 04:00:00,28.656756,77.227234,SO2,2,45,17
India,Delhi,Delhi,"DTU, Delhi - CPCB",22-02-2024 04:00:00,28.7500499,77.1112615,NO2,24,49,35
India,Delhi,Delhi,"DTU, Delhi - CPCB",22-02-2024 04:00:00,28.7500499,77.1112615,NH3,11,15,13
India,Delhi,Delhi,"DTU, Delhi - CPCB",22-02-2024 04:00:00,28.7500499,77.1112615,SO2,29,31,30
India,Delhi,Delhi,"Dr. Karni Singh Shooting Range, Delhi - DPCC",22-02-2024 04:00:00,28.498571,77.264840,PM2.5,51,305,164
India,Delhi,Delhi,"Dr. Karni Singh Shooting Range, Delhi - DPCC",22-02-2024 04:00:00,28.498571,77.264840,SO2,2,10,6
India,Delhi,Delhi,"Dwarka-Sector 8, Delhi - DPCC ",22-02-2024 04:00:00,28.5710274,77.0719006,NO2,7,35,23
India,Delhi,Delhi,"IHBAS, Dilshad Garden, Delhi - CPCB",22-02-2024 04:00:00,28.6811736,77.3025234,CO,10,63,28
India,Delhi,Delhi,"ITO, Delhi - CPCB",22-02-2024 04:00:00,28.628624,77.241060,PM2.5,16,319,207
India,Delhi,Delhi,"ITO, Delhi - CPCB",22-02-2024 04:00:00,28.628624,77.241060,PM10,45,192,146
India,Delhi,Delhi,"ITO, Delhi - CPCB",22-02-2024 04:00:00,28.628624,77.241060,SO2,6,25,16
India,Delhi,Delhi,"Jawaharlal Nehru Stadium, Delhi - DPCC",22-02-2024 04:00:00,28.580280,77.233829,NH3,6,16,11
India,Delhi,Delhi,"Jawaharlal Nehru Stadium, Delhi - DPCC",22-02-2024 04:00:00,28.580280,77.233829,SO2,1,19,7
India,Delhi,Delhi,"Major Dhyan Chand National Stadium, Delhi - DPCC",22-02-2024 04:00:00,28.611281,77.237738,PM2.5,64,307,188
India,Delhi,Delhi,"Mandir Marg, Delhi - DPCC",22-02-2024 04:00:00,28.636429,77.201067,PM2.5,54,294,163
India,Delhi,Delhi,"Mundka, Delhi - DPCC",22-02-2024 04:00:00,28.684678,77.076574,NO2,26,81,47
India,Delhi,Delhi,"NSIT Dwarka, Delhi - CPCB",22-02-2024 04:00:00,28.60909,77.0325413,PM10,116,216,162
India,Delhi,Delhi,"NSIT Dwarka, Delhi - CPCB",22-02-2024 04:00:00,28.60909,77.0325413,SO2,6,15,10
India,Delhi,Delhi,"NSIT Dwarka, Delhi - CPCB",22-02-2024 04:00:00,28.60909,77.0325413,OZONE,17,64,37
India,Delhi,Delhi,"Najafgarh, Delhi - DPCC",22-02-2024 04:00:00,28.570173,76.933762,NO2,7,8,7
India,Delhi,Delhi,"Najafgarh, Delhi - DPCC",22-02-2024 04:00:00,28.570173,76.933762,NH3,1,1,1
India,Delhi,Delhi,"Narela, Delhi - DPCC",22-02-2024 04:00:00,28.822836,77.101981,NH3,7,13,10
India,Delhi,Delhi,"Narela, Delhi - DPCC",22-02-2024 04:00:00,28.822836,77.101981,CO,40,72,53
India,Delhi,Delhi,"Nehru Nagar, Delhi - DPCC",22-02-2024 04:00:00,28.567890,77.250515,PM2.5,49,315,204
India,Delhi,Delhi,"North Campus, DU, Delhi - IMD",22-02-2024 04:00:00,28.6573814,77.1585447,NO2,NA,NA,NA
India,Delhi,Delhi,"North Campus, DU, Delhi - IMD",22-02-2024 04:00:00,28.6573814,77.1585447,OZONE,1,26,5
India,Delhi,Delhi,"Patparganj, Delhi - DPCC",22-02-2024 04:00:00,28.623763,77.287209,CO,14,39,25
India,Delhi,Delhi,"Punjabi Bagh, Delhi - DPCC",22-02-2024 04:00:00,28.674045,77.131023,SO2,23,52,35
India,Delhi,Delhi,"Pusa, Delhi - DPCC",22-02-2024 04:00:00,28.639652,77.146275,PM2.5,72,307,175
India,Delhi,Delhi,"Pusa, Delhi - DPCC",22-02-2024 04:00:00,28.639652,77.146275,OZONE,14,57,33
India,Delhi,Delhi,"Pusa, Delhi - IMD",22-02-2024 04:00:00,28.636110,77.173332,CO,NA,NA,NA
India,Delhi,Delhi,"R K Puram, Delhi - DPCC",22-02-2024 04:00:00,28.563262,77.186937,PM10,118,187,156
India,Delhi,Delhi,"Rohini, Delhi - DPCC",22-02-2024 04:00:00,28.732528,77.119920,CO,18,40,32
India,Delhi,Delhi,"Shadipur, Delhi - CPCB",22-02-2024 04:00:00,28.6514781,77.1473105,PM10,140,406,208
India,Delhi,Delhi,"Shadipur, Delhi - CPCB",22-02-2024 04:00:00,28.6514781,77.1473105,NO2,48,60,55
India,Delhi,Delhi,"Shadipur, Delhi - CPCB",22-02-2024 04:00:00,28.6514781,77.1473105,OZONE,10,26,16
India,Delhi,Delhi,"Sri Aurobindo Marg, Delhi - DPCC",22-02-2024 04:00:00,28.531346,77.190156,SO2,6,17,11
India,Delhi,Delhi,"Vivek Vihar, Delhi - DPCC",22-02-2024 04:00:00,28.672342,77.315260,NO2,36,64,51
India,Delhi,Delhi,"Wazirpur, Delhi - DPCC",22-02-2024 04:00:00,28.699793,77.165453,SO2,10,29,22
India,Gujarat,Ahmedabad,"Chandkheda, Ahmedabad - IITM",22-02-2024 04:00:00,23.107969,72.574648,NO2,13,84,57
India,Gujarat,Ahmedabad,"Chandkheda, Ahmedabad - IITM",22-02-2024 04:00:00,23.107969,72.574648,SO2,4,5,5
India,Gujarat,Ahmedabad,"Raikhad, Ahmedabad - IITM",22-02-2024 04:00:00,23.020509,72.579261,SO2,NA,NA,NA
India,Gujarat,Ahmedabad,"Raikhad, Ahmedabad - IITM",22-02-2024 04:00:00,23.020509,72.579261,CO,4,56,27
India,Gujarat,Ahmedabad,"Rakhial, Ahmedabad - IITM",22-02-2024 04:00:00,23.016834,72.625775,NO2,48,75,61
India,Gujarat,Ahmedabad,"Rakhial, Ahmedabad - IITM",22-02-2024 04:00:00,23.016834,72.625775,NH3,1,9,6
India,Gujarat,Ahmedabad,"SAC ISRO Bopal, Ahmedabad - IITM",22-02-2024 04:00:00,23.041137,72.456691,CO,32,34,34
India,Gujarat,Ahmedabad,"SAC ISRO Satellite, Ahmedabad - IITM",22-02-2024 04:00:00,23.023389,72.515201,SO2,11,24,14
India,Gujarat,Ahmedabad,"Sardar Vallabhbhai Patel Stadium, Ahmedabad - IITM",22-02-2024 04:00:00,23.043070,72.562968,SO2,5,9,7
India,Gujarat,Ankleshwar,"GIDC, Ankleshwar - GPCB",22-02-2024 04:00:00,21.613267,73.010555,PM10,33,71,52
India,Gujarat,Gandhinagar,"IIPHG Lekawada, Gandhinagar - IITM",22-02-2024 04:00:00,23.243639,72.68994,PM10,67,132,97
India,Gujarat,Gandhinagar,"IIPHG Lekawada, Gandhinagar - IITM",22-02-2024 04:00:00,23.243639,72.68994,OZONE,16,30,22
India,Gujarat,Gandhinagar,"Sector-10, Gandhinagar - GPCB",22-02-2024 04:00:00,23.221714,72.654328,PM2.5,9,41,24
India,Gujarat,Vapi,"Phase-1 GIDC, Vapi - GPCB",22-02-2024 04:00:00,20.362421,72.918013,NH3,15,18,17
India,Gujarat,Vapi,"Phase-1 GIDC, Vapi - GPCB",22-02-2024 04:00:00,20.362421,72.918013,SO2,46,47,46
India,Gujarat,Vapi,"Phase-1 GIDC, Vapi - GPCB",22-02-2024 04:00:00,20.362421,72.918013,CO,138,177,169
India,Gujarat,Vapi,"Phase-1 GIDC, Vapi - GPCB",22-02-2024 04:00:00,20.362421,72.918013,OZONE,36,65,56
India,Haryana,Ambala,"Patti Mehar, Ambala - HSPCB",22-02-2024 04:00:00,30.379589,76.778328,NH3,4,12,7
India,Haryana,Ambala,"Patti Mehar, Ambala - HSPCB",22-02-2024 04:00:00,30.379589,76.778328,SO2,NA,NA,NA
India,Haryana,Ambala,"Patti Mehar, Ambala - HSPCB",22-02-2024 04:00:00,30.379589,76.778328,CO,30,60,43
India,Haryana,Bahadurgarh,"Arya Nagar, Bahadurgarh - HSPCB",22-02-2024 04:00:00,28.6701,76.9254,PM10,97,137,115
India,Haryana,Bhiwani,"H.B. Colony, Bhiwani - HSPCB",22-02-2024 04:00:00,28.806223,76.141105,PM2.5,35,188,124
India,Haryana,Bhiwani,"H.B. Colony, Bhiwani - HSPCB",22-02-2024 04:00:00,28.806223,76.141105,NO2,8,11,9
India,Haryana,Charkhi Dadri,"Mini Secretariat, Charkhi Dadri - HSPCB",22-02-2024 04:00:00,28.593883,76.270653,NO2,10,12,10
India,Haryana,Charkhi Dadri,"Mini Secretariat, Charkhi Dadri - HSPCB",22-02-2024 04:00:00,28.593883,76.270653,OZONE,13,18,15
India,Haryana,Dharuhera,"Municipal Corporation Office, Dharuhera -  HSPCB",22-02-2024 04:00:00,28.206800,76.799700,PM2.5,58,200,106
India,Haryana,Dharuhera,"Municipal Corporation Office, Dharuhera -  HSPCB",22-02-2024 04:00:00,28.206800,76.799700,NH3,9,26,18
India,Haryana,Dharuhera,"Municipal Corporation Office, Dharuhera -  HSPCB",22-02-2024 04:00:00,28.206800,76.799700,SO2,1,21,8
India,Haryana,Faridabad,"New Industrial Town, Faridabad - HSPCB",22-02-2024 04:00:00,28.39072,77.30059,NH3,3,6,5
India,Haryana,Faridabad,"New Industrial Town, Faridabad - HSPCB",22-02-2024 04:00:00,28.39072,77.30059,SO2,12,20,16
India,Haryana,Faridabad,"Sector 11, Faridabad - HSPCB",22-02-2024 04:00:00,28.376058,77.315741,NO2,30,32,31
India,Haryana,Faridabad,"Sector 11, Faridabad - HSPCB",22-02-2024 04:00:00,28.376058,77.315741,OZONE,3,6,4
India,Haryana,Faridabad,"Sector 30, Faridabad - HSPCB",22-02-2024 04:00:00,28.4417,77.3217,SO2,3,6,4
India,Haryana,Faridabad,"Sector- 16A, Faridabad - HSPCB",22-02-2024 04:00:00,28.4088421,77.3099081,SO2,17,45,24
India,Haryana,Fatehabad,"Huda Sector, Fatehabad - HSPCB",22-02-2024 04:00:00,29.503664,75.467934,NH3,NA,NA,NA
India,Haryana,Fatehabad,"Huda Sector, Fatehabad - HSPCB",22-02-2024 04:00:00,29.503664,75.467934,SO2,NA,NA,NA
India,Haryana,Gurugram,"Teri Gram, Gurugram - HSPCB",22-02-2024 04:00:00,28.4275,77.1465,NH3,24,31,27
India,Haryana,Gurugram,"Vikas Sadan, Gurugram - HSPCB",22-02-2024 04:00:00,28.4501238,77.0263051,SO2,16,31,24
India,Haryana,Gurugram,"Vikas Sadan, Gurugram - HSPCB",22-02-2024 04:00:00,28.4501238,77.0263051,CO,54,139,105
India,Haryana,Hisar,"Urban Estate-II, Hisar - HSPCB",22-02-2024 04:00:00,29.140560,75.744941,NO2,7,10,8
India,Haryana,Hisar,"Urban Estate-II, Hisar - HSPCB",22-02-2024 04:00:00,29.140560,75.744941,SO2,2,74,39
India,Haryana,Hisar,"Urban Estate-II, Hisar - HSPCB",22-02-2024 04:00:00,29.140560,75.744941,OZONE,42,125,73
India,Haryana,Jind,"Police Lines, Jind - HSPCB",22-02-2024 04:00:00,29.307814,76.337619,NO2,4,17,12
India,Haryana,Jind,"Police Lines, Jind - HSPCB",22-02-2024 04:00:00,29.307814,76.337619,NH3,2,5,4
India,Haryana,Karnal,"Sector-12, Karnal - HSPCB",22-02-2024 04:00:00,29.695300,77.002700,PM2.5,39,77,60
India,Haryana,Karnal,"Sector-12, Karnal - HSPCB",22-02-2024 04:00:00,29.695300,77.002700,SO2,12,13,13
India,Haryana,Kurukshetra,"Sector-7, Kurukshetra - HSPCB",22-02-2024 04:00:00,29.966942,76.875879,PM2.5,48,88,65
India,Haryana,Mandikhera,"General Hospital, Mandikhera - HSPCB",22-02-2024 04:00:00,27.9002,76.9938,NO2,16,22,19
India,Haryana,Manesar,"Sector-2 IMT, Manesar - HSPCB",22-02-2024 04:00:00,28.360699,76.936090,NO2,11,28,21
India,Haryana,Manesar,"Sector-2 IMT, Manesar - HSPCB",22-02-2024 04:00:00,28.360699,76.936090,NH3,7,17,11
India,Haryana,Manesar,"Sector-2 IMT, Manesar - HSPCB",22-02-2024 04:00:00,28.360699,76.936090,OZONE,6,47,19
India,Haryana,Narnaul,"Shastri Nagar, Narnaul - HSPCB",22-02-2024 04:00:00,28.060249,76.113115,OZONE,46,87,76
India,Haryana,Palwal,"Shyam Nagar, Palwal - HSPCB",22-02-2024 04:00:00,28.1485564,77.3320667,NH3,8,9,9
India,Haryana,Panchkula,"Sector-6, Panchkula - HSPCB ",22-02-2024 04:00:00,30.7057778,76.8531805555555,PM2.5,24,120,47
India,Haryana,Panchkula,"Sector-6, Panchkula - HSPCB ",22-02-2024 04:00:00,30.7057778,76.8531805555555,NO2,27,31,29
India,Haryana,Panchkula,"Sector-6, Panchkula - HSPCB ",22-02-2024 04:00:00,30.7057778,76.8531805555555,SO2,11,12,12
India,Haryana,Rohtak,"MD University, Rohtak - HSPCB",22-02-2024 04:00:00,28.52123,76.37138,CO,16,52,29
India,Haryana,Rohtak,"MD University, Rohtak - HSPCB",22-02-2024 04:00:00,28.52123,76.37138,OZONE,44,53,49
India,Haryana,Sirsa,"F-Block, Sirsa - HSPCB",22-02-2024 04:00:00,29.536400,75.015800,CO,44,57,46
India,Haryana,Yamuna Nagar,"Gobind Pura, Yamuna Nagar - HSPCB",22-02-2024 04:00:00,30.1480566,77.2893471,CO,27,68,48
India,Himachal Pradesh,Baddi,"HIMUDA Complex Phase-1, Baddi - HPPCB",22-02-2024 04:00:00,30.943887,76.801991,CO,16,56,30
India,Himachal Pradesh,Baddi,"HIMUDA Complex Phase-1, Baddi - HPPCB",22-02-2024 04:00:00,30.943887,76.801991,OZONE,8,104,53
India,Jammu_and_Kashmir,Srinagar,"Rajbagh, Srinagar - JKSPCB",22-02-2024 04:00:00,34.066206,74.819820,PM10,NA,NA,NA
India,Jharkhand,Dhanbad,"Sardar Patel Nagar, Dhanbad - JSPCB",22-02-2024 04:00:00,23.80569,86.44268,PM2.5,5,202,76
India,Jharkhand,Dhanbad,"Sardar Patel Nagar, Dhanbad - JSPCB",22-02-2024 04:00:00,23.80569,86.44268,PM10,37,181,104
India,Jharkhand,Pathardih,"Mohalbani Ghat, Pathardih - DMC",22-02-2024 04:00:00,23.669880,86.411725,PM10,64,193,116
India,Jharkhand,Pathardih,"Mohalbani Ghat, Pathardih - DMC",22-02-2024 04:00:00,23.669880,86.411725,NO2,14,222,82
India,Karnataka,Bagalkot,"Vidayagiri, Bagalkot - KSPCB",22-02-2024 04:00:00,16.172806,75.659694,CO,18,52,36
India,Karnataka,Belgaum,"Ramteerth Nagar, Belgaum - KSPCB",22-02-2024 04:00:00,15.888653,74.541751,NH3,29,34,32
India,Karnataka,Bengaluru,"Bapuji Nagar, Bengaluru - KSPCB",22-02-2024 04:00:00,12.951913,77.539784,PM2.5,NA,NA,NA
India,Karnataka,Bengaluru,"Bapuji Nagar, Bengaluru - KSPCB",22-02-2024 04:00:00,12.951913,77.539784,NH3,1,1,1
India,Karnataka,Bengaluru,"City Railway Station, Bengaluru - KSPCB",22-02-2024 04:00:00,12.9756843,77.5660749,SO2,13,13,13
India,Karnataka,Bengaluru,"City Railway Station, Bengaluru - KSPCB",22-02-2024 04:00:00,12.9756843,77.5660749,CO,52,104,77
India,Karnataka,Bengaluru,"Hebbal, Bengaluru - KSPCB",22-02-2024 04:00:00,13.029152,77.585901,PM2.5,62,152,89
India,Karnataka,Bengaluru,"Hebbal, Bengaluru - KSPCB",22-02-2024 04:00:00,13.029152,77.585901,PM10,93,159,119
India,Karnataka,Bengaluru,"Hebbal, Bengaluru - KSPCB",22-02-2024 04:00:00,13.029152,77.585901,NO2,5,5,5
India,Karnataka,Bengaluru,"Hebbal, Bengaluru - KSPCB",22-02-2024 04:00:00,13.029152,77.585901,OZONE,9,42,10
India,Karnataka,Bengaluru,"Hombegowda Nagar, Bengaluru - KSPCB",22-02-2024 04:00:00,12.938539,77.590100,SO2,4,4,4
India,Karnataka,Bengaluru,"Jayanagar 5th Block, Bengaluru - KSPCB",22-02-2024 04:00:00,12.920984,77.584908,NH3,2,4,2
India,Karnataka,Bengaluru,"Jayanagar 5th Block, Bengaluru - KSPCB",22-02-2024 04:00:00,12.920984,77.584908,OZONE,27,28,28
India,Karnataka,Bengaluru,"Jigani, Bengaluru - KSPCB",22-02-2024 04:00:00,12.7816279,77.6299145,PM2.5,NA,NA,NA
India,Karnataka,Bengaluru,"Jigani, Bengaluru - KSPCB",22-02-2024 04:00:00,12.7816279,77.6299145,NH3,4,4,4
India,Karnataka,Bengaluru,"Kasturi Nagar, Bengaluru - KSPCB",22-02-2024 04:00:00,13.003872,77.664217,NH3,3,4,4
India,Karnataka,Bengaluru,"Peenya, Bengaluru - CPCB",22-02-2024 04:00:00,13.0270199,77.494094,PM2.5,NA,NA,NA
India,Karnataka,Bengaluru,"RVCE-Mailasandra, Bengaluru - KSPCB",22-02-2024 04:00:00,12.921418,77.502466,PM2.5,NA,NA,NA
India,Karnataka,Bengaluru,"Shivapura_Peenya, Bengaluru - KSPCB",22-02-2024 04:00:00,13.0246342,77.5080115,SO2,4,14,8
India,Karnataka,Bengaluru,"Silk Board, Bengaluru - KSPCB",22-02-2024 04:00:00,12.917348,77.622813,PM10,82,333,136
India,Karnataka,Bengaluru,"Silk Board, Bengaluru - KSPCB",22-02-2024 04:00:00,12.917348,77.622813,OZONE,29,32,31
India,Karnataka,Bidar,"Naubad, Bidar - KSPCB",22-02-2024 04:00:00,17.930306,77.482194,PM10,70,182,103
India,Karnataka,Bidar,"Naubad, Bidar - KSPCB",22-02-2024 04:00:00,17.930306,77.482194,SO2,11,99,24
India,Karnataka,Dharwad,"Kalabhavan, Dharwad - KSPCB",22-02-2024 04:00:00,15.459706,75.008381,PM10,67,92,84
India,Karnataka,Dharwad,"Kalabhavan, Dharwad - KSPCB",22-02-2024 04:00:00,15.459706,75.008381,OZONE,8,43,17
India,Karnataka,Gadag,"Panchal Nagar, Gadag - KSPCB",22-02-2024 04:00:00,15.411456,75.638133,PM2.5,20,61,39
India,Karnataka,Haveri,"Ashwini Nagar, Haveri - KSPCB",22-02-2024 04:00:00,14.791800,75.389600,CO,NA,NA,NA
India,Karnataka,Hubballi,"Lingaraj Nagar, Hubballi - KSPCB",22-02-2024 04:00:00,15.3714823,75.1160168,PM2.5,29,56,40
India,Karnataka,Kalaburagi,"Lal Bahadur Shastri Nagar, Kalaburagi - KSPCB",22-02-2024 04:00:00,17.321993,76.822628,NO2,12,12,12
India,Karnataka,Kalaburagi,"Lal Bahadur Shastri Nagar, Kalaburagi - KSPCB",22-02-2024 04:00:00,17.321993,76.822628,NH3,1,2,2
India,Karnataka,Kalaburagi,"Lal Bahadur Shastri Nagar, Kalaburagi - KSPCB",22-02-2024 04:00:00,17.321993,76.822628,SO2,13,26,15
India,Karnataka,Kalaburagi,"Mahatma Basaveswar Colony, Kalaburgi - KSPCB",22-02-2024 04:00:00,17.336318,76.847397,CO,35,88,57
India,Karnataka,Kolar,"Tamaka Ind. Area, Kolar - KSPCB",22-02-2024 04:00:00,13.1276288,78.1570122,PM10,60,133,88
India,Karnataka,Kolar,"Tamaka Ind. Area, Kolar - KSPCB",22-02-2024 04:00:00,13.1276288,78.1570122,NO2,6,31,13
India,Karnataka,Kolar,"Tamaka Ind. Area, Kolar - KSPCB",22-02-2024 04:00:00,13.1276288,78.1570122,NH3,8,14,10
India,Karnataka,Koppal,"Diwator Nagar, Koppal - KSPCB",22-02-2024 04:00:00,15.347630,76.181767,CO,28,36,31
India,Karnataka,Madikeri,"Stuart Hill, Madikeri - KSPCB",22-02-2024 04:00:00,12.415911,75.735050,OZONE,30,45,36
India,Karnataka,Mangalore,"Kadri, Mangalore - KSPCB",22-02-2024 04:00:00,12.889250,74.853000,SO2,18,28,20
India,Karnataka,Mangalore,"Kadri, Mangalore - KSPCB",22-02-2024 04:00:00,12.889250,74.853000,OZONE,29,33,31
India,Karnataka,Mysuru,"Hebbal 1st Stage, Mysuru - KSPCB",22-02-2024 04:00:00,12.21041,76.37376,SO2,1,7,3
India,Karnataka,Mysuru,"Hebbal 1st Stage, Mysuru - KSPCB",22-02-2024 04:00:00,12.21041,76.37376,CO,7,102,22
India,Karnataka,Raichur,"Haji Colony, Raichur - KSPCB",22-02-2024 04:00:00,16.208139,77.348417,CO,85,192,160
India,Karnataka,Ramanagara,"Vijay Nagar, Ramanagara - KSPCB",22-02-2024 04:00:00,12.733409,77.298051,OZONE,28,30,29
India,Karnataka,Shivamogga,"Vinoba Nagara, Shivamogga - KSPCB",22-02-2024 04:00:00,13.940000,75.555917,PM10,55,78,64
India,Karnataka,Shivamogga,"Vinoba Nagara, Shivamogga - KSPCB",22-02-2024 04:00:00,13.940000,75.555917,CO,12,47,41
India,Karnataka,Tumakuru,"Thimmalapura, Tumakuru - KSPCB",22-02-2024 04:00:00,13.377516,77.099072,SO2,9,13,10
India,Karnataka,Udupi,"Brahmagiri, Udupi - KSPCB",22-02-2024 04:00:00,13.34194444,74.74694444,NO2,13,14,14
India,Karnataka,Vijayapura,"Ibrahimpur, Vijayapura - KSPCB",22-02-2024 04:00:00,16.802639,75.722694,SO2,2,39,19
India,Kerala,Kannur,"Thavakkara, Kannur - Kerala PCB",22-02-2024 04:00:00,11.875000,75.373200,PM2.5,50,65,56
India,Kerala,Kannur,"Thavakkara, Kannur - Kerala PCB",22-02-2024 04:00:00,11.875000,75.373200,PM10,63,79,70
India,Kerala,Kannur,"Thavakkara, Kannur - Kerala PCB",22-02-2024 04:00:00,11.875000,75.373200,NO2,6,7,6
India,Kerala,Kochi,"Vyttila, Kochi - Kerala PCB",22-02-2024 04:00:00,9.969447,76.321186,PM2.5,24,261,72
India,Kerala,Kochi,"Vyttila, Kochi - Kerala PCB",22-02-2024 04:00:00,9.969447,76.321186,CO,60,64,61
India,Kerala,Kollam,"Polayathode, Kollam - Kerala PCB",22-02-2024 04:00:00,8.8787,76.6073,NH3,1,1,1
India,Kerala,Thiruvananthapuram,"Kariavattom, Thiruvananthapuram - Kerala PCB",22-02-2024 04:00:00,8.563700,76.886500,PM10,77,91,84
India,Kerala,Thiruvananthapuram,"Kariavattom, Thiruvananthapuram - Kerala PCB",22-02-2024 04:00:00,8.563700,76.886500,CO,18,32,22
India,Kerala,Thiruvananthapuram,"Plammoodu, Thiruvananthapuram - Kerala PCB",22-02-2024 04:00:00,8.5149093,76.9435879,NO2,9,11,10
India,Kerala,Thiruvananthapuram,"Plammoodu, Thiruvananthapuram - Kerala PCB",22-02-2024 04:00:00,8.5149093,76.9435879,CO,21,53,28
India,Madhya Pradesh,Bhopal,"Idgah Hills, Bhopal - MPPCB",22-02-2024 04:00:00,23.264759,77.381568,PM2.5,30,58,39
India,Madhya Pradesh,Bhopal,"Idgah Hills, Bhopal - MPPCB",22-02-2024 04:00:00,23.264759,77.381568,NH3,2,2,2
India,Madhya Pradesh,Bhopal,"Idgah Hills, Bhopal - MPPCB",22-02-2024 04:00:00,23.264759,77.381568,SO2,9,26,15
India,Madhya Pradesh,Bhopal,"Idgah Hills, Bhopal - MPPCB",22-02-2024 04:00:00,23.264759,77.381568,CO,20,52,33
India,Madhya Pradesh,Bhopal,"Paryavaran Parisar, Bhopal - MPPCB",22-02-2024 04:00:00,23.210494,77.425409,NO2,15,21,17
India,Madhya Pradesh,Bhopal,"T T Nagar, Bhopal - MPPCB",22-02-2024 04:00:00,23.233584,77.400574,NO2,24,37,29
India,Madhya Pradesh,Bhopal,"T T Nagar, Bhopal - MPPCB",22-02-2024 04:00:00,23.233584,77.400574,NH3,6,7,7
India,Madhya Pradesh,Dewas,"Bhopal Chauraha, Dewas - MPPCB",22-02-2024 04:00:00,22.9682591,76.064118,NO2,10,16,11
India,Madhya Pradesh,Dewas,"Bhopal Chauraha, Dewas - MPPCB",22-02-2024 04:00:00,22.9682591,76.064118,NH3,3,3,3
India,Madhya Pradesh,Gwalior,"City Center, Gwalior - MPPCB",22-02-2024 04:00:00,26.203442,78.193251,SO2,5,31,18
India,Madhya Pradesh,Gwalior,"Deen Dayal Nagar, Gwalior - MPPCB",22-02-2024 04:00:00,26.259242,78.216432,PM10,67,188,112
India,Madhya Pradesh,Gwalior,"Deen Dayal Nagar, Gwalior - MPPCB",22-02-2024 04:00:00,26.259242,78.216432,NO2,20,103,44
India,Madhya Pradesh,Gwalior,"Deen Dayal Nagar, Gwalior - MPPCB",22-02-2024 04:00:00,26.259242,78.216432,NH3,5,7,6
India,Madhya Pradesh,Gwalior,"Maharaj Bada, Gwalior - MPPCB",22-02-2024 04:00:00,26.200388,78.147714,CO,6,107,69
India,Madhya Pradesh,Gwalior,"Maharaj Bada, Gwalior - MPPCB",22-02-2024 04:00:00,26.200388,78.147714,OZONE,4,80,20
India,Madhya Pradesh,Indore,"Chhoti Gwaltoli, Indore - MPPCB",22-02-2024 04:00:00,22.4310,75.5213,OZONE,22,65,48
India,Madhya Pradesh,Indore,"Maguda Nagar, Indore - IMC",22-02-2024 04:00:00,22.7524,75.8872,OZONE,37,45,40
India,Madhya Pradesh,Indore,"Regional Park, Indore - IMC",22-02-2024 04:00:00,22.6780,75.8559,SO2,40,42,41
India,Madhya Pradesh,Indore,"Regional Park, Indore - IMC",22-02-2024 04:00:00,22.6780,75.8559,CO,17,22,20
India,Madhya Pradesh,Indore,"Residency Area, Indore - IMC",22-02-2024 04:00:00,22.7084,75.8815,PM2.5,37,91,64
India,Madhya Pradesh,Indore,"Residency Area, Indore - IMC",22-02-2024 04:00:00,22.7084,75.8815,SO2,21,27,24
India,Madhya Pradesh,Jabalpur,"Gupteshwar, Jabalpur - JMC",22-02-2024 04:00:00,23.142888,79.916147,PM10,20,82,46
India,Madhya Pradesh,Jabalpur,"Gupteshwar, Jabalpur - JMC",22-02-2024 04:00:00,23.142888,79.916147,OZONE,46,96,56
India,Madhya Pradesh,Jabalpur,"Marhatal, Jabalpur - MPPCB",22-02-2024 04:00:00,23.168606,79.932247,PM2.5,35,75,51
India,Madhya Pradesh,Jabalpur,"Marhatal, Jabalpur - MPPCB",22-02-2024 04:00:00,23.168606,79.932247,NH3,3,5,4
India,Madhya Pradesh,Jabalpur,"Marhatal, Jabalpur - MPPCB",22-02-2024 04:00:00,23.168606,79.932247,CO,28,88,54
India,Madhya Pradesh,Jabalpur,"Suhagi, Jabalpur - JMC",22-02-2024 04:00:00,23.218135,79.957770,NH3,5,5,5
India,Madhya Pradesh,Jabalpur,"Suhagi, Jabalpur - JMC",22-02-2024 04:00:00,23.218135,79.957770,CO,2,46,37
India,Madhya Pradesh,Jabalpur,"Suhagi, Jabalpur - JMC",22-02-2024 04:00:00,23.218135,79.957770,OZONE,34,106,42
India,Madhya Pradesh,Katni,"Gole Bazar, Katni - MPPCB",22-02-2024 04:00:00,23.50016,80.23284,PM10,93,236,136
India,Madhya Pradesh,Katni,"Gole Bazar, Katni - MPPCB",22-02-2024 04:00:00,23.50016,80.23284,NO2,34,75,52
India,Madhya Pradesh,Maihar,"Sahilara, Maihar - KJS Cements",22-02-2024 04:00:00,24.2613009,80.7231783,PM10,3,48,22
India,Madhya Pradesh,Mandideep,"Sector-D Industrial Area, Mandideep - MPPCB",22-02-2024 04:00:00,23.108440,77.511428,PM10,57,236,96
India,Madhya Pradesh,Mandideep,"Sector-D Industrial Area, Mandideep - MPPCB",22-02-2024 04:00:00,23.108440,77.511428,OZONE,28,40,29
India,Madhya Pradesh,Pithampur,"Sector-2 Industrial Area, Pithampur - MPPCB",22-02-2024 04:00:00,22.624758,75.675238,NO2,9,26,16
India,Madhya Pradesh,Pithampur,"Sector-2 Industrial Area, Pithampur - MPPCB",22-02-2024 04:00:00,22.624758,75.675238,OZONE,29,61,45
India,Madhya Pradesh,Ratlam,"Shasthri Nagar, Ratlam - IPCA Lab",22-02-2024 04:00:00,23.331731,75.045981,PM2.5,2,126,63
India,Madhya Pradesh,Sagar,"Deen Dayal Nagar, Sagar - MPPCB",22-02-2024 04:00:00,23.8640158,78.80289321,PM10,19,123,51
India,Madhya Pradesh,Satna,"Bandhavgar Colony, Satna - Birla Cement",22-02-2024 04:00:00,24.58434363,80.8549414,OZONE,57,82,65
India,Madhya Pradesh,Singrauli,"Suryakiran Bhawan NCL, Singrauli - MPPCB",22-02-2024 04:00:00,24.108970,82.645580,SO2,23,129,49
India,Madhya Pradesh,Ujjain,"Mahakaleshwar Temple, Ujjain - MPPCB",22-02-2024 04:00:00,23.182719 ,75.768218 ,NH3,5,7,6
India,Maharashtra,Ahmednagar,"Tarakpur, Ahmednagar - MPCB",22-02-2024 04:00:00,19.10122,74.73339,PM2.5,29,95,57
India,Maharashtra,Ahmednagar,"Tarakpur, Ahmednagar - MPCB",22-02-2024 04:00:00,19.10122,74.73339,OZONE,4,88,53
India,Maharashtra,Akola,"Ramdaspeth, Akola - MPCB",22-02-2024 04:00:00,20.719516,77.000253,PM10,37,141,100
India,Maharashtra,Akola,"Ramdaspeth, Akola - MPCB",22-02-2024 04:00:00,20.719516,77.000253,SO2,13,27,20
India,Maharashtra,Akola,"Ramdaspeth, Akola - MPCB",22-02-2024 04:00:00,20.719516,77.000253,CO,10,52,19
India,Maharashtra,Amravati,"Shivneri Colony, Amravati - MPCB",22-02-2024 04:00:00,20.9402359,77.7895248,PM2.5,21,70,45
India,Maharashtra,Amravati,"Shri Shivaji Science College, Amaravati - MPCB",22-02-2024 04:00:00,20.939198,77.765701,OZONE,30,71,36
India,Maharashtra,Aurangabad,"More Chowk Waluj, Aurangabad - MPCB",22-02-2024 04:00:00,19.8389439,75.244448,NH3,1,1,1
India,Maharashtra,Aurangabad,"More Chowk Waluj, Aurangabad - MPCB",22-02-2024 04:00:00,19.8389439,75.244448,CO,10,30,20
India,Maharashtra,Aurangabad,"Rachnakar Colony, Aurangabad - MPCB",22-02-2024 04:00:00,19.863756,75.321188,CO,6,35,23
India,Maharashtra,Bhiwandi,"Gokul Nagar, Bhiwandi - MPCB",22-02-2024 04:00:00,19.309073,73.057223,OZONE,2,19,10
India,Maharashtra,Boisar,"Khaira, Boisar - MPCB",22-02-2024 04:00:00,19.786089,72.757971,NO2,NA,NA,NA
India,Maharashtra,Boisar,"Khaira, Boisar - MPCB",22-02-2024 04:00:00,19.786089,72.757971,NH3,NA,NA,NA
India,Maharashtra,Boisar,"Khaira, Boisar - MPCB",22-02-2024 04:00:00,19.786089,72.757971,SO2,NA,NA,NA
India,Maharashtra,Chandrapur,"Chauhan Colony, Chandrapur - MPCB",22-02-2024 04:00:00,19.962900,79.298714,CO,22,52,35
India,Maharashtra,Dhule,"Deopur, Dhule - MPCB",22-02-2024 04:00:00,20.918946,74.776388,PM2.5,65,333,134
India,Maharashtra,Dhule,"Deopur, Dhule - MPCB",22-02-2024 04:00:00,20.918946,74.776388,OZONE,1,82,26
India,Maharashtra,Jalgaon,"Prabhat Colony, Jalgaon - MPCB",22-02-2024 04:00:00,21.001264,75.565602,NO2,15,39,23
India,Maharashtra,Jalgaon,"Prabhat Colony, Jalgaon - MPCB",22-02-2024 04:00:00,21.001264,75.565602,CO,7,12,10
India,Maharashtra,Jalna,"Old MIDC, Jalna - MPCB",22-02-2024 04:00:00,19.854616,75.905894,CO,26,36,32
India,Maharashtra,Jalna,"Old MIDC, Jalna - MPCB",22-02-2024 04:00:00,19.854616,75.905894,OZONE,31,120,47
India,Maharashtra,Kalyan,"Khadakpada, Kalyan - MPCB",22-02-2024 04:00:00,19.25292,73.142019,NO2,31,50,40
India,Maharashtra,Kalyan,"Khadakpada, Kalyan - MPCB",22-02-2024 04:00:00,19.25292,73.142019,NH3,1,1,1
India,Maharashtra,Kolhapur,"Shivaji University, Kolhapur - MPCB",22-02-2024 04:00:00,16.6870449,74.2505872,PM2.5,66,107,78
India,Maharashtra,Kolhapur,"Shivaji University, Kolhapur - MPCB",22-02-2024 04:00:00,16.6870449,74.2505872,PM10,49,192,92
India,Maharashtra,Kolhapur,"Shivaji University, Kolhapur - MPCB",22-02-2024 04:00:00,16.6870449,74.2505872,NH3,3,9,5
India,Maharashtra,Kolhapur,"Shivaji University, Kolhapur - MPCB",22-02-2024 04:00:00,16.6870449,74.2505872,CO,34,90,49
India,Maharashtra,Kolhapur,"Sinchan Bhavan, Kolhapur - MPCB",22-02-2024 04:00:00,16.7143745,74.2426398,SO2,1,7,3
India,Maharashtra,Latur,"Sawe Wadi, Latur - MPCB",22-02-2024 04:00:00,18.39963,76.57452,PM2.5,36,81,59
India,Maharashtra,Latur,"Sawe Wadi, Latur - MPCB",22-02-2024 04:00:00,18.39963,76.57452,NO2,11,124,38
India,Maharashtra,Malegaon,"Mahesh Nagar, Malegaon - MPCB",22-02-2024 04:00:00,20.555712,74.529236,SO2,6,10,8
India,Maharashtra,Malegaon,"Mahesh Nagar, Malegaon - MPCB",22-02-2024 04:00:00,20.555712,74.529236,OZONE,11,65,22
India,Maharashtra,Mira-Bhayandar,"Bhayandar West, Mira-Bhayandar - MPCB",22-02-2024 04:00:00,19.296481,72.840923,CO,14,46,28
India,Maharashtra,Mumbai,"Bandra Kurla Complex, Mumbai - MPCB",22-02-2024 04:00:00,19.065931,72.862131,PM2.5,27,79,41
India,Maharashtra,Mumbai,"Bandra Kurla Complex, Mumbai - MPCB",22-02-2024 04:00:00,19.065931,72.862131,NH3,11,23,16
India,Maharashtra,Mumbai,"Chakala-Andheri East, Mumbai - IITM",22-02-2024 04:00:00,19.11074,72.86084,NH3,7,19,10
India,Maharashtra,Mumbai,"Chembur, Mumbai - MPCB",22-02-2024 04:00:00,19.0364585,72.8954371,NO2,17,49,35
India,Maharashtra,Mumbai,"Colaba, Mumbai - MPCB",22-02-2024 04:00:00,18.910000,72.820000,PM2.5,1,18,11
India,Maharashtra,Mumbai,"Colaba, Mumbai - MPCB",22-02-2024 04:00:00,18.910000,72.820000,SO2,14,16,15
India,Maharashtra,Mumbai,"Ghatkopar, Mumbai - BMC",22-02-2024 04:00:00,19.083694,72.920967,PM10,25,70,42
India,Maharashtra,Mumbai,"Ghatkopar, Mumbai - BMC",22-02-2024 04:00:00,19.083694,72.920967,SO2,1,2,1
India,Maharashtra,Mumbai,"Kandivali East, Mumbai - MPCB",22-02-2024 04:00:00,19.205800,72.868200,NO2,23,51,36
India,Maharashtra,Mumbai,"Kandivali East, Mumbai - MPCB",22-02-2024 04:00:00,19.205800,72.868200,OZONE,29,31,30
India,Maharashtra,Mumbai,"Kandivali West, Mumbai - BMC",22-02-2024 04:00:00,19.215859,72.831718,NO2,NA,NA,NA
India,Maharashtra,Mumbai,"Kandivali West, Mumbai - BMC",22-02-2024 04:00:00,19.215859,72.831718,SO2,NA,NA,NA
India,Maharashtra,Mumbai,"Khindipada-Bhandup West, Mumbai - IITM",22-02-2024 04:00:00,19.1653323,72.922099,PM2.5,18,68,39
India,Maharashtra,Mumbai,"Khindipada-Bhandup West, Mumbai - IITM",22-02-2024 04:00:00,19.1653323,72.922099,SO2,1,5,3
India,Maharashtra,Mumbai,"Kurla, Mumbai - MPCB",22-02-2024 04:00:00,19.0863,72.8888,NO2,15,25,19
India,Maharashtra,Mumbai,"Mazgaon, Mumbai - IITM",22-02-2024 04:00:00,18.96702,72.84214,PM2.5,33,199,90
India,Maharashtra,Mumbai,"Mazgaon, Mumbai - IITM",22-02-2024 04:00:00,18.96702,72.84214,PM10,40,153,93
India,Maharashtra,Mumbai,"Navy Nagar-Colaba, Mumbai - IITM",22-02-2024 04:00:00,18.897756,72.813320,OZONE,3,34,25
India,Maharashtra,Mumbai,"Powai, Mumbai - MPCB",22-02-2024 04:00:00,19.137500,72.915056,CO,NA,NA,NA
India,Maharashtra,Mumbai,"Sewri, Mumbai - BMC",22-02-2024 04:00:00,19.000084,72.856730,PM2.5,11,57,29
India,Maharashtra,Mumbai,"Sewri, Mumbai - BMC",22-02-2024 04:00:00,19.000084,72.856730,NO2,33,91,60
India,Maharashtra,Mumbai,"Sewri, Mumbai - BMC",22-02-2024 04:00:00,19.000084,72.856730,NH3,8,17,12
India,Maharashtra,Mumbai,"Shivaji Nagar, Mumbai - BMC",22-02-2024 04:00:00,19.060498,72.923356,NH3,6,10,8
India,Maharashtra,Mumbai,"Shivaji Nagar, Mumbai - BMC",22-02-2024 04:00:00,19.060498,72.923356,SO2,1,12,4
India,Maharashtra,Mumbai,"Shivaji Nagar, Mumbai - BMC",22-02-2024 04:00:00,19.060498,72.923356,OZONE,1,30,4
India,Maharashtra,Mumbai,"Sion, Mumbai - MPCB",22-02-2024 04:00:00,19.047000,72.874600,PM10,25,63,39
India,Maharashtra,Mumbai,"Sion, Mumbai - MPCB",22-02-2024 04:00:00,19.047000,72.874600,SO2,36,41,37
India,Maharashtra,Mumbai,"Sion, Mumbai - MPCB",22-02-2024 04:00:00,19.047000,72.874600,OZONE,12,15,13
India,Maharashtra,Mumbai,"Vasai West, Mumbai - MPCB",22-02-2024 04:00:00,19.383200,72.820400,SO2,16,16,16
India,Maharashtra,Mumbai,"Vasai West, Mumbai - MPCB",22-02-2024 04:00:00,19.383200,72.820400,CO,24,56,37
India,Maharashtra,Mumbai,"Vile Parle West, Mumbai - MPCB",22-02-2024 04:00:00,19.10861,72.83622,NO2,1,7,2
India,Maharashtra,Mumbai,"Vile Parle West, Mumbai - MPCB",22-02-2024 04:00:00,19.10861,72.83622,NH3,9,11,10
India,Maharashtra,Mumbai,"Vile Parle West, Mumbai - MPCB",22-02-2024 04:00:00,19.10861,72.83622,SO2,13,14,14
India,Maharashtra,Mumbai,"Worli, Mumbai - MPCB",22-02-2024 04:00:00,18.9936162,72.8128113,NO2,17,18,17
India,Maharashtra,Mumbai,"Worli, Mumbai - MPCB",22-02-2024 04:00:00,18.9936162,72.8128113,CO,32,34,34
India,Maharashtra,Nagpur,"Ambazari, Nagpur - MPCB",22-02-2024 04:00:00,21.121801,79.04952,PM2.5,29,85,53
India,Maharashtra,Nagpur,"Mahal, Nagpur - MPCB",22-02-2024 04:00:00,21.14472,79.107595,PM10,58,113,88
India,Maharashtra,Nagpur,"Opp GPO Civil Lines, Nagpur - MPCB",22-02-2024 04:00:00,21.152875,79.0517531,NH3,2,3,2
India,Maharashtra,Nagpur,"Opp GPO Civil Lines, Nagpur - MPCB",22-02-2024 04:00:00,21.152875,79.0517531,SO2,2,60,13
India,Maharashtra,Nagpur,"Ram Nagar, Nagpur - MPCB",22-02-2024 04:00:00,21.143383,79.048912,CO,10,35,13
India,Maharashtra,Nanded,"Sneh Nagar, Nanded - MPCB",22-02-2024 04:00:00,19.173852,77.296291,NH3,1,2,1
India,Maharashtra,Nashik,"Gangapur Road, Nashik - MPCB",22-02-2024 04:00:00,20.0073285,73.7762427,PM10,17,178,86
India,Maharashtra,Nashik,"Hirawadi, Nashik - MPCB",22-02-2024 04:00:00,20.021503,73.813844,NH3,1,2,2
India,Maharashtra,Navi Mumbai,"Mahape, Navi Mumbai - MPCB",22-02-2024 04:00:00,19.1135051,73.008978,PM2.5,24,197,78
India,Maharashtra,Navi Mumbai,"Mahape, Navi Mumbai - MPCB",22-02-2024 04:00:00,19.1135051,73.008978,NH3,3,3,3
India,Maharashtra,Navi Mumbai,"Nerul, Navi Mumbai - MPCB",22-02-2024 04:00:00,19.008751,73.016620,PM2.5,NA,NA,NA
India,Maharashtra,Navi Mumbai,"Nerul, Navi Mumbai - MPCB",22-02-2024 04:00:00,19.008751,73.016620,PM10,NA,NA,NA
India,Maharashtra,Navi Mumbai,"Nerul, Navi Mumbai - MPCB",22-02-2024 04:00:00,19.008751,73.016620,SO2,NA,NA,NA
India,Maharashtra,Navi Mumbai,"Sanpada, Navi Mumbai - MPCB",22-02-2024 04:00:00,19.0575752,73.0151367,PM2.5,14,82,39
India,Maharashtra,Navi Mumbai,"Sector-19A Nerul, Navi Mumbai - IITM",22-02-2024 04:00:00,19.044,73.0325,PM2.5,35,308,114
India,Maharashtra,Navi Mumbai,"Sector-2E Kalamboli, Navi Mumbai - MPCB",22-02-2024 04:00:00,19.02579,73.10297,SO2,10,62,20
India,Maharashtra,Navi Mumbai,"Tondare-Taloja, Navi Mumbai - MPCB",22-02-2024 04:00:00,19.0630,73.1209,PM10,62,170,90
India,Maharashtra,Navi Mumbai,"Tondare-Taloja, Navi Mumbai - MPCB",22-02-2024 04:00:00,19.0630,73.1209,OZONE,1,71,4
India,Maharashtra,Parbhani,"Masoom Colony, Parbhani - MPCB",22-02-2024 04:00:00,19.265594,76.761463,NO2,6,43,18
India,Maharashtra,Pimpri-Chinchwad,"Gavalinagar, Pimpri Chinchwad - MPCB",22-02-2024 04:00:00,18.63673,73.82487,NO2,3,52,28
India,Maharashtra,Pimpri-Chinchwad,"Park Street Wakad, Pimpri Chinchwad - MPCB",22-02-2024 04:00:00,18.59051,73.77946,SO2,3,12,6
India,Maharashtra,Pune,"Karve Road, Pune - MPCB",22-02-2024 04:00:00,18.5011743,73.8165527,CO,2,111,58
India,Maharashtra,Pune,"Karve Road, Pune - MPCB",22-02-2024 04:00:00,18.5011743,73.8165527,OZONE,2,13,6
India,Maharashtra,Pune,"Katraj Dairy, Pune - MPCB",22-02-2024 04:00:00,18.454450,73.854155,NH3,2,6,3
India,Maharashtra,Pune,"Mhada Colony, Pune - IITM",22-02-2024 04:00:00,18.573040,73.927715,PM10,28,97,61
India,Maharashtra,Pune,"Mhada Colony, Pune - IITM",22-02-2024 04:00:00,18.573040,73.927715,OZONE,10,29,14
India,Maharashtra,Pune,"Revenue Colony-Shivajinagar, Pune - IITM",22-02-2024 04:00:00,18.530085,73.849598,SO2,80,126,109
India,Maharashtra,Pune,"Savitribai Phule Pune University, Pune - MPCB",22-02-2024 04:00:00,18.547056,73.826908,OZONE,3,173,24
India,Maharashtra,Pune,"Transport Nagar-Nigdi, Pune - IITM",22-02-2024 04:00:00,18.664282,73.763966,CO,40,63,56
India,Maharashtra,Sangli,"Vijay Nagar, Sangli - MPCB",22-02-2024 04:00:00, 16.5038,74.3623,SO2,5,30,15
India,Maharashtra,Solapur,"Solapur, Solapur - MPCB",22-02-2024 04:00:00,17.6599188,75.9063906,PM10,112,165,141
India,Maharashtra,Solapur,"Solapur, Solapur - MPCB",22-02-2024 04:00:00,17.6599188,75.9063906,OZONE,33,79,34
India,Maharashtra,Thane,"Kasarvadavali, Thane - MPCB",22-02-2024 04:00:00,19.26777,72.97182,PM2.5,27,144,59
India,Maharashtra,Thane,"Kasarvadavali, Thane - MPCB",22-02-2024 04:00:00,19.26777,72.97182,PM10,47,126,81
India,Maharashtra,Thane,"Kasarvadavali, Thane - MPCB",22-02-2024 04:00:00,19.26777,72.97182,NH3,6,15,10
India,Maharashtra,Thane,"Kasarvadavali, Thane - MPCB",22-02-2024 04:00:00,19.26777,72.97182,CO,3,76,23
India,Maharashtra,Thane,"Pimpleshwar Mandir, Thane - MPCB",22-02-2024 04:00:00,19.192056,72.9585188,PM10,75,133,106
India,Maharashtra,Thane,"Upvan Fort, Thane - MPCB",22-02-2024 04:00:00,19.222279,72.957979,OZONE,1,42,16
India,Manipur,Imphal,"DM College of Science, Imphal - Manipur PCB",22-02-2024 04:00:00,24.8207389,93.9423085,NH3,2,2,2
India,Meghalaya,Shillong,"Lumpyngngad, Shillong - Meghalaya PCB",22-02-2024 04:00:00,25.5586,91.8985,CO,14,18,17
India,Meghalaya,Shillong,"Lumpyngngad, Shillong - Meghalaya PCB",22-02-2024 04:00:00,25.5586,91.8985,OZONE,70,121,109
India,Mizoram,Aizawl,"Sikulpuikawn, Aizawl - Mizoram PCB",22-02-2024 04:00:00,23.7176342,92.7192841,NO2,1,2,1
India,Mizoram,Aizawl,"Sikulpuikawn, Aizawl - Mizoram PCB",22-02-2024 04:00:00,23.7176342,92.7192841,NH3,NA,NA,NA
India,Nagaland,Kohima,"PWD Juction, Kohima - NPCB",22-02-2024 04:00:00,25.6635413,94.0989878,NO2,3,4,4
India,Odisha,Balasore,"Kalidaspur, Balasore - OSPCB",22-02-2024 04:00:00,21.51161,86.89088,CO,36,113,93
India,Odisha,Barbil,"Forest Office, Barbil - OSPCB",22-02-2024 04:00:00,22.1166054,85.3945546,SO2,1,84,17
India,Odisha,Baripada,"Meher Colony, Baripada - OSPCB",22-02-2024 04:00:00,21.941841,86.728318,PM2.5,115,264,197
India,Odisha,Baripada,"Meher Colony, Baripada - OSPCB",22-02-2024 04:00:00,21.941841,86.728318,CO,31,48,42
India,Odisha,Bhubaneswar,"Lingraj Mandir, Bhubaneswar - OSPCB",22-02-2024 04:00:00,20.240790,85.836784,SO2,1,14,5
India,Odisha,Bileipada,"Tata Township, Bileipada - OSPCB",22-02-2024 04:00:00,22.06156703,85.47409613,NO2,7,10,8
India,Odisha,Brajrajnagar,"GM Office, Brajrajnagar - OSPCB",22-02-2024 04:00:00,21.8004996,83.8396977,SO2,15,15,15
India,Odisha,Brajrajnagar,"GM Office, Brajrajnagar - OSPCB",22-02-2024 04:00:00,21.8004996,83.8396977,OZONE,19,26,19
India,Odisha,Keonjhar,"Jagamohanpur, Keonjhar - OSPCB",22-02-2024 04:00:00,21.643900,85.599355,PM10,69,123,89
India,Odisha,Keonjhar,"Jagamohanpur, Keonjhar - OSPCB",22-02-2024 04:00:00,21.643900,85.599355,SO2,13,19,16
India,Odisha,Nayagarh,"Dabuna, Nayagarh - OSPCB",22-02-2024 04:00:00,21.847279,85.416905,PM10,NA,NA,NA
India,Odisha,Nayagarh,"Dabuna, Nayagarh - OSPCB",22-02-2024 04:00:00,21.847279,85.416905,SO2,NA,NA,NA
India,Odisha,Rourkela,"Fertilizer Township, Rourkela - OSPCB",22-02-2024 04:00:00,22.18972222,84.86277778,PM10,NA,NA,NA
India,Odisha,Rourkela,"Raghunathpali, Rourkela - OSPCB",22-02-2024 04:00:00,22.220833,84.809444,NH3,1,3,2
India,Odisha,Suakati,"OMC Colony, Suakati - OSPCB",22-02-2024 04:00:00,21.606865,85.510538,OZONE,32,145,74
India,Odisha,Talcher,"Talcher Coalfields,Talcher - OSPCB",22-02-2024 04:00:00,20.9360711,85.1707021,PM2.5,6,403,241
India,Odisha,Talcher,"Talcher Coalfields,Talcher - OSPCB",22-02-2024 04:00:00,20.9360711,85.1707021,NH3,7,9,8
India,Odisha,Tensa,"Barsua Iron Ore Mines, Tensa - OSPCB",22-02-2024 04:00:00,21.869985,85.167016,NH3,8,11,9
India,Puducherry,Puducherry,"Jawahar Nagar, Puducherry - PPCC",22-02-2024 04:00:00,11.9309,79.8027,PM10,44,109,69
India,Puducherry,Puducherry,"Jawahar Nagar, Puducherry - PPCC",22-02-2024 04:00:00,11.9309,79.8027,CO,19,59,27
India,Puducherry,Puducherry,"Jawahar Nagar, Puducherry - PPCC",22-02-2024 04:00:00,11.9309,79.8027,OZONE,8,80,45
India,Punjab,Amritsar,"Golden Temple, Amritsar - PPCB",22-02-2024 04:00:00,31.620000,74.876512,OZONE,27,36,30
India,Punjab,Bathinda,"Hardev Nagar, Bathinda - PPCB",22-02-2024 04:00:00,30.233011,74.907758,SO2,3,77,36
India,Punjab,Jalandhar,"Civil Line, Jalandhar - PPCB",22-02-2024 04:00:00,31.321907,75.578914,NO2,38,45,41
India,Punjab,Jalandhar,"Civil Line, Jalandhar - PPCB",22-02-2024 04:00:00,31.321907,75.578914,NH3,2,5,4
India,Punjab,Jalandhar,"Civil Line, Jalandhar - PPCB",22-02-2024 04:00:00,31.321907,75.578914,SO2,3,9,6
India,Punjab,Jalandhar,"Civil Line, Jalandhar - PPCB",22-02-2024 04:00:00,31.321907,75.578914,CO,24,86,66
India,Punjab,Jalandhar,"Civil Line, Jalandhar - PPCB",22-02-2024 04:00:00,31.321907,75.578914,OZONE,15,84,43
India,Punjab,Khanna,"Kalal Majra, Khanna - PPCB",22-02-2024 04:00:00,30.736056 ,76.209694,SO2,13,45,23
India,Punjab,Mandi Gobindgarh,"RIMT University, Mandi Gobindgarh - PPCB",22-02-2024 04:00:00,30.649961,76.331442,PM2.5,66,349,207
India,Punjab,Mandi Gobindgarh,"RIMT University, Mandi Gobindgarh - PPCB",22-02-2024 04:00:00,30.649961,76.331442,SO2,NA,NA,NA
India,Punjab,Mandi Gobindgarh,"RIMT University, Mandi Gobindgarh - PPCB",22-02-2024 04:00:00,30.649961,76.331442,CO,6,48,27
India,Punjab,Patiala,"Model Town, Patiala - PPCB",22-02-2024 04:00:00,30.349388,76.366642,PM10,36,87,59
India,Punjab,Rupnagar,"Ratanpura, Rupnagar - Ambuja Cements",22-02-2024 04:00:00,31.0325454,76.5623046,PM2.5,14,79,40
India,Rajasthan,Ajmer,"Civil Lines,  Ajmer - RSPCB",22-02-2024 04:00:00,26.470859,74.646594,PM10,58,146,114
India,Rajasthan,Ajmer,"Civil Lines,  Ajmer - RSPCB",22-02-2024 04:00:00,26.470859,74.646594,NO2,44,71,56
India,Rajasthan,Ajmer,"Civil Lines,  Ajmer - RSPCB",22-02-2024 04:00:00,26.470859,74.646594,CO,13,82,43
India,Rajasthan,Alwar,"Moti Doongri, Alwar - RSPCB",22-02-2024 04:00:00,27.554793,76.611536,CO,2,64,21
India,Rajasthan,Banswara,"Rati Talai, Banswara - RSPCB",22-02-2024 04:00:00,23.555190,74.440010,CO,10,26,17
India,Rajasthan,Banswara,"Rati Talai, Banswara - RSPCB",22-02-2024 04:00:00,23.555190,74.440010,OZONE,19,89,49
India,Rajasthan,Baran,"Bamboliya, Baran - RSPCB",22-02-2024 04:00:00,25.106006,76.469948,OZONE,6,87,19
India,Rajasthan,Barmer,"Railway Colony, Barmer - RSPCB",22-02-2024 04:00:00,25.747299,71.393989,NH3,4,11,7
India,Rajasthan,Bharatpur,"Krishna Nagar, Bharatpur - RSPCB",22-02-2024 04:00:00,27.215415,77.50873,PM10,81,271,183
India,Rajasthan,Bharatpur,"Krishna Nagar, Bharatpur - RSPCB",22-02-2024 04:00:00,27.215415,77.50873,CO,10,78,54
India,Rajasthan,Bhilwara,"Pratap Nagar, Bhilwara - RSPCB",22-02-2024 04:00:00,25.339605,74.618883,PM2.5,37,96,54
India,Rajasthan,Bhiwadi,"RIICO Ind. Area III, Bhiwadi - RSPCB",22-02-2024 04:00:00,28.194909,76.862296,CO,32,130,77
India,Rajasthan,Bikaner,"MM Ground, Bikaner - RSPCB",22-02-2024 04:00:00,28.018792,73.292658,CO,16,100,34
India,Rajasthan,Chittorgarh,"Shastri Nagar, Chittorgarh - RSPCB",22-02-2024 04:00:00,24.892047,74.623527,PM2.5,16,120,49
India,Rajasthan,Chittorgarh,"Shastri Nagar, Chittorgarh - RSPCB",22-02-2024 04:00:00,24.892047,74.623527,NH3,2,7,5
India,Rajasthan,Churu,"Subash Chowk, Churu - RSPCB",22-02-2024 04:00:00,28.296139,74.961696,PM10,56,177,107
India,Rajasthan,Churu,"Subash Chowk, Churu - RSPCB",22-02-2024 04:00:00,28.296139,74.961696,NO2,7,25,15
India,Rajasthan,Churu,"Subash Chowk, Churu - RSPCB",22-02-2024 04:00:00,28.296139,74.961696,NH3,9,16,13
India,Rajasthan,Dholpur,"Raja Ganj, Dholpur - RSPCB",22-02-2024 04:00:00,26.699557,77.898881,NO2,18,53,28
India,Rajasthan,Dungarpur,"Bhoiwada, Dungarpur - RSPCB",22-02-2024 04:00:00,23.837789,73.714926,CO,13,26,20
India,Rajasthan,Jaipur,"Adarsh Nagar, Jaipur - RSPCB",22-02-2024 04:00:00,26.902909,75.836858,NO2,32,127,62
India,Rajasthan,Jaipur,"Adarsh Nagar, Jaipur - RSPCB",22-02-2024 04:00:00,26.902909,75.836858,SO2,4,21,10
India,Rajasthan,Jaipur,"Mansarovar Sector-12, Jaipur - RSPCB",22-02-2024 04:00:00,26.843698,75.766894,SO2,3,40,9
India,Rajasthan,Jaipur,"Police Commissionerate, Jaipur - RSPCB",22-02-2024 04:00:00,26.9164092,75.7994901,PM10,117,256,159
India,Rajasthan,Jaipur,"RIICO Sitapura, Jaipur - RSPCB",22-02-2024 04:00:00,26.786682,75.827928,CO,20,135,74
India,Rajasthan,Jaipur,"Shastri Nagar, Jaipur - RSPCB",22-02-2024 04:00:00,26.9502929,75.730943,NO2,2,90,32
India,Rajasthan,Jaipur,"Shastri Nagar, Jaipur - RSPCB",22-02-2024 04:00:00,26.9502929,75.730943,SO2,1,37,21
India,Rajasthan,Jaisalmer,"Sadar Bazar, Jaisalmer - RSPCB",22-02-2024 04:00:00,26.912329,70.909168,NH3,7,28,15
India,Rajasthan,Jalore,"Mudtra Sili, Jalore - RSPCB",22-02-2024 04:00:00,25.344694,72.626208,PM2.5,31,94,51
India,Rajasthan,Jalore,"Mudtra Sili, Jalore - RSPCB",22-02-2024 04:00:00,25.344694,72.626208,SO2,2,4,3
India,Rajasthan,Jalore,"Mudtra Sili, Jalore - RSPCB",22-02-2024 04:00:00,25.344694,72.626208,OZONE,43,92,73
India,Rajasthan,Jhalawar,"Rajlaxmi Nagar, Jhalawar - RSPCB",22-02-2024 04:00:00,24.588397,76.172782,PM10,62,126,90
India,Rajasthan,Jhalawar,"Rajlaxmi Nagar, Jhalawar - RSPCB",22-02-2024 04:00:00,24.588397,76.172782,NH3,4,6,5
India,Rajasthan,Jhalawar,"Rajlaxmi Nagar, Jhalawar - RSPCB",22-02-2024 04:00:00,24.588397,76.172782,SO2,1,8,3
India,Rajasthan,Jhalawar,"Rajlaxmi Nagar, Jhalawar - RSPCB",22-02-2024 04:00:00,24.588397,76.172782,CO,17,34,28
India,Rajasthan,Jhunjhunu,"Indra Nagar, Jhunjhunu - RSPCB",22-02-2024 04:00:00,28.108988,75.386577,NO2,27,62,40
India,Rajasthan,Jhunjhunu,"Indra Nagar, Jhunjhunu - RSPCB",22-02-2024 04:00:00,28.108988,75.386577,OZONE,6,84,40
India,Rajasthan,Jodhpur,"Digari Kalan, Jodhpur - RSPCB",22-02-2024 04:00:00,26.295810,73.082283,SO2,1,12,3
India,Rajasthan,Jodhpur,"Digari Kalan, Jodhpur - RSPCB",22-02-2024 04:00:00,26.295810,73.082283,CO,16,37,24
India,Rajasthan,Jodhpur,"Jhalamand, Jodhpur - RSPCB",22-02-2024 04:00:00,26.215415,73.070156,PM2.5,51,312,137
India,Rajasthan,Jodhpur,"Jhalamand, Jodhpur - RSPCB",22-02-2024 04:00:00,26.215415,73.070156,PM10,86,309,156
India,Rajasthan,Jodhpur,"Jhalamand, Jodhpur - RSPCB",22-02-2024 04:00:00,26.215415,73.070156,OZONE,8,96,40
India,Rajasthan,Jodhpur,"Mandor, Jodhpur - RSPCB",22-02-2024 04:00:00,26.358805,73.047444,SO2,1,36,6
India,Rajasthan,Jodhpur,"Mandor, Jodhpur - RSPCB",22-02-2024 04:00:00,26.358805,73.047444,CO,8,22,10
India,Rajasthan,Jodhpur,"Mandor, Jodhpur - RSPCB",22-02-2024 04:00:00,26.358805,73.047444,OZONE,19,95,73
India,Rajasthan,Jodhpur,"Samrat Ashok Udhyan, Jodhpur - RSPCB",22-02-2024 04:00:00,26.253384,72.976571,NH3,3,7,5
India,Rajasthan,Jodhpur,"Samrat Ashok Udhyan, Jodhpur - RSPCB",22-02-2024 04:00:00,26.253384,72.976571,SO2,1,13,3
India,Rajasthan,Jodhpur,"Samrat Ashok Udhyan, Jodhpur - RSPCB",22-02-2024 04:00:00,26.253384,72.976571,CO,20,47,28
India,Rajasthan,Karauli,"Satyawati Vihar, Karauli - RSPCB",22-02-2024 04:00:00,26.506177,77.025989,PM10,90,174,119
India,Rajasthan,Karauli,"Satyawati Vihar, Karauli - RSPCB",22-02-2024 04:00:00,26.506177,77.025989,CO,NA,NA,NA
India,Rajasthan,Kota,"Nayapura, Kota - RSPCB",22-02-2024 04:00:00,25.196024,75.855668,NH3,5,11,7
India,Rajasthan,Kota,"Nayapura, Kota - RSPCB",22-02-2024 04:00:00,25.196024,75.855668,SO2,3,13,5
India,Rajasthan,Kota,"Nayapura, Kota - RSPCB",22-02-2024 04:00:00,25.196024,75.855668,OZONE,10,87,15
India,Rajasthan,Nagaur,"Karni Colony, Nagaur - RSPCB",22-02-2024 04:00:00,27.213494,73.734444,SO2,2,5,4
India,Rajasthan,Nagaur,"Karni Colony, Nagaur - RSPCB",22-02-2024 04:00:00,27.213494,73.734444,CO,14,39,25
India,Rajasthan,Pali,"Indira Colony Vistar, Pali - RSPCB",22-02-2024 04:00:00,25.771061, 73.340227,PM10,61,213,131
India,Rajasthan,Pali,"Indira Colony Vistar, Pali - RSPCB",22-02-2024 04:00:00,25.771061, 73.340227,OZONE,16,60,29
India,Rajasthan,Rajsamand,"Dhoinda, Rajsamand - RSPCB",22-02-2024 04:00:00,25.036360,73.883502,PM2.5,2,85,33
India,Rajasthan,Sawai Madhopur,"Sahu Nagar, Sawai Madhopur - RSPCB",22-02-2024 04:00:00,26.031443,76.359327,NO2,11,59,25
India,Rajasthan,Sawai Madhopur,"Sahu Nagar, Sawai Madhopur - RSPCB",22-02-2024 04:00:00,26.031443,76.359327,SO2,6,16,10
India,Rajasthan,Sawai Madhopur,"Sahu Nagar, Sawai Madhopur - RSPCB",22-02-2024 04:00:00,26.031443,76.359327,OZONE,3,95,14
India,Rajasthan,Sikar,"Radhakishan Pura, Sikar - RSPCB",22-02-2024 04:00:00,27.608912,75.153302,CO,16,41,21
India,Rajasthan,Sikar,"Radhakishan Pura, Sikar - RSPCB",22-02-2024 04:00:00,27.608912,75.153302,OZONE,56,126,70
India,Rajasthan,Sirohi,"Vedhaynath Colony, Sirohi - RSPCB",22-02-2024 04:00:00,24.885261,72.857549,CO,20,62,43
India,Rajasthan,Tonk,"Shastri Nagar, Tonk - RSPCB",22-02-2024 04:00:00,26.159933,75.780517,NH3,4,40,10
India,Rajasthan,Tonk,"Shastri Nagar, Tonk - RSPCB",22-02-2024 04:00:00,26.159933,75.780517,SO2,2,12,6
India,Rajasthan,Udaipur,"Ashok Nagar, Udaipur - RSPCB",22-02-2024 04:00:00,24.5886166,73.6321397,NO2,33,102,63
India,Sikkim,Gangtok,"Zero Point GICI, Gangtok - SSPCB",22-02-2024 04:00:00,27.338530,88.614099,PM10,53,88,69
India,Sikkim,Gangtok,"Zero Point GICI, Gangtok - SSPCB",22-02-2024 04:00:00,27.338530,88.614099,SO2,9,10,9
India,Sikkim,Gangtok,"Zero Point GICI, Gangtok - SSPCB",22-02-2024 04:00:00,27.338530,88.614099,CO,15,33,21
India,TamilNadu,Ariyalur,"Keelapalur, Ariyalur - TNPCB",22-02-2024 04:00:00,11.06825,79.07033,SO2,30,33,32
India,TamilNadu,Chengalpattu,"Crescent University, Chengalpattu - TNPCB",22-02-2024 04:00:00,12.8777316,80.0834807,CO,26,30,27
India,TamilNadu,Chennai,"Alandur Bus Depot, Chennai - CPCB",22-02-2024 04:00:00,12.9099161,80.1076538,NO2,14,123,28
India,TamilNadu,Chennai,"Alandur Bus Depot, Chennai - CPCB",22-02-2024 04:00:00,12.9099161,80.1076538,NH3,6,20,9
India,TamilNadu,Chennai,"Alandur Bus Depot, Chennai - CPCB",22-02-2024 04:00:00,12.9099161,80.1076538,SO2,1,9,4
India,TamilNadu,Chennai,"Kodungaiyur, Chennai - TNPCB",22-02-2024 04:00:00,13.1278,80.2642,OZONE,5,6,6
India,TamilNadu,Chennai,"Perungudi, Chennai - TNPCB",22-02-2024 04:00:00,12.9533,80.2357,NO2,4,12,7
India,TamilNadu,Chennai,"Perungudi, Chennai - TNPCB",22-02-2024 04:00:00,12.9533,80.2357,OZONE,3,10,8
India,TamilNadu,Chennai,"Royapuram, Chennai - TNPCB",22-02-2024 04:00:00,13.1036,80.2909,OZONE,9,11,9
India,TamilNadu,Chennai,"Velachery Res. Area, Chennai - CPCB",22-02-2024 04:00:00,13.0052189,80.2398125,PM2.5,50,89,73
India,TamilNadu,Chennai,"Velachery Res. Area, Chennai - CPCB",22-02-2024 04:00:00,13.0052189,80.2398125,PM10,65,107,91
India,TamilNadu,Coimbatore,"PSG College of Arts and Science, Coimbatore - TNPCB",22-02-2024 04:00:00,11.0328,77.0349,PM2.5,55,103,76
India,TamilNadu,Coimbatore,"PSG College of Arts and Science, Coimbatore - TNPCB",22-02-2024 04:00:00,11.0328,77.0349,NH3,1,1,1
India,TamilNadu,Coimbatore,"PSG College of Arts and Science, Coimbatore - TNPCB",22-02-2024 04:00:00,11.0328,77.0349,CO,77,78,78
India,TamilNadu,Cuddalore,"Kudikadu, Cuddalore - TNPCB",22-02-2024 04:00:00,11.6829898,79.7532099,NH3,5,5,5
India,TamilNadu,Cuddalore,"Semmandalam, Cuddalore - TNPCB",22-02-2024 04:00:00,11.7637683,79.7499835,PM2.5,48,203,85
India,TamilNadu,Cuddalore,"Semmandalam, Cuddalore - TNPCB",22-02-2024 04:00:00,11.7637683,79.7499835,NO2,4,22,12
India,TamilNadu,Cuddalore,"Semmandalam, Cuddalore - TNPCB",22-02-2024 04:00:00,11.7637683,79.7499835,NH3,1,3,2
India,TamilNadu,Ooty,"Bombay Castel, Ooty - TNPCB",22-02-2024 04:00:00,11.4068288,76.7138973,NO2,NA,NA,NA
India,TamilNadu,Ooty,"Bombay Castel, Ooty - TNPCB",22-02-2024 04:00:00,11.4068288,76.7138973,NH3,NA,NA,NA
India,TamilNadu,Ooty,"Bombay Castel, Ooty - TNPCB",22-02-2024 04:00:00,11.4068288,76.7138973,CO,17,22,19
India,TamilNadu,Palkalaiperur,"Bharathidasan University, Palkalaiperur - TNPCB",22-02-2024 04:00:00,10.681158,78.741746,PM10,40,63,49
India,TamilNadu,Palkalaiperur,"Bharathidasan University, Palkalaiperur - TNPCB",22-02-2024 04:00:00,10.681158,78.741746,CO,2,8,5
India,TamilNadu,Palkalaiperur,"Bharathidasan University, Palkalaiperur - TNPCB",22-02-2024 04:00:00,10.681158,78.741746,OZONE,1,1,1
India,TamilNadu,Ramanathapuram,"Chalai Bazaar, Ramanathapuram - TNPCB",22-02-2024 04:00:00,9.36399,78.831977,PM10,56,106,80
India,TamilNadu,Ramanathapuram,"Chalai Bazaar, Ramanathapuram - TNPCB",22-02-2024 04:00:00,9.36399,78.831977,SO2,6,8,7
India,TamilNadu,Salem,"Sona College of Technology, Salem - TNPCB",22-02-2024 04:00:00,11.679111,78.125052,NO2,7,11,8
India,TamilNadu,Salem,"Sona College of Technology, Salem - TNPCB",22-02-2024 04:00:00,11.679111,78.125052,NH3,1,1,1
India,TamilNadu,Salem,"Sona College of Technology, Salem - TNPCB",22-02-2024 04:00:00,11.679111,78.125052,OZONE,2,5,4
India,TamilNadu,Thoothukudi,"Meelavittan, Thoothukudi - TNPCB",22-02-2024 04:00:00,8.816428 ,78.099039,NO2,14,38,21
India,TamilNadu,Thoothukudi,"Meelavittan, Thoothukudi - TNPCB",22-02-2024 04:00:00,8.816428 ,78.099039,SO2,7,16,12
India,TamilNadu,Tirupur,"Kumaran College, Tirupur - TNPCB",22-02-2024 04:00:00,11.0973603,77.3228673,SO2,18,18,18
India,TamilNadu,Vellore,"Vasanthapuram, Vellore - TNPCB",22-02-2024 04:00:00,12.909494,79.131861,PM10,52,125,91
India,TamilNadu,Vellore,"Vasanthapuram, Vellore - TNPCB",22-02-2024 04:00:00,12.909494,79.131861,NO2,8,24,18
India,TamilNadu,Vellore,"Vasanthapuram, Vellore - TNPCB",22-02-2024 04:00:00,12.909494,79.131861,CO,NA,NA,NA
India,TamilNadu,Vellore,"Vasanthapuram, Vellore - TNPCB",22-02-2024 04:00:00,12.909494,79.131861,OZONE,1,2,1
India,Telangana,Hyderabad,"Bollaram Industrial Area, Hyderabad - TSPCB",22-02-2024 04:00:00,17.540891,78.358528,PM2.5,50,132,81
India,Telangana,Hyderabad,"Bollaram Industrial Area, Hyderabad - TSPCB",22-02-2024 04:00:00,17.540891,78.358528,NH3,3,8,4
India,Telangana,Hyderabad,"ECIL Kapra, Hyderabad - TSPCB",22-02-2024 04:00:00,17.470431,78.566959,SO2,2,30,15
India,Telangana,Hyderabad,"ICRISAT Patancheru, Hyderabad - TSPCB",22-02-2024 04:00:00,17.518400,78.278777,PM2.5,38,169,81
India,Telangana,Hyderabad,"ICRISAT Patancheru, Hyderabad - TSPCB",22-02-2024 04:00:00,17.518400,78.278777,SO2,13,51,31
India,Telangana,Hyderabad,"IITH Kandi, Hyderabad - TSPCB",22-02-2024 04:00:00,17.585705,78.126199,NO2,NA,NA,NA
India,Telangana,Hyderabad,"IITH Kandi, Hyderabad - TSPCB",22-02-2024 04:00:00,17.585705,78.126199,OZONE,17,27,17
India,Telangana,Hyderabad,"Kokapet, Hyderabad - TSPCB",22-02-2024 04:00:00,17.393559,78.339194,CO,8,20,11
India,Telangana,Hyderabad,"Kokapet, Hyderabad - TSPCB",22-02-2024 04:00:00,17.393559,78.339194,OZONE,1,21,2
India,Telangana,Hyderabad,"Kompally Municipal Office, Hyderabad - TSPCB",22-02-2024 04:00:00,17.544899,78.486949,NO2,NA,NA,NA
India,Telangana,Hyderabad,"Kompally Municipal Office, Hyderabad - TSPCB",22-02-2024 04:00:00,17.544899,78.486949,CO,NA,NA,NA
India,Telangana,Hyderabad,"New Malakpet, Hyderabad - TSPCB",22-02-2024 04:00:00,17.37206,78.50864,PM10,57,68,62
India,Telangana,Hyderabad,"New Malakpet, Hyderabad - TSPCB",22-02-2024 04:00:00,17.37206,78.50864,NO2,18,49,26
India,Telangana,Hyderabad,"New Malakpet, Hyderabad - TSPCB",22-02-2024 04:00:00,17.37206,78.50864,NH3,1,3,2
India,Telangana,Hyderabad,"New Malakpet, Hyderabad - TSPCB",22-02-2024 04:00:00,17.37206,78.50864,CO,10,76,27
India,Telangana,Hyderabad,"Ramachandrapuram, Hyderabad - TSPCB",22-02-2024 04:00:00,17.528544,78.286195,PM2.5,NA,NA,NA
India,Telangana,Hyderabad,"Sanathnagar, Hyderabad - TSPCB",22-02-2024 04:00:00,17.4559458,78.4332152,NO2,28,413,55
India,Telangana,Hyderabad,"Zoo Park, Hyderabad - TSPCB",22-02-2024 04:00:00,17.349694,78.451437,NO2,10,44,29
India,Telangana,Hyderabad,"Zoo Park, Hyderabad - TSPCB",22-02-2024 04:00:00,17.349694,78.451437,NH3,1,2,1
India,Telangana,Hyderabad,"Zoo Park, Hyderabad - TSPCB",22-02-2024 04:00:00,17.349694,78.451437,SO2,2,6,4
India,Tripura,Agartala,"Bardowali, Agartala - Tripura SPCB",22-02-2024 04:00:00,23.8175497,91.2726974,NH3,4,6,4
India,Uttar_Pradesh,Agra,"Manoharpur, Agra - UPPCB",22-02-2024 04:00:00,27.23711,78.01936,NO2,16,17,17
India,Uttar_Pradesh,Agra,"Rohta, Agra - UPPCB",22-02-2024 04:00:00,27.106972,78.000111,NO2,NA,NA,NA
India,Uttar_Pradesh,Agra,"Rohta, Agra - UPPCB",22-02-2024 04:00:00,27.106972,78.000111,SO2,1,15,7
India,Uttar_Pradesh,Agra,"Rohta, Agra - UPPCB",22-02-2024 04:00:00,27.106972,78.000111,CO,2,28,18
India,Uttar_Pradesh,Agra,"Sanjay Palace, Agra - UPPCB",22-02-2024 04:00:00,27.19865833,78.00598056,OZONE,5,88,16
India,Uttar_Pradesh,Agra,"Shastripuram, Agra - UPPCB",22-02-2024 04:00:00,27.19862,77.92066,NH3,1,3,2
India,Uttar_Pradesh,Baghpat,"Sardar Patel Inter College, Baghpat - UPPCB",22-02-2024 04:00:00,28.964949,77.278761,NH3,2,4,3
India,Uttar_Pradesh,Baghpat,"Sardar Patel Inter College, Baghpat - UPPCB",22-02-2024 04:00:00,28.964949,77.278761,SO2,10,32,20
India,Uttar_Pradesh,Baghpat,"Sardar Patel Inter College, Baghpat - UPPCB",22-02-2024 04:00:00,28.964949,77.278761,OZONE,2,30,11
India,Uttar_Pradesh,Bareilly,"Civil Lines, Bareilly - UPPCB",22-02-2024 04:00:00,28.359581,79.414455,PM2.5,30,66,51
India,Uttar_Pradesh,Bareilly,"Rajendra Nagar, Bareilly - UPPCB",22-02-2024 04:00:00,28.38910936,79.42963708,PM2.5,24,60,42
India,Uttar_Pradesh,Bareilly,"Rajendra Nagar, Bareilly - UPPCB",22-02-2024 04:00:00,28.38910936,79.42963708,PM10,59,102,74
India,Uttar_Pradesh,Bareilly,"Rajendra Nagar, Bareilly - UPPCB",22-02-2024 04:00:00,28.38910936,79.42963708,NH3,1,1,1
India,Uttar_Pradesh,Bareilly,"Rajendra Nagar, Bareilly - UPPCB",22-02-2024 04:00:00,28.38910936,79.42963708,SO2,41,47,42
India,Uttar_Pradesh,Bulandshahr,"Yamunapuram, Bulandshahr - UPPCB",22-02-2024 04:00:00,28.406963,77.849831,SO2,2,39,17
India,Uttar_Pradesh,Bulandshahr,"Yamunapuram, Bulandshahr - UPPCB",22-02-2024 04:00:00,28.406963,77.849831,OZONE,10,129,26
India,Uttar_Pradesh,Firozabad,"Nagla Bhau, Firozabad - UPPCB",22-02-2024 04:00:00,27.168897,78.376960,PM2.5,24,92,50
India,Uttar_Pradesh,Ghaziabad,"Indirapuram, Ghaziabad - UPPCB",22-02-2024 04:00:00,28.646233,77.358075,PM10,111,226,154
India,Uttar_Pradesh,Ghaziabad,"Loni, Ghaziabad - UPPCB",22-02-2024 04:00:00,28.757294,77.278792,NH3,1,2,2
India,Uttar_Pradesh,Ghaziabad,"Loni, Ghaziabad - UPPCB",22-02-2024 04:00:00,28.757294,77.278792,CO,16,50,42
India,Uttar_Pradesh,Ghaziabad,"Sanjay Nagar, Ghaziabad - UPPCB",22-02-2024 04:00:00,28.685382,77.453839,PM10,94,167,127
India,Uttar_Pradesh,Ghaziabad,"Vasundhara, Ghaziabad - UPPCB",22-02-2024 04:00:00,28.6603346,77.3572563,PM2.5,40,237,119
India,Uttar_Pradesh,Ghaziabad,"Vasundhara, Ghaziabad - UPPCB",22-02-2024 04:00:00,28.6603346,77.3572563,PM10,79,156,120
India,Uttar_Pradesh,Ghaziabad,"Vasundhara, Ghaziabad - UPPCB",22-02-2024 04:00:00,28.6603346,77.3572563,CO,6,82,45
India,Uttar_Pradesh,Gorakhpur,"Madan Mohan Malaviya University of Technology, Gorakhpur - UPPCB",22-02-2024 04:00:00,26.730136,83.433859,NO2,2,2,2
India,Uttar_Pradesh,Gorakhpur,"Madan Mohan Malaviya University of Technology, Gorakhpur - UPPCB",22-02-2024 04:00:00,26.730136,83.433859,OZONE,6,33,8
India,Uttar_Pradesh,Greater Noida,"Knowledge Park - III, Greater Noida - UPPCB",22-02-2024 04:00:00,28.47272,77.482000,CO,39,83,63
India,Uttar_Pradesh,Greater Noida,"Knowledge Park - V, Greater Noida - UPPCB",22-02-2024 04:00:00,28.557054,77.453663,OZONE,6,163,30
India,Uttar_Pradesh,Hapur,"Anand Vihar, Hapur - UPPCB",22-02-2024 04:00:00,28.725645,77.749675,NH3,5,19,9
India,Uttar_Pradesh,Hapur,"Anand Vihar, Hapur - UPPCB",22-02-2024 04:00:00,28.725645,77.749675,OZONE,8,128,30
India,Uttar_Pradesh,Kanpur,"FTI Kidwai Nagar, Kanpur - UPPCB",22-02-2024 04:00:00,26.428282,80.327067,PM2.5,8,171,72
India,Uttar_Pradesh,Kanpur,"FTI Kidwai Nagar, Kanpur - UPPCB",22-02-2024 04:00:00,26.428282,80.327067,CO,24,64,51
India,Uttar_Pradesh,Khurja,"Kalindi Kunj, Khurja - UPPCB",22-02-2024 04:00:00,28.2348927,77.8683002,SO2,26,36,33
India,Uttar_Pradesh,Lucknow,"Gomti Nagar, Lucknow - UPPCB",22-02-2024 04:00:00,26.868120,81.005119,PM2.5,5,72,40
India,Uttar_Pradesh,Lucknow,"Kukrail Picnic Spot-1, Lucknow - UPPCB",22-02-2024 04:00:00,26.90723,80.98579,PM10,NA,NA,NA
India,Uttar_Pradesh,Lucknow,"Kukrail Picnic Spot-1, Lucknow - UPPCB",22-02-2024 04:00:00,26.90723,80.98579,CO,NA,NA,NA
India,Uttar_Pradesh,Lucknow,"Talkatora District Industries Center, Lucknow - CPCB",22-02-2024 04:00:00,26.83399722,80.8917361,SO2,1,15,6
India,Uttar_Pradesh,Meerut,"Jai Bhim Nagar, Meerut - UPPCB",22-02-2024 04:00:00,28.9535882,77.7622941,PM2.5,42,202,101
India,Uttar_Pradesh,Meerut,"Jai Bhim Nagar, Meerut - UPPCB",22-02-2024 04:00:00,28.9535882,77.7622941,NH3,7,11,9
India,Uttar_Pradesh,Meerut,"Jai Bhim Nagar, Meerut - UPPCB",22-02-2024 04:00:00,28.9535882,77.7622941,CO,50,86,67
India,Uttar_Pradesh,Meerut,"Pallavpuram Phase 2, Meerut - UPPCB",22-02-2024 04:00:00,29.063510,77.709723,NO2,15,56,30
India,Uttar_Pradesh,Moradabad,"Buddhi Vihar, Moradabad - UPPCB",22-02-2024 04:00:00,28.83526,78.74460,PM2.5,20,87,50
India,Uttar_Pradesh,Moradabad,"Buddhi Vihar, Moradabad - UPPCB",22-02-2024 04:00:00,28.83526,78.74460,PM10,33,118,86
India,Uttar_Pradesh,Moradabad,"Eco Herbal Park, Moradabad - UPPCB",22-02-2024 04:00:00,28.840739,78.697531,PM10,66,104,84
India,Uttar_Pradesh,Moradabad,"Employment Office, Moradabad - UPPCB",22-02-2024 04:00:00,28.88528,78.73880,CO,8,42,21
India,Uttar_Pradesh,Moradabad,"Jigar Colony, Moradabad - UPPCB",22-02-2024 04:00:00,28.856664,78.772638,PM2.5,36,96,58
India,Uttar_Pradesh,Moradabad,"Jigar Colony, Moradabad - UPPCB",22-02-2024 04:00:00,28.856664,78.772638,PM10,95,134,110
India,Uttar_Pradesh,Moradabad,"Kashiram Nagar, Moradabad - UPPCB",22-02-2024 04:00:00,28.849399,78.742362,PM2.5,19,95,56
India,Uttar_Pradesh,Moradabad,"Kashiram Nagar, Moradabad - UPPCB",22-02-2024 04:00:00,28.849399,78.742362,CO,32,45,36
India,Uttar_Pradesh,Moradabad,"Transport Nagar, Moradabad - UPPCB",22-02-2024 04:00:00,28.802625,78.753728,PM2.5,14,99,61
India,Uttar_Pradesh,Moradabad,"Transport Nagar, Moradabad - UPPCB",22-02-2024 04:00:00,28.802625,78.753728,CO,40,42,40
India,Uttar_Pradesh,Muzaffarnagar,"New Mandi, Muzaffarnagar - UPPCB",22-02-2024 04:00:00,29.4723508,77.7194031,PM10,134,216,168
India,Uttar_Pradesh,Muzaffarnagar,"New Mandi, Muzaffarnagar - UPPCB",22-02-2024 04:00:00,29.4723508,77.7194031,NO2,12,41,23
India,Uttar_Pradesh,Muzaffarnagar,"New Mandi, Muzaffarnagar - UPPCB",22-02-2024 04:00:00,29.4723508,77.7194031,CO,30,64,43
India,Uttar_Pradesh,Muzaffarnagar,"New Mandi, Muzaffarnagar - UPPCB",22-02-2024 04:00:00,29.4723508,77.7194031,OZONE,10,86,41
India,Uttar_Pradesh,Noida,"Sector - 125, Noida - UPPCB",22-02-2024 04:00:00,28.5447608,77.3231257,PM10,75,151,116
India,Uttar_Pradesh,Noida,"Sector - 125, Noida - UPPCB",22-02-2024 04:00:00,28.5447608,77.3231257,OZONE,9,65,19
India,Uttar_Pradesh,Noida,"Sector - 62, Noida - IMD",22-02-2024 04:00:00,28.6245479,77.3577104,NO2,6,14,10
India,Uttar_Pradesh,Noida,"Sector - 62, Noida - IMD",22-02-2024 04:00:00,28.6245479,77.3577104,CO,19,33,22
India,Uttar_Pradesh,Noida,"Sector - 62, Noida - IMD",22-02-2024 04:00:00,28.6245479,77.3577104,OZONE,6,37,15
India,Uttar_Pradesh,Noida,"Sector-1, Noida - UPPCB",22-02-2024 04:00:00,28.5898,77.3101,NO2,36,81,61
India,Uttar_Pradesh,Noida,"Sector-1, Noida - UPPCB",22-02-2024 04:00:00,28.5898,77.3101,SO2,2,12,6
India,Uttar_Pradesh,Noida,"Sector-1, Noida - UPPCB",22-02-2024 04:00:00,28.5898,77.3101,CO,1,59,38
India,Uttar_Pradesh,Noida,"Sector-116, Noida - UPPCB",22-02-2024 04:00:00,28.569230,77.393848,PM2.5,54,304,164
India,Uttar_Pradesh,Noida,"Sector-116, Noida - UPPCB",22-02-2024 04:00:00,28.569230,77.393848,NH3,8,14,11
India,Uttar_Pradesh,Prayagraj,"Motilal Nehru NIT, Prayagraj - UPPCB",22-02-2024 04:00:00,25.494,81.863,NH3,3,7,7
India,Uttar_Pradesh,Prayagraj,"Nagar Nigam, Prayagraj - UPPCB",22-02-2024 04:00:00,25.44919916 ,81.82735986 ,NH3,6,13,9
India,Uttar_Pradesh,Varanasi,"Ardhali Bazar, Varanasi - UPPCB",22-02-2024 04:00:00,25.3505986,82.9083074,NO2,11,37,20
India,Uttar_Pradesh,Varanasi,"Ardhali Bazar, Varanasi - UPPCB",22-02-2024 04:00:00,25.3505986,82.9083074,SO2,7,24,13
India,Uttar_Pradesh,Varanasi,"Ardhali Bazar, Varanasi - UPPCB",22-02-2024 04:00:00,25.3505986,82.9083074,CO,1,22,15
India,Uttar_Pradesh,Varanasi,"Bhelupur, Varanasi - UPPCB",22-02-2024 04:00:00,25.301778,82.996789,PM10,7,50,22
India,Uttar_Pradesh,Varanasi,"Bhelupur, Varanasi - UPPCB",22-02-2024 04:00:00,25.301778,82.996789,OZONE,1,26,4
India,Uttar_Pradesh,Varanasi,"IESD Banaras Hindu University, Varanasi - UPPCB",22-02-2024 04:00:00,25.262326,82.995408,PM2.5,NA,NA,NA
India,Uttar_Pradesh,Varanasi,"IESD Banaras Hindu University, Varanasi - UPPCB",22-02-2024 04:00:00,25.262326,82.995408,PM10,6,39,18
India,Uttar_Pradesh,Varanasi,"IESD Banaras Hindu University, Varanasi - UPPCB",22-02-2024 04:00:00,25.262326,82.995408,NO2,2,3,2
India,Uttar_Pradesh,Varanasi,"Maldahiya, Varanasi - UPPCB",22-02-2024 04:00:00,25.32393,82.99687,CO,2,90,48
India,Uttar_Pradesh,Vrindavan,"Omex Eternity, Vrindavan - UPPCB",22-02-2024 04:00:00,27.5714090,77.6557570,PM10,54,270,135
India,Uttarakhand,Dehradun,"Doon University, Dehradun - UKPCB",22-02-2024 04:00:00,30.269444,78.044167,OZONE,1,4,2
India,Uttarakhand,Kashipur,"Govt. Girls Inter College, Kashipur - UKPCB",22-02-2024 04:00:00,29.2124114,78.9611753,NO2,5,18,9
India,Uttarakhand,Kashipur,"Govt. Girls Inter College, Kashipur - UKPCB",22-02-2024 04:00:00,29.2124114,78.9611753,NH3,3,8,6
India,Uttarakhand,Kashipur,"Govt. Girls Inter College, Kashipur - UKPCB",22-02-2024 04:00:00,29.2124114,78.9611753,SO2,7,9,8
India,Uttarakhand,Kashipur,"Govt. Girls Inter College, Kashipur - UKPCB",22-02-2024 04:00:00,29.2124114,78.9611753,CO,17,57,40
India,Uttarakhand,Rishikesh,"Shivaji Nagar, Rishikesh - UKPCB",22-02-2024 04:00:00,30.075911,78.2859547,NH3,2,3,3
India,West_Bengal,Asansol,"Asansol Court Area, Asansol - WBPCB",22-02-2024 04:00:00,23.685297,86.945968,NO2,20,66,41
India,West_Bengal,Asansol,"Asansol Court Area, Asansol - WBPCB",22-02-2024 04:00:00,23.685297,86.945968,CO,8,71,41
India,West_Bengal,Barrackpore,"SVSPA Campus, Barrackpore - WBPCB",22-02-2024 04:00:00,22.7605581,88.3617589,SO2,NA,NA,NA
India,West_Bengal,Durgapur,"Sidhu Kanhu Indoor Stadium, Durgapur - WBPCB",22-02-2024 04:00:00,23.5404352,87.2892225,OZONE,NA,NA,NA
India,West_Bengal,Howrah,"Belur Math, Howrah - WBPCB",22-02-2024 04:00:00,22.629801,88.352017,NH3,4,6,5
India,West_Bengal,Howrah,"Belur Math, Howrah - WBPCB",22-02-2024 04:00:00,22.629801,88.352017,CO,4,42,26
India,West_Bengal,Howrah,"Belur Math, Howrah - WBPCB",22-02-2024 04:00:00,22.629801,88.352017,OZONE,10,57,21
India,West_Bengal,Howrah,"Ghusuri, Howrah - WBPCB",22-02-2024 04:00:00,22.611968,88.347422,PM2.5,92,284,180
India,West_Bengal,Howrah,"Ghusuri, Howrah - WBPCB",22-02-2024 04:00:00,22.611968,88.347422,SO2,4,6,5
India,West_Bengal,Howrah,"Padmapukur, Howrah - WBPCB",22-02-2024 04:00:00,22.5687319,88.2797276,OZONE,5,51,9
India,West_Bengal,Kolkata,"Ballygunge, Kolkata - WBPCB",22-02-2024 04:00:00,22.5367507,88.3638022,PM10,51,163,105
India,West_Bengal,Kolkata,"Ballygunge, Kolkata - WBPCB",22-02-2024 04:00:00,22.5367507,88.3638022,NH3,10,20,14
India,West_Bengal,Kolkata,"Bidhannagar, Kolkata - WBPCB",22-02-2024 04:00:00,22.58157048,88.41002457,NO2,11,29,18
India,West_Bengal,Kolkata,"Bidhannagar, Kolkata - WBPCB",22-02-2024 04:00:00,22.58157048,88.41002457,SO2,1,21,10
India,West_Bengal,Kolkata,"Fort William, Kolkata - WBPCB",22-02-2024 04:00:00,22.556640,88.342674,PM2.5,40,210,103
India,West_Bengal,Kolkata,"Fort William, Kolkata - WBPCB",22-02-2024 04:00:00,22.556640,88.342674,SO2,7,50,19
India,West_Bengal,Kolkata,"Jadavpur, Kolkata - WBPCB",22-02-2024 04:00:00,22.49929,88.36917,PM2.5,51,189,103
India,West_Bengal,Kolkata,"Jadavpur, Kolkata - WBPCB",22-02-2024 04:00:00,22.49929,88.36917,CO,8,57,50
India,West_Bengal,Kolkata,"Jadavpur, Kolkata - WBPCB",22-02-2024 04:00:00,22.49929,88.36917,OZONE,13,78,16
India,West_Bengal,Kolkata,"Rabindra Bharati University, Kolkata - WBPCB",22-02-2024 04:00:00,22.627847,88.380669,PM2.5,51,107,75
India,West_Bengal,Kolkata,"Rabindra Bharati University, Kolkata - WBPCB",22-02-2024 04:00:00,22.627847,88.380669,NO2,20,24,22
India,West_Bengal,Kolkata,"Rabindra Bharati University, Kolkata - WBPCB",22-02-2024 04:00:00,22.627847,88.380669,CO,28,56,55
India,West_Bengal,Kolkata,"Rabindra Sarobar, Kolkata - WBPCB",22-02-2024 04:00:00,22.51106,88.35142,CO,14,67,45
India,West_Bengal,Kolkata,"Victoria, Kolkata - WBPCB",22-02-2024 04:00:00,22.5448082,88.3403691,PM2.5,64,237,108
India,West_Bengal,Kolkata,"Victoria, Kolkata - WBPCB",22-02-2024 04:00:00,22.5448082,88.3403691,OZONE,6,107,18
India,Andhra_Pradesh,Amaravati,"Secretariat, Amaravati - APPCB",22-02-2024 04:00:00,16.5150833,80.5181667,PM10,46,80,64
India,Andhra_Pradesh,Amaravati,"Secretariat, Amaravati - APPCB",22-02-2024 04:00:00,16.5150833,80.5181667,NO2,8,20,14
India,Andhra_Pradesh,Amaravati,"Secretariat, Amaravati - APPCB",22-02-2024 04:00:00,16.5150833,80.5181667,OZONE,1,61,23
India,Andhra_Pradesh,Chittoor,"Gangineni Cheruvu, Chittoor - APPCB",22-02-2024 04:00:00,13.204880,79.097889,PM2.5,NA,NA,NA
India,Andhra_Pradesh,Kadapa,"Yerramukkapalli, Kadapa - APPCB",22-02-2024 04:00:00,14.465052,78.824187,PM10,34,100,65
India,Andhra_Pradesh,Tirupati,"Tirumala, Tirupati - APPCB",22-02-2024 04:00:00,13.67,79.35,NO2,20,66,36
India,Andhra_Pradesh,Tirupati,"Tirumala, Tirupati - APPCB",22-02-2024 04:00:00,13.67,79.35,NH3,1,2,1
India,Andhra_Pradesh,Tirupati,"Tirumala, Tirupati - APPCB",22-02-2024 04:00:00,13.67,79.35,CO,32,52,41
India,Andhra_Pradesh,Tirupati,"Vaikuntapuram, Tirupati - APPCB",22-02-2024 04:00:00,13.615387,79.409230,PM2.5,19,332,62
India,Andhra_Pradesh,Tirupati,"Vaikuntapuram, Tirupati - APPCB",22-02-2024 04:00:00,13.615387,79.409230,NH3,2,5,3
India,Andhra_Pradesh,Vijayawada,"Kanuru, Vijayawada - APPCB",22-02-2024 04:00:00,16.486692,80.699436,CO,22,46,22
India,Andhra_Pradesh,Vijayawada,"Rajiv Gandhi Park, Vijayawada - APPCB",22-02-2024 04:00:00,16.509717,80.612222,CO,30,32,30
India,Andhra_Pradesh,Vijayawada,"Rajiv Nagar, Vijayawada - APPCB",22-02-2024 04:00:00,16.554731,80.649110,NH3,1,2,1
India,Andhra_Pradesh,Vijayawada,"Rajiv Nagar, Vijayawada - APPCB",22-02-2024 04:00:00,16.554731,80.649110,SO2,8,28,18
India,Andhra_Pradesh,Visakhapatnam,"GVM Corporation, Visakhapatnam - APPCB",22-02-2024 04:00:00,17.72,83.3,NO2,38,62,50
India,Arunachal_Pradesh,Naharlagun,"Naharlagun, Naharlagun - APSPCB",22-02-2024 04:00:00,27.103358,93.679645,CO,12,42,30
India,Assam,Byrnihat,"Central Academy for SFS, Byrnihat - PCBA",22-02-2024 04:00:00,26.071318,91.87488,CO,36,146,96
India,Assam,Byrnihat,"Central Academy for SFS, Byrnihat - PCBA",22-02-2024 04:00:00,26.071318,91.87488,OZONE,12,35,13
India,Assam,Guwahati,"IITG, Guwahati - PCBA",22-02-2024 04:00:00,26.2028636,91.70046436,SO2,12,15,13
India,Assam,Guwahati,"LGBI Airport, Guwahati - PCBA",22-02-2024 04:00:00,26.10887,91.589544,CO,35,102,68
India,Assam,Guwahati,"Pan Bazaar, Guwahati - PCBA",22-02-2024 04:00:00,26.187500,91.744194,NO2,1,8,3
India,Assam,Guwahati,"Railway Colony, Guwahati - PCBA",22-02-2024 04:00:00,26.181742,91.78063,CO,26,96,77
India,Assam,Nagaon,"Christianpatty, Nagaon - PCBA",22-02-2024 04:00:00,26.349082,92.68449,NH3,1,6,3
India,Assam,Nagaon,"Christianpatty, Nagaon - PCBA",22-02-2024 04:00:00,26.349082,92.68449,SO2,6,27,16
India,Assam,Nagaon,"Christianpatty, Nagaon - PCBA",22-02-2024 04:00:00,26.349082,92.68449,OZONE,3,64,10
India,Assam,Nalbari,"Bata Chowk, Nalbari - PCBA",22-02-2024 04:00:00,26.446912,91.439057,SO2,6,9,8
India,Assam,Silchar,"Tarapur, Silchar - PCBA",22-02-2024 04:00:00,24.82827,92.79525,NO2,12,32,24
India,Assam,Silchar,"Tarapur, Silchar - PCBA",22-02-2024 04:00:00,24.82827,92.79525,SO2,2,12,6
India,Assam,Sivasagar,"Girls College, Sivasagar - PCBA",22-02-2024 04:00:00,26.987634,94.636574,NO2,10,21,16
India,Bihar,Araria,"Kharahiya Basti, Araria - BSPCB",22-02-2024 04:00:00,26.146529,87.454184,PM2.5,NA,NA,NA
India,Bihar,Araria,"Kharahiya Basti, Araria - BSPCB",22-02-2024 04:00:00,26.146529,87.454184,NH3,8,9,9
India,Bihar,Arrah,"New DM Office, Arrah - BSPCB",22-02-2024 04:00:00,25.5626095,84.663264,NO2,7,53,22
India,Bihar,Aurangabad,"Gurdeo Nagar, Aurangabad - BSPCB",22-02-2024 04:00:00,24.75746,84.366208,NO2,1,2,2
India,Bihar,Bettiah,"Kamalnath Nagar, Bettiah - BSPCB",22-02-2024 04:00:00,26.80365,84.51954,NO2,29,43,37
India,Bihar,Bettiah,"Kamalnath Nagar, Bettiah - BSPCB",22-02-2024 04:00:00,26.80365,84.51954,NH3,3,4,3
India,Bihar,Bhagalpur,"DM Office_Kachari Chowk, Bhagalpur - BSPCB",22-02-2024 04:00:00,25.251013,86.989001,NO2,21,92,50
India,Bihar,Bhagalpur,"Mayaganj, Bhagalpur - BSPCB",22-02-2024 04:00:00,25.265194,87.012947,NO2,4,20,10
India,Bihar,Bihar Sharif,"D M Colony, Bihar Sharif - BSPCB",22-02-2024 04:00:00,25.204762,85.514960,PM10,9,82,41
India,Bihar,Bihar Sharif,"D M Colony, Bihar Sharif - BSPCB",22-02-2024 04:00:00,25.204762,85.514960,CO,4,48,30
India,Bihar,Buxar,"Charitra Van, Buxar - BSPCB (Formerly known as Central Jail)",22-02-2024 04:00:00,25.567520,83.966379,PM2.5,NA,NA,NA
India,Bihar,Gaya,"Collectorate, Gaya - BSPCB",22-02-2024 04:00:00,24.7955,84.9994,CO,2,36,13
India,Bihar,Gaya,"Kareemganj, Gaya - BSPCB",22-02-2024 04:00:00,24.792403,84.992416,PM2.5,2,100,40
India,Bihar,Gaya,"Kareemganj, Gaya - BSPCB",22-02-2024 04:00:00,24.792403,84.992416,PM10,29,136,69
India,Bihar,Gaya,"Kareemganj, Gaya - BSPCB",22-02-2024 04:00:00,24.792403,84.992416,NH3,1,6,3
India,Bihar,Gaya,"Kareemganj, Gaya - BSPCB",22-02-2024 04:00:00,24.792403,84.992416,CO,10,104,44
India,Bihar,Gaya,"SFTI Kusdihra, Gaya - BSPCB",22-02-2024 04:00:00,24.762518,84.982348,NH3,2,5,4
India,Bihar,Hajipur,"Industrial Area, Hajipur - BSPCB",22-02-2024 04:00:00,25.697189,85.245900,SO2,1,6,3
India,Bihar,Katihar,"Mirchaibari, Katihar - BSPCB",22-02-2024 04:00:00,25.560083,87.553265,PM2.5,3,300,152
India,Bihar,Katihar,"Mirchaibari, Katihar - BSPCB",22-02-2024 04:00:00,25.560083,87.553265,NH3,2,4,3
India,Bihar,Katihar,"Mirchaibari, Katihar - BSPCB",22-02-2024 04:00:00,25.560083,87.553265,OZONE,19,23,21
India,Bihar,Kishanganj,"SDM Office_Khagra, Kishanganj - BSPCB",22-02-2024 04:00:00,26.0881305,87.93840336,NO2,34,42,39
India,Bihar,Manguraha,"Forest Rest House, Manguraha - BSPCB",22-02-2024 04:00:00,27.308328,84.531742,SO2,3,3,3
India,Bihar,Motihari,"Gandak Colony, Motihari - BSPCB",22-02-2024 04:00:00,26.63086,84.90051,PM2.5,18,90,52
India,Bihar,Motihari,"Gandak Colony, Motihari - BSPCB",22-02-2024 04:00:00,26.63086,84.90051,SO2,2,9,6
India,Bihar,Muzaffarpur,"Buddha Colony, Muzaffarpur - BSPCB",22-02-2024 04:00:00,26.11442,85.39813,PM2.5,34,322,138
India,Bihar,Muzaffarpur,"Buddha Colony, Muzaffarpur - BSPCB",22-02-2024 04:00:00,26.11442,85.39813,NO2,17,58,34
India,Bihar,Muzaffarpur,"Buddha Colony, Muzaffarpur - BSPCB",22-02-2024 04:00:00,26.11442,85.39813,SO2,1,6,3
India,Bihar,Muzaffarpur,"Buddha Colony, Muzaffarpur - BSPCB",22-02-2024 04:00:00,26.11442,85.39813,CO,8,58,37
India,Bihar,Muzaffarpur,"Buddha Colony, Muzaffarpur - BSPCB",22-02-2024 04:00:00,26.11442,85.39813,OZONE,60,187,97
India,Bihar,Muzaffarpur,"MIT-Daudpur Kothi, Muzaffarpur - BSPCB",22-02-2024 04:00:00,26.1403345,85.3650192,PM10,44,131,89
India,Bihar,Muzaffarpur,"MIT-Daudpur Kothi, Muzaffarpur - BSPCB",22-02-2024 04:00:00,26.1403345,85.3650192,CO,1,182,33
India,Bihar,Muzaffarpur,"Muzaffarpur Collectorate, Muzaffarpur - BSPCB",22-02-2024 04:00:00,26.1209,85.3647,NO2,6,12,9
India,Bihar,Muzaffarpur,"Muzaffarpur Collectorate, Muzaffarpur - BSPCB",22-02-2024 04:00:00,26.1209,85.3647,OZONE,12,77,20
India,Bihar,Patna,"DRM Office Danapur, Patna - BSPCB",22-02-2024 04:00:00,25.586562,85.043586,SO2,6,9,7
India,Bihar,Patna,"Govt. High School Shikarpur, Patna - BSPCB",22-02-2024 04:00:00,25.592539,85.227158,NH3,3,4,4
India,Bihar,Patna,"Govt. High School Shikarpur, Patna - BSPCB",22-02-2024 04:00:00,25.592539,85.227158,SO2,2,8,6
India,Bihar,Patna,"IGSC Planetarium Complex, Patna - BSPCB",22-02-2024 04:00:00,25.610369,85.132568,CO,12,16,14
India,Bihar,Patna,"IGSC Planetarium Complex, Patna - BSPCB",22-02-2024 04:00:00,25.610369,85.132568,OZONE,12,80,58
India,Bihar,Patna,"Muradpur, Patna - BSPCB",22-02-2024 04:00:00,25.619651,85.147382,NO2,12,23,16
India,Bihar,Patna,"Muradpur, Patna - BSPCB",22-02-2024 04:00:00,25.619651,85.147382,CO,3,111,63
India,Bihar,Patna,"Muradpur, Patna - BSPCB",22-02-2024 04:00:00,25.619651,85.147382,OZONE,10,55,12
India,Bihar,Purnia,"Mariam Nagar, Purnia - BSPCB",22-02-2024 04:00:00,25.366336,87.117468,PM2.5,45,330,184
India,Bihar,Rajgir,"Dangi Tola, Rajgir - BSPCB",22-02-2024 04:00:00,25.03280,85.41948,SO2,NA,NA,NA
India,Bihar,Saharsa,"Police Line, Saharsa - BSPCB",22-02-2024 04:00:00,25.892357,86.590325,PM10,20,227,97
India,Bihar,Saharsa,"Police Line, Saharsa - BSPCB",22-02-2024 04:00:00,25.892357,86.590325,NO2,5,10,7
India,Bihar,Saharsa,"Police Line, Saharsa - BSPCB",22-02-2024 04:00:00,25.892357,86.590325,CO,2,78,47
India,Bihar,Samastipur,"DM Office_Kasipur, Samastipur - BSPCB",22-02-2024 04:00:00,25.859655,85.77944,PM2.5,NA,NA,NA
India,Bihar,Sasaram,"Dada Peer, Sasaram - BSPCB",22-02-2024 04:00:00,24.952822,84.002396,PM10,43,157,84
India,Bihar,Siwan,"Chitragupta Nagar, Siwan - BSPCB",22-02-2024 04:00:00,26.2271665,84.3570427,NO2,15,125,35
India,Chandigarh,Chandigarh,"Sector 22, Chandigarh - CPCC",22-02-2024 04:00:00,30.735567,76.775714,NO2,16,67,37
India,Chandigarh,Chandigarh,"Sector-53, Chandigarh - CPCC",22-02-2024 04:00:00,30.719859,76.738637,PM2.5,50,283,154
India,Chhattisgarh,Bhilai,"32Bungalows, Bhilai - CECB",22-02-2024 04:00:00,21.194815,81.314770,SO2,6,9,7
India,Chhattisgarh,Bhilai,"Civic Center, Bhilai - Bhilai Steel Plant",22-02-2024 04:00:00,21.185571,81.343175,PM2.5,NA,NA,NA
India,Chhattisgarh,Bhilai,"Hathkhoj, Bhilai - CECB",22-02-2024 04:00:00,21.224231,81.408350,PM2.5,21,73,45
India,Chhattisgarh,Bhilai,"Hathkhoj, Bhilai - CECB",22-02-2024 04:00:00,21.224231,81.408350,OZONE,9,23,15
India,Chhattisgarh,Chhal,"Nawapara SECL Colony, Chhal - CECB",22-02-2024 04:00:00,22.118125,83.140608,PM2.5,43,107,72
India,Chhattisgarh,Chhal,"Nawapara SECL Colony, Chhal - CECB",22-02-2024 04:00:00,22.118125,83.140608,PM10,47,156,96
India,Chhattisgarh,Chhal,"Nawapara SECL Colony, Chhal - CECB",22-02-2024 04:00:00,22.118125,83.140608,SO2,12,26,17
India,Chhattisgarh,Korba,"Rampur, Korba - CECB",22-02-2024 04:00:00,22.368195,82.746431,PM10,36,92,71
India,Chhattisgarh,Korba,"Rampur, Korba - CECB",22-02-2024 04:00:00,22.368195,82.746431,NO2,20,53,41
India,Chhattisgarh,Korba,"Urja Nagar, Korba - CECB",22-02-2024 04:00:00,22.348441,82.549611,NO2,59,90,78
India,Chhattisgarh,Milupara,"Govt. Higher Secondary School, Milupara - CECB",22-02-2024 04:00:00,22.1910172,83.5197009,PM2.5,27,75,46
India,Chhattisgarh,Milupara,"Govt. Higher Secondary School, Milupara - CECB",22-02-2024 04:00:00,22.1910172,83.5197009,PM10,26,176,74
India,Chhattisgarh,Raipur,"Siltara Phase-II, Raipur - CECB",22-02-2024 04:00:00,21.371751,81.664929,NO2,NA,NA,NA
India,Chhattisgarh,Raipur,"Siltara Phase-II, Raipur - CECB",22-02-2024 04:00:00,21.371751,81.664929,NH3,NA,NA,NA
India,Chhattisgarh,Raipur,"Siltara Phase-II, Raipur - CECB",22-02-2024 04:00:00,21.371751,81.664929,OZONE,NA,NA,NA
India,Chhattisgarh,Tumidih,"OP Jindal Industrial Park, Tumidih - CECB",22-02-2024 04:00:00,22.06631475,83.33820077,OZONE,4,78,15
India,Delhi,Delhi,"Anand Vihar, Delhi - DPCC",22-02-2024 04:00:00,28.647622,77.3158090,NO2,73,111,95
India,Delhi,Delhi,"Anand Vihar, Delhi - DPCC",22-02-2024 04:00:00,28.647622,77.3158090,NH3,3,21,10
India,Delhi,Delhi,"Aya Nagar, Delhi - IMD",22-02-2024 04:00:00,28.4706914,77.1099364,PM2.5,NA,NA,NA
India,Delhi,Delhi,"Aya Nagar, Delhi - IMD",22-02-2024 04:00:00,28.4706914,77.1099364,OZONE,16,30,20
India,Delhi,Delhi,"Bawana, Delhi - DPCC",22-02-2024 04:00:00,28.776200,77.051074,PM10,78,241,152
India,Delhi,Delhi,"Bawana, Delhi - DPCC",22-02-2024 04:00:00,28.776200,77.051074,NH3,8,12,9
India,Delhi,Delhi,"Burari Crossing, Delhi - IMD",22-02-2024 04:00:00,28.7256504,77.2011573,PM10,NA,NA,NA
India,Delhi,Delhi,"Burari Crossing, Delhi - IMD",22-02-2024 04:00:00,28.7256504,77.2011573,OZONE,NA,NA,NA
India,Delhi,Delhi,"CRRI Mathura Road, Delhi - IMD",22-02-2024 04:00:00,28.5512005,77.2735737,PM10,92,186,133
India,Delhi,Delhi,"CRRI Mathura Road, Delhi - IMD",22-02-2024 04:00:00,28.5512005,77.2735737,OZONE,7,8,8
India,Delhi,Delhi,"Chandni Chowk, Delhi - IITM",22-02-2024 04:00:00,28.656756,77.227234,NH3,8,8,8
India,Delhi,Delhi,"DTU, Delhi - CPCB",22-02-2024 04:00:00,28.7500499,77.1112615,PM10,108,191,146
India,Delhi,Delhi,"Dr. Karni Singh Shooting Range, Delhi - DPCC",22-02-2024 04:00:00,28.498571,77.264840,NO2,33,122,70
India,Delhi,Delhi,"Dr. Karni Singh Shooting Range, Delhi - DPCC",22-02-2024 04:00:00,28.498571,77.264840,CO,22,74,49
India,Delhi,Delhi,"IGI Airport (T3), Delhi - IMD",22-02-2024 04:00:00,28.5627763,77.1180053,PM2.5,1,256,80
India,Delhi,Delhi,"IHBAS, Dilshad Garden, Delhi - CPCB",22-02-2024 04:00:00,28.6811736,77.3025234,NO2,24,43,36
India,Delhi,Delhi,"IHBAS, Dilshad Garden, Delhi - CPCB",22-02-2024 04:00:00,28.6811736,77.3025234,OZONE,5,43,19
India,Delhi,Delhi,"ITO, Delhi - CPCB",22-02-2024 04:00:00,28.628624,77.241060,NH3,1,4,3
India,Delhi,Delhi,"ITO, Delhi - CPCB",22-02-2024 04:00:00,28.628624,77.241060,OZONE,13,127,21
India,Delhi,Delhi,"Jahangirpuri, Delhi - DPCC",22-02-2024 04:00:00,28.732820,77.170633,NO2,28,73,45
India,Delhi,Delhi,"Jahangirpuri, Delhi - DPCC",22-02-2024 04:00:00,28.732820,77.170633,OZONE,6,50,13
India,Delhi,Delhi,"Jawaharlal Nehru Stadium, Delhi - DPCC",22-02-2024 04:00:00,28.580280,77.233829,PM2.5,33,246,127
India,Delhi,Delhi,"Lodhi Road, Delhi - IITM",22-02-2024 04:00:00,28.588333,77.221667,CO,62,70,67
India,Delhi,Delhi,"Mundka, Delhi - DPCC",22-02-2024 04:00:00,28.684678,77.076574,CO,31,54,42
India,Delhi,Delhi,"Mundka, Delhi - DPCC",22-02-2024 04:00:00,28.684678,77.076574,OZONE,6,26,9
India,Delhi,Delhi,"Najafgarh, Delhi - DPCC",22-02-2024 04:00:00,28.570173,76.933762,PM2.5,40,250,127
India,Delhi,Delhi,"Najafgarh, Delhi - DPCC",22-02-2024 04:00:00,28.570173,76.933762,OZONE,12,130,53
India,Delhi,Delhi,"Narela, Delhi - DPCC",22-02-2024 04:00:00,28.822836,77.101981,OZONE,6,132,42
India,Delhi,Delhi,"Nehru Nagar, Delhi - DPCC",22-02-2024 04:00:00,28.567890,77.250515,PM10,96,194,154
India,Delhi,Delhi,"Nehru Nagar, Delhi - DPCC",22-02-2024 04:00:00,28.567890,77.250515,NO2,11,23,18
India,Delhi,Delhi,"Nehru Nagar, Delhi - DPCC",22-02-2024 04:00:00,28.567890,77.250515,SO2,2,14,8
India,Delhi,Delhi,"New Moti Bagh, Delhi - MHUA",22-02-2024 04:00:00,28.57834,77.18400,PM2.5,52,308,191
India,Delhi,Delhi,"New Moti Bagh, Delhi - MHUA",22-02-2024 04:00:00,28.57834,77.18400,NO2,1,3,1
India,Delhi,Delhi,"Okhla Phase-2, Delhi - DPCC",22-02-2024 04:00:00,28.530785,77.271255,NO2,52,122,80
India,Delhi,Delhi,"Okhla Phase-2, Delhi - DPCC",22-02-2024 04:00:00,28.530785,77.271255,SO2,1,10,6
India,Delhi,Delhi,"Patparganj, Delhi - DPCC",22-02-2024 04:00:00,28.623763,77.287209,NO2,35,63,47
India,Delhi,Delhi,"Patparganj, Delhi - DPCC",22-02-2024 04:00:00,28.623763,77.287209,SO2,7,11,9
India,Delhi,Delhi,"Patparganj, Delhi - DPCC",22-02-2024 04:00:00,28.623763,77.287209,OZONE,2,72,26
India,Delhi,Delhi,"Punjabi Bagh, Delhi - DPCC",22-02-2024 04:00:00,28.674045,77.131023,PM10,117,218,155
India,Delhi,Delhi,"Pusa, Delhi - IMD",22-02-2024 04:00:00,28.636110,77.173332,PM2.5,NA,NA,NA
India,Delhi,Delhi,"R K Puram, Delhi - DPCC",22-02-2024 04:00:00,28.563262,77.186937,PM2.5,81,306,196
India,Delhi,Delhi,"Rohini, Delhi - DPCC",22-02-2024 04:00:00,28.732528,77.119920,PM10,110,188,144
India,Delhi,Delhi,"Rohini, Delhi - DPCC",22-02-2024 04:00:00,28.732528,77.119920,NH3,9,15,11
India,Delhi,Delhi,"Rohini, Delhi - DPCC",22-02-2024 04:00:00,28.732528,77.119920,SO2,5,13,8
India,Delhi,Delhi,"Sirifort, Delhi - CPCB",22-02-2024 04:00:00,28.5504249,77.2159377,PM10,38,85,62
India,Delhi,Delhi,"Sirifort, Delhi - CPCB",22-02-2024 04:00:00,28.5504249,77.2159377,NH3,11,16,13
India,Delhi,Delhi,"Sirifort, Delhi - CPCB",22-02-2024 04:00:00,28.5504249,77.2159377,CO,10,80,22
India,Delhi,Delhi,"Sonia Vihar, Delhi - DPCC",22-02-2024 04:00:00,28.710508,77.249485,CO,26,67,59
India,Delhi,Delhi,"Sonia Vihar, Delhi - DPCC",22-02-2024 04:00:00,28.710508,77.249485,OZONE,7,105,31
India,Delhi,Delhi,"Sri Aurobindo Marg, Delhi - DPCC",22-02-2024 04:00:00,28.531346,77.190156,PM2.5,52,301,150
India,Delhi,Delhi,"Sri Aurobindo Marg, Delhi - DPCC",22-02-2024 04:00:00,28.531346,77.190156,PM10,107,175,140
India,Delhi,Delhi,"Vivek Vihar, Delhi - DPCC",22-02-2024 04:00:00,28.672342,77.315260,PM2.5,72,333,221
India,Delhi,Delhi,"Vivek Vihar, Delhi - DPCC",22-02-2024 04:00:00,28.672342,77.315260,CO,12,51,32
India,Delhi,Delhi,"Vivek Vihar, Delhi - DPCC",22-02-2024 04:00:00,28.672342,77.315260,OZONE,6,42,10
India,Gujarat,Ahmedabad,"Chandkheda, Ahmedabad - IITM",22-02-2024 04:00:00,23.107969,72.574648,PM2.5,45,285,86
India,Gujarat,Ahmedabad,"Gyaspur, Ahmedabad - IITM",22-02-2024 04:00:00,22.977134,72.553024,PM10,24,57,42
India,Gujarat,Ahmedabad,"Gyaspur, Ahmedabad - IITM",22-02-2024 04:00:00,22.977134,72.553024,NH3,3,4,4
India,Gujarat,Ahmedabad,"Gyaspur, Ahmedabad - IITM",22-02-2024 04:00:00,22.977134,72.553024,SO2,3,4,4
India,Gujarat,Ahmedabad,"Raikhad, Ahmedabad - IITM",22-02-2024 04:00:00,23.020509,72.579261,NO2,NA,NA,NA
India,Gujarat,Ahmedabad,"Raikhad, Ahmedabad - IITM",22-02-2024 04:00:00,23.020509,72.579261,NH3,NA,NA,NA
India,Gujarat,Ahmedabad,"Rakhial, Ahmedabad - IITM",22-02-2024 04:00:00,23.016834,72.625775,PM2.5,46,96,69
India,Gujarat,Ahmedabad,"Rakhial, Ahmedabad - IITM",22-02-2024 04:00:00,23.016834,72.625775,SO2,2,6,4
India,Gujarat,Ahmedabad,"SAC ISRO Bopal, Ahmedabad - IITM",22-02-2024 04:00:00,23.041137,72.456691,PM2.5,49,114,79
India,Gujarat,Ahmedabad,"SAC ISRO Bopal, Ahmedabad - IITM",22-02-2024 04:00:00,23.041137,72.456691,NH3,3,4,4
India,Gujarat,Ahmedabad,"SAC ISRO Satellite, Ahmedabad - IITM",22-02-2024 04:00:00,23.023389,72.515201,PM2.5,130,137,134
India,Gujarat,Ahmedabad,"SAC ISRO Satellite, Ahmedabad - IITM",22-02-2024 04:00:00,23.023389,72.515201,NO2,17,17,17
India,Gujarat,Ahmedabad,"SAC ISRO Satellite, Ahmedabad - IITM",22-02-2024 04:00:00,23.023389,72.515201,NH3,3,4,3
India,Gujarat,Ahmedabad,"SAC ISRO Satellite, Ahmedabad - IITM",22-02-2024 04:00:00,23.023389,72.515201,OZONE,6,14,9
India,Gujarat,Ahmedabad,"Sardar Vallabhbhai Patel Stadium, Ahmedabad - IITM",22-02-2024 04:00:00,23.043070,72.562968,NO2,12,14,13
India,Gujarat,Ahmedabad,"Sardar Vallabhbhai Patel Stadium, Ahmedabad - IITM",22-02-2024 04:00:00,23.043070,72.562968,CO,12,32,21
India,Gujarat,Ankleshwar,"GIDC, Ankleshwar - GPCB",22-02-2024 04:00:00,21.613267,73.010555,PM2.5,34,57,46
India,Gujarat,Ankleshwar,"GIDC, Ankleshwar - GPCB",22-02-2024 04:00:00,21.613267,73.010555,NO2,36,38,37
India,Gujarat,Ankleshwar,"GIDC, Ankleshwar - GPCB",22-02-2024 04:00:00,21.613267,73.010555,OZONE,20,36,24
India,Gujarat,Gandhinagar,"IIPHG Lekawada, Gandhinagar - IITM",22-02-2024 04:00:00,23.243639,72.68994,NH3,3,4,3
India,Gujarat,Gandhinagar,"IIPHG Lekawada, Gandhinagar - IITM",22-02-2024 04:00:00,23.243639,72.68994,SO2,13,13,13
India,Gujarat,Gandhinagar,"Sector-10, Gandhinagar - GPCB",22-02-2024 04:00:00,23.221714,72.654328,NH3,1,2,2
India,Gujarat,Gandhinagar,"Sector-10, Gandhinagar - GPCB",22-02-2024 04:00:00,23.221714,72.654328,OZONE,3,27,6
India,Gujarat,Vapi,"Phase-1 GIDC, Vapi - GPCB",22-02-2024 04:00:00,20.362421,72.918013,PM10,66,422,114
India,Gujarat,Vatva,"Phase-4 GIDC, Vatva - GPCB",22-02-2024 04:00:00,22.969611,72.643500,PM10,37,72,53
India,Gujarat,Vatva,"Phase-4 GIDC, Vatva - GPCB",22-02-2024 04:00:00,22.969611,72.643500,SO2,17,18,17
India,Gujarat,Vatva,"Phase-4 GIDC, Vatva - GPCB",22-02-2024 04:00:00,22.969611,72.643500,CO,48,50,49
India,Haryana,Bahadurgarh,"Arya Nagar, Bahadurgarh - HSPCB",22-02-2024 04:00:00,28.6701,76.9254,NH3,11,12,11
India,Haryana,Bahadurgarh,"Arya Nagar, Bahadurgarh - HSPCB",22-02-2024 04:00:00,28.6701,76.9254,SO2,10,15,12
India,Haryana,Ballabgarh,"Nathu Colony, Ballabgarh - HSPCB",22-02-2024 04:00:00,28.3419248,77.319699,PM2.5,78,316,236
India,Haryana,Ballabgarh,"Nathu Colony, Ballabgarh - HSPCB",22-02-2024 04:00:00,28.3419248,77.319699,PM10,100,230,163
India,Haryana,Bhiwani,"H.B. Colony, Bhiwani - HSPCB",22-02-2024 04:00:00,28.806223,76.141105,PM10,33,122,97
India,Haryana,Charkhi Dadri,"Mini Secretariat, Charkhi Dadri - HSPCB",22-02-2024 04:00:00,28.593883,76.270653,NH3,3,6,4
India,Haryana,Charkhi Dadri,"Mini Secretariat, Charkhi Dadri - HSPCB",22-02-2024 04:00:00,28.593883,76.270653,CO,20,48,22
India,Haryana,Dharuhera,"Municipal Corporation Office, Dharuhera -  HSPCB",22-02-2024 04:00:00,28.206800,76.799700,CO,16,40,30
India,Haryana,Faridabad,"Sector 11, Faridabad - HSPCB",22-02-2024 04:00:00,28.376058,77.315741,PM2.5,35,148,71
India,Haryana,Faridabad,"Sector 11, Faridabad - HSPCB",22-02-2024 04:00:00,28.376058,77.315741,PM10,55,230,97
India,Haryana,Faridabad,"Sector 30, Faridabad - HSPCB",22-02-2024 04:00:00,28.4417,77.3217,PM10,107,124,115
India,Haryana,Faridabad,"Sector 30, Faridabad - HSPCB",22-02-2024 04:00:00,28.4417,77.3217,NO2,30,34,32
India,Haryana,Faridabad,"Sector- 16A, Faridabad - HSPCB",22-02-2024 04:00:00,28.4088421,77.3099081,OZONE,14,14,14
India,Haryana,Fatehabad,"Huda Sector, Fatehabad - HSPCB",22-02-2024 04:00:00,29.503664,75.467934,NO2,NA,NA,NA
India,Haryana,Gurugram,"Sector-51, Gurugram - HSPCB",22-02-2024 04:00:00,28.4227,77.0667,NO2,13,29,23
India,Haryana,Gurugram,"Teri Gram, Gurugram - HSPCB",22-02-2024 04:00:00,28.4275,77.1465,PM2.5,80,246,149
India,Haryana,Gurugram,"Vikas Sadan, Gurugram - HSPCB",22-02-2024 04:00:00,28.4501238,77.0263051,PM2.5,37,93,56
India,Haryana,Jind,"Police Lines, Jind - HSPCB",22-02-2024 04:00:00,29.307814,76.337619,PM2.5,42,92,71
India,Haryana,Kaithal,"Rishi Nagar, Kaithal - HSPCB",22-02-2024 04:00:00,29.8006,76.4155,SO2,2,29,7
India,Haryana,Kaithal,"Rishi Nagar, Kaithal - HSPCB",22-02-2024 04:00:00,29.8006,76.4155,OZONE,5,15,8
India,Haryana,Kurukshetra,"Sector-7, Kurukshetra - HSPCB",22-02-2024 04:00:00,29.966942,76.875879,PM10,56,100,80
India,Haryana,Kurukshetra,"Sector-7, Kurukshetra - HSPCB",22-02-2024 04:00:00,29.966942,76.875879,NH3,2,5,5
India,Haryana,Kurukshetra,"Sector-7, Kurukshetra - HSPCB",22-02-2024 04:00:00,29.966942,76.875879,SO2,1,87,30
India,Haryana,Mandikhera,"General Hospital, Mandikhera - HSPCB",22-02-2024 04:00:00,27.9002,76.9938,PM2.5,48,75,63
India,Haryana,Mandikhera,"General Hospital, Mandikhera - HSPCB",22-02-2024 04:00:00,27.9002,76.9938,PM10,109,145,130
India,Haryana,Mandikhera,"General Hospital, Mandikhera - HSPCB",22-02-2024 04:00:00,27.9002,76.9938,CO,17,39,27
