country,state,city,station,last_update,latitude,longitude,pollutant_id,pollutant_min,pollutant_max,pollutant_avg
India,Andhra_Pradesh,Anantapur,"Gulzarpet, Anantapur - APPCB",17-01-2024 20:00:00,14.675886,77.593027,OZONE,18,61,53
India,Andhra_Pradesh,Chittoor,"Gangineni Cheruvu, Chittoor - APPCB",17-01-2024 20:00:00,13.204880,79.097889,OZONE,8,100,91
India,Andhra_Pradesh,Rajamahendravaram,"Anand Kala Kshetram, Rajamahendravaram - APPCB",17-01-2024 20:00:00,16.9872867,81.7363176,SO2,13,27,19
India,Andhra_Pradesh,Tirupati,"Vaikuntapuram, Tirupati - APPCB",17-01-2024 20:00:00,13.615387,79.409230,PM2.5,20,61,33
India,Andhra_Pradesh,Tirupati,"Vaikuntapuram, Tirupati - APPCB",17-01-2024 20:00:00,13.615387,79.409230,NO2,16,29,20
India,Andhra_Pradesh,Tirupati,"Vaikuntapuram, Tirupati - APPCB",17-01-2024 20:00:00,13.615387,79.409230,SO2,4,5,5
India,Andhra_Pradesh,Visakhapatnam,"GVM Corporation, Visakhapatnam - APPCB",17-01-2024 20:00:00,17.72,83.3,PM10,77,170,106
India,Assam,Guwahati,"IITG, Guwahati - PCBA",17-01-2024 20:00:00,26.2028636,91.70046436,SO2,11,11,11
India,Assam,Guwahati,"LGBI Airport, Guwahati - PCBA",17-01-2024 20:00:00,26.10887,91.589544,NO2,9,67,20
India,Assam,Guwahati,"Pan Bazaar, Guwahati - PCBA",17-01-2024 20:00:00,26.187500,91.744194,PM2.5,119,380,184
India,Assam,Guwahati,"Railway Colony, Guwahati - PCBA",17-01-2024 20:00:00,26.181742,91.78063,CO,42,100,67
India,Assam,Nagaon,"Christianpatty, Nagaon - PCBA",17-01-2024 20:00:00,26.349082,92.68449,NO2,14,22,18
India,Assam,Nalbari,"Bata Chowk, Nalbari - PCBA",17-01-2024 20:00:00,26.446912,91.439057,SO2,6,14,9
India,Assam,Nalbari,"Bata Chowk, Nalbari - PCBA",17-01-2024 20:00:00,26.446912,91.439057,OZONE,18,21,20
India,Assam,Silchar,"Tarapur, Silchar - PCBA",17-01-2024 20:00:00,24.82827,92.79525,PM2.5,31,43,36
India,Assam,Silchar,"Tarapur, Silchar - PCBA",17-01-2024 20:00:00,24.82827,92.79525,NO2,24,47,35
India,Assam,Silchar,"Tarapur, Silchar - PCBA",17-01-2024 20:00:00,24.82827,92.79525,CO,37,90,44
India,Assam,Sivasagar,"Girls College, Sivasagar - PCBA",17-01-2024 20:00:00,26.987634,94.636574,PM10,38,81,57
India,Assam,Sivasagar,"Girls College, Sivasagar - PCBA",17-01-2024 20:00:00,26.987634,94.636574,SO2,4,6,5
India,Bihar,Araria,"Kharahiya Basti, Araria - BSPCB",17-01-2024 20:00:00,26.146529,87.454184,NH3,6,6,6
India,Bihar,Araria,"Kharahiya Basti, Araria - BSPCB",17-01-2024 20:00:00,26.146529,87.454184,CO,34,91,85
India,Bihar,Arrah,"New DM Office, Arrah - BSPCB",17-01-2024 20:00:00,25.5626095,84.663264,OZONE,13,28,15
India,Bihar,Aurangabad,"Gurdeo Nagar, Aurangabad - BSPCB",17-01-2024 20:00:00,24.75746,84.366208,NO2,6,10,8
India,Bihar,Bhagalpur,"Mayaganj, Bhagalpur - BSPCB",17-01-2024 20:00:00,25.265194,87.012947,NH3,8,9,9
India,Bihar,Chhapra,"Darshan Nagar, Chhapra - BSPCB",17-01-2024 20:00:00,25.7808257,84.7446768,PM10,124,266,168
India,Bihar,Gaya,"Kareemganj, Gaya - BSPCB",17-01-2024 20:00:00,24.792403,84.992416,PM10,145,192,167
India,Bihar,Gaya,"Kareemganj, Gaya - BSPCB",17-01-2024 20:00:00,24.792403,84.992416,NO2,30,31,30
India,Bihar,Gaya,"Kareemganj, Gaya - BSPCB",17-01-2024 20:00:00,24.792403,84.992416,NH3,1,6,3
India,Bihar,Gaya,"SFTI Kusdihra, Gaya - BSPCB",17-01-2024 20:00:00,24.762518,84.982348,PM10,123,163,144
India,Bihar,Hajipur,"Industrial Area, Hajipur - BSPCB",17-01-2024 20:00:00,25.697189,85.245900,PM10,120,218,167
India,Bihar,Hajipur,"Industrial Area, Hajipur - BSPCB",17-01-2024 20:00:00,25.697189,85.245900,OZONE,3,74,21
India,Bihar,Katihar,"Mirchaibari, Katihar - BSPCB",17-01-2024 20:00:00,25.560083,87.553265,SO2,16,25,21
India,Bihar,Manguraha,"Forest Rest House, Manguraha - BSPCB",17-01-2024 20:00:00,27.308328,84.531742,OZONE,26,39,34
India,Bihar,Munger,"Town Hall, Munger - BSPCB",17-01-2024 20:00:00,25.376776,86.471523,NO2,NA,NA,NA
India,Bihar,Munger,"Town Hall, Munger - BSPCB",17-01-2024 20:00:00,25.376776,86.471523,SO2,NA,NA,NA
India,Bihar,Muzaffarpur,"Buddha Colony, Muzaffarpur - BSPCB",17-01-2024 20:00:00,26.11442,85.39813,SO2,9,16,11
India,Bihar,Muzaffarpur,"Buddha Colony, Muzaffarpur - BSPCB",17-01-2024 20:00:00,26.11442,85.39813,CO,40,108,67
India,Bihar,Patna,"DRM Office Danapur, Patna - BSPCB",17-01-2024 20:00:00,25.586562,85.043586,PM10,239,438,346
India,Bihar,Patna,"Samanpura, Patna - BSPCB",17-01-2024 20:00:00,25.596727,85.085624,PM10,204,408,283
India,Bihar,Purnia,"Mariam Nagar, Purnia - BSPCB",17-01-2024 20:00:00,25.366336,87.117468,PM2.5,60,237,124
India,Bihar,Purnia,"Mariam Nagar, Purnia - BSPCB",17-01-2024 20:00:00,25.366336,87.117468,SO2,17,22,19
India,Bihar,Rajgir,"Dangi Tola, Rajgir - BSPCB",17-01-2024 20:00:00,25.03280,85.41948,OZONE,22,24,23
India,Bihar,Samastipur,"DM Office_Kasipur, Samastipur - BSPCB",17-01-2024 20:00:00,25.859655,85.77944,PM2.5,97,263,162
India,Bihar,Samastipur,"DM Office_Kasipur, Samastipur - BSPCB",17-01-2024 20:00:00,25.859655,85.77944,OZONE,6,7,6
India,Bihar,Sasaram,"Dada Peer, Sasaram - BSPCB",17-01-2024 20:00:00,24.952822,84.002396,PM10,120,180,142
India,Bihar,Siwan,"Chitragupta Nagar, Siwan - BSPCB",17-01-2024 20:00:00,26.2271665,84.3570427,CO,79,136,120
India,Chandigarh,Chandigarh,"Sector-25, Chandigarh - CPCC",17-01-2024 20:00:00,30.751462,76.762879,PM10,150,270,193
India,Chhattisgarh,Bhilai,"32Bungalows, Bhilai - CECB",17-01-2024 20:00:00,21.194815,81.314770,SO2,9,12,11
India,Chhattisgarh,Bhilai,"32Bungalows, Bhilai - CECB",17-01-2024 20:00:00,21.194815,81.314770,CO,34,80,40
India,Chhattisgarh,Bhilai,"Civic Center, Bhilai - Bhilai Steel Plant",17-01-2024 20:00:00,21.185571,81.343175,NH3,2,3,2
India,Chhattisgarh,Bhilai,"Hathkhoj, Bhilai - CECB",17-01-2024 20:00:00,21.224231,81.408350,NO2,44,98,66
India,Chhattisgarh,Chhal,"Nawapara SECL Colony, Chhal - CECB",17-01-2024 20:00:00,22.118125,83.140608,PM2.5,68,156,96
India,Chhattisgarh,Chhal,"Nawapara SECL Colony, Chhal - CECB",17-01-2024 20:00:00,22.118125,83.140608,SO2,11,33,19
India,Chhattisgarh,Korba,"Rampur, Korba - CECB",17-01-2024 20:00:00,22.368195,82.746431,SO2,11,22,17
India,Chhattisgarh,Korba,"Urja Nagar, Korba - CECB",17-01-2024 20:00:00,22.348441,82.549611,NH3,1,14,6
India,Chhattisgarh,Korba,"Urja Nagar, Korba - CECB",17-01-2024 20:00:00,22.348441,82.549611,CO,33,86,41
India,Chhattisgarh,Korba,"Urja Nagar, Korba - CECB",17-01-2024 20:00:00,22.348441,82.549611,OZONE,47,79,58
India,Chhattisgarh,Milupara,"Govt. Higher Secondary School, Milupara - CECB",17-01-2024 20:00:00,22.1910172,83.5197009,PM10,33,123,71
India,Chhattisgarh,Milupara,"Govt. Higher Secondary School, Milupara - CECB",17-01-2024 20:00:00,22.1910172,83.5197009,NH3,1,2,2
India,Chhattisgarh,Raipur,"AIIMS, Raipur - CECB",17-01-2024 20:00:00,21.258815,81.578979,PM2.5,60,146,91
India,Chhattisgarh,Raipur,"AIIMS, Raipur - CECB",17-01-2024 20:00:00,21.258815,81.578979,OZONE,1,5,3
India,Chhattisgarh,Raipur,"Bhatagaon New ISBT, Raipur - CECB",17-01-2024 20:00:00,21.219665,81.630094,OZONE,3,5,4
India,Chhattisgarh,Raipur,"Krishak Nagar, Raipur - CECB",17-01-2024 20:00:00,21.237755,81.705301,NH3,1,1,1
India,Chhattisgarh,Raipur,"Siltara Phase-II, Raipur - CECB",17-01-2024 20:00:00,21.371751,81.664929,NH3,1,3,2
India,Delhi,Delhi,"Anand Vihar, Delhi - DPCC",17-01-2024 20:00:00,28.647622,77.3158090,NO2,64,134,85
India,Delhi,Delhi,"Anand Vihar, Delhi - DPCC",17-01-2024 20:00:00,28.647622,77.3158090,NH3,7,11,9
India,Delhi,Delhi,"Anand Vihar, Delhi - DPCC",17-01-2024 20:00:00,28.647622,77.3158090,CO,23,77,36
India,Delhi,Delhi,"Aya Nagar, Delhi - IMD",17-01-2024 20:00:00,28.4706914,77.1099364,NO2,20,26,23
India,Delhi,Delhi,"Bawana, Delhi - DPCC",17-01-2024 20:00:00,28.776200,77.051074,PM2.5,372,500,420
India,Delhi,Delhi,"Bawana, Delhi - DPCC",17-01-2024 20:00:00,28.776200,77.051074,CO,70,110,87
India,Delhi,Delhi,"CRRI Mathura Road, Delhi - IMD",17-01-2024 20:00:00,28.5512005,77.2735737,PM2.5,282,341,311
India,Delhi,Delhi,"Dwarka-Sector 8, Delhi - DPCC ",17-01-2024 20:00:00,28.5710274,77.0719006,NH3,5,11,7
India,Delhi,Delhi,"Dwarka-Sector 8, Delhi - DPCC ",17-01-2024 20:00:00,28.5710274,77.0719006,SO2,1,14,9
India,Delhi,Delhi,"Dwarka-Sector 8, Delhi - DPCC ",17-01-2024 20:00:00,28.5710274,77.0719006,OZONE,4,60,36
India,Delhi,Delhi,"IGI Airport (T3), Delhi - IMD",17-01-2024 20:00:00,28.5627763,77.1180053,PM10,196,348,265
India,Delhi,Delhi,"IGI Airport (T3), Delhi - IMD",17-01-2024 20:00:00,28.5627763,77.1180053,NO2,19,34,25
India,Delhi,Delhi,"IHBAS, Dilshad Garden, Delhi - CPCB",17-01-2024 20:00:00,28.6811736,77.3025234,PM10,148,244,195
India,Delhi,Delhi,"IHBAS, Dilshad Garden, Delhi - CPCB",17-01-2024 20:00:00,28.6811736,77.3025234,SO2,4,42,24
India,Delhi,Delhi,"ITO, Delhi - CPCB",17-01-2024 20:00:00,28.628624,77.241060,PM2.5,321,415,362
India,Delhi,Delhi,"ITO, Delhi - CPCB",17-01-2024 20:00:00,28.628624,77.241060,NO2,14,54,25
India,Delhi,Delhi,"Jahangirpuri, Delhi - DPCC",17-01-2024 20:00:00,28.732820,77.170633,PM2.5,344,475,394
India,Delhi,Delhi,"Jawaharlal Nehru Stadium, Delhi - DPCC",17-01-2024 20:00:00,28.580280,77.233829,PM2.5,315,388,354
India,Delhi,Delhi,"Jawaharlal Nehru Stadium, Delhi - DPCC",17-01-2024 20:00:00,28.580280,77.233829,CO,52,107,75
India,Delhi,Delhi,"Lodhi Road, Delhi - IITM",17-01-2024 20:00:00,28.588333,77.221667,PM2.5,44,310,96
India,Delhi,Delhi,"Lodhi Road, Delhi - IITM",17-01-2024 20:00:00,28.588333,77.221667,PM10,53,186,93
India,Delhi,Delhi,"Lodhi Road, Delhi - IITM",17-01-2024 20:00:00,28.588333,77.221667,OZONE,15,16,16
India,Delhi,Delhi,"Major Dhyan Chand National Stadium, Delhi - DPCC",17-01-2024 20:00:00,28.611281,77.237738,NH3,13,17,14
India,Delhi,Delhi,"Major Dhyan Chand National Stadium, Delhi - DPCC",17-01-2024 20:00:00,28.611281,77.237738,CO,32,107,54
India,Delhi,Delhi,"Mandir Marg, Delhi - DPCC",17-01-2024 20:00:00,28.636429,77.201067,PM2.5,323,400,358
India,Delhi,Delhi,"Mandir Marg, Delhi - DPCC",17-01-2024 20:00:00,28.636429,77.201067,NO2,86,121,103
India,Delhi,Delhi,"Mandir Marg, Delhi - DPCC",17-01-2024 20:00:00,28.636429,77.201067,SO2,1,12,8
India,Delhi,Delhi,"Mandir Marg, Delhi - DPCC",17-01-2024 20:00:00,28.636429,77.201067,OZONE,1,16,10
India,Delhi,Delhi,"Mundka, Delhi - DPCC",17-01-2024 20:00:00,28.684678,77.076574,NO2,52,118,84
India,Delhi,Delhi,"Mundka, Delhi - DPCC",17-01-2024 20:00:00,28.684678,77.076574,NH3,6,12,8
India,Delhi,Delhi,"Mundka, Delhi - DPCC",17-01-2024 20:00:00,28.684678,77.076574,OZONE,27,43,37
India,Delhi,Delhi,"NSIT Dwarka, Delhi - CPCB",17-01-2024 20:00:00,28.60909,77.0325413,OZONE,9,82,50
India,Delhi,Delhi,"Najafgarh, Delhi - DPCC",17-01-2024 20:00:00,28.570173,76.933762,NH3,6,7,6
India,Delhi,Delhi,"Narela, Delhi - DPCC",17-01-2024 20:00:00,28.822836,77.101981,PM10,296,453,402
India,Delhi,Delhi,"Narela, Delhi - DPCC",17-01-2024 20:00:00,28.822836,77.101981,NH3,9,14,12
India,Delhi,Delhi,"Nehru Nagar, Delhi - DPCC",17-01-2024 20:00:00,28.567890,77.250515,NO2,41,67,55
India,Delhi,Delhi,"Nehru Nagar, Delhi - DPCC",17-01-2024 20:00:00,28.567890,77.250515,SO2,3,11,8
India,Delhi,Delhi,"North Campus, DU, Delhi - IMD",17-01-2024 20:00:00,28.6573814,77.1585447,CO,34,76,50
India,Delhi,Delhi,"North Campus, DU, Delhi - IMD",17-01-2024 20:00:00,28.6573814,77.1585447,OZONE,26,53,37
India,Delhi,Delhi,"Okhla Phase-2, Delhi - DPCC",17-01-2024 20:00:00,28.530785,77.271255,PM2.5,336,394,364
India,Delhi,Delhi,"Okhla Phase-2, Delhi - DPCC",17-01-2024 20:00:00,28.530785,77.271255,SO2,4,11,6
India,Delhi,Delhi,"Patparganj, Delhi - DPCC",17-01-2024 20:00:00,28.623763,77.287209,PM2.5,318,434,361
India,Delhi,Delhi,"Patparganj, Delhi - DPCC",17-01-2024 20:00:00,28.623763,77.287209,OZONE,2,43,17
India,Delhi,Delhi,"Punjabi Bagh, Delhi - DPCC",17-01-2024 20:00:00,28.674045,77.131023,PM2.5,353,417,391
India,Delhi,Delhi,"Punjabi Bagh, Delhi - DPCC",17-01-2024 20:00:00,28.674045,77.131023,PM10,183,367,277
India,Delhi,Delhi,"Punjabi Bagh, Delhi - DPCC",17-01-2024 20:00:00,28.674045,77.131023,NO2,80,118,96
India,Delhi,Delhi,"Punjabi Bagh, Delhi - DPCC",17-01-2024 20:00:00,28.674045,77.131023,SO2,2,9,4
India,Delhi,Delhi,"Pusa, Delhi - DPCC",17-01-2024 20:00:00,28.639652,77.146275,PM10,234,359,296
India,Delhi,Delhi,"Pusa, Delhi - DPCC",17-01-2024 20:00:00,28.639652,77.146275,NO2,140,245,177
India,Delhi,Delhi,"Pusa, Delhi - DPCC",17-01-2024 20:00:00,28.639652,77.146275,NH3,23,33,28
India,Delhi,Delhi,"Pusa, Delhi - DPCC",17-01-2024 20:00:00,28.639652,77.146275,SO2,7,15,11
India,Delhi,Delhi,"Pusa, Delhi - IMD",17-01-2024 20:00:00,28.636110,77.173332,PM10,NA,NA,NA
India,Delhi,Delhi,"R K Puram, Delhi - DPCC",17-01-2024 20:00:00,28.563262,77.186937,PM10,204,347,280
India,Delhi,Delhi,"R K Puram, Delhi - DPCC",17-01-2024 20:00:00,28.563262,77.186937,NO2,26,87,53
India,Delhi,Delhi,"Shadipur, Delhi - CPCB",17-01-2024 20:00:00,28.6514781,77.1473105,NO2,42,91,57
India,Delhi,Delhi,"Shadipur, Delhi - CPCB",17-01-2024 20:00:00,28.6514781,77.1473105,NH3,11,23,16
India,Delhi,Delhi,"Sirifort, Delhi - CPCB",17-01-2024 20:00:00,28.5504249,77.2159377,OZONE,14,55,27
India,Delhi,Delhi,"Sonia Vihar, Delhi - DPCC",17-01-2024 20:00:00,28.710508,77.249485,NO2,48,106,76
India,Delhi,Delhi,"Sonia Vihar, Delhi - DPCC",17-01-2024 20:00:00,28.710508,77.249485,SO2,6,11,8
India,Delhi,Delhi,"Sri Aurobindo Marg, Delhi - DPCC",17-01-2024 20:00:00,28.531346,77.190156,NO2,37,99,57
India,Delhi,Delhi,"Vivek Vihar, Delhi - DPCC",17-01-2024 20:00:00,28.672342,77.315260,PM10,189,403,298
India,Delhi,Delhi,"Wazirpur, Delhi - DPCC",17-01-2024 20:00:00,28.699793,77.165453,PM2.5,337,473,394
India,Delhi,Delhi,"Wazirpur, Delhi - DPCC",17-01-2024 20:00:00,28.699793,77.165453,NH3,4,7,5
India,Delhi,Delhi,"Wazirpur, Delhi - DPCC",17-01-2024 20:00:00,28.699793,77.165453,SO2,12,40,23
India,Delhi,Delhi,"Wazirpur, Delhi - DPCC",17-01-2024 20:00:00,28.699793,77.165453,OZONE,3,86,44
India,Gujarat,Ahmedabad,"Chandkheda, Ahmedabad - IITM",17-01-2024 20:00:00,23.107969,72.574648,PM10,73,154,111
India,Gujarat,Ahmedabad,"Chandkheda, Ahmedabad - IITM",17-01-2024 20:00:00,23.107969,72.574648,CO,10,94,34
India,Gujarat,Ahmedabad,"Gyaspur, Ahmedabad - IITM",17-01-2024 20:00:00,22.977134,72.553024,PM2.5,47,416,250
India,Gujarat,Ahmedabad,"Rakhial, Ahmedabad - IITM",17-01-2024 20:00:00,23.016834,72.625775,PM10,101,336,179
India,Gujarat,Ahmedabad,"Rakhial, Ahmedabad - IITM",17-01-2024 20:00:00,23.016834,72.625775,NO2,9,138,40
India,Gujarat,Ahmedabad,"Rakhial, Ahmedabad - IITM",17-01-2024 20:00:00,23.016834,72.625775,CO,1,112,24
India,Gujarat,Ahmedabad,"SAC ISRO Bopal, Ahmedabad - IITM",17-01-2024 20:00:00,23.041137,72.456691,NH3,4,4,4
India,Gujarat,Ahmedabad,"SAC ISRO Bopal, Ahmedabad - IITM",17-01-2024 20:00:00,23.041137,72.456691,CO,21,42,40
India,Gujarat,Ahmedabad,"SAC ISRO Satellite, Ahmedabad - IITM",17-01-2024 20:00:00,23.023389,72.515201,PM2.5,76,114,95
India,Gujarat,Ahmedabad,"SAC ISRO Satellite, Ahmedabad - IITM",17-01-2024 20:00:00,23.023389,72.515201,PM10,76,109,92
India,Gujarat,Ahmedabad,"SVPI Airport Hansol, Ahmedabad - IITM",17-01-2024 20:00:00,23.076793,72.627874,NO2,14,15,14
India,Gujarat,Ahmedabad,"SVPI Airport Hansol, Ahmedabad - IITM",17-01-2024 20:00:00,23.076793,72.627874,SO2,4,7,6
India,Gujarat,Ankleshwar,"GIDC, Ankleshwar - GPCB",17-01-2024 20:00:00,21.613267,73.010555,NH3,6,6,6
India,Gujarat,Ankleshwar,"GIDC, Ankleshwar - GPCB",17-01-2024 20:00:00,21.613267,73.010555,SO2,16,116,46
India,Gujarat,Ankleshwar,"GIDC, Ankleshwar - GPCB",17-01-2024 20:00:00,21.613267,73.010555,CO,40,123,55
India,Gujarat,Gandhinagar,"GIFT City, Gandhinagar - IITM",17-01-2024 20:00:00,23.163798,72.677768,PM2.5,47,188,84
India,Gujarat,Gandhinagar,"GIFT City, Gandhinagar - IITM",17-01-2024 20:00:00,23.163798,72.677768,PM10,61,141,93
India,Gujarat,Gandhinagar,"GIFT City, Gandhinagar - IITM",17-01-2024 20:00:00,23.163798,72.677768,NH3,2,3,2
India,Gujarat,Gandhinagar,"GIFT City, Gandhinagar - IITM",17-01-2024 20:00:00,23.163798,72.677768,CO,2,28,14
India,Gujarat,Gandhinagar,"GIFT City, Gandhinagar - IITM",17-01-2024 20:00:00,23.163798,72.677768,OZONE,1,24,19
India,Gujarat,Gandhinagar,"Sector-10, Gandhinagar - GPCB",17-01-2024 20:00:00,23.221714,72.654328,PM2.5,23,63,47
India,Gujarat,Gandhinagar,"Sector-10, Gandhinagar - GPCB",17-01-2024 20:00:00,23.221714,72.654328,OZONE,1,41,27
India,Gujarat,Surat,"Science Center, Surat - SMC",17-01-2024 20:00:00,21.170046,72.795405,CO,46,82,52
India,Haryana,Ambala,"Patti Mehar, Ambala - HSPCB",17-01-2024 20:00:00,30.379589,76.778328,NO2,7,21,14
India,Haryana,Bahadurgarh,"Arya Nagar, Bahadurgarh - HSPCB",17-01-2024 20:00:00,28.6701,76.9254,PM2.5,306,348,326
India,Haryana,Bahadurgarh,"Arya Nagar, Bahadurgarh - HSPCB",17-01-2024 20:00:00,28.6701,76.9254,SO2,9,12,10
India,Haryana,Bahadurgarh,"Arya Nagar, Bahadurgarh - HSPCB",17-01-2024 20:00:00,28.6701,76.9254,CO,38,61,51
India,Haryana,Bhiwani,"H.B. Colony, Bhiwani - HSPCB",17-01-2024 20:00:00,28.806223,76.141105,PM2.5,139,314,225
India,Haryana,Dharuhera,"Municipal Corporation Office, Dharuhera -  HSPCB",17-01-2024 20:00:00,28.206800,76.799700,NO2,45,113,70
India,Haryana,Dharuhera,"Municipal Corporation Office, Dharuhera -  HSPCB",17-01-2024 20:00:00,28.206800,76.799700,SO2,5,20,9
India,Haryana,Faridabad,"New Industrial Town, Faridabad - HSPCB",17-01-2024 20:00:00,28.39072,77.30059,SO2,1,6,2
India,Haryana,Faridabad,"Sector 11, Faridabad - HSPCB",17-01-2024 20:00:00,28.376058,77.315741,NH3,6,6,6
India,Haryana,Faridabad,"Sector- 16A, Faridabad - HSPCB",17-01-2024 20:00:00,28.4088421,77.3099081,PM2.5,311,355,328
India,Haryana,Faridabad,"Sector- 16A, Faridabad - HSPCB",17-01-2024 20:00:00,28.4088421,77.3099081,NO2,10,49,20
India,Haryana,Faridabad,"Sector- 16A, Faridabad - HSPCB",17-01-2024 20:00:00,28.4088421,77.3099081,OZONE,14,14,14
India,Haryana,Fatehabad,"Huda Sector, Fatehabad - HSPCB",17-01-2024 20:00:00,29.503664,75.467934,NO2,29,32,30
India,Haryana,Fatehabad,"Huda Sector, Fatehabad - HSPCB",17-01-2024 20:00:00,29.503664,75.467934,SO2,3,11,8
India,Haryana,Fatehabad,"Huda Sector, Fatehabad - HSPCB",17-01-2024 20:00:00,29.503664,75.467934,OZONE,57,64,62
India,Haryana,Gurugram,"NISE Gwal Pahari, Gurugram - IMD",17-01-2024 20:00:00,28.422681,77.148944,PM2.5,249,346,323
India,Haryana,Gurugram,"Sector-51, Gurugram - HSPCB",17-01-2024 20:00:00,28.4227,77.0667,NO2,13,85,31
India,Haryana,Gurugram,"Teri Gram, Gurugram - HSPCB",17-01-2024 20:00:00,28.4275,77.1465,NH3,10,51,37
India,Haryana,Hisar,"Urban Estate-II, Hisar - HSPCB",17-01-2024 20:00:00,29.140560,75.744941,PM2.5,243,327,286
India,Haryana,Hisar,"Urban Estate-II, Hisar - HSPCB",17-01-2024 20:00:00,29.140560,75.744941,PM10,115,173,142
India,Haryana,Hisar,"Urban Estate-II, Hisar - HSPCB",17-01-2024 20:00:00,29.140560,75.744941,NH3,3,14,4
India,Haryana,Hisar,"Urban Estate-II, Hisar - HSPCB",17-01-2024 20:00:00,29.140560,75.744941,CO,40,102,70
India,Haryana,Jind,"Police Lines, Jind - HSPCB",17-01-2024 20:00:00,29.307814,76.337619,CO,3,130,23
India,Haryana,Kaithal,"Rishi Nagar, Kaithal - HSPCB",17-01-2024 20:00:00,29.8006,76.4155,PM10,87,151,120
India,Haryana,Kurukshetra,"Sector-7, Kurukshetra - HSPCB",17-01-2024 20:00:00,29.966942,76.875879,PM2.5,94,338,178
India,Haryana,Mandikhera,"General Hospital, Mandikhera - HSPCB",17-01-2024 20:00:00,27.9002,76.9938,PM2.5,8,30,16
India,Haryana,Mandikhera,"General Hospital, Mandikhera - HSPCB",17-01-2024 20:00:00,27.9002,76.9938,NO2,16,22,19
India,Haryana,Mandikhera,"General Hospital, Mandikhera - HSPCB",17-01-2024 20:00:00,27.9002,76.9938,CO,45,82,50
India,Haryana,Manesar,"Sector-2 IMT, Manesar - HSPCB",17-01-2024 20:00:00,28.360699,76.936090,NO2,13,23,18
India,Haryana,Narnaul,"Shastri Nagar, Narnaul - HSPCB",17-01-2024 20:00:00,28.060249,76.113115,OZONE,16,75,48
India,Haryana,Palwal,"Shyam Nagar, Palwal - HSPCB",17-01-2024 20:00:00,28.1485564,77.3320667,PM10,53,125,103
India,Haryana,Panchkula,"Sector-6, Panchkula - HSPCB ",17-01-2024 20:00:00,30.7057778,76.8531805555555,PM2.5,51,352,212
India,Haryana,Panchkula,"Sector-6, Panchkula - HSPCB ",17-01-2024 20:00:00,30.7057778,76.8531805555555,NO2,28,30,29
India,Haryana,Panipat,"Sector-18, Panipat - HSPCB",17-01-2024 20:00:00,29.497973,76.993331,CO,22,27,24
India,Haryana,Rohtak,"MD University, Rohtak - HSPCB",17-01-2024 20:00:00,28.52123,76.37138,OZONE,45,54,49
India,Haryana,Sirsa,"F-Block, Sirsa - HSPCB",17-01-2024 20:00:00,29.536400,75.015800,PM10,97,140,110
India,Haryana,Sirsa,"F-Block, Sirsa - HSPCB",17-01-2024 20:00:00,29.536400,75.015800,SO2,4,15,9
India,Haryana,Sirsa,"F-Block, Sirsa - HSPCB",17-01-2024 20:00:00,29.536400,75.015800,CO,75,86,82
India,Haryana,Sirsa,"F-Block, Sirsa - HSPCB",17-01-2024 20:00:00,29.536400,75.015800,OZONE,17,44,32
India,Haryana,Sonipat,"Murthal, Sonipat - HSPCB",17-01-2024 20:00:00,29.027200,77.062100,NH3,5,10,9
India,Haryana,Sonipat,"Murthal, Sonipat - HSPCB",17-01-2024 20:00:00,29.027200,77.062100,SO2,13,29,20
India,Haryana,Yamuna Nagar,"Gobind Pura, Yamuna Nagar - HSPCB",17-01-2024 20:00:00,30.1480566,77.2893471,PM10,113,348,180
India,Himachal Pradesh,Baddi,"HIMUDA Complex Phase-1, Baddi - HPPCB",17-01-2024 20:00:00,30.943887,76.801991,NO2,24,101,59
India,Himachal Pradesh,Baddi,"HIMUDA Complex Phase-1, Baddi - HPPCB",17-01-2024 20:00:00,30.943887,76.801991,CO,30,109,53
India,Jharkhand,Dhanbad,"Sardar Patel Nagar, Dhanbad - JSPCB",17-01-2024 20:00:00,23.80569,86.44268,PM10,160,423,243
India,Jharkhand,Pathardih,"Mohalbani Ghat, Pathardih - DMC",17-01-2024 20:00:00,23.669880,86.411725,SO2,NA,NA,NA
India,Jharkhand,Pathardih,"Mohalbani Ghat, Pathardih - DMC",17-01-2024 20:00:00,23.669880,86.411725,CO,30,101,57
India,Jharkhand,Pathardih,"Mohalbani Ghat, Pathardih - DMC",17-01-2024 20:00:00,23.669880,86.411725,OZONE,17,24,21
India,Karnataka,Bagalkot,"Vidayagiri, Bagalkot - KSPCB",17-01-2024 20:00:00,16.172806,75.659694,NO2,10,11,10
India,Karnataka,Belgaum,"Ramteerth Nagar, Belgaum - KSPCB",17-01-2024 20:00:00,15.888653,74.541751,PM10,34,103,63
India,Karnataka,Belgaum,"Ramteerth Nagar, Belgaum - KSPCB",17-01-2024 20:00:00,15.888653,74.541751,SO2,8,9,8
India,Karnataka,Bengaluru,"BTM Layout, Bengaluru - CPCB",17-01-2024 20:00:00,12.9135218,77.5950804,NH3,2,2,2
India,Karnataka,Bengaluru,"BTM Layout, Bengaluru - CPCB",17-01-2024 20:00:00,12.9135218,77.5950804,SO2,6,7,7
India,Karnataka,Bengaluru,"Bapuji Nagar, Bengaluru - KSPCB",17-01-2024 20:00:00,12.951913,77.539784,CO,26,28,27
India,Karnataka,Bengaluru,"Bapuji Nagar, Bengaluru - KSPCB",17-01-2024 20:00:00,12.951913,77.539784,OZONE,11,12,11
India,Karnataka,Bengaluru,"City Railway Station, Bengaluru - KSPCB",17-01-2024 20:00:00,12.9756843,77.5660749,PM10,45,72,57
India,Karnataka,Bengaluru,"City Railway Station, Bengaluru - KSPCB",17-01-2024 20:00:00,12.9756843,77.5660749,NO2,19,26,23
India,Karnataka,Bengaluru,"Hebbal, Bengaluru - KSPCB",17-01-2024 20:00:00,13.029152,77.585901,SO2,NA,NA,NA
India,Karnataka,Bengaluru,"Hombegowda Nagar, Bengaluru - KSPCB",17-01-2024 20:00:00,12.938539,77.590100,CO,17,20,18
India,Karnataka,Bengaluru,"Jigani, Bengaluru - KSPCB",17-01-2024 20:00:00,12.7816279,77.6299145,NO2,26,27,27
India,Karnataka,Bengaluru,"Jigani, Bengaluru - KSPCB",17-01-2024 20:00:00,12.7816279,77.6299145,OZONE,21,85,71
India,Karnataka,Bengaluru,"Kasturi Nagar, Bengaluru - KSPCB",17-01-2024 20:00:00,13.003872,77.664217,PM2.5,71,234,128
India,Karnataka,Bengaluru,"Peenya, Bengaluru - CPCB",17-01-2024 20:00:00,13.0270199,77.494094,PM2.5,65,199,112
India,Karnataka,Bengaluru,"Peenya, Bengaluru - CPCB",17-01-2024 20:00:00,13.0270199,77.494094,PM10,82,173,125
India,Karnataka,Bengaluru,"RVCE-Mailasandra, Bengaluru - KSPCB",17-01-2024 20:00:00,12.921418,77.502466,CO,44,107,51
India,Karnataka,Bengaluru,"Shivapura_Peenya, Bengaluru - KSPCB",17-01-2024 20:00:00,13.0246342,77.5080115,NO2,15,16,15
India,Karnataka,Bengaluru,"Shivapura_Peenya, Bengaluru - KSPCB",17-01-2024 20:00:00,13.0246342,77.5080115,OZONE,14,243,167
India,Karnataka,Bengaluru,"Silk Board, Bengaluru - KSPCB",17-01-2024 20:00:00,12.917348,77.622813,PM10,80,234,114
India,Karnataka,Bengaluru,"Silk Board, Bengaluru - KSPCB",17-01-2024 20:00:00,12.917348,77.622813,SO2,8,12,10
India,Karnataka,Bidar,"Naubad, Bidar - KSPCB",17-01-2024 20:00:00,17.930306,77.482194,CO,32,77,46
India,Karnataka,Chamarajanagar,"Urban, Chamarajanagar - KSPCB",17-01-2024 20:00:00,11.55358,76.55521,PM2.5,26,42,31
India,Karnataka,Chikkaballapur,"Chikkaballapur Rural, Chikkaballapur - KSPCB",17-01-2024 20:00:00,13.428828,77.731418,PM10,65,147,97
India,Karnataka,Chikkaballapur,"Chikkaballapur Rural, Chikkaballapur - KSPCB",17-01-2024 20:00:00,13.428828,77.731418,NO2,9,20,12
India,Karnataka,Chikkaballapur,"Chikkaballapur Rural, Chikkaballapur - KSPCB",17-01-2024 20:00:00,13.428828,77.731418,NH3,1,1,1
India,Karnataka,Chikkaballapur,"Chikkaballapur Rural, Chikkaballapur - KSPCB",17-01-2024 20:00:00,13.428828,77.731418,OZONE,24,25,25
India,Karnataka,Chikkamagaluru,"Kalyana Nagara, Chikkamagaluru - KSPCB",17-01-2024 20:00:00,13.328028,75.797056,SO2,NA,NA,NA
India,Karnataka,Dharwad,"Kalabhavan, Dharwad - KSPCB",17-01-2024 20:00:00,15.459706,75.008381,NH3,3,3,3
India,Karnataka,Dharwad,"Kalabhavan, Dharwad - KSPCB",17-01-2024 20:00:00,15.459706,75.008381,CO,44,126,83
India,Karnataka,Gadag,"Panchal Nagar, Gadag - KSPCB",17-01-2024 20:00:00,15.411456,75.638133,NO2,8,19,13
India,Karnataka,Hassan,"B.Katihalli, Hassan - KSPCB",17-01-2024 20:00:00,13.008556,76.125258,PM2.5,85,163,119
India,Karnataka,Hassan,"B.Katihalli, Hassan - KSPCB",17-01-2024 20:00:00,13.008556,76.125258,NO2,11,14,12
India,Karnataka,Hubballi,"Lingaraj Nagar, Hubballi - KSPCB",17-01-2024 20:00:00,15.3714823,75.1160168,CO,30,84,35
India,Karnataka,Kalaburagi,"Lal Bahadur Shastri Nagar, Kalaburagi - KSPCB",17-01-2024 20:00:00,17.321993,76.822628,NH3,2,2,2
India,Karnataka,Kalaburagi,"Mahatma Basaveswar Colony, Kalaburgi - KSPCB",17-01-2024 20:00:00,17.336318,76.847397,PM10,26,26,26
India,Karnataka,Kalaburagi,"Mahatma Basaveswar Colony, Kalaburgi - KSPCB",17-01-2024 20:00:00,17.336318,76.847397,NH3,2,3,2
India,Karnataka,Kolar,"Tamaka Ind. Area, Kolar - KSPCB",17-01-2024 20:00:00,13.1276288,78.1570122,OZONE,15,19,18
India,Karnataka,Koppal,"Diwator Nagar, Koppal - KSPCB",17-01-2024 20:00:00,15.347630,76.181767,PM2.5,NA,NA,NA
India,Karnataka,Madikeri,"Stuart Hill, Madikeri - KSPCB",17-01-2024 20:00:00,12.415911,75.735050,PM2.5,33,53,42
India,Karnataka,Madikeri,"Stuart Hill, Madikeri - KSPCB",17-01-2024 20:00:00,12.415911,75.735050,SO2,4,4,4
India,Karnataka,Mangalore,"Kadri, Mangalore - KSPCB",17-01-2024 20:00:00,12.889250,74.853000,PM2.5,41,79,58
India,Karnataka,Mangalore,"Kadri, Mangalore - KSPCB",17-01-2024 20:00:00,12.889250,74.853000,NO2,9,11,10
India,Karnataka,Mysuru,"Hebbal 1st Stage, Mysuru - KSPCB",17-01-2024 20:00:00,12.21041,76.37376,NH3,1,5,3
India,Karnataka,Mysuru,"Hebbal 1st Stage, Mysuru - KSPCB",17-01-2024 20:00:00,12.21041,76.37376,CO,11,82,40
India,Karnataka,Raichur,"Haji Colony, Raichur - KSPCB",17-01-2024 20:00:00,16.208139,77.348417,NH3,NA,NA,NA
India,Karnataka,Ramanagara,"Vijay Nagar, Ramanagara - KSPCB",17-01-2024 20:00:00,12.733409,77.298051,NO2,3,34,9
India,Karnataka,Shivamogga,"Vinoba Nagara, Shivamogga - KSPCB",17-01-2024 20:00:00,13.940000,75.555917,CO,8,40,28
India,Karnataka,Udupi,"Brahmagiri, Udupi - KSPCB",17-01-2024 20:00:00,13.34194444,74.74694444,PM10,22,70,37
India,Karnataka,Udupi,"Brahmagiri, Udupi - KSPCB",17-01-2024 20:00:00,13.34194444,74.74694444,NH3,1,2,2
India,Karnataka,Vijayapura,"Ibrahimpur, Vijayapura - KSPCB",17-01-2024 20:00:00,16.802639,75.722694,PM2.5,26,31,30
India,Karnataka,Yadgir,"Collector Office, Yadgir - KSPCB",17-01-2024 20:00:00,16.7602,77.1428,PM10,64,133,84
India,Kerala,Eloor,"Udyogamandal, Eloor - Kerala PCB",17-01-2024 20:00:00,10.073232,76.302765,NO2,4,4,4
India,Kerala,Kannur,"Thavakkara, Kannur - Kerala PCB",17-01-2024 20:00:00,11.875000,75.373200,PM2.5,44,50,47
India,Kerala,Kannur,"Thavakkara, Kannur - Kerala PCB",17-01-2024 20:00:00,11.875000,75.373200,CO,30,34,32
India,Kerala,Kochi,"Vyttila, Kochi - Kerala PCB",17-01-2024 20:00:00,9.969447,76.321186,PM10,95,218,117
India,Kerala,Thiruvananthapuram,"Kariavattom, Thiruvananthapuram - Kerala PCB",17-01-2024 20:00:00,8.563700,76.886500,PM2.5,63,70,67
India,Kerala,Thiruvananthapuram,"Kariavattom, Thiruvananthapuram - Kerala PCB",17-01-2024 20:00:00,8.563700,76.886500,PM10,72,80,76
India,Kerala,Thiruvananthapuram,"Kariavattom, Thiruvananthapuram - Kerala PCB",17-01-2024 20:00:00,8.563700,76.886500,SO2,4,13,9
India,Kerala,Thiruvananthapuram,"Plammoodu, Thiruvananthapuram - Kerala PCB",17-01-2024 20:00:00,8.5149093,76.9435879,SO2,1,9,5
India,Kerala,Thrissur,"Corporation Ground, Thrissur - Kerala PCB",17-01-2024 20:00:00,10.532400,76.215900,NO2,9,11,10
India,Kerala,Thrissur,"Corporation Ground, Thrissur - Kerala PCB",17-01-2024 20:00:00,10.532400,76.215900,NH3,1,1,1
India,Madhya Pradesh,Bhopal,"Paryavaran Parisar, Bhopal - MPPCB",17-01-2024 20:00:00,23.210494,77.425409,PM10,73,400,168
India,Madhya Pradesh,Bhopal,"Paryavaran Parisar, Bhopal - MPPCB",17-01-2024 20:00:00,23.210494,77.425409,NO2,26,104,56
India,Madhya Pradesh,Bhopal,"Paryavaran Parisar, Bhopal - MPPCB",17-01-2024 20:00:00,23.210494,77.425409,NH3,8,13,10
India,Madhya Pradesh,Bhopal,"Paryavaran Parisar, Bhopal - MPPCB",17-01-2024 20:00:00,23.210494,77.425409,OZONE,2,87,55
India,Madhya Pradesh,Bhopal,"T T Nagar, Bhopal - MPPCB",17-01-2024 20:00:00,23.233584,77.400574,SO2,20,56,34
India,Madhya Pradesh,Damoh,"Shrivastav Colony, Damoh - MPPCB",17-01-2024 20:00:00,23.81748678,79.446246,PM2.5,16,43,27
India,Madhya Pradesh,Damoh,"Shrivastav Colony, Damoh - MPPCB",17-01-2024 20:00:00,23.81748678,79.446246,PM10,38,111,74
India,Madhya Pradesh,Damoh,"Shrivastav Colony, Damoh - MPPCB",17-01-2024 20:00:00,23.81748678,79.446246,CO,24,25,24
India,Madhya Pradesh,Dewas,"Bhopal Chauraha, Dewas - MPPCB",17-01-2024 20:00:00,22.9682591,76.064118,PM2.5,64,236,97
India,Madhya Pradesh,Dewas,"Bhopal Chauraha, Dewas - MPPCB",17-01-2024 20:00:00,22.9682591,76.064118,CO,19,65,31
India,Madhya Pradesh,Gwalior,"City Center, Gwalior - MPPCB",17-01-2024 20:00:00,26.203442,78.193251,PM2.5,32,309,107
India,Madhya Pradesh,Gwalior,"City Center, Gwalior - MPPCB",17-01-2024 20:00:00,26.203442,78.193251,CO,12,66,52
India,Madhya Pradesh,Gwalior,"Deen Dayal Nagar, Gwalior - MPPCB",17-01-2024 20:00:00,26.259242,78.216432,PM2.5,52,320,123
India,Madhya Pradesh,Gwalior,"Maharaj Bada, Gwalior - MPPCB",17-01-2024 20:00:00,26.200388,78.147714,PM10,19,178,120
India,Madhya Pradesh,Indore,"Maguda Nagar, Indore - IMC",17-01-2024 20:00:00,22.7524,75.8872,OZONE,37,42,40
India,Madhya Pradesh,Indore,"Regional Park, Indore - IMC",17-01-2024 20:00:00,22.6780,75.8559,OZONE,4,13,11
India,Madhya Pradesh,Indore,"Residency Area, Indore - IMC",17-01-2024 20:00:00,22.7084,75.8815,NO2,34,56,43
India,Madhya Pradesh,Jabalpur,"Govindh Bhavan Colony, Jabalpur - JMC",17-01-2024 20:00:00,23.163174,79.973061,CO,24,116,55
India,Madhya Pradesh,Jabalpur,"Gupteshwar, Jabalpur - JMC",17-01-2024 20:00:00,23.142888,79.916147,PM10,67,209,133
India,Madhya Pradesh,Jabalpur,"Gupteshwar, Jabalpur - JMC",17-01-2024 20:00:00,23.142888,79.916147,NH3,6,9,7
India,Madhya Pradesh,Jabalpur,"Marhatal, Jabalpur - MPPCB",17-01-2024 20:00:00,23.168606,79.932247,NO2,30,128,62
India,Madhya Pradesh,Jabalpur,"Suhagi, Jabalpur - JMC",17-01-2024 20:00:00,23.218135,79.957770,PM2.5,60,213,126
India,Madhya Pradesh,Jabalpur,"Suhagi, Jabalpur - JMC",17-01-2024 20:00:00,23.218135,79.957770,OZONE,10,241,136
India,Madhya Pradesh,Maihar,"Sahilara, Maihar - KJS Cements",17-01-2024 20:00:00,24.2613009,80.7231783,NO2,14,14,14
India,Madhya Pradesh,Maihar,"Sahilara, Maihar - KJS Cements",17-01-2024 20:00:00,24.2613009,80.7231783,CO,62,114,79
India,Madhya Pradesh,Mandideep,"Sector-D Industrial Area, Mandideep - MPPCB",17-01-2024 20:00:00,23.108440,77.511428,PM10,89,405,174
India,Madhya Pradesh,Mandideep,"Sector-D Industrial Area, Mandideep - MPPCB",17-01-2024 20:00:00,23.108440,77.511428,NO2,40,151,86
India,Madhya Pradesh,Mandideep,"Sector-D Industrial Area, Mandideep - MPPCB",17-01-2024 20:00:00,23.108440,77.511428,NH3,2,9,6
India,Madhya Pradesh,Mandideep,"Sector-D Industrial Area, Mandideep - MPPCB",17-01-2024 20:00:00,23.108440,77.511428,OZONE,16,20,18
India,Madhya Pradesh,Pithampur,"Sector-2 Industrial Area, Pithampur - MPPCB",17-01-2024 20:00:00,22.624758,75.675238,NH3,2,2,2
India,Madhya Pradesh,Sagar,"Civil Lines, Sagar - MPPCB",17-01-2024 20:00:00,23.838586,78.759431,PM2.5,49,197,117
India,Madhya Pradesh,Sagar,"Civil Lines, Sagar - MPPCB",17-01-2024 20:00:00,23.838586,78.759431,NO2,10,20,13
India,Madhya Pradesh,Satna,"Bandhavgar Colony, Satna - Birla Cement",17-01-2024 20:00:00,24.58434363,80.8549414,NO2,6,21,12
India,Madhya Pradesh,Singrauli,"Suryakiran Bhawan NCL, Singrauli - MPPCB",17-01-2024 20:00:00,24.108970,82.645580,PM10,126,216,180
India,Madhya Pradesh,Ujjain,"Mahakaleshwar Temple, Ujjain - MPPCB",17-01-2024 20:00:00,23.182719 ,75.768218 ,NO2,6,113,41
India,Maharashtra,Akola,"Ramdaspeth, Akola - MPCB",17-01-2024 20:00:00,20.719516,77.000253,CO,20,149,45
India,Maharashtra,Amravati,"Shivneri Colony, Amravati - MPCB",17-01-2024 20:00:00,20.9402359,77.7895248,PM10,75,145,108
India,Maharashtra,Amravati,"Shivneri Colony, Amravati - MPCB",17-01-2024 20:00:00,20.9402359,77.7895248,CO,14,72,27
India,Maharashtra,Bhiwandi,"Gokul Nagar, Bhiwandi - MPCB",17-01-2024 20:00:00,19.309073,73.057223,NH3,NA,NA,NA
India,Maharashtra,Bhiwandi,"Gokul Nagar, Bhiwandi - MPCB",17-01-2024 20:00:00,19.309073,73.057223,CO,NA,NA,NA
India,Maharashtra,Bhiwandi,"Gokul Nagar, Bhiwandi - MPCB",17-01-2024 20:00:00,19.309073,73.057223,OZONE,NA,NA,NA
India,Maharashtra,Boisar,"Khaira, Boisar - MPCB",17-01-2024 20:00:00,19.786089,72.757971,CO,30,48,40
India,Maharashtra,Boisar,"Khaira, Boisar - MPCB",17-01-2024 20:00:00,19.786089,72.757971,OZONE,86,87,86
India,Maharashtra,Chandrapur,"Chauhan Colony, Chandrapur - MPCB",17-01-2024 20:00:00,19.962900,79.298714,PM10,84,132,104
India,Maharashtra,Jalna,"Old MIDC, Jalna - MPCB",17-01-2024 20:00:00,19.854616,75.905894,CO,31,50,38
India,Maharashtra,Jalna,"Old MIDC, Jalna - MPCB",17-01-2024 20:00:00,19.854616,75.905894,OZONE,18,229,123
India,Maharashtra,Kalyan,"Khadakpada, Kalyan - MPCB",17-01-2024 20:00:00,19.25292,73.142019,NO2,19,59,33
India,Maharashtra,Kolhapur,"Shivaji University, Kolhapur - MPCB",17-01-2024 20:00:00,16.6870449,74.2505872,PM2.5,81,110,92
India,Maharashtra,Kolhapur,"Shivaji University, Kolhapur - MPCB",17-01-2024 20:00:00,16.6870449,74.2505872,PM10,61,164,98
India,Maharashtra,Kolhapur,"Shivaji University, Kolhapur - MPCB",17-01-2024 20:00:00,16.6870449,74.2505872,SO2,1,3,2
India,Maharashtra,Kolhapur,"Sinchan Bhavan, Kolhapur - MPCB",17-01-2024 20:00:00,16.7143745,74.2426398,SO2,1,4,2
India,Maharashtra,Kolhapur,"Sinchan Bhavan, Kolhapur - MPCB",17-01-2024 20:00:00,16.7143745,74.2426398,CO,2,57,28
India,Maharashtra,Latur,"Sawe Wadi, Latur - MPCB",17-01-2024 20:00:00,18.39963,76.57452,PM2.5,90,306,162
India,Maharashtra,Latur,"Sawe Wadi, Latur - MPCB",17-01-2024 20:00:00,18.39963,76.57452,CO,16,149,41
India,Maharashtra,Malegaon,"Mahesh Nagar, Malegaon - MPCB",17-01-2024 20:00:00,20.555712,74.529236,PM2.5,61,111,80
India,Maharashtra,Mumbai,"Bandra Kurla Complex, Mumbai - MPCB",17-01-2024 20:00:00,19.065931,72.862131,OZONE,1,56,43
India,Maharashtra,Mumbai,"Borivali East, Mumbai - IITM",17-01-2024 20:00:00,19.23241,72.86895,NO2,42,91,63
India,Maharashtra,Mumbai,"Borivali East, Mumbai - MPCB",17-01-2024 20:00:00,19.2243333,72.8658113,PM10,38,104,64
India,Maharashtra,Mumbai,"Borivali East, Mumbai - MPCB",17-01-2024 20:00:00,19.2243333,72.8658113,CO,3,15,12
India,Maharashtra,Mumbai,"Byculla, Mumbai - BMC",17-01-2024 20:00:00,18.9767,72.8380,NO2,16,98,54
India,Maharashtra,Mumbai,"Chhatrapati Shivaji Intl. Airport (T2), Mumbai - MPCB",17-01-2024 20:00:00,19.10078,72.87462,SO2,19,27,25
India,Maharashtra,Mumbai,"Colaba, Mumbai - MPCB",17-01-2024 20:00:00,18.910000,72.820000,SO2,8,10,9
India,Maharashtra,Mumbai,"Ghatkopar, Mumbai - BMC",17-01-2024 20:00:00,19.083694,72.920967,NH3,1,1,1
India,Maharashtra,Mumbai,"Kandivali East, Mumbai - MPCB",17-01-2024 20:00:00,19.205800,72.868200,PM2.5,19,58,36
India,Maharashtra,Mumbai,"Kandivali East, Mumbai - MPCB",17-01-2024 20:00:00,19.205800,72.868200,OZONE,16,31,28
India,Maharashtra,Mumbai,"Kandivali West, Mumbai - BMC",17-01-2024 20:00:00,19.215859,72.831718,NH3,NA,NA,NA
India,Maharashtra,Mumbai,"Kherwadi_Bandra East, Mumbai - MPCB",17-01-2024 20:00:00,19.0632143,72.8456324,PM2.5,65,251,134
India,Maharashtra,Mumbai,"Kherwadi_Bandra East, Mumbai - MPCB",17-01-2024 20:00:00,19.0632143,72.8456324,NO2,11,104,58
India,Maharashtra,Mumbai,"Kherwadi_Bandra East, Mumbai - MPCB",17-01-2024 20:00:00,19.0632143,72.8456324,CO,9,82,13
India,Maharashtra,Mumbai,"Khindipada-Bhandup West, Mumbai - IITM",17-01-2024 20:00:00,19.1653323,72.922099,CO,11,116,66
India,Maharashtra,Mumbai,"Kurla, Mumbai - MPCB",17-01-2024 20:00:00,19.0863,72.8888,NH3,3,4,3
India,Maharashtra,Mumbai,"Malad West, Mumbai - IITM",17-01-2024 20:00:00,19.19709,72.82204,PM10,86,127,101
India,Maharashtra,Mumbai,"Mazgaon, Mumbai - IITM",17-01-2024 20:00:00,18.96702,72.84214,NO2,48,112,78
India,Maharashtra,Mumbai,"Mazgaon, Mumbai - IITM",17-01-2024 20:00:00,18.96702,72.84214,SO2,12,25,16
India,Maharashtra,Mumbai,"Mindspace-Malad West, Mumbai - MPCB",17-01-2024 20:00:00,19.1878657,72.8304069,NH3,8,9,8
India,Maharashtra,Mumbai,"Mulund West, Mumbai - MPCB",17-01-2024 20:00:00,19.1750,72.9419,PM10,55,139,79
India,Maharashtra,Mumbai,"Mulund West, Mumbai - MPCB",17-01-2024 20:00:00,19.1750,72.9419,SO2,15,15,15
India,Maharashtra,Mumbai,"Powai, Mumbai - MPCB",17-01-2024 20:00:00,19.137500,72.915056,SO2,13,15,14
India,Maharashtra,Mumbai,"Sion, Mumbai - MPCB",17-01-2024 20:00:00,19.047000,72.874600,PM2.5,36,150,75
India,Maharashtra,Mumbai,"Vasai West, Mumbai - MPCB",17-01-2024 20:00:00,19.383200,72.820400,PM10,35,386,107
India,Maharashtra,Mumbai,"Vasai West, Mumbai - MPCB",17-01-2024 20:00:00,19.383200,72.820400,OZONE,5,59,50
India,Maharashtra,Mumbai,"Vile Parle West, Mumbai - MPCB",17-01-2024 20:00:00,19.10861,72.83622,PM2.5,35,72,50
India,Maharashtra,Mumbai,"Vile Parle West, Mumbai - MPCB",17-01-2024 20:00:00,19.10861,72.83622,NO2,3,35,19
India,Maharashtra,Nagpur,"Ambazari, Nagpur - MPCB",17-01-2024 20:00:00,21.121801,79.04952,PM2.5,113,248,189
India,Maharashtra,Nagpur,"Mahal, Nagpur - MPCB",17-01-2024 20:00:00,21.14472,79.107595,PM2.5,128,278,209
India,Maharashtra,Nagpur,"Mahal, Nagpur - MPCB",17-01-2024 20:00:00,21.14472,79.107595,PM10,129,196,155
India,Maharashtra,Nagpur,"Opp GPO Civil Lines, Nagpur - MPCB",17-01-2024 20:00:00,21.152875,79.0517531,OZONE,2,75,47
India,Maharashtra,Nagpur,"Ram Nagar, Nagpur - MPCB",17-01-2024 20:00:00,21.143383,79.048912,PM2.5,102,302,186
India,Maharashtra,Nanded,"Sneh Nagar, Nanded - MPCB",17-01-2024 20:00:00,19.173852,77.296291,PM10,102,151,124
India,Maharashtra,Nanded,"Sneh Nagar, Nanded - MPCB",17-01-2024 20:00:00,19.173852,77.296291,NH3,2,3,2
India,Maharashtra,Nanded,"Sneh Nagar, Nanded - MPCB",17-01-2024 20:00:00,19.173852,77.296291,CO,37,44,41
India,Maharashtra,Nashik,"Gangapur Road, Nashik - MPCB",17-01-2024 20:00:00,20.0073285,73.7762427,NO2,3,8,5
India,Maharashtra,Nashik,"Hirawadi, Nashik - MPCB",17-01-2024 20:00:00,20.021503,73.813844,NH3,1,2,1
India,Maharashtra,Nashik,"Hirawadi, Nashik - MPCB",17-01-2024 20:00:00,20.021503,73.813844,CO,15,70,24
India,Maharashtra,Nashik,"MIDC Ambad, Nashik - MPCB",17-01-2024 20:00:00,19.950220,73.731480,PM10,114,191,145
India,Maharashtra,Nashik,"MIDC Ambad, Nashik - MPCB",17-01-2024 20:00:00,19.950220,73.731480,NO2,21,115,55
India,Maharashtra,Nashik,"MIDC Ambad, Nashik - MPCB",17-01-2024 20:00:00,19.950220,73.731480,OZONE,6,62,41
India,Maharashtra,Nashik,"Pandav Nagari, Nashik - MPCB",17-01-2024 20:00:00,19.9591346,73.7788008,PM10,92,161,113
India,Maharashtra,Nashik,"Pandav Nagari, Nashik - MPCB",17-01-2024 20:00:00,19.9591346,73.7788008,CO,25,88,30
India,Maharashtra,Navi Mumbai,"Sanpada, Navi Mumbai - MPCB",17-01-2024 20:00:00,19.0575752,73.0151367,SO2,9,87,34
India,Maharashtra,Navi Mumbai,"Sector-2E Kalamboli, Navi Mumbai - MPCB",17-01-2024 20:00:00,19.02579,73.10297,PM2.5,51,308,140
India,Maharashtra,Navi Mumbai,"Tondare-Taloja, Navi Mumbai - MPCB",17-01-2024 20:00:00,19.0630,73.1209,PM10,95,172,128
India,Maharashtra,Parbhani,"Masoom Colony, Parbhani - MPCB",17-01-2024 20:00:00,19.265594,76.761463,PM10,100,169,132
India,Maharashtra,Parbhani,"Masoom Colony, Parbhani - MPCB",17-01-2024 20:00:00,19.265594,76.761463,CO,22,116,42
India,Maharashtra,Pimpri-Chinchwad,"Gavalinagar, Pimpri Chinchwad - MPCB",17-01-2024 20:00:00,18.63673,73.82487,PM2.5,72,220,123
India,Maharashtra,Pimpri-Chinchwad,"Park Street Wakad, Pimpri Chinchwad - MPCB",17-01-2024 20:00:00,18.59051,73.77946,PM2.5,85,160,113
India,Maharashtra,Pimpri-Chinchwad,"Park Street Wakad, Pimpri Chinchwad - MPCB",17-01-2024 20:00:00,18.59051,73.77946,PM10,94,136,114
India,Maharashtra,Pimpri-Chinchwad,"Park Street Wakad, Pimpri Chinchwad - MPCB",17-01-2024 20:00:00,18.59051,73.77946,NO2,48,141,81
India,Maharashtra,Pimpri-Chinchwad,"Thergaon, Pimpri Chinchwad - MPCB",17-01-2024 20:00:00,18.616318,73.765797,OZONE,2,141,63
India,Maharashtra,Pune,"Alandi, Pune - IITM",17-01-2024 20:00:00,18.675076,73.892743,NO2,16,30,22
India,Maharashtra,Pune,"Bhosari, Pune - IITM",17-01-2024 20:00:00,18.640051,73.848956,PM10,60,129,100
India,Maharashtra,Pune,"Bhosari, Pune - IITM",17-01-2024 20:00:00,18.640051,73.848956,CO,23,86,34
India,Maharashtra,Pune,"Katraj Dairy, Pune - MPCB",17-01-2024 20:00:00,18.454450,73.854155,NH3,3,6,4
India,Maharashtra,Pune,"Katraj Dairy, Pune - MPCB",17-01-2024 20:00:00,18.454450,73.854155,SO2,3,9,6
India,Maharashtra,Pune,"Mhada Colony, Pune - IITM",17-01-2024 20:00:00,18.573040,73.927715,OZONE,1,39,24
India,Maharashtra,Pune,"Revenue Colony-Shivajinagar, Pune - IITM",17-01-2024 20:00:00,18.530085,73.849598,NH3,14,30,23
India,Maharashtra,Pune,"Savitribai Phule Pune University, Pune - MPCB",17-01-2024 20:00:00,18.547056,73.826908,NO2,10,46,27
India,Maharashtra,Pune,"Savitribai Phule Pune University, Pune - MPCB",17-01-2024 20:00:00,18.547056,73.826908,CO,10,39,15
India,Maharashtra,Pune,"Savitribai Phule Pune University, Pune - MPCB",17-01-2024 20:00:00,18.547056,73.826908,OZONE,1,170,103
India,Maharashtra,Pune,"Transport Nagar-Nigdi, Pune - IITM",17-01-2024 20:00:00,18.664282,73.763966,CO,39,62,50
India,Maharashtra,Sangli,"Vijay Nagar, Sangli - MPCB",17-01-2024 20:00:00, 16.5038,74.3623,CO,12,103,20
India,Maharashtra,Solapur,"Dnyaneshwar Nagar, Solapur - MPCB",17-01-2024 20:00:00,17.6336264,75.9132495,CO,18,106,37
India,Maharashtra,Solapur,"Ratandeep Housing Society, Solapur - MPCB",17-01-2024 20:00:00,17.65439,75.90649,PM2.5,89,185,137
India,Maharashtra,Solapur,"Ratandeep Housing Society, Solapur - MPCB",17-01-2024 20:00:00,17.65439,75.90649,NH3,8,13,10
India,Maharashtra,Solapur,"Solapur, Solapur - MPCB",17-01-2024 20:00:00,17.6599188,75.9063906,PM2.5,43,151,78
India,Maharashtra,Solapur,"Solapur, Solapur - MPCB",17-01-2024 20:00:00,17.6599188,75.9063906,SO2,32,70,41
India,Maharashtra,Thane,"Kasarvadavali, Thane - MPCB",17-01-2024 20:00:00,19.26777,72.97182,SO2,6,43,16
India,Maharashtra,Thane,"Upvan Fort, Thane - MPCB",17-01-2024 20:00:00,19.222279,72.957979,PM10,72,160,102
India,Maharashtra,Thane,"Upvan Fort, Thane - MPCB",17-01-2024 20:00:00,19.222279,72.957979,OZONE,48,160,119
India,Maharashtra,Virar,"Bolinj, Virar - MPCB",17-01-2024 20:00:00,19.4458210,72.7988231,NH3,4,7,5
India,Manipur,Imphal,"Manipur University, Imphal - Manipur PCB",17-01-2024 20:00:00,24.7524239,93.9286218,PM2.5,24,325,119
India,Meghalaya,Shillong,"JN Stadium, Shillong - Meghalaya PCB",17-01-2024 20:00:00,25.5803419,91.8942571,NO2,14,56,33
India,Meghalaya,Shillong,"JN Stadium, Shillong - Meghalaya PCB",17-01-2024 20:00:00,25.5803419,91.8942571,NH3,2,4,3
India,Meghalaya,Shillong,"JN Stadium, Shillong - Meghalaya PCB",17-01-2024 20:00:00,25.5803419,91.8942571,CO,22,82,48
India,Mizoram,Aizawl,"Sikulpuikawn, Aizawl - Mizoram PCB",17-01-2024 20:00:00,23.7176342,92.7192841,NH3,NA,NA,NA
India,Nagaland,Kohima,"PWD Juction, Kohima - NPCB",17-01-2024 20:00:00,25.6635413,94.0989878,PM10,46,207,95
India,Nagaland,Kohima,"PWD Juction, Kohima - NPCB",17-01-2024 20:00:00,25.6635413,94.0989878,SO2,86,94,89
India,Nagaland,Kohima,"PWD Juction, Kohima - NPCB",17-01-2024 20:00:00,25.6635413,94.0989878,CO,12,74,33
India,Nagaland,Kohima,"PWD Juction, Kohima - NPCB",17-01-2024 20:00:00,25.6635413,94.0989878,OZONE,9,15,13
India,Odisha,Angul,"Hakimapada, Angul - OSPCB",17-01-2024 20:00:00,20.832874,85.104082,NO2,14,43,27
India,Odisha,Angul,"Hakimapada, Angul - OSPCB",17-01-2024 20:00:00,20.832874,85.104082,NH3,3,4,3
India,Odisha,Angul,"Hakimapada, Angul - OSPCB",17-01-2024 20:00:00,20.832874,85.104082,SO2,43,140,87
India,Odisha,Balasore,"Kalidaspur, Balasore - OSPCB",17-01-2024 20:00:00,21.51161,86.89088,PM2.5,220,410,346
India,Odisha,Barbil,"Forest Office, Barbil - OSPCB",17-01-2024 20:00:00,22.1166054,85.3945546,OZONE,2,86,71
India,Odisha,Bhubaneswar,"Lingraj Mandir, Bhubaneswar - OSPCB",17-01-2024 20:00:00,20.240790,85.836784,PM10,139,261,187
India,Odisha,Bhubaneswar,"Lingraj Mandir, Bhubaneswar - OSPCB",17-01-2024 20:00:00,20.240790,85.836784,NO2,15,36,24
India,Odisha,Bhubaneswar,"Patia, Bhubaneswar - OSPCB",17-01-2024 20:00:00,20.34652,85.81630,PM2.5,180,334,290
India,Odisha,Bileipada,"Tata Township, Bileipada - OSPCB",17-01-2024 20:00:00,22.06156703,85.47409613,PM2.5,229,336,302
India,Odisha,Bileipada,"Tata Township, Bileipada - OSPCB",17-01-2024 20:00:00,22.06156703,85.47409613,NO2,7,11,9
India,Odisha,Bileipada,"Tata Township, Bileipada - OSPCB",17-01-2024 20:00:00,22.06156703,85.47409613,SO2,4,17,8
India,Odisha,Byasanagar,"Ferro Chrome Colony, Byasanagar - OSPCB",17-01-2024 20:00:00,20.94185,86.11510,PM2.5,213,329,292
India,Odisha,Keonjhar,"Jagamohanpur, Keonjhar - OSPCB",17-01-2024 20:00:00,21.643900,85.599355,SO2,9,11,10
India,Odisha,Rairangpur,"Divisional Forest Office, Rairangpur - OSPCB",17-01-2024 20:00:00,22.265816,86.174829,NO2,7,8,7
India,Odisha,Rairangpur,"Divisional Forest Office, Rairangpur - OSPCB",17-01-2024 20:00:00,22.265816,86.174829,CO,34,55,41
India,Odisha,Rourkela,"Fertilizer Township, Rourkela - OSPCB",17-01-2024 20:00:00,22.18972222,84.86277778,PM2.5,119,323,239
India,Odisha,Rourkela,"Raghunathpali, Rourkela - OSPCB",17-01-2024 20:00:00,22.220833,84.809444,PM10,95,191,125
India,Odisha,Rourkela,"Sector-2, Rourkela - OSPCB",17-01-2024 20:00:00,22.24500000,84.88111111,CO,31,88,50
India,Odisha,Talcher,"Talcher Coalfields,Talcher - OSPCB",17-01-2024 20:00:00,20.9360711,85.1707021,NO2,42,48,46
India,Odisha,Talcher,"Talcher Coalfields,Talcher - OSPCB",17-01-2024 20:00:00,20.9360711,85.1707021,CO,2,22,9
India,Odisha,Tensa,"Barsua Iron Ore Mines, Tensa - OSPCB",17-01-2024 20:00:00,21.869985,85.167016,NH3,7,10,8
India,Punjab,Amritsar,"Golden Temple, Amritsar - PPCB",17-01-2024 20:00:00,31.620000,74.876512,NO2,16,43,22
India,Punjab,Bathinda,"Hardev Nagar, Bathinda - PPCB",17-01-2024 20:00:00,30.233011,74.907758,CO,2,42,10
India,Punjab,Jalandhar,"Civil Line, Jalandhar - PPCB",17-01-2024 20:00:00,31.321907,75.578914,PM10,55,178,113
India,Punjab,Jalandhar,"Civil Line, Jalandhar - PPCB",17-01-2024 20:00:00,31.321907,75.578914,CO,39,115,81
India,Punjab,Khanna,"Kalal Majra, Khanna - PPCB",17-01-2024 20:00:00,30.736056 ,76.209694,NO2,NA,NA,NA
India,Punjab,Mandi Gobindgarh,"RIMT University, Mandi Gobindgarh - PPCB",17-01-2024 20:00:00,30.649961,76.331442,PM10,97,234,140
India,Punjab,Patiala,"Model Town, Patiala - PPCB",17-01-2024 20:00:00,30.349388,76.366642,PM2.5,89,267,135
India,Punjab,Patiala,"Model Town, Patiala - PPCB",17-01-2024 20:00:00,30.349388,76.366642,NO2,29,34,31
India,Rajasthan,Ajmer,"Civil Lines,  Ajmer - RSPCB",17-01-2024 20:00:00,26.470859,74.646594,NO2,25,86,42
India,Rajasthan,Ajmer,"Civil Lines,  Ajmer - RSPCB",17-01-2024 20:00:00,26.470859,74.646594,NH3,25,45,30
India,Rajasthan,Ajmer,"Civil Lines,  Ajmer - RSPCB",17-01-2024 20:00:00,26.470859,74.646594,OZONE,2,65,52
India,Rajasthan,Banswara,"Rati Talai, Banswara - RSPCB",17-01-2024 20:00:00,23.555190,74.440010,PM2.5,35,316,156
India,Rajasthan,Baran,"Bamboliya, Baran - RSPCB",17-01-2024 20:00:00,25.106006,76.469948,PM10,87,123,106
India,Rajasthan,Baran,"Bamboliya, Baran - RSPCB",17-01-2024 20:00:00,25.106006,76.469948,NO2,22,51,28
India,Rajasthan,Barmer,"Railway Colony, Barmer - RSPCB",17-01-2024 20:00:00,25.747299,71.393989,PM2.5,22,149,60
India,Rajasthan,Barmer,"Railway Colony, Barmer - RSPCB",17-01-2024 20:00:00,25.747299,71.393989,SO2,11,49,19
India,Rajasthan,Barmer,"Railway Colony, Barmer - RSPCB",17-01-2024 20:00:00,25.747299,71.393989,CO,6,75,35
India,Rajasthan,Bharatpur,"Krishna Nagar, Bharatpur - RSPCB",17-01-2024 20:00:00,27.215415,77.50873,PM10,35,186,112
India,Rajasthan,Bharatpur,"Krishna Nagar, Bharatpur - RSPCB",17-01-2024 20:00:00,27.215415,77.50873,CO,74,117,106
India,Rajasthan,Bharatpur,"Krishna Nagar, Bharatpur - RSPCB",17-01-2024 20:00:00,27.215415,77.50873,OZONE,11,62,40
India,Rajasthan,Bhilwara,"Pratap Nagar, Bhilwara - RSPCB",17-01-2024 20:00:00,25.339605,74.618883,OZONE,9,122,79
India,Rajasthan,Bikaner,"MM Ground, Bikaner - RSPCB",17-01-2024 20:00:00,28.018792,73.292658,NO2,18,50,34
India,Rajasthan,Bikaner,"MM Ground, Bikaner - RSPCB",17-01-2024 20:00:00,28.018792,73.292658,NH3,15,18,17
India,Rajasthan,Bundi,"New Colony, Bundi - RSPCB",17-01-2024 20:00:00,25.435774,75.644272,PM2.5,157,319,239
India,Rajasthan,Bundi,"New Colony, Bundi - RSPCB",17-01-2024 20:00:00,25.435774,75.644272,OZONE,9,99,77
India,Rajasthan,Dausa,"Khatikan Mohalla, Dausa - RSPCB",17-01-2024 20:00:00,26.895552,76.334753,PM10,140,246,177
India,Rajasthan,Dholpur,"Raja Ganj, Dholpur - RSPCB",17-01-2024 20:00:00,26.699557,77.898881,NO2,3,38,16
India,Rajasthan,Dungarpur,"Bhoiwada, Dungarpur - RSPCB",17-01-2024 20:00:00,23.837789,73.714926,PM10,47,147,86
India,Rajasthan,Dungarpur,"Bhoiwada, Dungarpur - RSPCB",17-01-2024 20:00:00,23.837789,73.714926,NH3,6,7,7
India,Rajasthan,Hanumangarh,"Housing Board, Hanumangarh - RSPCB",17-01-2024 20:00:00,29.610750,74.283608,NH3,14,18,16
India,Rajasthan,Hanumangarh,"Housing Board, Hanumangarh - RSPCB",17-01-2024 20:00:00,29.610750,74.283608,SO2,1,5,3
India,Rajasthan,Jaipur,"Adarsh Nagar, Jaipur - RSPCB",17-01-2024 20:00:00,26.902909,75.836858,NO2,8,44,18
India,Rajasthan,Jaipur,"Adarsh Nagar, Jaipur - RSPCB",17-01-2024 20:00:00,26.902909,75.836858,CO,30,62,42
India,Rajasthan,Jaipur,"Mansarovar Sector-12, Jaipur - RSPCB",17-01-2024 20:00:00,26.843698,75.766894,NH3,8,11,9
India,Rajasthan,Jaipur,"Mansarovar Sector-12, Jaipur - RSPCB",17-01-2024 20:00:00,26.843698,75.766894,SO2,3,8,5
India,Rajasthan,Jaipur,"Police Commissionerate, Jaipur - RSPCB",17-01-2024 20:00:00,26.9164092,75.7994901,PM2.5,84,307,179
India,Rajasthan,Jaipur,"Police Commissionerate, Jaipur - RSPCB",17-01-2024 20:00:00,26.9164092,75.7994901,NO2,24,83,43
India,Rajasthan,Jaipur,"Police Commissionerate, Jaipur - RSPCB",17-01-2024 20:00:00,26.9164092,75.7994901,SO2,6,31,16
India,Rajasthan,Jaipur,"RIICO Sitapura, Jaipur - RSPCB",17-01-2024 20:00:00,26.786682,75.827928,PM2.5,211,356,305
India,Rajasthan,Jaipur,"RIICO Sitapura, Jaipur - RSPCB",17-01-2024 20:00:00,26.786682,75.827928,NH3,2,10,4
India,Rajasthan,Jaipur,"RIICO Sitapura, Jaipur - RSPCB",17-01-2024 20:00:00,26.786682,75.827928,SO2,9,16,11
India,Rajasthan,Jaipur,"Sector-2 Murlipura, Jaipur - RSPCB",17-01-2024 20:00:00,26.960669,75.771817,PM2.5,140,376,235
India,Rajasthan,Jaipur,"Sector-2 Murlipura, Jaipur - RSPCB",17-01-2024 20:00:00,26.960669,75.771817,SO2,8,14,10
India,Rajasthan,Jaisalmer,"Sadar Bazar, Jaisalmer - RSPCB",17-01-2024 20:00:00,26.912329,70.909168,PM2.5,100,367,287
India,Rajasthan,Jhalawar,"Rajlaxmi Nagar, Jhalawar - RSPCB",17-01-2024 20:00:00,24.588397,76.172782,NO2,8,69,24
India,Rajasthan,Jhunjhunu,"Indra Nagar, Jhunjhunu - RSPCB",17-01-2024 20:00:00,28.108988,75.386577,PM2.5,273,465,364
India,Rajasthan,Jodhpur,"Digari Kalan, Jodhpur - RSPCB",17-01-2024 20:00:00,26.295810,73.082283,OZONE,3,122,86
India,Rajasthan,Jodhpur,"Jhalamand, Jodhpur - RSPCB",17-01-2024 20:00:00,26.215415,73.070156,NO2,19,111,58
India,Rajasthan,Jodhpur,"Jhalamand, Jodhpur - RSPCB",17-01-2024 20:00:00,26.215415,73.070156,NH3,6,19,13
India,Rajasthan,Jodhpur,"Mandor, Jodhpur - RSPCB",17-01-2024 20:00:00,26.358805,73.047444,NO2,25,134,72
India,Rajasthan,Jodhpur,"Samrat Ashok Udhyan, Jodhpur - RSPCB",17-01-2024 20:00:00,26.253384,72.976571,CO,28,150,49
India,Rajasthan,Karauli,"Satyawati Vihar, Karauli - RSPCB",17-01-2024 20:00:00,26.506177,77.025989,PM10,107,351,206
India,Rajasthan,Karauli,"Satyawati Vihar, Karauli - RSPCB",17-01-2024 20:00:00,26.506177,77.025989,CO,10,52,16
India,Rajasthan,Kota,"Dhanmandi, Kota - RSPCB",17-01-2024 20:00:00,25.164090,75.858137,PM2.5,204,365,286
India,Rajasthan,Kota,"Dhanmandi, Kota - RSPCB",17-01-2024 20:00:00,25.164090,75.858137,PM10,113,290,155
India,Rajasthan,Kota,"Dhanmandi, Kota - RSPCB",17-01-2024 20:00:00,25.164090,75.858137,NH3,5,8,6
India,Rajasthan,Kota,"Dhanmandi, Kota - RSPCB",17-01-2024 20:00:00,25.164090,75.858137,CO,52,109,75
India,Rajasthan,Kota,"Nayapura, Kota - RSPCB",17-01-2024 20:00:00,25.196024,75.855668,PM2.5,198,302,248
India,Rajasthan,Kota,"Nayapura, Kota - RSPCB",17-01-2024 20:00:00,25.196024,75.855668,PM10,113,146,125
India,Rajasthan,Kota,"Shrinath Puram, Kota - RSPCB",17-01-2024 20:00:00,25.14389,75.821256,PM2.5,136,307,203
India,Rajasthan,Kota,"Shrinath Puram, Kota - RSPCB",17-01-2024 20:00:00,25.14389,75.821256,NH3,3,13,9
India,Rajasthan,Kota,"Shrinath Puram, Kota - RSPCB",17-01-2024 20:00:00,25.14389,75.821256,SO2,4,108,25
India,Rajasthan,Kota,"Shrinath Puram, Kota - RSPCB",17-01-2024 20:00:00,25.14389,75.821256,CO,5,56,24
India,Rajasthan,Kota,"Shrinath Puram, Kota - RSPCB",17-01-2024 20:00:00,25.14389,75.821256,OZONE,13,76,54
India,Rajasthan,Nagaur,"Karni Colony, Nagaur - RSPCB",17-01-2024 20:00:00,27.213494,73.734444,CO,34,112,50
India,Rajasthan,Pali,"Indira Colony Vistar, Pali - RSPCB",17-01-2024 20:00:00,25.771061, 73.340227,PM2.5,77,344,206
India,Rajasthan,Pratapgarh,"Pragati Nagar, Pratapgarh - RSPCB",17-01-2024 20:00:00,24.041198,74.780702,PM2.5,63,262,116
India,Rajasthan,Pratapgarh,"Pragati Nagar, Pratapgarh - RSPCB",17-01-2024 20:00:00,24.041198,74.780702,NO2,16,59,28
India,Rajasthan,Pratapgarh,"Pragati Nagar, Pratapgarh - RSPCB",17-01-2024 20:00:00,24.041198,74.780702,CO,20,60,32
India,Rajasthan,Rajsamand,"Dhoinda, Rajsamand - RSPCB",17-01-2024 20:00:00,25.036360,73.883502,CO,20,70,32
India,Rajasthan,Rajsamand,"Dhoinda, Rajsamand - RSPCB",17-01-2024 20:00:00,25.036360,73.883502,OZONE,13,67,51
India,Rajasthan,Sawai Madhopur,"Sahu Nagar, Sawai Madhopur - RSPCB",17-01-2024 20:00:00,26.031443,76.359327,NO2,23,24,24
India,Rajasthan,Sawai Madhopur,"Sahu Nagar, Sawai Madhopur - RSPCB",17-01-2024 20:00:00,26.031443,76.359327,NH3,NA,NA,NA
India,Rajasthan,Sawai Madhopur,"Sahu Nagar, Sawai Madhopur - RSPCB",17-01-2024 20:00:00,26.031443,76.359327,OZONE,133,146,139
India,Rajasthan,Sirohi,"Vedhaynath Colony, Sirohi - RSPCB",17-01-2024 20:00:00,24.885261,72.857549,NO2,8,87,38
India,Rajasthan,Sirohi,"Vedhaynath Colony, Sirohi - RSPCB",17-01-2024 20:00:00,24.885261,72.857549,OZONE,1,135,111
India,Rajasthan,Sri Ganganagar,"Old City, Sri Ganganagar - RSPCB",17-01-2024 20:00:00,29.931624,73.864511,PM2.5,173,388,303
India,Rajasthan,Sri Ganganagar,"Old City, Sri Ganganagar - RSPCB",17-01-2024 20:00:00,29.931624,73.864511,CO,24,113,84
India,Rajasthan,Tonk,"Shastri Nagar, Tonk - RSPCB",17-01-2024 20:00:00,26.159933,75.780517,PM10,116,186,134
India,Rajasthan,Tonk,"Shastri Nagar, Tonk - RSPCB",17-01-2024 20:00:00,26.159933,75.780517,OZONE,19,59,40
India,Rajasthan,Udaipur,"Ashok Nagar, Udaipur - RSPCB",17-01-2024 20:00:00,24.5886166,73.6321397,PM2.5,57,227,130
India,Rajasthan,Udaipur,"Ashok Nagar, Udaipur - RSPCB",17-01-2024 20:00:00,24.5886166,73.6321397,SO2,4,44,17
India,Sikkim,Gangtok,"Zero Point GICI, Gangtok - SSPCB",17-01-2024 20:00:00,27.338530,88.614099,SO2,50,53,51
India,Sikkim,Gangtok,"Zero Point GICI, Gangtok - SSPCB",17-01-2024 20:00:00,27.338530,88.614099,OZONE,11,55,32
India,TamilNadu,Ariyalur,"Keelapalur, Ariyalur - TNPCB",17-01-2024 20:00:00,11.06825,79.07033,NO2,10,34,18
India,TamilNadu,Ariyalur,"Keelapalur, Ariyalur - TNPCB",17-01-2024 20:00:00,11.06825,79.07033,SO2,32,75,36
India,TamilNadu,Chengalpattu,"Crescent University, Chengalpattu - TNPCB",17-01-2024 20:00:00,12.8777316,80.0834807,SO2,23,23,23
India,TamilNadu,Chennai,"Arumbakkam, Chennai - TNPCB",17-01-2024 20:00:00,13.0664,80.2112 ,PM2.5,22,76,45
India,TamilNadu,Chennai,"Gandhi Nagar_Ennore, Chennai - TNPCB",17-01-2024 20:00:00,13.218341,80.32027,CO,111,111,111
India,TamilNadu,Chennai,"Kodungaiyur, Chennai - TNPCB",17-01-2024 20:00:00,13.1278,80.2642,PM2.5,5,37,19
India,TamilNadu,Chennai,"Kodungaiyur, Chennai - TNPCB",17-01-2024 20:00:00,13.1278,80.2642,NO2,10,21,14
India,TamilNadu,Chennai,"Manali, Chennai - CPCB",17-01-2024 20:00:00,13.164544,80.26285,PM2.5,4,319,116
India,TamilNadu,Chennai,"Manali, Chennai - CPCB",17-01-2024 20:00:00,13.164544,80.26285,SO2,2,15,6
India,TamilNadu,Chennai,"Manali, Chennai - CPCB",17-01-2024 20:00:00,13.164544,80.26285,OZONE,7,30,23
India,TamilNadu,Chennai,"Perungudi, Chennai - TNPCB",17-01-2024 20:00:00,12.9533,80.2357,OZONE,5,15,11
India,TamilNadu,Chennai,"Royapuram, Chennai - TNPCB",17-01-2024 20:00:00,13.1036,80.2909,OZONE,9,10,9
India,TamilNadu,Ooty,"Bombay Castel, Ooty - TNPCB",17-01-2024 20:00:00,11.4068288,76.7138973,SO2,13,13,13
India,TamilNadu,Palkalaiperur,"Bharathidasan University, Palkalaiperur - TNPCB",17-01-2024 20:00:00,10.681158,78.741746,SO2,27,28,27
India,TamilNadu,Ramanathapuram,"Chalai Bazaar, Ramanathapuram - TNPCB",17-01-2024 20:00:00,9.36399,78.831977,PM10,NA,NA,NA
India,TamilNadu,Ramanathapuram,"Chalai Bazaar, Ramanathapuram - TNPCB",17-01-2024 20:00:00,9.36399,78.831977,NH3,NA,NA,NA
India,TamilNadu,Ramanathapuram,"Chalai Bazaar, Ramanathapuram - TNPCB",17-01-2024 20:00:00,9.36399,78.831977,CO,2,6,4
India,TamilNadu,Ramanathapuram,"Chalai Bazaar, Ramanathapuram - TNPCB",17-01-2024 20:00:00,9.36399,78.831977,OZONE,14,14,14
India,TamilNadu,Tiruchirappalli,"St Joseph College, Tiruchirappalli - TNPCB",17-01-2024 20:00:00,10.830158,78.691849,PM10,50,103,66
India,Telangana,Hyderabad,"Central University, Hyderabad - TSPCB",17-01-2024 20:00:00,17.460103,78.334361,CO,22,54,37
India,Telangana,Hyderabad,"ECIL Kapra, Hyderabad - TSPCB",17-01-2024 20:00:00,17.470431,78.566959,CO,10,29,16
India,Telangana,Hyderabad,"ICRISAT Patancheru, Hyderabad - TSPCB",17-01-2024 20:00:00,17.518400,78.278777,PM2.5,65,105,77
India,Telangana,Hyderabad,"ICRISAT Patancheru, Hyderabad - TSPCB",17-01-2024 20:00:00,17.518400,78.278777,CO,24,62,33
India,Telangana,Hyderabad,"Kokapet, Hyderabad - TSPCB",17-01-2024 20:00:00,17.393559,78.339194,PM2.5,43,59,51
India,Telangana,Hyderabad,"Kokapet, Hyderabad - TSPCB",17-01-2024 20:00:00,17.393559,78.339194,NH3,1,2,1
India,Telangana,Hyderabad,"Kompally Municipal Office, Hyderabad - TSPCB",17-01-2024 20:00:00,17.544899,78.486949,PM2.5,44,194,77
India,Telangana,Hyderabad,"Kompally Municipal Office, Hyderabad - TSPCB",17-01-2024 20:00:00,17.544899,78.486949,NH3,5,7,6
India,Telangana,Hyderabad,"Nacharam_TSIIC IALA, Hyderabad - TSPCB",17-01-2024 20:00:00,17.429398,78.569354,OZONE,25,38,31
India,Telangana,Hyderabad,"New Malakpet, Hyderabad - TSPCB",17-01-2024 20:00:00,17.37206,78.50864,NO2,NA,NA,NA
India,Telangana,Hyderabad,"New Malakpet, Hyderabad - TSPCB",17-01-2024 20:00:00,17.37206,78.50864,NH3,NA,NA,NA
India,Telangana,Hyderabad,"Ramachandrapuram, Hyderabad - TSPCB",17-01-2024 20:00:00,17.528544,78.286195,PM2.5,33,39,37
India,Telangana,Hyderabad,"Ramachandrapuram, Hyderabad - TSPCB",17-01-2024 20:00:00,17.528544,78.286195,NH3,1,2,1
India,Telangana,Hyderabad,"Ramachandrapuram, Hyderabad - TSPCB",17-01-2024 20:00:00,17.528544,78.286195,SO2,9,10,9
India,Telangana,Hyderabad,"Ramachandrapuram, Hyderabad - TSPCB",17-01-2024 20:00:00,17.528544,78.286195,CO,27,31,29
India,Telangana,Hyderabad,"Sanathnagar, Hyderabad - TSPCB",17-01-2024 20:00:00,17.4559458,78.4332152,NO2,24,393,160
India,Telangana,Hyderabad,"Sanathnagar, Hyderabad - TSPCB",17-01-2024 20:00:00,17.4559458,78.4332152,SO2,4,24,8
India,Telangana,Hyderabad,"Zoo Park, Hyderabad - TSPCB",17-01-2024 20:00:00,17.349694,78.451437,PM10,52,150,92
India,Telangana,Hyderabad,"Zoo Park, Hyderabad - TSPCB",17-01-2024 20:00:00,17.349694,78.451437,CO,33,66,47
India,Uttar_Pradesh,Agra,"Manoharpur, Agra - UPPCB",17-01-2024 20:00:00,27.23711,78.01936,PM2.5,26,115,48
India,Uttar_Pradesh,Agra,"Rohta, Agra - UPPCB",17-01-2024 20:00:00,27.106972,78.000111,CO,12,42,14
India,Uttar_Pradesh,Agra,"Sanjay Palace, Agra - UPPCB",17-01-2024 20:00:00,27.19865833,78.00598056,PM2.5,28,100,54
India,Uttar_Pradesh,Agra,"Sanjay Palace, Agra - UPPCB",17-01-2024 20:00:00,27.19865833,78.00598056,PM10,50,124,79
India,Uttar_Pradesh,Agra,"Sector-3B Avas Vikas Colony, Agra - UPPCB",17-01-2024 20:00:00,27.19412,77.96237,PM2.5,22,110,56
India,Uttar_Pradesh,Agra,"Sector-3B Avas Vikas Colony, Agra - UPPCB",17-01-2024 20:00:00,27.19412,77.96237,NH3,4,7,6
India,Uttar_Pradesh,Agra,"Shahjahan Garden, Agra - UPPCB",17-01-2024 20:00:00,27.169338,78.03582,NH3,3,4,3
India,Uttar_Pradesh,Agra,"Shastripuram, Agra - UPPCB",17-01-2024 20:00:00,27.19862,77.92066,PM2.5,32,146,72
India,Uttar_Pradesh,Agra,"Shastripuram, Agra - UPPCB",17-01-2024 20:00:00,27.19862,77.92066,OZONE,1,3,1
India,Uttar_Pradesh,Bareilly,"Rajendra Nagar, Bareilly - UPPCB",17-01-2024 20:00:00,28.38910936,79.42963708,NH3,1,1,1
India,Uttar_Pradesh,Bulandshahr,"Yamunapuram, Bulandshahr - UPPCB",17-01-2024 20:00:00,28.406963,77.849831,OZONE,13,53,31
India,Uttar_Pradesh,Firozabad,"Nagla Bhau, Firozabad - UPPCB",17-01-2024 20:00:00,27.168897,78.376960,NO2,17,24,21
India,Uttar_Pradesh,Firozabad,"Vibhab Nagar, Firozabad - UPPCB",17-01-2024 20:00:00,27.1594,78.3953,PM10,30,59,45
India,Uttar_Pradesh,Ghaziabad,"Loni, Ghaziabad - UPPCB",17-01-2024 20:00:00,28.757294,77.278792,NH3,3,6,4
India,Uttar_Pradesh,Ghaziabad,"Vasundhara, Ghaziabad - UPPCB",17-01-2024 20:00:00,28.6603346,77.3572563,NO2,1,82,50
India,Uttar_Pradesh,Ghaziabad,"Vasundhara, Ghaziabad - UPPCB",17-01-2024 20:00:00,28.6603346,77.3572563,NH3,10,19,14
India,Uttar_Pradesh,Ghaziabad,"Vasundhara, Ghaziabad - UPPCB",17-01-2024 20:00:00,28.6603346,77.3572563,SO2,1,28,11
India,Uttar_Pradesh,Gorakhpur,"Madan Mohan Malaviya University of Technology, Gorakhpur - UPPCB",17-01-2024 20:00:00,26.730136,83.433859,NH3,2,2,2
India,Uttar_Pradesh,Greater Noida,"Knowledge Park - III, Greater Noida - UPPCB",17-01-2024 20:00:00,28.47272,77.482000,PM2.5,NA,NA,NA
India,Uttar_Pradesh,Greater Noida,"Knowledge Park - III, Greater Noida - UPPCB",17-01-2024 20:00:00,28.47272,77.482000,NO2,16,55,25
India,Uttar_Pradesh,Greater Noida,"Knowledge Park - III, Greater Noida - UPPCB",17-01-2024 20:00:00,28.47272,77.482000,OZONE,3,82,45
India,Uttar_Pradesh,Greater Noida,"Knowledge Park - V, Greater Noida - UPPCB",17-01-2024 20:00:00,28.557054,77.453663,PM10,161,411,211
India,Uttar_Pradesh,Greater Noida,"Knowledge Park - V, Greater Noida - UPPCB",17-01-2024 20:00:00,28.557054,77.453663,NO2,NA,NA,NA
India,Uttar_Pradesh,Greater Noida,"Knowledge Park - V, Greater Noida - UPPCB",17-01-2024 20:00:00,28.557054,77.453663,CO,24,53,38
India,Uttar_Pradesh,Hapur,"Anand Vihar, Hapur - UPPCB",17-01-2024 20:00:00,28.725645,77.749675,SO2,22,82,48
India,Uttar_Pradesh,Jhansi,"Shivaji Nagar, Jhansi - UPPCB",17-01-2024 20:00:00,25.4547,78.6039,OZONE,3,34,18
India,Uttar_Pradesh,Kanpur,"FTI Kidwai Nagar, Kanpur - UPPCB",17-01-2024 20:00:00,26.428282,80.327067,NH3,3,5,4
India,Uttar_Pradesh,Kanpur,"FTI Kidwai Nagar, Kanpur - UPPCB",17-01-2024 20:00:00,26.428282,80.327067,SO2,21,22,21
India,Uttar_Pradesh,Kanpur,"NSI Kalyanpur, Kanpur - UPPCB",17-01-2024 20:00:00,26.509954,80.249612,NH3,3,4,3
India,Uttar_Pradesh,Kanpur,"NSI Kalyanpur, Kanpur - UPPCB",17-01-2024 20:00:00,26.509954,80.249612,OZONE,16,34,24
India,Uttar_Pradesh,Kanpur,"Nehru Nagar, Kanpur - UPPCB",17-01-2024 20:00:00,26.4703136,80.3229863,CO,4,111,68
India,Uttar_Pradesh,Kanpur,"Nehru Nagar, Kanpur - UPPCB",17-01-2024 20:00:00,26.4703136,80.3229863,OZONE,9,74,48
India,Uttar_Pradesh,Khurja,"Kalindi Kunj, Khurja - UPPCB",17-01-2024 20:00:00,28.2348927,77.8683002,PM10,45,109,73
India,Uttar_Pradesh,Khurja,"Kalindi Kunj, Khurja - UPPCB",17-01-2024 20:00:00,28.2348927,77.8683002,NO2,22,49,29
India,Uttar_Pradesh,Lucknow,"B R Ambedkar University, Lucknow - UPPCB",17-01-2024 20:00:00,26.766433,80.927299,NO2,11,12,12
India,Uttar_Pradesh,Lucknow,"B R Ambedkar University, Lucknow - UPPCB",17-01-2024 20:00:00,26.766433,80.927299,SO2,23,24,23
India,Uttar_Pradesh,Lucknow,"Kendriya Vidyalaya, Lucknow - CPCB",17-01-2024 20:00:00,26.906111,80.948222,SO2,3,9,6
India,Uttar_Pradesh,Lucknow,"Talkatora District Industries Center, Lucknow - CPCB",17-01-2024 20:00:00,26.83399722,80.8917361,PM2.5,109,313,226
India,Uttar_Pradesh,Lucknow,"Talkatora District Industries Center, Lucknow - CPCB",17-01-2024 20:00:00,26.83399722,80.8917361,SO2,2,12,6
India,Uttar_Pradesh,Lucknow,"Talkatora District Industries Center, Lucknow - CPCB",17-01-2024 20:00:00,26.83399722,80.8917361,OZONE,2,71,43
India,Uttar_Pradesh,Meerut,"Ganga Nagar, Meerut - UPPCB",17-01-2024 20:00:00,28.999264,77.7590354,PM2.5,116,341,210
India,Uttar_Pradesh,Meerut,"Ganga Nagar, Meerut - UPPCB",17-01-2024 20:00:00,28.999264,77.7590354,NH3,6,13,9
India,Uttar_Pradesh,Meerut,"Ganga Nagar, Meerut - UPPCB",17-01-2024 20:00:00,28.999264,77.7590354,OZONE,4,6,5
India,Uttar_Pradesh,Meerut,"Pallavpuram Phase 2, Meerut - UPPCB",17-01-2024 20:00:00,29.063510,77.709723,PM10,88,189,127
India,Uttar_Pradesh,Moradabad,"Buddhi Vihar, Moradabad - UPPCB",17-01-2024 20:00:00,28.83526,78.74460,PM2.5,42,312,110
India,Uttar_Pradesh,Moradabad,"Eco Herbal Park, Moradabad - UPPCB",17-01-2024 20:00:00,28.840739,78.697531,PM2.5,78,310,180
India,Uttar_Pradesh,Moradabad,"Employment Office, Moradabad - UPPCB",17-01-2024 20:00:00,28.88528,78.73880,PM10,63,267,127
India,Uttar_Pradesh,Moradabad,"Employment Office, Moradabad - UPPCB",17-01-2024 20:00:00,28.88528,78.73880,SO2,23,25,24
India,Uttar_Pradesh,Moradabad,"Transport Nagar, Moradabad - UPPCB",17-01-2024 20:00:00,28.802625,78.753728,OZONE,14,16,16
India,Uttar_Pradesh,Muzaffarnagar,"New Mandi, Muzaffarnagar - UPPCB",17-01-2024 20:00:00,29.4723508,77.7194031,PM10,81,226,143
India,Uttar_Pradesh,Muzaffarnagar,"New Mandi, Muzaffarnagar - UPPCB",17-01-2024 20:00:00,29.4723508,77.7194031,NH3,7,13,10
India,Uttar_Pradesh,Noida,"Sector - 125, Noida - UPPCB",17-01-2024 20:00:00,28.5447608,77.3231257,PM10,118,202,150
India,Uttar_Pradesh,Noida,"Sector - 62, Noida - IMD",17-01-2024 20:00:00,28.6245479,77.3577104,PM2.5,247,387,324
India,Uttar_Pradesh,Noida,"Sector-1, Noida - UPPCB",17-01-2024 20:00:00,28.5898,77.3101,PM10,102,154,123
India,Uttar_Pradesh,Noida,"Sector-116, Noida - UPPCB",17-01-2024 20:00:00,28.569230,77.393848,PM10,130,202,162
India,Uttar_Pradesh,Prayagraj,"Jhunsi, Prayagraj - UPPCB",17-01-2024 20:00:00,25.425602,81.917152,NH3,5,5,5
India,Uttar_Pradesh,Prayagraj,"Jhunsi, Prayagraj - UPPCB",17-01-2024 20:00:00,25.425602,81.917152,SO2,30,32,31
India,Uttar_Pradesh,Prayagraj,"Jhunsi, Prayagraj - UPPCB",17-01-2024 20:00:00,25.425602,81.917152,OZONE,1,5,2
India,Uttar_Pradesh,Prayagraj,"Motilal Nehru NIT, Prayagraj - UPPCB",17-01-2024 20:00:00,25.494,81.863,NH3,6,7,7
India,Uttar_Pradesh,Prayagraj,"Nagar Nigam, Prayagraj - UPPCB",17-01-2024 20:00:00,25.44919916 ,81.82735986 ,CO,30,76,37
India,Uttar_Pradesh,Varanasi,"Ardhali Bazar, Varanasi - UPPCB",17-01-2024 20:00:00,25.3505986,82.9083074,PM2.5,38,64,47
India,Uttar_Pradesh,Varanasi,"Ardhali Bazar, Varanasi - UPPCB",17-01-2024 20:00:00,25.3505986,82.9083074,NO2,19,26,22
India,Uttar_Pradesh,Varanasi,"Ardhali Bazar, Varanasi - UPPCB",17-01-2024 20:00:00,25.3505986,82.9083074,SO2,12,17,14
India,Uttar_Pradesh,Varanasi,"Ardhali Bazar, Varanasi - UPPCB",17-01-2024 20:00:00,25.3505986,82.9083074,OZONE,17,20,19
India,Uttar_Pradesh,Varanasi,"Bhelupur, Varanasi - UPPCB",17-01-2024 20:00:00,25.301778,82.996789,NO2,16,28,22
India,Uttar_Pradesh,Varanasi,"Maldahiya, Varanasi - UPPCB",17-01-2024 20:00:00,25.32393,82.99687,PM2.5,36,65,45
India,Uttar_Pradesh,Varanasi,"Maldahiya, Varanasi - UPPCB",17-01-2024 20:00:00,25.32393,82.99687,PM10,53,97,67
India,Uttar_Pradesh,Varanasi,"Maldahiya, Varanasi - UPPCB",17-01-2024 20:00:00,25.32393,82.99687,NO2,4,22,12
India,Uttar_Pradesh,Varanasi,"Maldahiya, Varanasi - UPPCB",17-01-2024 20:00:00,25.32393,82.99687,OZONE,4,6,4
India,Uttar_Pradesh,Vrindavan,"Omex Eternity, Vrindavan - UPPCB",17-01-2024 20:00:00,27.5714090,77.6557570,NO2,2,3,2
India,Uttarakhand,Dehradun,"Doon University, Dehradun - UKPCB",17-01-2024 20:00:00,30.269444,78.044167,CO,40,96,60
India,Uttarakhand,Rishikesh,"Shivaji Nagar, Rishikesh - UKPCB",17-01-2024 20:00:00,30.075911,78.2859547,PM10,35,85,60
India,West_Bengal,Asansol,"Asansol Court Area, Asansol - WBPCB",17-01-2024 20:00:00,23.685297,86.945968,SO2,11,57,28
India,West_Bengal,Barrackpore,"SVSPA Campus, Barrackpore - WBPCB",17-01-2024 20:00:00,22.7605581,88.3617589,NH3,1,4,3
India,West_Bengal,Barrackpore,"SVSPA Campus, Barrackpore - WBPCB",17-01-2024 20:00:00,22.7605581,88.3617589,OZONE,9,25,22
India,West_Bengal,Durgapur,"Sidhu Kanhu Indoor Stadium, Durgapur - WBPCB",17-01-2024 20:00:00,23.5404352,87.2892225,CO,43,62,46
India,West_Bengal,Howrah,"Belur Math, Howrah - WBPCB",17-01-2024 20:00:00,22.629801,88.352017,CO,24,49,34
India,West_Bengal,Howrah,"Ghusuri, Howrah - WBPCB",17-01-2024 20:00:00,22.611968,88.347422,PM2.5,243,350,293
India,West_Bengal,Howrah,"Padmapukur, Howrah - WBPCB",17-01-2024 20:00:00,22.5687319,88.2797276,OZONE,2,25,15
India,West_Bengal,Kolkata,"Ballygunge, Kolkata - WBPCB",17-01-2024 20:00:00,22.5367507,88.3638022,OZONE,3,43,31
India,West_Bengal,Kolkata,"Bidhannagar, Kolkata - WBPCB",17-01-2024 20:00:00,22.58157048,88.41002457,PM10,135,193,155
India,West_Bengal,Kolkata,"Bidhannagar, Kolkata - WBPCB",17-01-2024 20:00:00,22.58157048,88.41002457,SO2,8,15,11
India,West_Bengal,Kolkata,"Bidhannagar, Kolkata - WBPCB",17-01-2024 20:00:00,22.58157048,88.41002457,CO,65,84,72
India,West_Bengal,Kolkata,"Bidhannagar, Kolkata - WBPCB",17-01-2024 20:00:00,22.58157048,88.41002457,OZONE,5,10,9
India,West_Bengal,Kolkata,"Fort William, Kolkata - WBPCB",17-01-2024 20:00:00,22.556640,88.342674,PM2.5,216,313,259
India,West_Bengal,Kolkata,"Fort William, Kolkata - WBPCB",17-01-2024 20:00:00,22.556640,88.342674,CO,32,80,38
India,West_Bengal,Kolkata,"Jadavpur, Kolkata - WBPCB",17-01-2024 20:00:00,22.49929,88.36917,NH3,4,7,5
India,West_Bengal,Kolkata,"Victoria, Kolkata - WBPCB",17-01-2024 20:00:00,22.5448082,88.3403691,SO2,16,30,22
India,West_Bengal,Siliguri,"Ward-32 Bapupara, Siliguri - WBPCB",17-01-2024 20:00:00,26.6879226,88.4152495,PM2.5,70,296,128
India,Andhra_Pradesh,Amaravati,"Secretariat, Amaravati - APPCB",17-01-2024 20:00:00,16.5150833,80.5181667,NH3,3,4,4
India,Andhra_Pradesh,Anantapur,"Gulzarpet, Anantapur - APPCB",17-01-2024 20:00:00,14.675886,77.593027,PM10,71,97,81
India,Andhra_Pradesh,Kadapa,"Yerramukkapalli, Kadapa - APPCB",17-01-2024 20:00:00,14.465052,78.824187,CO,12,18,14
India,Andhra_Pradesh,Rajamahendravaram,"Anand Kala Kshetram, Rajamahendravaram - APPCB",17-01-2024 20:00:00,16.9872867,81.7363176,PM10,62,112,83
India,Andhra_Pradesh,Rajamahendravaram,"Anand Kala Kshetram, Rajamahendravaram - APPCB",17-01-2024 20:00:00,16.9872867,81.7363176,CO,2,96,18
India,Andhra_Pradesh,Rajamahendravaram,"Anand Kala Kshetram, Rajamahendravaram - APPCB",17-01-2024 20:00:00,16.9872867,81.7363176,OZONE,5,9,7
India,Andhra_Pradesh,Tirupati,"Tirumala, Tirupati - APPCB",17-01-2024 20:00:00,13.67,79.35,PM2.5,39,102,62
India,Andhra_Pradesh,Tirupati,"Tirumala, Tirupati - APPCB",17-01-2024 20:00:00,13.67,79.35,CO,36,58,45
India,Andhra_Pradesh,Tirupati,"Vaikuntapuram, Tirupati - APPCB",17-01-2024 20:00:00,13.615387,79.409230,PM10,17,54,29
India,Andhra_Pradesh,Visakhapatnam,"GVM Corporation, Visakhapatnam - APPCB",17-01-2024 20:00:00,17.72,83.3,NH3,2,4,3
India,Andhra_Pradesh,Visakhapatnam,"GVM Corporation, Visakhapatnam - APPCB",17-01-2024 20:00:00,17.72,83.3,CO,20,64,33
India,Andhra_Pradesh,Visakhapatnam,"GVM Corporation, Visakhapatnam - APPCB",17-01-2024 20:00:00,17.72,83.3,OZONE,9,17,11
India,Arunachal_Pradesh,Naharlagun,"Naharlagun, Naharlagun - APSPCB",17-01-2024 20:00:00,27.103358,93.679645,SO2,3,3,3
India,Assam,Guwahati,"IITG, Guwahati - PCBA",17-01-2024 20:00:00,26.2028636,91.70046436,PM10,104,155,128
India,Assam,Guwahati,"IITG, Guwahati - PCBA",17-01-2024 20:00:00,26.2028636,91.70046436,NO2,1,9,3
India,Assam,Guwahati,"LGBI Airport, Guwahati - PCBA",17-01-2024 20:00:00,26.10887,91.589544,OZONE,4,69,49
India,Assam,Guwahati,"Pan Bazaar, Guwahati - PCBA",17-01-2024 20:00:00,26.187500,91.744194,CO,42,111,59
India,Assam,Guwahati,"Pan Bazaar, Guwahati - PCBA",17-01-2024 20:00:00,26.187500,91.744194,OZONE,17,17,17
India,Assam,Guwahati,"Railway Colony, Guwahati - PCBA",17-01-2024 20:00:00,26.181742,91.78063,SO2,NA,NA,NA
India,Assam,Nagaon,"Christianpatty, Nagaon - PCBA",17-01-2024 20:00:00,26.349082,92.68449,PM2.5,13,380,98
India,Assam,Nagaon,"Christianpatty, Nagaon - PCBA",17-01-2024 20:00:00,26.349082,92.68449,OZONE,3,36,21
India,Assam,Nalbari,"Bata Chowk, Nalbari - PCBA",17-01-2024 20:00:00,26.446912,91.439057,PM10,55,177,76
India,Assam,Silchar,"Tarapur, Silchar - PCBA",17-01-2024 20:00:00,24.82827,92.79525,PM10,41,52,44
India,Assam,Sivasagar,"Girls College, Sivasagar - PCBA",17-01-2024 20:00:00,26.987634,94.636574,PM2.5,26,89,50
India,Assam,Sivasagar,"Girls College, Sivasagar - PCBA",17-01-2024 20:00:00,26.987634,94.636574,CO,26,39,29
India,Bihar,Araria,"Kharahiya Basti, Araria - BSPCB",17-01-2024 20:00:00,26.146529,87.454184,SO2,12,17,15
India,Bihar,Arrah,"New DM Office, Arrah - BSPCB",17-01-2024 20:00:00,25.5626095,84.663264,PM2.5,227,352,281
India,Bihar,Arrah,"New DM Office, Arrah - BSPCB",17-01-2024 20:00:00,25.5626095,84.663264,NH3,4,7,5
India,Bihar,Arrah,"New DM Office, Arrah - BSPCB",17-01-2024 20:00:00,25.5626095,84.663264,CO,2,13,6
India,Bihar,Bettiah,"Kamalnath Nagar, Bettiah - BSPCB",17-01-2024 20:00:00,26.80365,84.51954,PM2.5,NA,NA,NA
India,Bihar,Bettiah,"Kamalnath Nagar, Bettiah - BSPCB",17-01-2024 20:00:00,26.80365,84.51954,SO2,10,23,17
India,Bihar,Bettiah,"Kamalnath Nagar, Bettiah - BSPCB",17-01-2024 20:00:00,26.80365,84.51954,CO,NA,NA,NA
India,Bihar,Bhagalpur,"DM Office_Kachari Chowk, Bhagalpur - BSPCB",17-01-2024 20:00:00,25.251013,86.989001,NO2,26,92,43
India,Bihar,Bihar Sharif,"D M Colony, Bihar Sharif - BSPCB",17-01-2024 20:00:00,25.204762,85.514960,PM10,116,200,146
India,Bihar,Bihar Sharif,"D M Colony, Bihar Sharif - BSPCB",17-01-2024 20:00:00,25.204762,85.514960,NO2,9,11,9
India,Bihar,Bihar Sharif,"D M Colony, Bihar Sharif - BSPCB",17-01-2024 20:00:00,25.204762,85.514960,CO,9,52,34
India,Bihar,Gaya,"Collectorate, Gaya - BSPCB",17-01-2024 20:00:00,24.7955,84.9994,CO,31,47,34
India,Bihar,Gaya,"SFTI Kusdihra, Gaya - BSPCB",17-01-2024 20:00:00,24.762518,84.982348,NO2,28,38,33
India,Bihar,Gaya,"SFTI Kusdihra, Gaya - BSPCB",17-01-2024 20:00:00,24.762518,84.982348,SO2,7,11,9
India,Bihar,Hajipur,"Industrial Area, Hajipur - BSPCB",17-01-2024 20:00:00,25.697189,85.245900,PM2.5,72,215,125
India,Bihar,Hajipur,"Industrial Area, Hajipur - BSPCB",17-01-2024 20:00:00,25.697189,85.245900,NO2,27,45,36
India,Bihar,Hajipur,"Industrial Area, Hajipur - BSPCB",17-01-2024 20:00:00,25.697189,85.245900,NH3,7,9,8
India,Bihar,Katihar,"Mirchaibari, Katihar - BSPCB",17-01-2024 20:00:00,25.560083,87.553265,NH3,3,3,3
India,Bihar,Katihar,"Mirchaibari, Katihar - BSPCB",17-01-2024 20:00:00,25.560083,87.553265,CO,6,32,30
India,Bihar,Kishanganj,"SDM Office_Khagra, Kishanganj - BSPCB",17-01-2024 20:00:00,26.0881305,87.93840336,NO2,28,31,30
India,Bihar,Motihari,"Gandak Colony, Motihari - BSPCB",17-01-2024 20:00:00,26.63086,84.90051,PM10,52,120,83
India,Bihar,Motihari,"Gandak Colony, Motihari - BSPCB",17-01-2024 20:00:00,26.63086,84.90051,NO2,32,78,50
India,Bihar,Muzaffarpur,"MIT-Daudpur Kothi, Muzaffarpur - BSPCB",17-01-2024 20:00:00,26.1403345,85.3650192,PM2.5,140,339,240
India,Bihar,Patna,"DRM Office Danapur, Patna - BSPCB",17-01-2024 20:00:00,25.586562,85.043586,PM2.5,318,396,350
India,Bihar,Patna,"Govt. High School Shikarpur, Patna - BSPCB",17-01-2024 20:00:00,25.592539,85.227158,PM2.5,42,198,103
India,Bihar,Patna,"Rajbansi Nagar, Patna - BSPCB",17-01-2024 20:00:00,25.599486,85.113666,PM10,170,408,260
India,Bihar,Patna,"Samanpura, Patna - BSPCB",17-01-2024 20:00:00,25.596727,85.085624,PM2.5,173,342,272
India,Bihar,Patna,"Samanpura, Patna - BSPCB",17-01-2024 20:00:00,25.596727,85.085624,NH3,3,3,3
India,Bihar,Patna,"Samanpura, Patna - BSPCB",17-01-2024 20:00:00,25.596727,85.085624,OZONE,39,66,52
India,Bihar,Purnia,"Mariam Nagar, Purnia - BSPCB",17-01-2024 20:00:00,25.366336,87.117468,PM10,56,173,120
India,Bihar,Rajgir,"Dangi Tola, Rajgir - BSPCB",17-01-2024 20:00:00,25.03280,85.41948,PM2.5,243,378,337
India,Bihar,Rajgir,"Dangi Tola, Rajgir - BSPCB",17-01-2024 20:00:00,25.03280,85.41948,NO2,5,13,7
India,Bihar,Saharsa,"Police Line, Saharsa - BSPCB",17-01-2024 20:00:00,25.892357,86.590325,NO2,5,8,7
India,Bihar,Saharsa,"Police Line, Saharsa - BSPCB",17-01-2024 20:00:00,25.892357,86.590325,SO2,18,18,18
India,Bihar,Saharsa,"Police Line, Saharsa - BSPCB",17-01-2024 20:00:00,25.892357,86.590325,CO,9,54,34
India,Bihar,Saharsa,"Police Line, Saharsa - BSPCB",17-01-2024 20:00:00,25.892357,86.590325,OZONE,2,4,3
India,Bihar,Samastipur,"DM Office_Kasipur, Samastipur - BSPCB",17-01-2024 20:00:00,25.859655,85.77944,PM10,89,173,125
India,Bihar,Samastipur,"DM Office_Kasipur, Samastipur - BSPCB",17-01-2024 20:00:00,25.859655,85.77944,SO2,10,16,13
India,Bihar,Sasaram,"Dada Peer, Sasaram - BSPCB",17-01-2024 20:00:00,24.952822,84.002396,PM2.5,189,321,252
India,Bihar,Sasaram,"Dada Peer, Sasaram - BSPCB",17-01-2024 20:00:00,24.952822,84.002396,CO,28,54,47
India,Chandigarh,Chandigarh,"Sector 22, Chandigarh - CPCC",17-01-2024 20:00:00,30.735567,76.775714,SO2,2,89,17
India,Chandigarh,Chandigarh,"Sector-25, Chandigarh - CPCC",17-01-2024 20:00:00,30.751462,76.762879,NO2,NA,NA,NA
India,Chandigarh,Chandigarh,"Sector-25, Chandigarh - CPCC",17-01-2024 20:00:00,30.751462,76.762879,OZONE,1,26,15
India,Chandigarh,Chandigarh,"Sector-53, Chandigarh - CPCC",17-01-2024 20:00:00,30.719859,76.738637,PM10,160,447,300
India,Chandigarh,Chandigarh,"Sector-53, Chandigarh - CPCC",17-01-2024 20:00:00,30.719859,76.738637,NO2,36,104,59
India,Chandigarh,Chandigarh,"Sector-53, Chandigarh - CPCC",17-01-2024 20:00:00,30.719859,76.738637,NH3,8,13,10
India,Chandigarh,Chandigarh,"Sector-53, Chandigarh - CPCC",17-01-2024 20:00:00,30.719859,76.738637,SO2,5,89,23
India,Chandigarh,Chandigarh,"Sector-53, Chandigarh - CPCC",17-01-2024 20:00:00,30.719859,76.738637,OZONE,3,44,28
India,Chhattisgarh,Bhilai,"32Bungalows, Bhilai - CECB",17-01-2024 20:00:00,21.194815,81.314770,PM10,85,146,117
India,Chhattisgarh,Bhilai,"32Bungalows, Bhilai - CECB",17-01-2024 20:00:00,21.194815,81.314770,OZONE,4,7,6
India,Chhattisgarh,Bhilai,"Civic Center, Bhilai - Bhilai Steel Plant",17-01-2024 20:00:00,21.185571,81.343175,PM2.5,49,91,66
India,Chhattisgarh,Bhilai,"Civic Center, Bhilai - Bhilai Steel Plant",17-01-2024 20:00:00,21.185571,81.343175,PM10,56,115,89
India,Chhattisgarh,Bilaspur,"Mangala, Bilaspur - NTPC",17-01-2024 20:00:00,22.08815,82.13737,NO2,12,17,14
India,Chhattisgarh,Kunjemura,"OP Jindal School, Kunjemura - CECB",17-01-2024 20:00:00,22.126650,83.483212,PM2.5,22,88,66
India,Chhattisgarh,Kunjemura,"OP Jindal School, Kunjemura - CECB",17-01-2024 20:00:00,22.126650,83.483212,PM10,61,233,131
India,Chhattisgarh,Kunjemura,"OP Jindal School, Kunjemura - CECB",17-01-2024 20:00:00,22.126650,83.483212,NH3,1,6,2
India,Chhattisgarh,Milupara,"Govt. Higher Secondary School, Milupara - CECB",17-01-2024 20:00:00,22.1910172,83.5197009,PM2.5,44,112,66
India,Chhattisgarh,Milupara,"Govt. Higher Secondary School, Milupara - CECB",17-01-2024 20:00:00,22.1910172,83.5197009,CO,33,76,54
India,Chhattisgarh,Milupara,"Govt. Higher Secondary School, Milupara - CECB",17-01-2024 20:00:00,22.1910172,83.5197009,OZONE,9,62,43
India,Chhattisgarh,Raipur,"Bhatagaon New ISBT, Raipur - CECB",17-01-2024 20:00:00,21.219665,81.630094,NO2,70,101,84
India,Chhattisgarh,Raipur,"Bhatagaon New ISBT, Raipur - CECB",17-01-2024 20:00:00,21.219665,81.630094,CO,32,76,50
India,Chhattisgarh,Raipur,"Krishak Nagar, Raipur - CECB",17-01-2024 20:00:00,21.237755,81.705301,SO2,8,12,10
India,Chhattisgarh,Raipur,"Krishak Nagar, Raipur - CECB",17-01-2024 20:00:00,21.237755,81.705301,OZONE,3,5,4
India,Chhattisgarh,Raipur,"Siltara Phase-II, Raipur - CECB",17-01-2024 20:00:00,21.371751,81.664929,SO2,2,19,5
India,Delhi,Delhi,"Alipur, Delhi - DPCC",17-01-2024 20:00:00,28.815329,77.153010,PM2.5,357,438,402
India,Delhi,Delhi,"Alipur, Delhi - DPCC",17-01-2024 20:00:00,28.815329,77.153010,SO2,7,12,9
India,Delhi,Delhi,"Anand Vihar, Delhi - DPCC",17-01-2024 20:00:00,28.647622,77.3158090,PM2.5,340,455,379
India,Delhi,Delhi,"Anand Vihar, Delhi - DPCC",17-01-2024 20:00:00,28.647622,77.3158090,PM10,202,413,281
India,Delhi,Delhi,"Anand Vihar, Delhi - DPCC",17-01-2024 20:00:00,28.647622,77.3158090,OZONE,15,22,19
India,Delhi,Delhi,"Ashok Vihar, Delhi - DPCC",17-01-2024 20:00:00,28.695381,77.181665,NO2,52,132,83
India,Delhi,Delhi,"Ashok Vihar, Delhi - DPCC",17-01-2024 20:00:00,28.695381,77.181665,CO,26,103,66
India,Delhi,Delhi,"Bawana, Delhi - DPCC",17-01-2024 20:00:00,28.776200,77.051074,PM10,254,479,378
India,Delhi,Delhi,"CRRI Mathura Road, Delhi - IMD",17-01-2024 20:00:00,28.5512005,77.2735737,PM10,27,238,141
India,Delhi,Delhi,"DTU, Delhi - CPCB",17-01-2024 20:00:00,28.7500499,77.1112615,PM10,223,436,340
India,Delhi,Delhi,"DTU, Delhi - CPCB",17-01-2024 20:00:00,28.7500499,77.1112615,OZONE,27,34,29
India,Delhi,Delhi,"IGI Airport (T3), Delhi - IMD",17-01-2024 20:00:00,28.5627763,77.1180053,PM2.5,334,415,355
India,Delhi,Delhi,"IGI Airport (T3), Delhi - IMD",17-01-2024 20:00:00,28.5627763,77.1180053,CO,1,28,1
India,Delhi,Delhi,"IGI Airport (T3), Delhi - IMD",17-01-2024 20:00:00,28.5627763,77.1180053,OZONE,7,39,21
India,Delhi,Delhi,"IHBAS, Dilshad Garden, Delhi - CPCB",17-01-2024 20:00:00,28.6811736,77.3025234,OZONE,7,56,33
India,Delhi,Delhi,"ITO, Delhi - CPCB",17-01-2024 20:00:00,28.628624,77.241060,SO2,8,23,17
India,Delhi,Delhi,"Jahangirpuri, Delhi - DPCC",17-01-2024 20:00:00,28.732820,77.170633,OZONE,8,36,19
India,Delhi,Delhi,"Jawaharlal Nehru Stadium, Delhi - DPCC",17-01-2024 20:00:00,28.580280,77.233829,PM10,168,270,225
India,Delhi,Delhi,"Jawaharlal Nehru Stadium, Delhi - DPCC",17-01-2024 20:00:00,28.580280,77.233829,OZONE,3,42,26
India,Delhi,Delhi,"Lodhi Road, Delhi - IITM",17-01-2024 20:00:00,28.588333,77.221667,NH3,9,12,10
India,Delhi,Delhi,"Lodhi Road, Delhi - IITM",17-01-2024 20:00:00,28.588333,77.221667,CO,66,69,67
India,Delhi,Delhi,"Lodhi Road, Delhi - IMD",17-01-2024 20:00:00,28.5918245,77.2273074,CO,29,48,34
India,Delhi,Delhi,"Major Dhyan Chand National Stadium, Delhi - DPCC",17-01-2024 20:00:00,28.611281,77.237738,PM10,160,283,213
India,Delhi,Delhi,"Mundka, Delhi - DPCC",17-01-2024 20:00:00,28.684678,77.076574,PM2.5,400,455,421
India,Delhi,Delhi,"Mundka, Delhi - DPCC",17-01-2024 20:00:00,28.684678,77.076574,PM10,288,457,360
India,Delhi,Delhi,"Mundka, Delhi - DPCC",17-01-2024 20:00:00,28.684678,77.076574,SO2,9,18,15
India,Delhi,Delhi,"NSIT Dwarka, Delhi - CPCB",17-01-2024 20:00:00,28.60909,77.0325413,PM2.5,362,449,383
India,Delhi,Delhi,"NSIT Dwarka, Delhi - CPCB",17-01-2024 20:00:00,28.60909,77.0325413,PM10,184,452,255
India,Delhi,Delhi,"NSIT Dwarka, Delhi - CPCB",17-01-2024 20:00:00,28.60909,77.0325413,NO2,38,79,54
India,Delhi,Delhi,"NSIT Dwarka, Delhi - CPCB",17-01-2024 20:00:00,28.60909,77.0325413,SO2,5,16,11
India,Delhi,Delhi,"Narela, Delhi - DPCC",17-01-2024 20:00:00,28.822836,77.101981,CO,76,112,96
India,Delhi,Delhi,"New Moti Bagh, Delhi - MHUA",17-01-2024 20:00:00,28.57834,77.18400,NO2,2,7,4
India,Delhi,Delhi,"North Campus, DU, Delhi - IMD",17-01-2024 20:00:00,28.6573814,77.1585447,PM2.5,320,499,372
India,Delhi,Delhi,"Okhla Phase-2, Delhi - DPCC",17-01-2024 20:00:00,28.530785,77.271255,NO2,48,114,63
India,Delhi,Delhi,"Patparganj, Delhi - DPCC",17-01-2024 20:00:00,28.623763,77.287209,PM10,177,411,271
India,Delhi,Delhi,"Pusa, Delhi - IMD",17-01-2024 20:00:00,28.636110,77.173332,PM2.5,NA,NA,NA
India,Delhi,Delhi,"R K Puram, Delhi - DPCC",17-01-2024 20:00:00,28.563262,77.186937,PM2.5,364,404,382
India,Delhi,Delhi,"R K Puram, Delhi - DPCC",17-01-2024 20:00:00,28.563262,77.186937,SO2,13,31,21
India,Delhi,Delhi,"R K Puram, Delhi - DPCC",17-01-2024 20:00:00,28.563262,77.186937,CO,62,116,82
India,Delhi,Delhi,"R K Puram, Delhi - DPCC",17-01-2024 20:00:00,28.563262,77.186937,OZONE,9,88,52
India,Delhi,Delhi,"Rohini, Delhi - DPCC",17-01-2024 20:00:00,28.732528,77.119920,PM10,203,435,315
India,Delhi,Delhi,"Rohini, Delhi - DPCC",17-01-2024 20:00:00,28.732528,77.119920,OZONE,1,95,49
India,Delhi,Delhi,"Shadipur, Delhi - CPCB",17-01-2024 20:00:00,28.6514781,77.1473105,PM10,196,410,310
India,Delhi,Delhi,"Shadipur, Delhi - CPCB",17-01-2024 20:00:00,28.6514781,77.1473105,OZONE,26,170,91
India,Delhi,Delhi,"Sirifort, Delhi - CPCB",17-01-2024 20:00:00,28.5504249,77.2159377,SO2,27,30,28
India,Delhi,Delhi,"Sirifort, Delhi - CPCB",17-01-2024 20:00:00,28.5504249,77.2159377,CO,31,78,48
India,Delhi,Delhi,"Sonia Vihar, Delhi - DPCC",17-01-2024 20:00:00,28.710508,77.249485,NH3,8,13,10
India,Delhi,Delhi,"Sonia Vihar, Delhi - DPCC",17-01-2024 20:00:00,28.710508,77.249485,OZONE,3,127,69
India,Delhi,Delhi,"Vivek Vihar, Delhi - DPCC",17-01-2024 20:00:00,28.672342,77.315260,NH3,6,13,9
India,Delhi,Delhi,"Wazirpur, Delhi - DPCC",17-01-2024 20:00:00,28.699793,77.165453,PM10,224,482,342
India,Delhi,Delhi,"Wazirpur, Delhi - DPCC",17-01-2024 20:00:00,28.699793,77.165453,NO2,146,327,206
India,Gujarat,Ahmedabad,"Chandkheda, Ahmedabad - IITM",17-01-2024 20:00:00,23.107969,72.574648,OZONE,20,23,23
India,Gujarat,Ahmedabad,"Gyaspur, Ahmedabad - IITM",17-01-2024 20:00:00,22.977134,72.553024,SO2,8,8,8
India,Gujarat,Ahmedabad,"SAC ISRO Satellite, Ahmedabad - IITM",17-01-2024 20:00:00,23.023389,72.515201,NH3,2,4,3
India,Gujarat,Ahmedabad,"Sardar Vallabhbhai Patel Stadium, Ahmedabad - IITM",17-01-2024 20:00:00,23.043070,72.562968,CO,13,120,25
India,Gujarat,Ankleshwar,"GIDC, Ankleshwar - GPCB",17-01-2024 20:00:00,21.613267,73.010555,PM2.5,55,313,120
India,Gujarat,Ankleshwar,"GIDC, Ankleshwar - GPCB",17-01-2024 20:00:00,21.613267,73.010555,NO2,33,34,34
India,Gujarat,Gandhinagar,"GIFT City, Gandhinagar - IITM",17-01-2024 20:00:00,23.163798,72.677768,SO2,5,8,6
India,Gujarat,Gandhinagar,"Sector-10, Gandhinagar - GPCB",17-01-2024 20:00:00,23.221714,72.654328,PM10,43,116,72
India,Gujarat,Gandhinagar,"Sector-10, Gandhinagar - GPCB",17-01-2024 20:00:00,23.221714,72.654328,NO2,5,11,7
India,Gujarat,Gandhinagar,"Sector-10, Gandhinagar - GPCB",17-01-2024 20:00:00,23.221714,72.654328,CO,19,20,20
India,Gujarat,Vatva,"Phase-4 GIDC, Vatva - GPCB",17-01-2024 20:00:00,22.969611,72.643500,PM2.5,29,260,107
India,Gujarat,Vatva,"Phase-4 GIDC, Vatva - GPCB",17-01-2024 20:00:00,22.969611,72.643500,NH3,1,2,1
India,Haryana,Ambala,"Patti Mehar, Ambala - HSPCB",17-01-2024 20:00:00,30.379589,76.778328,NH3,5,12,8
India,Haryana,Bahadurgarh,"Arya Nagar, Bahadurgarh - HSPCB",17-01-2024 20:00:00,28.6701,76.9254,PM10,159,275,195
India,Haryana,Bahadurgarh,"Arya Nagar, Bahadurgarh - HSPCB",17-01-2024 20:00:00,28.6701,76.9254,NO2,33,39,37
India,Haryana,Ballabgarh,"Nathu Colony, Ballabgarh - HSPCB",17-01-2024 20:00:00,28.3419248,77.319699,PM10,165,194,180
India,Haryana,Ballabgarh,"Nathu Colony, Ballabgarh - HSPCB",17-01-2024 20:00:00,28.3419248,77.319699,NO2,11,14,13
India,Haryana,Bhiwani,"H.B. Colony, Bhiwani - HSPCB",17-01-2024 20:00:00,28.806223,76.141105,NO2,7,11,9
India,Haryana,Bhiwani,"H.B. Colony, Bhiwani - HSPCB",17-01-2024 20:00:00,28.806223,76.141105,SO2,5,40,11
India,Haryana,Bhiwani,"H.B. Colony, Bhiwani - HSPCB",17-01-2024 20:00:00,28.806223,76.141105,OZONE,14,47,21
India,Haryana,Faridabad,"New Industrial Town, Faridabad - HSPCB",17-01-2024 20:00:00,28.39072,77.30059,OZONE,26,129,85
India,Haryana,Faridabad,"Sector 11, Faridabad - HSPCB",17-01-2024 20:00:00,28.376058,77.315741,PM2.5,240,323,281
India,Haryana,Faridabad,"Sector 30, Faridabad - HSPCB",17-01-2024 20:00:00,28.4417,77.3217,PM2.5,130,173,157
India,Haryana,Faridabad,"Sector 30, Faridabad - HSPCB",17-01-2024 20:00:00,28.4417,77.3217,PM10,120,136,130
India,Haryana,Faridabad,"Sector 30, Faridabad - HSPCB",17-01-2024 20:00:00,28.4417,77.3217,CO,50,113,88
India,Haryana,Faridabad,"Sector- 16A, Faridabad - HSPCB",17-01-2024 20:00:00,28.4088421,77.3099081,SO2,22,27,25
India,Haryana,Faridabad,"Sector- 16A, Faridabad - HSPCB",17-01-2024 20:00:00,28.4088421,77.3099081,CO,8,71,39
India,Haryana,Fatehabad,"Huda Sector, Fatehabad - HSPCB",17-01-2024 20:00:00,29.503664,75.467934,PM10,103,132,116
India,Haryana,Fatehabad,"Huda Sector, Fatehabad - HSPCB",17-01-2024 20:00:00,29.503664,75.467934,NH3,10,11,10
India,Haryana,Gurugram,"Sector-51, Gurugram - HSPCB",17-01-2024 20:00:00,28.4227,77.0667,PM2.5,138,395,245
India,Haryana,Gurugram,"Sector-51, Gurugram - HSPCB",17-01-2024 20:00:00,28.4227,77.0667,SO2,2,3,2
India,Haryana,Gurugram,"Teri Gram, Gurugram - HSPCB",17-01-2024 20:00:00,28.4275,77.1465,CO,39,70,45
India,Haryana,Gurugram,"Vikas Sadan, Gurugram - HSPCB",17-01-2024 20:00:00,28.4501238,77.0263051,PM2.5,166,301,233
India,Haryana,Gurugram,"Vikas Sadan, Gurugram - HSPCB",17-01-2024 20:00:00,28.4501238,77.0263051,CO,54,138,95
India,Haryana,Gurugram,"Vikas Sadan, Gurugram - HSPCB",17-01-2024 20:00:00,28.4501238,77.0263051,OZONE,8,68,50
India,Haryana,Jind,"Police Lines, Jind - HSPCB",17-01-2024 20:00:00,29.307814,76.337619,SO2,4,110,13
India,Haryana,Kaithal,"Rishi Nagar, Kaithal - HSPCB",17-01-2024 20:00:00,29.8006,76.4155,CO,28,105,65
India,Haryana,Kaithal,"Rishi Nagar, Kaithal - HSPCB",17-01-2024 20:00:00,29.8006,76.4155,OZONE,6,15,10
India,Haryana,Karnal,"Sector-12, Karnal - HSPCB",17-01-2024 20:00:00,29.695300,77.002700,PM2.5,92,408,172
India,Haryana,Karnal,"Sector-12, Karnal - HSPCB",17-01-2024 20:00:00,29.695300,77.002700,NO2,7,12,10
India,Haryana,Kurukshetra,"Sector-7, Kurukshetra - HSPCB",17-01-2024 20:00:00,29.966942,76.875879,NO2,10,12,10
India,Haryana,Kurukshetra,"Sector-7, Kurukshetra - HSPCB",17-01-2024 20:00:00,29.966942,76.875879,OZONE,3,51,26
India,Haryana,Manesar,"Sector-2 IMT, Manesar - HSPCB",17-01-2024 20:00:00,28.360699,76.936090,PM2.5,218,348,321
India,Haryana,Manesar,"Sector-2 IMT, Manesar - HSPCB",17-01-2024 20:00:00,28.360699,76.936090,CO,26,53,29
India,Haryana,Narnaul,"Shastri Nagar, Narnaul - HSPCB",17-01-2024 20:00:00,28.060249,76.113115,NO2,17,47,33
India,Haryana,Narnaul,"Shastri Nagar, Narnaul - HSPCB",17-01-2024 20:00:00,28.060249,76.113115,NH3,5,15,11
India,Haryana,Narnaul,"Shastri Nagar, Narnaul - HSPCB",17-01-2024 20:00:00,28.060249,76.113115,SO2,12,34,14
India,Haryana,Narnaul,"Shastri Nagar, Narnaul - HSPCB",17-01-2024 20:00:00,28.060249,76.113115,CO,15,30,23
India,Haryana,Palwal,"Shyam Nagar, Palwal - HSPCB",17-01-2024 20:00:00,28.1485564,77.3320667,NO2,5,5,5
India,Haryana,Panipat,"Sector-18, Panipat - HSPCB",17-01-2024 20:00:00,29.497973,76.993331,NH3,2,3,2
India,Haryana,Sirsa,"F-Block, Sirsa - HSPCB",17-01-2024 20:00:00,29.536400,75.015800,PM2.5,115,226,166
India,Haryana,Sirsa,"F-Block, Sirsa - HSPCB",17-01-2024 20:00:00,29.536400,75.015800,NO2,10,10,10
India,Haryana,Sonipat,"Murthal, Sonipat - HSPCB",17-01-2024 20:00:00,29.027200,77.062100,PM10,132,384,182
India,Haryana,Sonipat,"Murthal, Sonipat - HSPCB",17-01-2024 20:00:00,29.027200,77.062100,NO2,37,44,40
India,Haryana,Sonipat,"Murthal, Sonipat - HSPCB",17-01-2024 20:00:00,29.027200,77.062100,CO,4,66,39
India,Haryana,Yamuna Nagar,"Gobind Pura, Yamuna Nagar - HSPCB",17-01-2024 20:00:00,30.1480566,77.2893471,NH3,1,6,4
India,Haryana,Yamuna Nagar,"Gobind Pura, Yamuna Nagar - HSPCB",17-01-2024 20:00:00,30.1480566,77.2893471,CO,7,122,67
India,Himachal Pradesh,Baddi,"HIMUDA Complex Phase-1, Baddi - HPPCB",17-01-2024 20:00:00,30.943887,76.801991,PM2.5,123,500,355
India,Himachal Pradesh,Baddi,"HIMUDA Complex Phase-1, Baddi - HPPCB",17-01-2024 20:00:00,30.943887,76.801991,SO2,33,132,90
India,Himachal Pradesh,Baddi,"HIMUDA Complex Phase-1, Baddi - HPPCB",17-01-2024 20:00:00,30.943887,76.801991,OZONE,9,103,67
India,Jharkhand,Dhanbad,"Kalakusuma, Dhanbad - DMC",17-01-2024 20:00:00,23.811548,86.481238,NO2,32,34,33
India,Jharkhand,Dhanbad,"Kalakusuma, Dhanbad - DMC",17-01-2024 20:00:00,23.811548,86.481238,SO2,108,112,110
India,Karnataka,Bengaluru,"Bapuji Nagar, Bengaluru - KSPCB",17-01-2024 20:00:00,12.951913,77.539784,NO2,10,12,11
India,Karnataka,Bengaluru,"Hombegowda Nagar, Bengaluru - KSPCB",17-01-2024 20:00:00,12.938539,77.590100,PM2.5,50,122,70
India,Karnataka,Bengaluru,"Jayanagar 5th Block, Bengaluru - KSPCB",17-01-2024 20:00:00,12.920984,77.584908,SO2,17,26,21
India,Karnataka,Bengaluru,"Jigani, Bengaluru - KSPCB",17-01-2024 20:00:00,12.7816279,77.6299145,PM10,71,138,109
India,Karnataka,Bengaluru,"Kasturi Nagar, Bengaluru - KSPCB",17-01-2024 20:00:00,13.003872,77.664217,CO,24,26,26
India,Karnataka,Bengaluru,"Shivapura_Peenya, Bengaluru - KSPCB",17-01-2024 20:00:00,13.0246342,77.5080115,PM2.5,23,158,64
India,Karnataka,Bengaluru,"Shivapura_Peenya, Bengaluru - KSPCB",17-01-2024 20:00:00,13.0246342,77.5080115,SO2,3,18,9
India,Karnataka,Bengaluru,"Silk Board, Bengaluru - KSPCB",17-01-2024 20:00:00,12.917348,77.622813,PM2.5,56,298,92
India,Karnataka,Bengaluru,"Silk Board, Bengaluru - KSPCB",17-01-2024 20:00:00,12.917348,77.622813,NO2,15,33,19
India,Karnataka,Bengaluru,"Silk Board, Bengaluru - KSPCB",17-01-2024 20:00:00,12.917348,77.622813,OZONE,29,31,30
India,Karnataka,Bidar,"Naubad, Bidar - KSPCB",17-01-2024 20:00:00,17.930306,77.482194,PM2.5,110,196,151
India,Karnataka,Bidar,"Naubad, Bidar - KSPCB",17-01-2024 20:00:00,17.930306,77.482194,OZONE,18,47,42
India,Karnataka,Chamarajanagar,"Urban, Chamarajanagar - KSPCB",17-01-2024 20:00:00,11.55358,76.55521,NO2,23,29,28
India,Karnataka,Chamarajanagar,"Urban, Chamarajanagar - KSPCB",17-01-2024 20:00:00,11.55358,76.55521,SO2,2,6,4
India,Karnataka,Chamarajanagar,"Urban, Chamarajanagar - KSPCB",17-01-2024 20:00:00,11.55358,76.55521,CO,11,119,27
India,Karnataka,Chikkaballapur,"Chikkaballapur Rural, Chikkaballapur - KSPCB",17-01-2024 20:00:00,13.428828,77.731418,SO2,19,28,23
India,Karnataka,Chikkamagaluru,"Kalyana Nagara, Chikkamagaluru - KSPCB",17-01-2024 20:00:00,13.328028,75.797056,NO2,NA,NA,NA
India,Karnataka,Chikkamagaluru,"Kalyana Nagara, Chikkamagaluru - KSPCB",17-01-2024 20:00:00,13.328028,75.797056,CO,NA,NA,NA
India,Karnataka,Chikkamagaluru,"Kalyana Nagara, Chikkamagaluru - KSPCB",17-01-2024 20:00:00,13.328028,75.797056,OZONE,NA,NA,NA
India,Karnataka,Davanagere,"Devaraj Urs Badavane, Davanagere - KSPCB",17-01-2024 20:00:00,14.475800,75.905200,PM2.5,41,182,78
India,Karnataka,Davanagere,"Devaraj Urs Badavane, Davanagere - KSPCB",17-01-2024 20:00:00,14.475800,75.905200,SO2,1,7,4
India,Karnataka,Gadag,"Panchal Nagar, Gadag - KSPCB",17-01-2024 20:00:00,15.411456,75.638133,PM10,39,75,49
India,Karnataka,Gadag,"Panchal Nagar, Gadag - KSPCB",17-01-2024 20:00:00,15.411456,75.638133,CO,52,58,53
India,Karnataka,Gadag,"Panchal Nagar, Gadag - KSPCB",17-01-2024 20:00:00,15.411456,75.638133,OZONE,31,60,56
India,Karnataka,Haveri,"Ashwini Nagar, Haveri - KSPCB",17-01-2024 20:00:00,14.791800,75.389600,PM10,43,90,63
India,Karnataka,Haveri,"Ashwini Nagar, Haveri - KSPCB",17-01-2024 20:00:00,14.791800,75.389600,NH3,2,4,3
India,Karnataka,Hubballi,"Deshpande Nagar, Hubballi - KSPCB",17-01-2024 20:00:00,15.351773,75.140726,NH3,6,12,8
India,Karnataka,Hubballi,"Deshpande Nagar, Hubballi - KSPCB",17-01-2024 20:00:00,15.351773,75.140726,OZONE,1,57,44
India,Karnataka,Hubballi,"Lingaraj Nagar, Hubballi - KSPCB",17-01-2024 20:00:00,15.3714823,75.1160168,SO2,1,8,2
India,Karnataka,Kalaburagi,"Lal Bahadur Shastri Nagar, Kalaburagi - KSPCB",17-01-2024 20:00:00,17.321993,76.822628,NO2,11,12,11
India,Karnataka,Kalaburagi,"Lal Bahadur Shastri Nagar, Kalaburagi - KSPCB",17-01-2024 20:00:00,17.321993,76.822628,CO,35,50,38
India,Karnataka,Kalaburagi,"Mahatma Basaveswar Colony, Kalaburgi - KSPCB",17-01-2024 20:00:00,17.336318,76.847397,PM2.5,14,14,14
India,Karnataka,Kalaburagi,"Mahatma Basaveswar Colony, Kalaburgi - KSPCB",17-01-2024 20:00:00,17.336318,76.847397,CO,37,53,40
India,Karnataka,Karwar,"KHB Colony, Karwar - KSPCB",17-01-2024 20:00:00,14.816666,74.141003,PM10,40,168,70
India,Karnataka,Karwar,"KHB Colony, Karwar - KSPCB",17-01-2024 20:00:00,14.816666,74.141003,NO2,7,92,28
India,Karnataka,Karwar,"KHB Colony, Karwar - KSPCB",17-01-2024 20:00:00,14.816666,74.141003,SO2,13,18,17
India,Karnataka,Kolar,"Tamaka Ind. Area, Kolar - KSPCB",17-01-2024 20:00:00,13.1276288,78.1570122,NH3,5,8,7
India,Karnataka,Madikeri,"Stuart Hill, Madikeri - KSPCB",17-01-2024 20:00:00,12.415911,75.735050,PM10,27,49,37
India,Karnataka,Madikeri,"Stuart Hill, Madikeri - KSPCB",17-01-2024 20:00:00,12.415911,75.735050,NH3,1,1,1
India,Karnataka,Mangalore,"Kadri, Mangalore - KSPCB",17-01-2024 20:00:00,12.889250,74.853000,OZONE,31,32,31
India,Karnataka,Raichur,"Haji Colony, Raichur - KSPCB",17-01-2024 20:00:00,16.208139,77.348417,PM10,NA,NA,NA
India,Karnataka,Ramanagara,"Vijay Nagar, Ramanagara - KSPCB",17-01-2024 20:00:00,12.733409,77.298051,OZONE,28,29,29
India,Karnataka,Shivamogga,"Vinoba Nagara, Shivamogga - KSPCB",17-01-2024 20:00:00,13.940000,75.555917,PM2.5,37,66,51
India,Karnataka,Tumakuru,"Thimmalapura, Tumakuru - KSPCB",17-01-2024 20:00:00,13.377516,77.099072,SO2,9,20,11
India,Karnataka,Udupi,"Brahmagiri, Udupi - KSPCB",17-01-2024 20:00:00,13.34194444,74.74694444,SO2,19,25,21
India,Karnataka,Yadgir,"Collector Office, Yadgir - KSPCB",17-01-2024 20:00:00,16.7602,77.1428,NO2,5,8,6
India,Kerala,Kannur,"Thavakkara, Kannur - Kerala PCB",17-01-2024 20:00:00,11.875000,75.373200,PM10,58,66,62
India,Kerala,Kochi,"Vyttila, Kochi - Kerala PCB",17-01-2024 20:00:00,9.969447,76.321186,NH3,3,3,3
India,Kerala,Thiruvananthapuram,"Kariavattom, Thiruvananthapuram - Kerala PCB",17-01-2024 20:00:00,8.563700,76.886500,OZONE,27,32,29
India,Madhya Pradesh,Bhopal,"Idgah Hills, Bhopal - MPPCB",17-01-2024 20:00:00,23.264759,77.381568,NH3,3,5,4
India,Madhya Pradesh,Bhopal,"Paryavaran Parisar, Bhopal - MPPCB",17-01-2024 20:00:00,23.210494,77.425409,SO2,20,24,22
India,Madhya Pradesh,Bhopal,"Paryavaran Parisar, Bhopal - MPPCB",17-01-2024 20:00:00,23.210494,77.425409,CO,4,63,29
India,Madhya Pradesh,Bhopal,"T T Nagar, Bhopal - MPPCB",17-01-2024 20:00:00,23.233584,77.400574,OZONE,15,135,94
India,Madhya Pradesh,Dewas,"Bhopal Chauraha, Dewas - MPPCB",17-01-2024 20:00:00,22.9682591,76.064118,PM10,72,169,103
India,Madhya Pradesh,Dewas,"Bhopal Chauraha, Dewas - MPPCB",17-01-2024 20:00:00,22.9682591,76.064118,SO2,32,52,43
India,Madhya Pradesh,Gwalior,"City Center, Gwalior - MPPCB",17-01-2024 20:00:00,26.203442,78.193251,NO2,21,38,26
India,Madhya Pradesh,Gwalior,"City Center, Gwalior - MPPCB",17-01-2024 20:00:00,26.203442,78.193251,SO2,13,29,25
India,Madhya Pradesh,Gwalior,"Maharaj Bada, Gwalior - MPPCB",17-01-2024 20:00:00,26.200388,78.147714,SO2,5,19,10
India,Madhya Pradesh,Gwalior,"Maharaj Bada, Gwalior - MPPCB",17-01-2024 20:00:00,26.200388,78.147714,CO,22,96,73
India,Madhya Pradesh,Gwalior,"Maharaj Bada, Gwalior - MPPCB",17-01-2024 20:00:00,26.200388,78.147714,OZONE,33,80,71
India,Madhya Pradesh,Gwalior,"Phool Bagh, Gwalior - Mondelez Ind. Food",17-01-2024 20:00:00,26.210536,78.171,PM2.5,NA,NA,NA
India,Madhya Pradesh,Indore,"Chhoti Gwaltoli, Indore - MPPCB",17-01-2024 20:00:00,22.4310,75.5213,NO2,44,154,96
India,Madhya Pradesh,Indore,"Regional Park, Indore - IMC",17-01-2024 20:00:00,22.6780,75.8559,PM2.5,NA,NA,NA
India,Madhya Pradesh,Indore,"Regional Park, Indore - IMC",17-01-2024 20:00:00,22.6780,75.8559,SO2,43,46,45
India,Madhya Pradesh,Jabalpur,"Govindh Bhavan Colony, Jabalpur - JMC",17-01-2024 20:00:00,23.163174,79.973061,NH3,2,5,5
India,Madhya Pradesh,Jabalpur,"Gupteshwar, Jabalpur - JMC",17-01-2024 20:00:00,23.142888,79.916147,NO2,13,129,49
