country,state,city,station,last_update,latitude,longitude,pollutant_id,pollutant_min,pollutant_max,pollutant_avg
India,Andhra_Pradesh,Amaravati,"Secretariat, Amaravati - APPCB",25-04-2024 00:00:00,16.5150833,80.5181667,PM10,13,73,45
India,Andhra_Pradesh,Amaravati,"Secretariat, Amaravati - APPCB",25-04-2024 00:00:00,16.5150833,80.5181667,NH3,3,4,4
India,Andhra_Pradesh,Chittoor,"Gangineni Cheruvu, Chittoor - APPCB",25-04-2024 00:00:00,13.204880,79.097889,NO2,1,19,6
India,Andhra_Pradesh,Kadapa,"Yerramukkapalli, Kadapa - APPCB",25-04-2024 00:00:00,14.465052,78.824187,PM2.5,11,56,31
India,Andhra_Pradesh,Rajamahendravaram,"Anand Kala Kshetram, Rajamahendravaram - APPCB",25-04-2024 00:00:00,16.9872867,81.7363176,NO2,3,16,8
India,Andhra_Pradesh,Tirupati,"Tirumala, Tirupati - APPCB",25-04-2024 00:00:00,13.67,79.35,NH3,1,2,1
India,Andhra_Pradesh,Tirupati,"Vaikuntapuram, Tirupati - APPCB",25-04-2024 00:00:00,13.615387,79.409230,NH3,2,3,3
India,Andhra_Pradesh,Vijayawada,"HB Colony, Vijayawada - APPCB",25-04-2024 00:00:00,16.536107,80.594233,PM10,46,78,60
India,Andhra_Pradesh,Vijayawada,"HB Colony, Vijayawada - APPCB",25-04-2024 00:00:00,16.536107,80.594233,NO2,4,26,10
India,Andhra_Pradesh,Vijayawada,"HB Colony, Vijayawada - APPCB",25-04-2024 00:00:00,16.536107,80.594233,CO,34,38,38
India,Andhra_Pradesh,Vijayawada,"Kanuru, Vijayawada - APPCB",25-04-2024 00:00:00,16.486692,80.699436,PM2.5,NA,NA,NA
India,Andhra_Pradesh,Vijayawada,"Kanuru, Vijayawada - APPCB",25-04-2024 00:00:00,16.486692,80.699436,NO2,NA,NA,NA
India,Andhra_Pradesh,Vijayawada,"Rajiv Gandhi Park, Vijayawada - APPCB",25-04-2024 00:00:00,16.509717,80.612222,PM10,26,81,52
India,Andhra_Pradesh,Vijayawada,"Rajiv Nagar, Vijayawada - APPCB",25-04-2024 00:00:00,16.554731,80.649110,CO,40,40,40
India,Andhra_Pradesh,Visakhapatnam,"GVM Corporation, Visakhapatnam - APPCB",25-04-2024 00:00:00,17.72,83.3,PM2.5,29,167,82
India,Andhra_Pradesh,Visakhapatnam,"GVM Corporation, Visakhapatnam - APPCB",25-04-2024 00:00:00,17.72,83.3,CO,14,61,41
India,Arunachal_Pradesh,Naharlagun,"Naharlagun, Naharlagun - APSPCB",25-04-2024 00:00:00,27.103358,93.679645,PM10,NA,NA,NA
India,Assam,Guwahati,"IITG, Guwahati - PCBA",25-04-2024 00:00:00,26.2028636,91.70046436,NO2,1,11,4
India,Assam,Guwahati,"LGBI Airport, Guwahati - PCBA",25-04-2024 00:00:00,26.10887,91.589544,PM2.5,65,332,157
India,Assam,Guwahati,"Railway Colony, Guwahati - PCBA",25-04-2024 00:00:00,26.181742,91.78063,SO2,15,31,20
India,Assam,Nalbari,"Bata Chowk, Nalbari - PCBA",25-04-2024 00:00:00,26.446912,91.439057,NH3,1,1,1
India,Assam,Silchar,"Tarapur, Silchar - PCBA",25-04-2024 00:00:00,24.82827,92.79525,PM2.5,21,30,26
India,Assam,Silchar,"Tarapur, Silchar - PCBA",25-04-2024 00:00:00,24.82827,92.79525,NO2,13,13,13
India,Assam,Sivasagar,"Girls College, Sivasagar - PCBA",25-04-2024 00:00:00,26.987634,94.636574,PM2.5,30,43,38
India,Assam,Sivasagar,"Girls College, Sivasagar - PCBA",25-04-2024 00:00:00,26.987634,94.636574,OZONE,3,27,10
India,Bihar,Araria,"Kharahiya Basti, Araria - BSPCB",25-04-2024 00:00:00,26.146529,87.454184,OZONE,8,10,9
India,Bihar,Arrah,"New DM Office, Arrah - BSPCB",25-04-2024 00:00:00,25.5626095,84.663264,SO2,8,37,20
India,Bihar,Arrah,"New DM Office, Arrah - BSPCB",25-04-2024 00:00:00,25.5626095,84.663264,CO,2,14,7
India,Bihar,Bettiah,"Kamalnath Nagar, Bettiah - BSPCB",25-04-2024 00:00:00,26.80365,84.51954,OZONE,3,20,13
India,Bihar,Bhagalpur,"Mayaganj, Bhagalpur - BSPCB",25-04-2024 00:00:00,25.265194,87.012947,NO2,3,12,7
India,Bihar,Chhapra,"Darshan Nagar, Chhapra - BSPCB",25-04-2024 00:00:00,25.7808257,84.7446768,SO2,1,21,10
India,Bihar,Gaya,"Collectorate, Gaya - BSPCB",25-04-2024 00:00:00,24.7955,84.9994,CO,2,56,46
India,Bihar,Gaya,"Kareemganj, Gaya - BSPCB",25-04-2024 00:00:00,24.792403,84.992416,NO2,30,31,30
India,Bihar,Gaya,"SFTI Kusdihra, Gaya - BSPCB",25-04-2024 00:00:00,24.762518,84.982348,PM2.5,19,82,49
India,Bihar,Katihar,"Mirchaibari, Katihar - BSPCB",25-04-2024 00:00:00,25.560083,87.553265,CO,31,72,65
India,Bihar,Kishanganj,"SDM Office_Khagra, Kishanganj - BSPCB",25-04-2024 00:00:00,26.0881305,87.93840336,NH3,9,10,9
India,Bihar,Motihari,"Gandak Colony, Motihari - BSPCB",25-04-2024 00:00:00,26.63086,84.90051,PM2.5,25,157,66
India,Bihar,Motihari,"Gandak Colony, Motihari - BSPCB",25-04-2024 00:00:00,26.63086,84.90051,CO,2,40,12
India,Bihar,Munger,"Town Hall, Munger - BSPCB",25-04-2024 00:00:00,25.376776,86.471523,NH3,2,2,2
India,Bihar,Munger,"Town Hall, Munger - BSPCB",25-04-2024 00:00:00,25.376776,86.471523,OZONE,26,118,60
India,Bihar,Muzaffarpur,"Buddha Colony, Muzaffarpur - BSPCB",25-04-2024 00:00:00,26.11442,85.39813,OZONE,20,55,39
India,Bihar,Muzaffarpur,"MIT-Daudpur Kothi, Muzaffarpur - BSPCB",25-04-2024 00:00:00,26.1403345,85.3650192,SO2,4,5,4
India,Bihar,Muzaffarpur,"MIT-Daudpur Kothi, Muzaffarpur - BSPCB",25-04-2024 00:00:00,26.1403345,85.3650192,OZONE,18,51,38
India,Bihar,Muzaffarpur,"Muzaffarpur Collectorate, Muzaffarpur - BSPCB",25-04-2024 00:00:00,26.1209,85.3647,OZONE,43,97,72
India,Bihar,Patna,"DRM Office Danapur, Patna - BSPCB",25-04-2024 00:00:00,25.586562,85.043586,PM2.5,54,192,110
India,Bihar,Patna,"DRM Office Danapur, Patna - BSPCB",25-04-2024 00:00:00,25.586562,85.043586,NO2,7,117,39
India,Bihar,Patna,"DRM Office Danapur, Patna - BSPCB",25-04-2024 00:00:00,25.586562,85.043586,NH3,3,3,3
India,Bihar,Patna,"Govt. High School Shikarpur, Patna - BSPCB",25-04-2024 00:00:00,25.592539,85.227158,SO2,9,12,11
India,Bihar,Patna,"Muradpur, Patna - BSPCB",25-04-2024 00:00:00,25.619651,85.147382,PM2.5,248,356,305
India,Bihar,Patna,"Muradpur, Patna - BSPCB",25-04-2024 00:00:00,25.619651,85.147382,SO2,7,12,9
India,Bihar,Patna,"Rajbansi Nagar, Patna - BSPCB",25-04-2024 00:00:00,25.599486,85.113666,PM2.5,71,317,191
India,Bihar,Patna,"Rajbansi Nagar, Patna - BSPCB",25-04-2024 00:00:00,25.599486,85.113666,NH3,5,10,7
India,Bihar,Patna,"Samanpura, Patna - BSPCB",25-04-2024 00:00:00,25.596727,85.085624,NH3,12,22,15
India,Bihar,Patna,"Samanpura, Patna - BSPCB",25-04-2024 00:00:00,25.596727,85.085624,CO,28,126,76
India,Bihar,Purnia,"Mariam Nagar, Purnia - BSPCB",25-04-2024 00:00:00,25.366336,87.117468,NH3,2,11,9
India,Bihar,Rajgir,"Dangi Tola, Rajgir - BSPCB",25-04-2024 00:00:00,25.03280,85.41948,PM10,NA,NA,NA
India,Bihar,Saharsa,"Police Line, Saharsa - BSPCB",25-04-2024 00:00:00,25.892357,86.590325,PM10,56,148,106
India,Bihar,Saharsa,"Police Line, Saharsa - BSPCB",25-04-2024 00:00:00,25.892357,86.590325,SO2,16,17,16
India,Bihar,Saharsa,"Police Line, Saharsa - BSPCB",25-04-2024 00:00:00,25.892357,86.590325,OZONE,9,53,31
India,Bihar,Samastipur,"DM Office_Kasipur, Samastipur - BSPCB",25-04-2024 00:00:00,25.859655,85.77944,PM2.5,NA,NA,NA
India,Bihar,Siwan,"Chitragupta Nagar, Siwan - BSPCB",25-04-2024 00:00:00,26.2271665,84.3570427,CO,85,138,123
India,Chandigarh,Chandigarh,"Sector 22, Chandigarh - CPCC",25-04-2024 00:00:00,30.735567,76.775714,PM2.5,25,117,55
India,Chandigarh,Chandigarh,"Sector 22, Chandigarh - CPCC",25-04-2024 00:00:00,30.735567,76.775714,PM10,26,150,76
India,Chandigarh,Chandigarh,"Sector-25, Chandigarh - CPCC",25-04-2024 00:00:00,30.751462,76.762879,NH3,12,35,19
India,Chandigarh,Chandigarh,"Sector-53, Chandigarh - CPCC",25-04-2024 00:00:00,30.719859,76.738637,OZONE,3,70,35
India,Chhattisgarh,Bhilai,"32Bungalows, Bhilai - CECB",25-04-2024 00:00:00,21.194815,81.314770,NH3,6,6,6
India,Chhattisgarh,Bhilai,"Civic Center, Bhilai - Bhilai Steel Plant",25-04-2024 00:00:00,21.185571,81.343175,NO2,13,16,16
India,Chhattisgarh,Bhilai,"Hathkhoj, Bhilai - CECB",25-04-2024 00:00:00,21.224231,81.408350,PM10,28,167,74
India,Chhattisgarh,Bhilai,"Hathkhoj, Bhilai - CECB",25-04-2024 00:00:00,21.224231,81.408350,OZONE,14,30,21
India,Chhattisgarh,Bilaspur,"Mangala, Bilaspur - NTPC",25-04-2024 00:00:00,22.08815,82.13737,PM10,23,67,42
India,Chhattisgarh,Chhal,"Nawapara SECL Colony, Chhal - CECB",25-04-2024 00:00:00,22.118125,83.140608,OZONE,13,96,64
India,Chhattisgarh,Korba,"Rampur, Korba - CECB",25-04-2024 00:00:00,22.368195,82.746431,PM2.5,18,32,24
India,Chhattisgarh,Korba,"Urja Nagar, Korba - CECB",25-04-2024 00:00:00,22.348441,82.549611,PM2.5,19,257,77
India,Chhattisgarh,Raipur,"AIIMS, Raipur - CECB",25-04-2024 00:00:00,21.258815,81.578979,PM10,NA,NA,NA
India,Chhattisgarh,Raipur,"Krishak Nagar, Raipur - CECB",25-04-2024 00:00:00,21.237755,81.705301,PM2.5,15,35,22
India,Chhattisgarh,Raipur,"Krishak Nagar, Raipur - CECB",25-04-2024 00:00:00,21.237755,81.705301,CO,24,45,35
India,Chhattisgarh,Raipur,"Siltara Phase-II, Raipur - CECB",25-04-2024 00:00:00,21.371751,81.664929,PM2.5,25,100,49
India,Chhattisgarh,Raipur,"Siltara Phase-II, Raipur - CECB",25-04-2024 00:00:00,21.371751,81.664929,OZONE,3,41,22
India,Chhattisgarh,Tumidih,"OP Jindal Industrial Park, Tumidih - CECB",25-04-2024 00:00:00,22.06631475,83.33820077,OZONE,9,70,43
India,Delhi,Delhi,"Alipur, Delhi - DPCC",25-04-2024 00:00:00,28.815329,77.153010,PM2.5,21,430,160
India,Delhi,Delhi,"Alipur, Delhi - DPCC",25-04-2024 00:00:00,28.815329,77.153010,OZONE,1,176,94
India,Delhi,Delhi,"Anand Vihar, Delhi - DPCC",25-04-2024 00:00:00,28.647622,77.3158090,PM10,100,311,205
India,Delhi,Delhi,"Anand Vihar, Delhi - DPCC",25-04-2024 00:00:00,28.647622,77.3158090,CO,48,107,73
India,Delhi,Delhi,"Ashok Vihar, Delhi - DPCC",25-04-2024 00:00:00,28.695381,77.181665,PM2.5,17,234,112
India,Delhi,Delhi,"Ashok Vihar, Delhi - DPCC",25-04-2024 00:00:00,28.695381,77.181665,PM10,88,256,159
India,Delhi,Delhi,"Ashok Vihar, Delhi - DPCC",25-04-2024 00:00:00,28.695381,77.181665,NO2,12,136,62
India,Delhi,Delhi,"Ashok Vihar, Delhi - DPCC",25-04-2024 00:00:00,28.695381,77.181665,OZONE,2,48,23
India,Delhi,Delhi,"Bawana, Delhi - DPCC",25-04-2024 00:00:00,28.776200,77.051074,NH3,4,8,6
India,Delhi,Delhi,"Burari Crossing, Delhi - IMD",25-04-2024 00:00:00,28.7256504,77.2011573,PM2.5,6,307,127
India,Delhi,Delhi,"Burari Crossing, Delhi - IMD",25-04-2024 00:00:00,28.7256504,77.2011573,CO,14,71,22
India,Delhi,Delhi,"CRRI Mathura Road, Delhi - IMD",25-04-2024 00:00:00,28.5512005,77.2735737,PM10,107,343,175
India,Delhi,Delhi,"DTU, Delhi - CPCB",25-04-2024 00:00:00,28.7500499,77.1112615,NH3,12,15,13
India,Delhi,Delhi,"DTU, Delhi - CPCB",25-04-2024 00:00:00,28.7500499,77.1112615,CO,16,82,26
India,Delhi,Delhi,"Dr. Karni Singh Shooting Range, Delhi - DPCC",25-04-2024 00:00:00,28.498571,77.264840,PM2.5,38,203,84
India,Delhi,Delhi,"Dr. Karni Singh Shooting Range, Delhi - DPCC",25-04-2024 00:00:00,28.498571,77.264840,NH3,5,9,7
India,Delhi,Delhi,"Dr. Karni Singh Shooting Range, Delhi - DPCC",25-04-2024 00:00:00,28.498571,77.264840,OZONE,4,264,91
India,Delhi,Delhi,"Dwarka-Sector 8, Delhi - DPCC ",25-04-2024 00:00:00,28.5710274,77.0719006,PM2.5,NA,NA,NA
India,Delhi,Delhi,"Dwarka-Sector 8, Delhi - DPCC ",25-04-2024 00:00:00,28.5710274,77.0719006,PM10,NA,NA,NA
India,Delhi,Delhi,"Dwarka-Sector 8, Delhi - DPCC ",25-04-2024 00:00:00,28.5710274,77.0719006,NO2,NA,NA,NA
India,Delhi,Delhi,"IGI Airport (T3), Delhi - IMD",25-04-2024 00:00:00,28.5627763,77.1180053,PM2.5,20,338,118
India,Delhi,Delhi,"IHBAS, Dilshad Garden, Delhi - CPCB",25-04-2024 00:00:00,28.6811736,77.3025234,NH3,5,11,9
India,Delhi,Delhi,"Jahangirpuri, Delhi - DPCC",25-04-2024 00:00:00,28.732820,77.170633,PM2.5,22,374,197
India,Delhi,Delhi,"Jahangirpuri, Delhi - DPCC",25-04-2024 00:00:00,28.732820,77.170633,PM10,88,394,230
India,Delhi,Delhi,"Jahangirpuri, Delhi - DPCC",25-04-2024 00:00:00,28.732820,77.170633,NH3,9,24,16
India,Delhi,Delhi,"Jawaharlal Nehru Stadium, Delhi - DPCC",25-04-2024 00:00:00,28.580280,77.233829,NO2,30,225,103
India,Delhi,Delhi,"Jawaharlal Nehru Stadium, Delhi - DPCC",25-04-2024 00:00:00,28.580280,77.233829,NH3,6,13,9
India,Delhi,Delhi,"Lodhi Road, Delhi - IITM",25-04-2024 00:00:00,28.588333,77.221667,PM2.5,NA,NA,NA
India,Delhi,Delhi,"Lodhi Road, Delhi - IITM",25-04-2024 00:00:00,28.588333,77.221667,PM10,NA,NA,NA
India,Delhi,Delhi,"Major Dhyan Chand National Stadium, Delhi - DPCC",25-04-2024 00:00:00,28.611281,77.237738,PM10,68,425,138
India,Delhi,Delhi,"Major Dhyan Chand National Stadium, Delhi - DPCC",25-04-2024 00:00:00,28.611281,77.237738,NH3,8,12,10
India,Delhi,Delhi,"Major Dhyan Chand National Stadium, Delhi - DPCC",25-04-2024 00:00:00,28.611281,77.237738,SO2,8,24,13
India,Delhi,Delhi,"Mandir Marg, Delhi - DPCC",25-04-2024 00:00:00,28.636429,77.201067,NH3,4,8,6
India,Delhi,Delhi,"Mandir Marg, Delhi - DPCC",25-04-2024 00:00:00,28.636429,77.201067,CO,8,88,50
India,Delhi,Delhi,"Mundka, Delhi - DPCC",25-04-2024 00:00:00,28.684678,77.076574,PM10,89,456,229
India,Delhi,Delhi,"Mundka, Delhi - DPCC",25-04-2024 00:00:00,28.684678,77.076574,CO,26,102,36
India,Delhi,Delhi,"Mundka, Delhi - DPCC",25-04-2024 00:00:00,28.684678,77.076574,OZONE,10,173,80
India,Delhi,Delhi,"NSIT Dwarka, Delhi - CPCB",25-04-2024 00:00:00,28.60909,77.0325413,NO2,25,50,34
India,Delhi,Delhi,"Najafgarh, Delhi - DPCC",25-04-2024 00:00:00,28.570173,76.933762,OZONE,15,141,91
India,Delhi,Delhi,"Narela, Delhi - DPCC",25-04-2024 00:00:00,28.822836,77.101981,NH3,4,8,6
India,Delhi,Delhi,"North Campus, DU, Delhi - IMD",25-04-2024 00:00:00,28.6573814,77.1585447,OZONE,4,99,39
India,Delhi,Delhi,"Okhla Phase-2, Delhi - DPCC",25-04-2024 00:00:00,28.530785,77.271255,SO2,8,22,15
India,Delhi,Delhi,"Punjabi Bagh, Delhi - DPCC",25-04-2024 00:00:00,28.674045,77.131023,PM10,74,208,147
India,Delhi,Delhi,"Punjabi Bagh, Delhi - DPCC",25-04-2024 00:00:00,28.674045,77.131023,NH3,4,5,4
India,Delhi,Delhi,"Punjabi Bagh, Delhi - DPCC",25-04-2024 00:00:00,28.674045,77.131023,SO2,17,53,33
India,Delhi,Delhi,"Punjabi Bagh, Delhi - DPCC",25-04-2024 00:00:00,28.674045,77.131023,CO,19,86,60
India,Delhi,Delhi,"Pusa, Delhi - DPCC",25-04-2024 00:00:00,28.639652,77.146275,PM10,109,432,192
India,Delhi,Delhi,"R K Puram, Delhi - DPCC",25-04-2024 00:00:00,28.563262,77.186937,PM10,83,220,133
India,Delhi,Delhi,"R K Puram, Delhi - DPCC",25-04-2024 00:00:00,28.563262,77.186937,OZONE,12,257,71
India,Delhi,Delhi,"Shadipur, Delhi - CPCB",25-04-2024 00:00:00,28.6514781,77.1473105,NO2,38,85,65
India,Delhi,Delhi,"Shadipur, Delhi - CPCB",25-04-2024 00:00:00,28.6514781,77.1473105,CO,18,37,28
India,Delhi,Delhi,"Sirifort, Delhi - CPCB",25-04-2024 00:00:00,28.5504249,77.2159377,PM10,83,290,163
India,Delhi,Delhi,"Sirifort, Delhi - CPCB",25-04-2024 00:00:00,28.5504249,77.2159377,CO,5,106,49
India,Delhi,Delhi,"Sonia Vihar, Delhi - DPCC",25-04-2024 00:00:00,28.710508,77.249485,NH3,5,8,6
India,Delhi,Delhi,"Sri Aurobindo Marg, Delhi - DPCC",25-04-2024 00:00:00,28.531346,77.190156,NO2,9,83,37
India,Delhi,Delhi,"Sri Aurobindo Marg, Delhi - DPCC",25-04-2024 00:00:00,28.531346,77.190156,SO2,6,35,15
India,Delhi,Delhi,"Vivek Vihar, Delhi - DPCC",25-04-2024 00:00:00,28.672342,77.315260,PM2.5,20,314,114
India,Delhi,Delhi,"Wazirpur, Delhi - DPCC",25-04-2024 00:00:00,28.699793,77.165453,SO2,7,24,16
India,Delhi,Delhi,"Wazirpur, Delhi - DPCC",25-04-2024 00:00:00,28.699793,77.165453,CO,44,120,80
India,Gujarat,Ahmedabad,"Chandkheda, Ahmedabad - IITM",25-04-2024 00:00:00,23.107969,72.574648,OZONE,7,63,35
India,Gujarat,Ahmedabad,"Gyaspur, Ahmedabad - IITM",25-04-2024 00:00:00,22.977134,72.553024,PM2.5,61,358,118
India,Gujarat,Ahmedabad,"Maninagar, Ahmedabad - GPCB",25-04-2024 00:00:00,23.002657,72.591912,SO2,NA,NA,NA
India,Gujarat,Ahmedabad,"Rakhial, Ahmedabad - IITM",25-04-2024 00:00:00,23.016834,72.625775,PM10,102,194,128
India,Gujarat,Ahmedabad,"Rakhial, Ahmedabad - IITM",25-04-2024 00:00:00,23.016834,72.625775,NO2,28,81,39
India,Gujarat,Ahmedabad,"Rakhial, Ahmedabad - IITM",25-04-2024 00:00:00,23.016834,72.625775,OZONE,6,58,54
India,Gujarat,Ahmedabad,"SAC ISRO Satellite, Ahmedabad - IITM",25-04-2024 00:00:00,23.023389,72.515201,PM10,92,93,92
India,Gujarat,Ahmedabad,"SAC ISRO Satellite, Ahmedabad - IITM",25-04-2024 00:00:00,23.023389,72.515201,SO2,3,12,6
India,Gujarat,Ahmedabad,"SVPI Airport Hansol, Ahmedabad - IITM",25-04-2024 00:00:00,23.076793,72.627874,CO,22,116,68
India,Gujarat,Ahmedabad,"Sardar Vallabhbhai Patel Stadium, Ahmedabad - IITM",25-04-2024 00:00:00,23.043070,72.562968,SO2,4,21,11
India,Gujarat,Ahmedabad,"Sardar Vallabhbhai Patel Stadium, Ahmedabad - IITM",25-04-2024 00:00:00,23.043070,72.562968,OZONE,3,59,27
India,Gujarat,Ankleshwar,"GIDC, Ankleshwar - GPCB",25-04-2024 00:00:00,21.613267,73.010555,PM2.5,52,75,68
India,Gujarat,Ankleshwar,"GIDC, Ankleshwar - GPCB",25-04-2024 00:00:00,21.613267,73.010555,NO2,32,33,32
India,Gujarat,Ankleshwar,"GIDC, Ankleshwar - GPCB",25-04-2024 00:00:00,21.613267,73.010555,NH3,7,7,7
India,Gujarat,Gandhinagar,"IIPHG Lekawada, Gandhinagar - IITM",25-04-2024 00:00:00,23.243639,72.68994,PM2.5,NA,NA,NA
India,Gujarat,Gandhinagar,"IIPHG Lekawada, Gandhinagar - IITM",25-04-2024 00:00:00,23.243639,72.68994,PM10,NA,NA,NA
India,Gujarat,Gandhinagar,"IIPHG Lekawada, Gandhinagar - IITM",25-04-2024 00:00:00,23.243639,72.68994,CO,30,46,38
India,Gujarat,Gandhinagar,"Sector-10, Gandhinagar - GPCB",25-04-2024 00:00:00,23.221714,72.654328,CO,12,64,34
India,Gujarat,Nandesari,"GIDC, Nandesari - Nandesari Ind. Association",25-04-2024 00:00:00,22.410802,73.097923,PM10,102,288,169
India,Gujarat,Vapi,"Phase-1 GIDC, Vapi - GPCB",25-04-2024 00:00:00,20.362421,72.918013,PM10,52,108,78
India,Gujarat,Vapi,"Phase-1 GIDC, Vapi - GPCB",25-04-2024 00:00:00,20.362421,72.918013,NO2,6,8,7
India,Haryana,Ambala,"Patti Mehar, Ambala - HSPCB",25-04-2024 00:00:00,30.379589,76.778328,NH3,8,8,8
India,Haryana,Bahadurgarh,"Arya Nagar, Bahadurgarh - HSPCB",25-04-2024 00:00:00,28.6701,76.9254,SO2,14,82,43
India,Haryana,Bahadurgarh,"Arya Nagar, Bahadurgarh - HSPCB",25-04-2024 00:00:00,28.6701,76.9254,OZONE,33,42,36
India,Haryana,Ballabgarh,"Nathu Colony, Ballabgarh - HSPCB",25-04-2024 00:00:00,28.3419248,77.319699,NO2,11,13,12
India,Haryana,Bhiwani,"H.B. Colony, Bhiwani - HSPCB",25-04-2024 00:00:00,28.806223,76.141105,NO2,1,12,8
India,Haryana,Bhiwani,"H.B. Colony, Bhiwani - HSPCB",25-04-2024 00:00:00,28.806223,76.141105,NH3,3,6,6
India,Haryana,Charkhi Dadri,"Mini Secretariat, Charkhi Dadri - HSPCB",25-04-2024 00:00:00,28.593883,76.270653,NO2,15,24,18
India,Haryana,Dharuhera,"Municipal Corporation Office, Dharuhera -  HSPCB",25-04-2024 00:00:00,28.206800,76.799700,SO2,6,83,23
India,Haryana,Faridabad,"Sector 11, Faridabad - HSPCB",25-04-2024 00:00:00,28.376058,77.315741,PM2.5,78,341,229
India,Haryana,Faridabad,"Sector 11, Faridabad - HSPCB",25-04-2024 00:00:00,28.376058,77.315741,PM10,133,448,233
India,Haryana,Faridabad,"Sector 11, Faridabad - HSPCB",25-04-2024 00:00:00,28.376058,77.315741,OZONE,3,10,6
India,Haryana,Faridabad,"Sector 30, Faridabad - HSPCB",25-04-2024 00:00:00,28.4417,77.3217,PM10,NA,NA,NA
India,Haryana,Faridabad,"Sector- 16A, Faridabad - HSPCB",25-04-2024 00:00:00,28.4088421,77.3099081,NO2,7,38,20
India,Haryana,Faridabad,"Sector- 16A, Faridabad - HSPCB",25-04-2024 00:00:00,28.4088421,77.3099081,OZONE,14,14,14
India,Haryana,Fatehabad,"Huda Sector, Fatehabad - HSPCB",25-04-2024 00:00:00,29.503664,75.467934,SO2,10,11,11
India,Haryana,Gurugram,"Sector-51, Gurugram - HSPCB",25-04-2024 00:00:00,28.4227,77.0667,PM10,70,212,138
India,Haryana,Gurugram,"Vikas Sadan, Gurugram - HSPCB",25-04-2024 00:00:00,28.4501238,77.0263051,OZONE,8,68,28
India,Haryana,Hisar,"Urban Estate-II, Hisar - HSPCB",25-04-2024 00:00:00,29.140560,75.744941,CO,25,54,31
India,Haryana,Jind,"Police Lines, Jind - HSPCB",25-04-2024 00:00:00,29.307814,76.337619,NO2,NA,NA,NA
India,Haryana,Jind,"Police Lines, Jind - HSPCB",25-04-2024 00:00:00,29.307814,76.337619,SO2,NA,NA,NA
India,Haryana,Kaithal,"Rishi Nagar, Kaithal - HSPCB",25-04-2024 00:00:00,29.8006,76.4155,PM2.5,39,117,63
India,Haryana,Kurukshetra,"Sector-7, Kurukshetra - HSPCB",25-04-2024 00:00:00,29.966942,76.875879,NO2,10,10,10
India,Haryana,Mandikhera,"General Hospital, Mandikhera - HSPCB",25-04-2024 00:00:00,27.9002,76.9938,NO2,20,23,21
India,Haryana,Mandikhera,"General Hospital, Mandikhera - HSPCB",25-04-2024 00:00:00,27.9002,76.9938,SO2,32,39,35
India,Haryana,Mandikhera,"General Hospital, Mandikhera - HSPCB",25-04-2024 00:00:00,27.9002,76.9938,OZONE,24,34,28
India,Haryana,Manesar,"Sector-2 IMT, Manesar - HSPCB",25-04-2024 00:00:00,28.360699,76.936090,CO,15,38,25
India,Haryana,Narnaul,"Shastri Nagar, Narnaul - HSPCB",25-04-2024 00:00:00,28.060249,76.113115,NH3,5,26,16
India,Haryana,Palwal,"Shyam Nagar, Palwal - HSPCB",25-04-2024 00:00:00,28.1485564,77.3320667,PM10,38,113,89
India,Haryana,Palwal,"Shyam Nagar, Palwal - HSPCB",25-04-2024 00:00:00,28.1485564,77.3320667,SO2,5,14,9
India,Haryana,Palwal,"Shyam Nagar, Palwal - HSPCB",25-04-2024 00:00:00,28.1485564,77.3320667,OZONE,9,69,19
India,Haryana,Panchkula,"Sector-6, Panchkula - HSPCB ",25-04-2024 00:00:00,30.7057778,76.8531805555555,NO2,9,11,10
India,Haryana,Panchkula,"Sector-6, Panchkula - HSPCB ",25-04-2024 00:00:00,30.7057778,76.8531805555555,SO2,2,5,2
India,Haryana,Panipat,"Sector-18, Panipat - HSPCB",25-04-2024 00:00:00,29.497973,76.993331,NH3,2,3,2
India,Haryana,Panipat,"Sector-18, Panipat - HSPCB",25-04-2024 00:00:00,29.497973,76.993331,SO2,18,19,19
India,Haryana,Panipat,"Sector-18, Panipat - HSPCB",25-04-2024 00:00:00,29.497973,76.993331,CO,24,26,25
India,Haryana,Panipat,"Sector-18, Panipat - HSPCB",25-04-2024 00:00:00,29.497973,76.993331,OZONE,30,30,30
India,Haryana,Rohtak,"MD University, Rohtak - HSPCB",25-04-2024 00:00:00,28.52123,76.37138,NO2,46,56,50
India,Haryana,Sirsa,"F-Block, Sirsa - HSPCB",25-04-2024 00:00:00,29.536400,75.015800,NH3,12,13,13
India,Himachal Pradesh,Baddi,"HIMUDA Complex Phase-1, Baddi - HPPCB",25-04-2024 00:00:00,30.943887,76.801991,OZONE,59,202,144
India,Jharkhand,Dhanbad,"Kalakusuma, Dhanbad - DMC",25-04-2024 00:00:00,23.811548,86.481238,OZONE,29,29,29
India,Jharkhand,Dhanbad,"Sardar Patel Nagar, Dhanbad - JSPCB",25-04-2024 00:00:00,23.80569,86.44268,PM10,NA,NA,NA
India,Jharkhand,Dhanbad,"Sardar Patel Nagar, Dhanbad - JSPCB",25-04-2024 00:00:00,23.80569,86.44268,NO2,NA,NA,NA
India,Karnataka,Bagalkot,"Vidayagiri, Bagalkot - KSPCB",25-04-2024 00:00:00,16.172806,75.659694,NO2,9,10,9
India,Karnataka,Belgaum,"Ramteerth Nagar, Belgaum - KSPCB",25-04-2024 00:00:00,15.888653,74.541751,SO2,8,9,9
India,Karnataka,Belgaum,"Ramteerth Nagar, Belgaum - KSPCB",25-04-2024 00:00:00,15.888653,74.541751,OZONE,19,20,19
India,Karnataka,Bengaluru,"BTM Layout, Bengaluru - CPCB",25-04-2024 00:00:00,12.9135218,77.5950804,PM10,44,76,58
India,Karnataka,Bengaluru,"BTM Layout, Bengaluru - CPCB",25-04-2024 00:00:00,12.9135218,77.5950804,NH3,4,5,4
India,Karnataka,Bengaluru,"BTM Layout, Bengaluru - CPCB",25-04-2024 00:00:00,12.9135218,77.5950804,OZONE,14,90,66
India,Karnataka,Bengaluru,"Bapuji Nagar, Bengaluru - KSPCB",25-04-2024 00:00:00,12.951913,77.539784,NO2,10,11,10
India,Karnataka,Bengaluru,"Hombegowda Nagar, Bengaluru - KSPCB",25-04-2024 00:00:00,12.938539,77.590100,NH3,1,1,1
India,Karnataka,Bengaluru,"Hombegowda Nagar, Bengaluru - KSPCB",25-04-2024 00:00:00,12.938539,77.590100,CO,22,47,36
India,Karnataka,Bengaluru,"Jayanagar 5th Block, Bengaluru - KSPCB",25-04-2024 00:00:00,12.920984,77.584908,PM10,48,192,106
India,Karnataka,Bengaluru,"Jayanagar 5th Block, Bengaluru - KSPCB",25-04-2024 00:00:00,12.920984,77.584908,SO2,22,41,30
India,Karnataka,Bengaluru,"Jayanagar 5th Block, Bengaluru - KSPCB",25-04-2024 00:00:00,12.920984,77.584908,CO,4,7,6
India,Karnataka,Bengaluru,"Kasturi Nagar, Bengaluru - KSPCB",25-04-2024 00:00:00,13.003872,77.664217,PM2.5,47,214,98
India,Karnataka,Bengaluru,"Kasturi Nagar, Bengaluru - KSPCB",25-04-2024 00:00:00,13.003872,77.664217,NO2,16,17,17
India,Karnataka,Bengaluru,"Kasturi Nagar, Bengaluru - KSPCB",25-04-2024 00:00:00,13.003872,77.664217,CO,22,26,25
India,Karnataka,Bengaluru,"Peenya, Bengaluru - CPCB",25-04-2024 00:00:00,13.0270199,77.494094,PM10,70,97,83
India,Karnataka,Bengaluru,"Peenya, Bengaluru - CPCB",25-04-2024 00:00:00,13.0270199,77.494094,NO2,13,39,22
India,Karnataka,Bengaluru,"RVCE-Mailasandra, Bengaluru - KSPCB",25-04-2024 00:00:00,12.921418,77.502466,PM2.5,45,97,73
India,Karnataka,Bengaluru,"RVCE-Mailasandra, Bengaluru - KSPCB",25-04-2024 00:00:00,12.921418,77.502466,NO2,17,17,17
India,Karnataka,Bengaluru,"RVCE-Mailasandra, Bengaluru - KSPCB",25-04-2024 00:00:00,12.921418,77.502466,SO2,10,25,12
India,Karnataka,Bengaluru,"Shivapura_Peenya, Bengaluru - KSPCB",25-04-2024 00:00:00,13.0246342,77.5080115,PM10,51,90,69
India,Karnataka,Bengaluru,"Shivapura_Peenya, Bengaluru - KSPCB",25-04-2024 00:00:00,13.0246342,77.5080115,CO,22,47,34
India,Karnataka,Bengaluru,"Silk Board, Bengaluru - KSPCB",25-04-2024 00:00:00,12.917348,77.622813,PM10,60,147,101
India,Karnataka,Bidar,"Naubad, Bidar - KSPCB",25-04-2024 00:00:00,17.930306,77.482194,NO2,NA,NA,NA
India,Karnataka,Chamarajanagar,"Urban, Chamarajanagar - KSPCB",25-04-2024 00:00:00,11.55358,76.55521,NH3,1,2,2
India,Karnataka,Chikkaballapur,"Chikkaballapur Rural, Chikkaballapur - KSPCB",25-04-2024 00:00:00,13.428828,77.731418,NH3,1,1,1
India,Karnataka,Chikkaballapur,"Chikkaballapur Rural, Chikkaballapur - KSPCB",25-04-2024 00:00:00,13.428828,77.731418,OZONE,25,28,25
India,Karnataka,Davanagere,"Devaraj Urs Badavane, Davanagere - KSPCB",25-04-2024 00:00:00,14.475800,75.905200,SO2,3,6,5
India,Karnataka,Dharwad,"Kalabhavan, Dharwad - KSPCB",25-04-2024 00:00:00,15.459706,75.008381,PM2.5,44,95,71
India,Karnataka,Gadag,"Panchal Nagar, Gadag - KSPCB",25-04-2024 00:00:00,15.411456,75.638133,NH3,1,4,2
India,Karnataka,Haveri,"Ashwini Nagar, Haveri - KSPCB",25-04-2024 00:00:00,14.791800,75.389600,NH3,3,4,3
India,Karnataka,Hubballi,"Lingaraj Nagar, Hubballi - KSPCB",25-04-2024 00:00:00,15.3714823,75.1160168,NH3,2,2,2
India,Karnataka,Hubballi,"Lingaraj Nagar, Hubballi - KSPCB",25-04-2024 00:00:00,15.3714823,75.1160168,CO,3,32,17
India,Karnataka,Kalaburagi,"Lal Bahadur Shastri Nagar, Kalaburagi - KSPCB",25-04-2024 00:00:00,17.321993,76.822628,OZONE,4,76,39
India,Karnataka,Kalaburagi,"Mahatma Basaveswar Colony, Kalaburgi - KSPCB",25-04-2024 00:00:00,17.336318,76.847397,PM2.5,NA,NA,NA
India,Karnataka,Kalaburagi,"Mahatma Basaveswar Colony, Kalaburgi - KSPCB",25-04-2024 00:00:00,17.336318,76.847397,OZONE,12,43,26
India,Karnataka,Kolar,"Tamaka Ind. Area, Kolar - KSPCB",25-04-2024 00:00:00,13.1276288,78.1570122,SO2,NA,NA,NA
India,Karnataka,Koppal,"Diwator Nagar, Koppal - KSPCB",25-04-2024 00:00:00,15.347630,76.181767,NH3,5,10,8
India,Karnataka,Madikeri,"Stuart Hill, Madikeri - KSPCB",25-04-2024 00:00:00,12.415911,75.735050,NH3,1,1,1
India,Karnataka,Madikeri,"Stuart Hill, Madikeri - KSPCB",25-04-2024 00:00:00,12.415911,75.735050,CO,4,74,28
India,Karnataka,Madikeri,"Stuart Hill, Madikeri - KSPCB",25-04-2024 00:00:00,12.415911,75.735050,OZONE,21,49,35
India,Karnataka,Mangalore,"Kadri, Mangalore - KSPCB",25-04-2024 00:00:00,12.889250,74.853000,OZONE,27,32,31
India,Karnataka,Mysuru,"Hebbal 1st Stage, Mysuru - KSPCB",25-04-2024 00:00:00,12.21041,76.37376,PM2.5,18,48,31
India,Karnataka,Mysuru,"Hebbal 1st Stage, Mysuru - KSPCB",25-04-2024 00:00:00,12.21041,76.37376,NH3,1,2,2
India,Karnataka,Raichur,"Haji Colony, Raichur - KSPCB",25-04-2024 00:00:00,16.208139,77.348417,CO,NA,NA,NA
India,Karnataka,Raichur,"Haji Colony, Raichur - KSPCB",25-04-2024 00:00:00,16.208139,77.348417,OZONE,NA,NA,NA
India,Karnataka,Shivamogga,"Vinoba Nagara, Shivamogga - KSPCB",25-04-2024 00:00:00,13.940000,75.555917,NO2,11,23,14
India,Karnataka,Shivamogga,"Vinoba Nagara, Shivamogga - KSPCB",25-04-2024 00:00:00,13.940000,75.555917,OZONE,37,100,76
India,Karnataka,Tumakuru,"Thimmalapura, Tumakuru - KSPCB",25-04-2024 00:00:00,13.377516,77.099072,PM2.5,NA,NA,NA
India,Karnataka,Tumakuru,"Thimmalapura, Tumakuru - KSPCB",25-04-2024 00:00:00,13.377516,77.099072,CO,28,34,31
India,Karnataka,Vijayapura,"Ibrahimpur, Vijayapura - KSPCB",25-04-2024 00:00:00,16.802639,75.722694,NO2,17,19,19
India,Karnataka,Yadgir,"Collector Office, Yadgir - KSPCB",25-04-2024 00:00:00,16.7602,77.1428,NO2,5,7,6
India,Karnataka,Yadgir,"Collector Office, Yadgir - KSPCB",25-04-2024 00:00:00,16.7602,77.1428,NH3,NA,NA,NA
India,Kerala,Eloor,"Udyogamandal, Eloor - Kerala PCB",25-04-2024 00:00:00,10.073232,76.302765,CO,12,86,49
India,Kerala,Kollam,"Polayathode, Kollam - Kerala PCB",25-04-2024 00:00:00,8.8787,76.6073,NO2,8,9,8
India,Kerala,Kollam,"Polayathode, Kollam - Kerala PCB",25-04-2024 00:00:00,8.8787,76.6073,CO,14,18,16
India,Kerala,Thiruvananthapuram,"Kariavattom, Thiruvananthapuram - Kerala PCB",25-04-2024 00:00:00,8.563700,76.886500,NH3,1,1,1
India,Kerala,Thiruvananthapuram,"Plammoodu, Thiruvananthapuram - Kerala PCB",25-04-2024 00:00:00,8.5149093,76.9435879,PM2.5,11,43,27
India,Kerala,Thiruvananthapuram,"Plammoodu, Thiruvananthapuram - Kerala PCB",25-04-2024 00:00:00,8.5149093,76.9435879,NH3,1,1,1
India,Kerala,Thrissur,"Corporation Ground, Thrissur - Kerala PCB",25-04-2024 00:00:00,10.532400,76.215900,SO2,NA,NA,NA
India,Madhya Pradesh,Bhopal,"Idgah Hills, Bhopal - MPPCB",25-04-2024 00:00:00,23.264759,77.381568,PM2.5,17,57,36
India,Madhya Pradesh,Bhopal,"Paryavaran Parisar, Bhopal - MPPCB",25-04-2024 00:00:00,23.210494,77.425409,PM10,44,125,80
India,Madhya Pradesh,Bhopal,"Paryavaran Parisar, Bhopal - MPPCB",25-04-2024 00:00:00,23.210494,77.425409,SO2,7,13,9
India,Madhya Pradesh,Bhopal,"T T Nagar, Bhopal - MPPCB",25-04-2024 00:00:00,23.233584,77.400574,NH3,1,6,4
India,Madhya Pradesh,Dewas,"Bhopal Chauraha, Dewas - MPPCB",25-04-2024 00:00:00,22.9682591,76.064118,PM2.5,12,153,48
India,Madhya Pradesh,Dewas,"Bhopal Chauraha, Dewas - MPPCB",25-04-2024 00:00:00,22.9682591,76.064118,SO2,14,39,31
India,Madhya Pradesh,Gwalior,"Deen Dayal Nagar, Gwalior - MPPCB",25-04-2024 00:00:00,26.259242,78.216432,SO2,17,25,20
India,Madhya Pradesh,Gwalior,"Maharaj Bada, Gwalior - MPPCB",25-04-2024 00:00:00,26.200388,78.147714,NH3,2,23,7
India,Madhya Pradesh,Gwalior,"Maharaj Bada, Gwalior - MPPCB",25-04-2024 00:00:00,26.200388,78.147714,CO,28,140,76
India,Madhya Pradesh,Gwalior,"Phool Bagh, Gwalior - Mondelez Ind. Food",25-04-2024 00:00:00,26.210536,78.171,PM2.5,15,69,40
India,Madhya Pradesh,Gwalior,"Phool Bagh, Gwalior - Mondelez Ind. Food",25-04-2024 00:00:00,26.210536,78.171,NO2,4,5,4
India,Madhya Pradesh,Indore,"Chhoti Gwaltoli, Indore - MPPCB",25-04-2024 00:00:00,22.4310,75.5213,PM10,52,142,96
India,Madhya Pradesh,Indore,"Chhoti Gwaltoli, Indore - MPPCB",25-04-2024 00:00:00,22.4310,75.5213,SO2,10,41,18
India,Madhya Pradesh,Indore,"Maguda Nagar, Indore - IMC",25-04-2024 00:00:00,22.7524,75.8872,SO2,NA,NA,NA
India,Madhya Pradesh,Indore,"Regional Park, Indore - IMC",25-04-2024 00:00:00,22.6780,75.8559,PM2.5,28,134,56
India,Madhya Pradesh,Indore,"Regional Park, Indore - IMC",25-04-2024 00:00:00,22.6780,75.8559,SO2,NA,NA,NA
India,Madhya Pradesh,Indore,"Residency Area, Indore - IMC",25-04-2024 00:00:00,22.7084,75.8815,PM10,32,112,62
India,Madhya Pradesh,Indore,"Residency Area, Indore - IMC",25-04-2024 00:00:00,22.7084,75.8815,CO,12,20,16
India,Madhya Pradesh,Indore,"Residency Area, Indore - IMC",25-04-2024 00:00:00,22.7084,75.8815,OZONE,10,20,13
India,Madhya Pradesh,Jabalpur,"Govindh Bhavan Colony, Jabalpur - JMC",25-04-2024 00:00:00,23.163174,79.973061,SO2,5,26,13
India,Madhya Pradesh,Jabalpur,"Suhagi, Jabalpur - JMC",25-04-2024 00:00:00,23.218135,79.957770,CO,30,67,45
India,Madhya Pradesh,Katni,"Gole Bazar, Katni - MPPCB",25-04-2024 00:00:00,23.50016,80.23284,PM10,51,161,93
India,Madhya Pradesh,Katni,"Gole Bazar, Katni - MPPCB",25-04-2024 00:00:00,23.50016,80.23284,NO2,30,100,56
India,Madhya Pradesh,Katni,"Gole Bazar, Katni - MPPCB",25-04-2024 00:00:00,23.50016,80.23284,OZONE,29,109,58
India,Madhya Pradesh,Maihar,"Sahilara, Maihar - KJS Cements",25-04-2024 00:00:00,24.2613009,80.7231783,PM2.5,10,62,29
India,Madhya Pradesh,Maihar,"Sahilara, Maihar - KJS Cements",25-04-2024 00:00:00,24.2613009,80.7231783,NO2,19,23,21
India,Madhya Pradesh,Maihar,"Sahilara, Maihar - KJS Cements",25-04-2024 00:00:00,24.2613009,80.7231783,SO2,14,20,16
India,Madhya Pradesh,Mandideep,"Sector-D Industrial Area, Mandideep - MPPCB",25-04-2024 00:00:00,23.108440,77.511428,NH3,6,11,8
India,Madhya Pradesh,Mandideep,"Sector-D Industrial Area, Mandideep - MPPCB",25-04-2024 00:00:00,23.108440,77.511428,CO,11,91,32
India,Madhya Pradesh,Pithampur,"Sector-2 Industrial Area, Pithampur - MPPCB",25-04-2024 00:00:00,22.624758,75.675238,NO2,6,20,12
India,Madhya Pradesh,Ratlam,"Shasthri Nagar, Ratlam - IPCA Lab",25-04-2024 00:00:00,23.331731,75.045981,PM2.5,6,204,53
India,Madhya Pradesh,Ratlam,"Shasthri Nagar, Ratlam - IPCA Lab",25-04-2024 00:00:00,23.331731,75.045981,SO2,37,53,41
India,Madhya Pradesh,Sagar,"Civil Lines, Sagar - MPPCB",25-04-2024 00:00:00,23.838586,78.759431,PM2.5,17,85,51
India,Madhya Pradesh,Sagar,"Deen Dayal Nagar, Sagar - MPPCB",25-04-2024 00:00:00,23.8640158,78.80289321,PM10,NA,NA,NA
India,Madhya Pradesh,Satna,"Bandhavgar Colony, Satna - Birla Cement",25-04-2024 00:00:00,24.58434363,80.8549414,PM10,34,110,61
India,Madhya Pradesh,Satna,"Bandhavgar Colony, Satna - Birla Cement",25-04-2024 00:00:00,24.58434363,80.8549414,SO2,3,5,4
India,Madhya Pradesh,Singrauli,"Suryakiran Bhawan NCL, Singrauli - MPPCB",25-04-2024 00:00:00,24.108970,82.645580,SO2,37,57,45
India,Madhya Pradesh,Singrauli,"Suryakiran Bhawan NCL, Singrauli - MPPCB",25-04-2024 00:00:00,24.108970,82.645580,OZONE,9,85,56
India,Madhya Pradesh,Ujjain,"Mahakaleshwar Temple, Ujjain - MPPCB",25-04-2024 00:00:00,23.182719 ,75.768218 ,SO2,7,21,12
India,Maharashtra,Ahmednagar,"Tarakpur, Ahmednagar - MPCB",25-04-2024 00:00:00,19.10122,74.73339,SO2,7,13,10
India,Maharashtra,Akola,"Ramdaspeth, Akola - MPCB",25-04-2024 00:00:00,20.719516,77.000253,PM10,42,240,68
India,Maharashtra,Akola,"Ramdaspeth, Akola - MPCB",25-04-2024 00:00:00,20.719516,77.000253,SO2,8,38,23
India,Maharashtra,Akola,"Ramdaspeth, Akola - MPCB",25-04-2024 00:00:00,20.719516,77.000253,CO,17,36,26
India,Maharashtra,Amravati,"Shivneri Colony, Amravati - MPCB",25-04-2024 00:00:00,20.9402359,77.7895248,PM2.5,32,62,46
India,Maharashtra,Amravati,"Shivneri Colony, Amravati - MPCB",25-04-2024 00:00:00,20.9402359,77.7895248,NH3,1,3,2
India,Maharashtra,Amravati,"Shri Shivaji Science College, Amaravati - MPCB",25-04-2024 00:00:00,20.939198,77.765701,OZONE,39,120,87
India,Maharashtra,Aurangabad,"MIDC Chilkalthana, Aurangabad - MPCB",25-04-2024 00:00:00,19.875620,75.387310,CO,39,50,42
India,Maharashtra,Aurangabad,"More Chowk Waluj, Aurangabad - MPCB",25-04-2024 00:00:00,19.8389439,75.244448,PM10,NA,NA,NA
India,Maharashtra,Aurangabad,"More Chowk Waluj, Aurangabad - MPCB",25-04-2024 00:00:00,19.8389439,75.244448,NO2,NA,NA,NA
India,Maharashtra,Badlapur,"Katrap, Badlapur - MPCB",25-04-2024 00:00:00,19.16485,73.23409,NO2,13,49,24
India,Maharashtra,Belapur,"CBD Belapur, Belapur - MPCB",25-04-2024 00:00:00,19.0243902,73.0406721,PM10,80,125,103
India,Maharashtra,Belapur,"CBD Belapur, Belapur - MPCB",25-04-2024 00:00:00,19.0243902,73.0406721,NH3,2,2,2
India,Maharashtra,Boisar,"Khaira, Boisar - MPCB",25-04-2024 00:00:00,19.786089,72.757971,SO2,1,95,41
India,Maharashtra,Chandrapur,"Chauhan Colony, Chandrapur - MPCB",25-04-2024 00:00:00,19.962900,79.298714,NO2,13,51,22
India,Maharashtra,Chandrapur,"MIDC Khutala, Chandrapur - MPCB",25-04-2024 00:00:00,19.9775302,79.2337086,PM10,NA,NA,NA
India,Maharashtra,Chandrapur,"MIDC Khutala, Chandrapur - MPCB",25-04-2024 00:00:00,19.9775302,79.2337086,SO2,NA,NA,NA
India,Maharashtra,Jalgaon,"Prabhat Colony, Jalgaon - MPCB",25-04-2024 00:00:00,21.001264,75.565602,NH3,7,14,11
India,Maharashtra,Jalgaon,"Prabhat Colony, Jalgaon - MPCB",25-04-2024 00:00:00,21.001264,75.565602,SO2,10,23,14
India,Maharashtra,Jalna,"Old MIDC, Jalna - MPCB",25-04-2024 00:00:00,19.854616,75.905894,SO2,2,5,4
India,Maharashtra,Kolhapur,"Shivaji University, Kolhapur - MPCB",25-04-2024 00:00:00,16.6870449,74.2505872,PM2.5,52,158,99
India,Maharashtra,Kolhapur,"Shivaji University, Kolhapur - MPCB",25-04-2024 00:00:00,16.6870449,74.2505872,SO2,1,9,5
India,Maharashtra,Kolhapur,"Sinchan Bhavan, Kolhapur - MPCB",25-04-2024 00:00:00,16.7143745,74.2426398,PM2.5,NA,NA,NA
India,Maharashtra,Latur,"Sawe Wadi, Latur - MPCB",25-04-2024 00:00:00,18.39963,76.57452,NH3,4,12,6
India,Maharashtra,Latur,"Sawe Wadi, Latur - MPCB",25-04-2024 00:00:00,18.39963,76.57452,SO2,2,10,5
India,Maharashtra,Mahad,"Kamble Tarf Birwadi, Mahad - MPCB",25-04-2024 00:00:00,18.1023399,73.4783687,CO,18,56,32
India,Maharashtra,Malegaon,"Mahesh Nagar, Malegaon - MPCB",25-04-2024 00:00:00,20.555712,74.529236,CO,8,28,15
India,Maharashtra,Malegaon,"Mahesh Nagar, Malegaon - MPCB",25-04-2024 00:00:00,20.555712,74.529236,OZONE,21,87,62
India,Maharashtra,Mumbai,"Bandra Kurla Complex, Mumbai - MPCB",25-04-2024 00:00:00,19.065931,72.862131,PM2.5,11,71,47
India,Maharashtra,Mumbai,"Bandra Kurla Complex, Mumbai - MPCB",25-04-2024 00:00:00,19.065931,72.862131,NH3,1,5,2
India,Maharashtra,Mumbai,"Borivali East, Mumbai - IITM",25-04-2024 00:00:00,19.23241,72.86895,NO2,47,93,66
India,Maharashtra,Mumbai,"Borivali East, Mumbai - MPCB",25-04-2024 00:00:00,19.2243333,72.8658113,PM10,36,93,69
India,Maharashtra,Mumbai,"Chakala-Andheri East, Mumbai - IITM",25-04-2024 00:00:00,19.11074,72.86084,PM10,86,200,131
India,Maharashtra,Mumbai,"Chakala-Andheri East, Mumbai - IITM",25-04-2024 00:00:00,19.11074,72.86084,CO,1,50,28
India,Maharashtra,Mumbai,"Chakala-Andheri East, Mumbai - IITM",25-04-2024 00:00:00,19.11074,72.86084,OZONE,17,46,35
India,Maharashtra,Mumbai,"Chhatrapati Shivaji Intl. Airport (T2), Mumbai - MPCB",25-04-2024 00:00:00,19.10078,72.87462,NO2,NA,NA,NA
India,Maharashtra,Mumbai,"Colaba, Mumbai - MPCB",25-04-2024 00:00:00,18.910000,72.820000,PM10,72,103,84
India,Maharashtra,Mumbai,"Deonar, Mumbai - IITM",25-04-2024 00:00:00,19.04946,72.9230,PM2.5,NA,NA,NA
India,Maharashtra,Mumbai,"Deonar, Mumbai - IITM",25-04-2024 00:00:00,19.04946,72.9230,OZONE,3,61,35
India,Maharashtra,Mumbai,"Ghatkopar, Mumbai - BMC",25-04-2024 00:00:00,19.083694,72.920967,NO2,6,31,19
India,Maharashtra,Mumbai,"Kandivali East, Mumbai - MPCB",25-04-2024 00:00:00,19.205800,72.868200,NO2,19,85,34
India,Maharashtra,Mumbai,"Kherwadi_Bandra East, Mumbai - MPCB",25-04-2024 00:00:00,19.0632143,72.8456324,CO,6,35,12
India,Maharashtra,Mumbai,"Kherwadi_Bandra East, Mumbai - MPCB",25-04-2024 00:00:00,19.0632143,72.8456324,OZONE,4,71,65
India,Maharashtra,Mumbai,"Kurla, Mumbai - MPCB",25-04-2024 00:00:00,19.0863,72.8888,NO2,14,20,16
India,Maharashtra,Mumbai,"Mazgaon, Mumbai - IITM",25-04-2024 00:00:00,18.96702,72.84214,NO2,36,69,47
India,Maharashtra,Mumbai,"Mindspace-Malad West, Mumbai - MPCB",25-04-2024 00:00:00,19.1878657,72.8304069,CO,8,30,18
India,Maharashtra,Mumbai,"Navy Nagar-Colaba, Mumbai - IITM",25-04-2024 00:00:00,18.897756,72.813320,NH3,8,9,8
India,Maharashtra,Mumbai,"Navy Nagar-Colaba, Mumbai - IITM",25-04-2024 00:00:00,18.897756,72.813320,CO,10,34,24
India,Maharashtra,Mumbai,"Powai, Mumbai - MPCB",25-04-2024 00:00:00,19.137500,72.915056,PM2.5,23,48,33
India,Maharashtra,Mumbai,"Powai, Mumbai - MPCB",25-04-2024 00:00:00,19.137500,72.915056,OZONE,37,88,51
India,Maharashtra,Mumbai,"Sewri, Mumbai - BMC",25-04-2024 00:00:00,19.000084,72.856730,SO2,1,4,2
India,Maharashtra,Mumbai,"Sion, Mumbai - MPCB",25-04-2024 00:00:00,19.047000,72.874600,CO,40,46,44
India,Maharashtra,Mumbai,"Vasai West, Mumbai - MPCB",25-04-2024 00:00:00,19.383200,72.820400,NO2,26,29,27
India,Maharashtra,Mumbai,"Vasai West, Mumbai - MPCB",25-04-2024 00:00:00,19.383200,72.820400,SO2,16,16,16
India,Maharashtra,Mumbai,"Vasai West, Mumbai - MPCB",25-04-2024 00:00:00,19.383200,72.820400,OZONE,11,38,26
India,Maharashtra,Mumbai,"Vile Parle West, Mumbai - MPCB",25-04-2024 00:00:00,19.10861,72.83622,NH3,10,11,11
India,Maharashtra,Mumbai,"Worli, Mumbai - MPCB",25-04-2024 00:00:00,18.9936162,72.8128113,PM2.5,19,53,31
India,Maharashtra,Nagpur,"Mahal, Nagpur - MPCB",25-04-2024 00:00:00,21.14472,79.107595,PM2.5,40,67,54
India,Maharashtra,Nagpur,"Mahal, Nagpur - MPCB",25-04-2024 00:00:00,21.14472,79.107595,NH3,3,9,7
India,Maharashtra,Nanded,"Sneh Nagar, Nanded - MPCB",25-04-2024 00:00:00,19.173852,77.296291,PM2.5,21,60,41
India,Maharashtra,Nashik,"Gangapur Road, Nashik - MPCB",25-04-2024 00:00:00,20.0073285,73.7762427,OZONE,8,79,67
India,Maharashtra,Nashik,"Hirawadi, Nashik - MPCB",25-04-2024 00:00:00,20.021503,73.813844,PM10,63,104,81
India,Maharashtra,Nashik,"Hirawadi, Nashik - MPCB",25-04-2024 00:00:00,20.021503,73.813844,NH3,2,4,3
India,Maharashtra,Nashik,"Hirawadi, Nashik - MPCB",25-04-2024 00:00:00,20.021503,73.813844,OZONE,3,90,45
India,Maharashtra,Nashik,"MIDC Ambad, Nashik - MPCB",25-04-2024 00:00:00,19.950220,73.731480,PM10,49,125,72
India,Maharashtra,Nashik,"MIDC Ambad, Nashik - MPCB",25-04-2024 00:00:00,19.950220,73.731480,NO2,9,72,23
India,Maharashtra,Nashik,"MIDC Ambad, Nashik - MPCB",25-04-2024 00:00:00,19.950220,73.731480,CO,10,74,18
India,Maharashtra,Nashik,"Pandav Nagari, Nashik - MPCB",25-04-2024 00:00:00,19.9591346,73.7788008,PM2.5,64,139,80
India,Maharashtra,Nashik,"Pandav Nagari, Nashik - MPCB",25-04-2024 00:00:00,19.9591346,73.7788008,NO2,4,43,15
India,Maharashtra,Nashik,"Pandav Nagari, Nashik - MPCB",25-04-2024 00:00:00,19.9591346,73.7788008,NH3,2,5,4
India,Maharashtra,Nashik,"Pandav Nagari, Nashik - MPCB",25-04-2024 00:00:00,19.9591346,73.7788008,SO2,12,64,27
India,Maharashtra,Nashik,"Pandav Nagari, Nashik - MPCB",25-04-2024 00:00:00,19.9591346,73.7788008,CO,12,56,22
India,Maharashtra,Navi Mumbai,"Kopripada-Vashi, Navi Mumbai - MPCB",25-04-2024 00:00:00,19.090337,73.014232,CO,9,29,15
India,Maharashtra,Navi Mumbai,"Mahape, Navi Mumbai - MPCB",25-04-2024 00:00:00,19.1135051,73.008978,OZONE,39,62,46
India,Maharashtra,Navi Mumbai,"Nerul, Navi Mumbai - MPCB",25-04-2024 00:00:00,19.008751,73.016620,PM2.5,39,127,65
India,Maharashtra,Navi Mumbai,"Sanpada, Navi Mumbai - MPCB",25-04-2024 00:00:00,19.0575752,73.0151367,PM2.5,39,73,57
India,Maharashtra,Navi Mumbai,"Sanpada, Navi Mumbai - MPCB",25-04-2024 00:00:00,19.0575752,73.0151367,SO2,1,4,2
India,Maharashtra,Navi Mumbai,"Sanpada, Navi Mumbai - MPCB",25-04-2024 00:00:00,19.0575752,73.0151367,OZONE,9,166,62
India,Maharashtra,Navi Mumbai,"Sector-19A Nerul, Navi Mumbai - IITM",25-04-2024 00:00:00,19.044,73.0325,CO,22,61,46
India,Maharashtra,Navi Mumbai,"Sector-2E Kalamboli, Navi Mumbai - MPCB",25-04-2024 00:00:00,19.02579,73.10297,PM2.5,35,67,52
India,Maharashtra,Navi Mumbai,"Sector-2E Kalamboli, Navi Mumbai - MPCB",25-04-2024 00:00:00,19.02579,73.10297,NO2,22,74,40
India,Maharashtra,Navi Mumbai,"Tondare-Taloja, Navi Mumbai - MPCB",25-04-2024 00:00:00,19.0630,73.1209,NO2,20,84,49
India,Maharashtra,Navi Mumbai,"Tondare-Taloja, Navi Mumbai - MPCB",25-04-2024 00:00:00,19.0630,73.1209,CO,12,36,24
India,Maharashtra,Pimpri-Chinchwad,"Park Street Wakad, Pimpri Chinchwad - MPCB",25-04-2024 00:00:00,18.59051,73.77946,PM2.5,37,69,49
India,Maharashtra,Pune,"Bhosari, Pune - IITM",25-04-2024 00:00:00,18.640051,73.848956,NO2,14,15,14
India,Maharashtra,Pune,"Karve Road, Pune - MPCB",25-04-2024 00:00:00,18.5011743,73.8165527,PM2.5,31,174,71
India,Maharashtra,Pune,"Mhada Colony, Pune - IITM",25-04-2024 00:00:00,18.573040,73.927715,PM10,62,126,92
India,Maharashtra,Pune,"Mhada Colony, Pune - IITM",25-04-2024 00:00:00,18.573040,73.927715,NO2,12,62,33
India,Maharashtra,Pune,"Mhada Colony, Pune - IITM",25-04-2024 00:00:00,18.573040,73.927715,OZONE,13,84,68
India,Maharashtra,Pune,"Revenue Colony-Shivajinagar, Pune - IITM",25-04-2024 00:00:00,18.530085,73.849598,PM10,63,110,92
India,Maharashtra,Pune,"Transport Nagar-Nigdi, Pune - IITM",25-04-2024 00:00:00,18.664282,73.763966,PM2.5,NA,NA,NA
India,Maharashtra,Pune,"Transport Nagar-Nigdi, Pune - IITM",25-04-2024 00:00:00,18.664282,73.763966,PM10,NA,NA,NA
India,Maharashtra,Sangli,"Vijay Nagar, Sangli - MPCB",25-04-2024 00:00:00, 16.5038,74.3623,NH3,1,2,2
India,Maharashtra,Sangli,"Vijay Nagar, Sangli - MPCB",25-04-2024 00:00:00, 16.5038,74.3623,CO,16,38,22
India,Maharashtra,Solapur,"Dnyaneshwar Nagar, Solapur - MPCB",25-04-2024 00:00:00,17.6336264,75.9132495,PM2.5,49,110,63
India,Maharashtra,Solapur,"Dnyaneshwar Nagar, Solapur - MPCB",25-04-2024 00:00:00,17.6336264,75.9132495,CO,3,32,18
India,Maharashtra,Thane,"Pimpleshwar Mandir, Thane - MPCB",25-04-2024 00:00:00,19.192056,72.9585188,NO2,23,24,23
India,Maharashtra,Thane,"Pimpleshwar Mandir, Thane - MPCB",25-04-2024 00:00:00,19.192056,72.9585188,NH3,3,3,3
India,Maharashtra,Thane,"Upvan Fort, Thane - MPCB",25-04-2024 00:00:00,19.222279,72.957979,NO2,7,25,14
India,Maharashtra,Ulhasnagar,"Sidhi Vinayak Nagar, Ulhasnagar - MPCB",25-04-2024 00:00:00,19.235581,73.159121,PM2.5,76,152,102
India,Maharashtra,Ulhasnagar,"Sidhi Vinayak Nagar, Ulhasnagar - MPCB",25-04-2024 00:00:00,19.235581,73.159121,OZONE,27,198,98
India,Manipur,Imphal,"DM College of Science, Imphal - Manipur PCB",25-04-2024 00:00:00,24.8207389,93.9423085,SO2,NA,NA,NA
India,Manipur,Imphal,"Manipur University, Imphal - Manipur PCB",25-04-2024 00:00:00,24.7524239,93.9286218,NO2,7,19,11
India,Mizoram,Aizawl,"Sikulpuikawn, Aizawl - Mizoram PCB",25-04-2024 00:00:00,23.7176342,92.7192841,SO2,NA,NA,NA
India,Mizoram,Aizawl,"Sikulpuikawn, Aizawl - Mizoram PCB",25-04-2024 00:00:00,23.7176342,92.7192841,OZONE,NA,NA,NA
India,Nagaland,Kohima,"PWD Juction, Kohima - NPCB",25-04-2024 00:00:00,25.6635413,94.0989878,SO2,32,34,33
India,Odisha,Angul,"Hakimapada, Angul - OSPCB",25-04-2024 00:00:00,20.832874,85.104082,NH3,1,2,1
India,Odisha,Balasore,"Kalidaspur, Balasore - OSPCB",25-04-2024 00:00:00,21.51161,86.89088,PM10,105,183,133
India,Odisha,Balasore,"Kalidaspur, Balasore - OSPCB",25-04-2024 00:00:00,21.51161,86.89088,NH3,3,5,3
India,Odisha,Baripada,"Meher Colony, Baripada - OSPCB",25-04-2024 00:00:00,21.941841,86.728318,PM10,88,187,127
India,Odisha,Baripada,"Meher Colony, Baripada - OSPCB",25-04-2024 00:00:00,21.941841,86.728318,SO2,1,4,2
India,Odisha,Bhubaneswar,"Lingraj Mandir, Bhubaneswar - OSPCB",25-04-2024 00:00:00,20.240790,85.836784,NO2,7,40,19
India,Odisha,Brajrajnagar,"GM Office, Brajrajnagar - OSPCB",25-04-2024 00:00:00,21.8004996,83.8396977,SO2,30,61,37
India,Odisha,Byasanagar,"Ferro Chrome Colony, Byasanagar - OSPCB",25-04-2024 00:00:00,20.94185,86.11510,CO,60,104,85
India,Odisha,Cuttack,"CDA Area, Cuttack - OSPCB",25-04-2024 00:00:00,20.48891     ,85.84768     ,PM10,55,268,119
India,Odisha,Cuttack,"CDA Area, Cuttack - OSPCB",25-04-2024 00:00:00,20.48891     ,85.84768     ,SO2,1,38,7
India,Odisha,Cuttack,"CDA Area, Cuttack - OSPCB",25-04-2024 00:00:00,20.48891     ,85.84768     ,CO,18,46,22
India,Odisha,Keonjhar,"Jagamohanpur, Keonjhar - OSPCB",25-04-2024 00:00:00,21.643900,85.599355,PM10,65,116,85
India,Odisha,Keonjhar,"Jagamohanpur, Keonjhar - OSPCB",25-04-2024 00:00:00,21.643900,85.599355,NO2,7,55,19
India,Odisha,Keonjhar,"Jagamohanpur, Keonjhar - OSPCB",25-04-2024 00:00:00,21.643900,85.599355,OZONE,10,45,24
India,Odisha,Nayagarh,"Dabuna, Nayagarh - OSPCB",25-04-2024 00:00:00,21.847279,85.416905,NO2,3,3,3
India,Odisha,Nayagarh,"Dabuna, Nayagarh - OSPCB",25-04-2024 00:00:00,21.847279,85.416905,CO,12,41,23
India,Odisha,Rairangpur,"Divisional Forest Office, Rairangpur - OSPCB",25-04-2024 00:00:00,22.265816,86.174829,PM2.5,56,194,101
India,Odisha,Rairangpur,"Divisional Forest Office, Rairangpur - OSPCB",25-04-2024 00:00:00,22.265816,86.174829,CO,4,37,11
India,Odisha,Rourkela,"Fertilizer Township, Rourkela - OSPCB",25-04-2024 00:00:00,22.18972222,84.86277778,CO,11,22,19
India,Odisha,Rourkela,"Raghunathpali, Rourkela - OSPCB",25-04-2024 00:00:00,22.220833,84.809444,PM2.5,64,191,123
India,Odisha,Rourkela,"Raghunathpali, Rourkela - OSPCB",25-04-2024 00:00:00,22.220833,84.809444,PM10,105,157,131
India,Odisha,Rourkela,"Raghunathpali, Rourkela - OSPCB",25-04-2024 00:00:00,22.220833,84.809444,CO,22,60,32
India,Odisha,Rourkela,"Sector-2, Rourkela - OSPCB",25-04-2024 00:00:00,22.24500000,84.88111111,PM10,27,154,110
India,Odisha,Suakati,"OMC Colony, Suakati - OSPCB",25-04-2024 00:00:00,21.606865,85.510538,NH3,5,7,6
India,Odisha,Tensa,"Barsua Iron Ore Mines, Tensa - OSPCB",25-04-2024 00:00:00,21.869985,85.167016,OZONE,47,107,93
India,Puducherry,Puducherry,"Jawahar Nagar, Puducherry - PPCC",25-04-2024 00:00:00,11.9309,79.8027,PM2.5,NA,NA,NA
India,Puducherry,Puducherry,"Jawahar Nagar, Puducherry - PPCC",25-04-2024 00:00:00,11.9309,79.8027,NO2,2,23,8
India,Puducherry,Puducherry,"Jawahar Nagar, Puducherry - PPCC",25-04-2024 00:00:00,11.9309,79.8027,NH3,3,9,5
India,Punjab,Amritsar,"Golden Temple, Amritsar - PPCB",25-04-2024 00:00:00,31.620000,74.876512,PM2.5,66,91,75
India,Punjab,Amritsar,"Golden Temple, Amritsar - PPCB",25-04-2024 00:00:00,31.620000,74.876512,PM10,66,91,75
India,Punjab,Amritsar,"Golden Temple, Amritsar - PPCB",25-04-2024 00:00:00,31.620000,74.876512,NH3,5,8,6
India,Punjab,Jalandhar,"Civil Line, Jalandhar - PPCB",25-04-2024 00:00:00,31.321907,75.578914,PM10,41,93,65
India,Punjab,Jalandhar,"Civil Line, Jalandhar - PPCB",25-04-2024 00:00:00,31.321907,75.578914,NO2,37,41,39
India,Punjab,Jalandhar,"Civil Line, Jalandhar - PPCB",25-04-2024 00:00:00,31.321907,75.578914,NH3,2,5,3
India,Punjab,Jalandhar,"Civil Line, Jalandhar - PPCB",25-04-2024 00:00:00,31.321907,75.578914,OZONE,12,76,37
India,Punjab,Ludhiana,"Punjab Agricultural University, Ludhiana - PPCB",25-04-2024 00:00:00,30.9028,75.8086,SO2,8,36,15
India,Punjab,Ludhiana,"Punjab Agricultural University, Ludhiana - PPCB",25-04-2024 00:00:00,30.9028,75.8086,CO,17,48,32
India,Punjab,Mandi Gobindgarh,"RIMT University, Mandi Gobindgarh - PPCB",25-04-2024 00:00:00,30.649961,76.331442,PM2.5,61,182,99
India,Punjab,Patiala,"Model Town, Patiala - PPCB",25-04-2024 00:00:00,30.349388,76.366642,NH3,6,7,6
India,Punjab,Patiala,"Model Town, Patiala - PPCB",25-04-2024 00:00:00,30.349388,76.366642,SO2,3,34,8
India,Punjab,Rupnagar,"Ratanpura, Rupnagar - Ambuja Cements",25-04-2024 00:00:00,31.0325454,76.5623046,CO,20,45,37
India,Rajasthan,Ajmer,"Civil Lines,  Ajmer - RSPCB",25-04-2024 00:00:00,26.470859,74.646594,NO2,11,18,14
India,Rajasthan,Ajmer,"Civil Lines,  Ajmer - RSPCB",25-04-2024 00:00:00,26.470859,74.646594,SO2,9,14,12
India,Rajasthan,Alwar,"Moti Doongri, Alwar - RSPCB",25-04-2024 00:00:00,27.554793,76.611536,PM2.5,19,87,56
India,Rajasthan,Banswara,"Rati Talai, Banswara - RSPCB",25-04-2024 00:00:00,23.555190,74.440010,PM2.5,28,137,74
India,Rajasthan,Banswara,"Rati Talai, Banswara - RSPCB",25-04-2024 00:00:00,23.555190,74.440010,NH3,1,5,3
India,Rajasthan,Banswara,"Rati Talai, Banswara - RSPCB",25-04-2024 00:00:00,23.555190,74.440010,CO,2,70,20
India,Rajasthan,Banswara,"Rati Talai, Banswara - RSPCB",25-04-2024 00:00:00,23.555190,74.440010,OZONE,4,128,71
India,Rajasthan,Baran,"Bamboliya, Baran - RSPCB",25-04-2024 00:00:00,25.106006,76.469948,SO2,10,18,12
India,Rajasthan,Barmer,"Railway Colony, Barmer - RSPCB",25-04-2024 00:00:00,25.747299,71.393989,PM2.5,15,71,24
India,Rajasthan,Barmer,"Railway Colony, Barmer - RSPCB",25-04-2024 00:00:00,25.747299,71.393989,NO2,7,29,13
India,Rajasthan,Barmer,"Railway Colony, Barmer - RSPCB",25-04-2024 00:00:00,25.747299,71.393989,OZONE,61,109,79
India,Rajasthan,Bharatpur,"Krishna Nagar, Bharatpur - RSPCB",25-04-2024 00:00:00,27.215415,77.50873,OZONE,58,332,105
India,Rajasthan,Bhilwara,"Pratap Nagar, Bhilwara - RSPCB",25-04-2024 00:00:00,25.339605,74.618883,CO,16,114,62
India,Rajasthan,Bhiwadi,"RIICO Ind. Area III, Bhiwadi - RSPCB",25-04-2024 00:00:00,28.194909,76.862296,NH3,5,29,10
India,Rajasthan,Bhiwadi,"RIICO Ind. Area III, Bhiwadi - RSPCB",25-04-2024 00:00:00,28.194909,76.862296,SO2,27,79,39
India,Rajasthan,Bhiwadi,"RIICO Ind. Area III, Bhiwadi - RSPCB",25-04-2024 00:00:00,28.194909,76.862296,OZONE,4,88,34
India,Rajasthan,Bhiwadi,"Vasundhara Nagar_UIT, Bhiwadi - RSPCB",25-04-2024 00:00:00,28.207266,76.829265,PM2.5,8,303,94
India,Rajasthan,Bundi,"New Colony, Bundi - RSPCB",25-04-2024 00:00:00,25.435774,75.644272,PM2.5,16,132,53
India,Rajasthan,Bundi,"New Colony, Bundi - RSPCB",25-04-2024 00:00:00,25.435774,75.644272,CO,16,110,66
India,Rajasthan,Chittorgarh,"Shastri Nagar, Chittorgarh - RSPCB",25-04-2024 00:00:00,24.892047,74.623527,SO2,6,122,26
India,Rajasthan,Churu,"Subash Chowk, Churu - RSPCB",25-04-2024 00:00:00,28.296139,74.961696,PM2.5,13,86,40
India,Rajasthan,Churu,"Subash Chowk, Churu - RSPCB",25-04-2024 00:00:00,28.296139,74.961696,NO2,1,64,23
India,Rajasthan,Churu,"Subash Chowk, Churu - RSPCB",25-04-2024 00:00:00,28.296139,74.961696,NH3,9,17,13
India,Rajasthan,Churu,"Subash Chowk, Churu - RSPCB",25-04-2024 00:00:00,28.296139,74.961696,OZONE,39,174,142
India,Rajasthan,Dausa,"Khatikan Mohalla, Dausa - RSPCB",25-04-2024 00:00:00,26.895552,76.334753,PM2.5,24,124,55
India,Rajasthan,Dausa,"Khatikan Mohalla, Dausa - RSPCB",25-04-2024 00:00:00,26.895552,76.334753,CO,16,116,47
India,Rajasthan,Dungarpur,"Bhoiwada, Dungarpur - RSPCB",25-04-2024 00:00:00,23.837789,73.714926,PM10,53,114,74
India,Rajasthan,Dungarpur,"Bhoiwada, Dungarpur - RSPCB",25-04-2024 00:00:00,23.837789,73.714926,SO2,2,4,3
India,Rajasthan,Hanumangarh,"Housing Board, Hanumangarh - RSPCB",25-04-2024 00:00:00,29.610750,74.283608,PM2.5,28,421,116
India,Rajasthan,Jaipur,"Adarsh Nagar, Jaipur - RSPCB",25-04-2024 00:00:00,26.902909,75.836858,PM2.5,37,123,66
India,Rajasthan,Jaipur,"Adarsh Nagar, Jaipur - RSPCB",25-04-2024 00:00:00,26.902909,75.836858,PM10,56,185,94
India,Rajasthan,Jaipur,"Adarsh Nagar, Jaipur - RSPCB",25-04-2024 00:00:00,26.902909,75.836858,SO2,3,27,16
India,Rajasthan,Jaipur,"Mansarovar Sector-12, Jaipur - RSPCB",25-04-2024 00:00:00,26.843698,75.766894,CO,51,76,59
India,Rajasthan,Jaipur,"Police Commissionerate, Jaipur - RSPCB",25-04-2024 00:00:00,26.9164092,75.7994901,SO2,5,71,26
India,Rajasthan,Jaipur,"Police Commissionerate, Jaipur - RSPCB",25-04-2024 00:00:00,26.9164092,75.7994901,CO,22,66,42
India,Rajasthan,Jaipur,"RIICO Sitapura, Jaipur - RSPCB",25-04-2024 00:00:00,26.786682,75.827928,NH3,2,17,11
India,Rajasthan,Jaipur,"Sector-2 Murlipura, Jaipur - RSPCB",25-04-2024 00:00:00,26.960669,75.771817,NH3,2,20,8
India,Rajasthan,Jaipur,"Sector-2 Murlipura, Jaipur - RSPCB",25-04-2024 00:00:00,26.960669,75.771817,CO,32,98,63
India,Rajasthan,Jaipur,"Shastri Nagar, Jaipur - RSPCB",25-04-2024 00:00:00,26.9502929,75.730943,NH3,7,19,12
India,Rajasthan,Jhunjhunu,"Indra Nagar, Jhunjhunu - RSPCB",25-04-2024 00:00:00,28.108988,75.386577,CO,3,30,21
India,Rajasthan,Jhunjhunu,"Indra Nagar, Jhunjhunu - RSPCB",25-04-2024 00:00:00,28.108988,75.386577,OZONE,22,87,75
India,Rajasthan,Jodhpur,"Collectorate, Jodhpur - RSPCB",25-04-2024 00:00:00,26.268249,73.0193853,PM2.5,25,164,82
India,Rajasthan,Jodhpur,"Digari Kalan, Jodhpur - RSPCB",25-04-2024 00:00:00,26.295810,73.082283,PM10,53,196,103
India,Rajasthan,Jodhpur,"Digari Kalan, Jodhpur - RSPCB",25-04-2024 00:00:00,26.295810,73.082283,NH3,3,6,4
India,Rajasthan,Jodhpur,"Mandor, Jodhpur - RSPCB",25-04-2024 00:00:00,26.358805,73.047444,NH3,6,11,7
India,Rajasthan,Jodhpur,"Mandor, Jodhpur - RSPCB",25-04-2024 00:00:00,26.358805,73.047444,OZONE,13,117,97
India,Rajasthan,Jodhpur,"Samrat Ashok Udhyan, Jodhpur - RSPCB",25-04-2024 00:00:00,26.253384,72.976571,PM10,58,252,116
India,Rajasthan,Jodhpur,"Samrat Ashok Udhyan, Jodhpur - RSPCB",25-04-2024 00:00:00,26.253384,72.976571,SO2,3,29,7
India,Rajasthan,Karauli,"Satyawati Vihar, Karauli - RSPCB",25-04-2024 00:00:00,26.506177,77.025989,SO2,17,25,20
India,Rajasthan,Kota,"Dhanmandi, Kota - RSPCB",25-04-2024 00:00:00,25.164090,75.858137,PM2.5,20,290,93
India,Rajasthan,Kota,"Dhanmandi, Kota - RSPCB",25-04-2024 00:00:00,25.164090,75.858137,NH3,3,5,4
India,Rajasthan,Kota,"Dhanmandi, Kota - RSPCB",25-04-2024 00:00:00,25.164090,75.858137,CO,16,127,68
India,Rajasthan,Kota,"Nayapura, Kota - RSPCB",25-04-2024 00:00:00,25.196024,75.855668,PM2.5,18,140,64
India,Rajasthan,Kota,"Nayapura, Kota - RSPCB",25-04-2024 00:00:00,25.196024,75.855668,NH3,5,15,9
India,Rajasthan,Nagaur,"Karni Colony, Nagaur - RSPCB",25-04-2024 00:00:00,27.213494,73.734444,NO2,7,32,16
India,Rajasthan,Nagaur,"Karni Colony, Nagaur - RSPCB",25-04-2024 00:00:00,27.213494,73.734444,CO,13,88,49
India,Rajasthan,Nagaur,"Karni Colony, Nagaur - RSPCB",25-04-2024 00:00:00,27.213494,73.734444,OZONE,51,93,69
India,Rajasthan,Pratapgarh,"Pragati Nagar, Pratapgarh - RSPCB",25-04-2024 00:00:00,24.041198,74.780702,SO2,4,13,6
India,Rajasthan,Pratapgarh,"Pragati Nagar, Pratapgarh - RSPCB",25-04-2024 00:00:00,24.041198,74.780702,OZONE,49,121,88
India,Rajasthan,Rajsamand,"Dhoinda, Rajsamand - RSPCB",25-04-2024 00:00:00,25.036360,73.883502,PM2.5,13,157,45
India,Rajasthan,Rajsamand,"Dhoinda, Rajsamand - RSPCB",25-04-2024 00:00:00,25.036360,73.883502,SO2,1,4,2
India,Rajasthan,Rajsamand,"Dhoinda, Rajsamand - RSPCB",25-04-2024 00:00:00,25.036360,73.883502,OZONE,39,87,80
India,Rajasthan,Sawai Madhopur,"Sahu Nagar, Sawai Madhopur - RSPCB",25-04-2024 00:00:00,26.031443,76.359327,NH3,1,15,9
India,Rajasthan,Sikar,"Radhakishan Pura, Sikar - RSPCB",25-04-2024 00:00:00,27.608912,75.153302,PM2.5,14,86,48
India,Rajasthan,Sikar,"Radhakishan Pura, Sikar - RSPCB",25-04-2024 00:00:00,27.608912,75.153302,NH3,4,7,6
India,Rajasthan,Sirohi,"Vedhaynath Colony, Sirohi - RSPCB",25-04-2024 00:00:00,24.885261,72.857549,SO2,1,12,5
India,Rajasthan,Sri Ganganagar,"Old City, Sri Ganganagar - RSPCB",25-04-2024 00:00:00,29.931624,73.864511,PM2.5,53,332,192
India,Rajasthan,Sri Ganganagar,"Old City, Sri Ganganagar - RSPCB",25-04-2024 00:00:00,29.931624,73.864511,NO2,35,137,70
India,Rajasthan,Sri Ganganagar,"Old City, Sri Ganganagar - RSPCB",25-04-2024 00:00:00,29.931624,73.864511,NH3,9,55,16
India,Rajasthan,Sri Ganganagar,"Old City, Sri Ganganagar - RSPCB",25-04-2024 00:00:00,29.931624,73.864511,SO2,1,10,5
India,Rajasthan,Tonk,"Shastri Nagar, Tonk - RSPCB",25-04-2024 00:00:00,26.159933,75.780517,SO2,3,14,6
India,Rajasthan,Udaipur,"Ashok Nagar, Udaipur - RSPCB",25-04-2024 00:00:00,24.5886166,73.6321397,PM10,74,111,89
India,Rajasthan,Udaipur,"Ashok Nagar, Udaipur - RSPCB",25-04-2024 00:00:00,24.5886166,73.6321397,NH3,8,11,9
India,Sikkim,Gangtok,"Zero Point GICI, Gangtok - SSPCB",25-04-2024 00:00:00,27.338530,88.614099,PM2.5,24,36,28
India,TamilNadu,Ariyalur,"Keelapalur, Ariyalur - TNPCB",25-04-2024 00:00:00,11.06825,79.07033,SO2,26,32,28
India,TamilNadu,Chennai,"Alandur Bus Depot, Chennai - CPCB",25-04-2024 00:00:00,12.9099161,80.1076538,SO2,1,7,3
India,TamilNadu,Chennai,"Kodungaiyur, Chennai - TNPCB",25-04-2024 00:00:00,13.1278,80.2642,NO2,8,22,12
India,TamilNadu,Chennai,"Kodungaiyur, Chennai - TNPCB",25-04-2024 00:00:00,13.1278,80.2642,NH3,2,22,5
India,TamilNadu,Chennai,"Kodungaiyur, Chennai - TNPCB",25-04-2024 00:00:00,13.1278,80.2642,CO,28,102,33
India,TamilNadu,Chennai,"Manali, Chennai - CPCB",25-04-2024 00:00:00,13.164544,80.26285,PM10,32,78,55
India,TamilNadu,Chennai,"Perungudi, Chennai - TNPCB",25-04-2024 00:00:00,12.9533,80.2357,OZONE,3,9,7
India,TamilNadu,Chennai,"Royapuram, Chennai - TNPCB",25-04-2024 00:00:00,13.1036,80.2909,PM2.5,7,38,16
India,TamilNadu,Chennai,"Royapuram, Chennai - TNPCB",25-04-2024 00:00:00,13.1036,80.2909,NH3,NA,NA,NA
India,TamilNadu,Chennai,"Royapuram, Chennai - TNPCB",25-04-2024 00:00:00,13.1036,80.2909,CO,20,31,24
India,TamilNadu,Chennai,"Velachery Res. Area, Chennai - CPCB",25-04-2024 00:00:00,13.0052189,80.2398125,SO2,11,11,11
India,TamilNadu,Chennai,"Velachery Res. Area, Chennai - CPCB",25-04-2024 00:00:00,13.0052189,80.2398125,CO,4,146,44
India,TamilNadu,Cuddalore,"Kudikadu, Cuddalore - TNPCB",25-04-2024 00:00:00,11.6829898,79.7532099,NO2,1,4,2
India,TamilNadu,Cuddalore,"Kudikadu, Cuddalore - TNPCB",25-04-2024 00:00:00,11.6829898,79.7532099,NH3,3,4,4
India,TamilNadu,Cuddalore,"Kudikadu, Cuddalore - TNPCB",25-04-2024 00:00:00,11.6829898,79.7532099,SO2,8,8,8
India,TamilNadu,Kanchipuram,"Kilambi, Kanchipuram - TNPCB",25-04-2024 00:00:00,12.864618,79.659968,NH3,NA,NA,NA
India,TamilNadu,Ooty,"Bombay Castel, Ooty - TNPCB",25-04-2024 00:00:00,11.4068288,76.7138973,PM10,NA,NA,NA
India,TamilNadu,Ooty,"Bombay Castel, Ooty - TNPCB",25-04-2024 00:00:00,11.4068288,76.7138973,CO,19,22,20
India,TamilNadu,Ooty,"Bombay Castel, Ooty - TNPCB",25-04-2024 00:00:00,11.4068288,76.7138973,OZONE,5,6,5
India,TamilNadu,Palkalaiperur,"Bharathidasan University, Palkalaiperur - TNPCB",25-04-2024 00:00:00,10.681158,78.741746,OZONE,1,1,1
India,TamilNadu,Thoothukudi,"Meelavittan, Thoothukudi - TNPCB",25-04-2024 00:00:00,8.816428 ,78.099039,CO,2,48,21
India,TamilNadu,Thoothukudi,"Meelavittan, Thoothukudi - TNPCB",25-04-2024 00:00:00,8.816428 ,78.099039,OZONE,1,16,10
India,TamilNadu,Tirupur,"Kumaran College, Tirupur - TNPCB",25-04-2024 00:00:00,11.0973603,77.3228673,SO2,22,24,23
India,TamilNadu,Virudhunagar,"Collectorate Office, Virudhunagar - TNPCB",25-04-2024 00:00:00,9.559382,77.948828,PM2.5,NA,NA,NA
India,TamilNadu,Virudhunagar,"Collectorate Office, Virudhunagar - TNPCB",25-04-2024 00:00:00,9.559382,77.948828,PM10,NA,NA,NA
India,TamilNadu,Virudhunagar,"Collectorate Office, Virudhunagar - TNPCB",25-04-2024 00:00:00,9.559382,77.948828,OZONE,6,7,6
India,Telangana,Hyderabad,"Central University, Hyderabad - TSPCB",25-04-2024 00:00:00,17.460103,78.334361,NO2,12,57,32
India,Telangana,Hyderabad,"ECIL Kapra, Hyderabad - TSPCB",25-04-2024 00:00:00,17.470431,78.566959,NH3,5,12,8
India,Telangana,Hyderabad,"ECIL Kapra, Hyderabad - TSPCB",25-04-2024 00:00:00,17.470431,78.566959,OZONE,24,143,92
India,Telangana,Hyderabad,"ICRISAT Patancheru, Hyderabad - TSPCB",25-04-2024 00:00:00,17.518400,78.278777,PM2.5,38,131,58
India,Telangana,Hyderabad,"ICRISAT Patancheru, Hyderabad - TSPCB",25-04-2024 00:00:00,17.518400,78.278777,NH3,2,2,2
India,Telangana,Hyderabad,"IITH Kandi, Hyderabad - TSPCB",25-04-2024 00:00:00,17.585705,78.126199,PM2.5,NA,NA,NA
India,Telangana,Hyderabad,"IITH Kandi, Hyderabad - TSPCB",25-04-2024 00:00:00,17.585705,78.126199,NO2,NA,NA,NA
India,Telangana,Hyderabad,"Kokapet, Hyderabad - TSPCB",25-04-2024 00:00:00,17.393559,78.339194,PM2.5,49,69,58
India,Telangana,Hyderabad,"Kokapet, Hyderabad - TSPCB",25-04-2024 00:00:00,17.393559,78.339194,NO2,11,12,11
India,Telangana,Hyderabad,"Kokapet, Hyderabad - TSPCB",25-04-2024 00:00:00,17.393559,78.339194,NH3,3,3,3
India,Telangana,Hyderabad,"Kokapet, Hyderabad - TSPCB",25-04-2024 00:00:00,17.393559,78.339194,OZONE,2,9,4
India,Telangana,Hyderabad,"Kompally Municipal Office, Hyderabad - TSPCB",25-04-2024 00:00:00,17.544899,78.486949,NH3,7,9,8
India,Telangana,Hyderabad,"Nacharam_TSIIC IALA, Hyderabad - TSPCB",25-04-2024 00:00:00,17.429398,78.569354,SO2,10,21,19
India,Telangana,Hyderabad,"New Malakpet, Hyderabad - TSPCB",25-04-2024 00:00:00,17.37206,78.50864,NO2,12,40,21
India,Telangana,Hyderabad,"New Malakpet, Hyderabad - TSPCB",25-04-2024 00:00:00,17.37206,78.50864,NH3,1,3,2
India,Telangana,Hyderabad,"Somajiguda, Hyderabad - TSPCB",25-04-2024 00:00:00,17.417094,78.457437,PM10,70,98,80
India,Telangana,Hyderabad,"Zoo Park, Hyderabad - TSPCB",25-04-2024 00:00:00,17.349694,78.451437,NH3,1,1,1
India,Telangana,Hyderabad,"Zoo Park, Hyderabad - TSPCB",25-04-2024 00:00:00,17.349694,78.451437,CO,29,114,65
India,Telangana,Hyderabad,"Zoo Park, Hyderabad - TSPCB",25-04-2024 00:00:00,17.349694,78.451437,OZONE,15,46,24
India,Uttar_Pradesh,Agra,"Manoharpur, Agra - UPPCB",25-04-2024 00:00:00,27.23711,78.01936,NO2,31,31,31
India,Uttar_Pradesh,Agra,"Manoharpur, Agra - UPPCB",25-04-2024 00:00:00,27.23711,78.01936,SO2,12,25,17
India,Uttar_Pradesh,Agra,"Rohta, Agra - UPPCB",25-04-2024 00:00:00,27.106972,78.000111,NO2,2,2,2
India,Uttar_Pradesh,Agra,"Sanjay Palace, Agra - UPPCB",25-04-2024 00:00:00,27.19865833,78.00598056,OZONE,32,67,39
India,Uttar_Pradesh,Agra,"Sector-3B Avas Vikas Colony, Agra - UPPCB",25-04-2024 00:00:00,27.19412,77.96237,PM2.5,6,45,20
India,Uttar_Pradesh,Agra,"Sector-3B Avas Vikas Colony, Agra - UPPCB",25-04-2024 00:00:00,27.19412,77.96237,NO2,25,26,26
India,Uttar_Pradesh,Agra,"Sector-3B Avas Vikas Colony, Agra - UPPCB",25-04-2024 00:00:00,27.19412,77.96237,SO2,9,15,11
India,Uttar_Pradesh,Agra,"Sector-3B Avas Vikas Colony, Agra - UPPCB",25-04-2024 00:00:00,27.19412,77.96237,OZONE,1,8,3
India,Uttar_Pradesh,Agra,"Shastripuram, Agra - UPPCB",25-04-2024 00:00:00,27.19862,77.92066,PM10,23,168,92
India,Uttar_Pradesh,Agra,"Shastripuram, Agra - UPPCB",25-04-2024 00:00:00,27.19862,77.92066,NO2,30,44,36
India,Uttar_Pradesh,Baghpat,"Sardar Patel Inter College, Baghpat - UPPCB",25-04-2024 00:00:00,28.964949,77.278761,PM10,71,252,135
India,Uttar_Pradesh,Baghpat,"Sardar Patel Inter College, Baghpat - UPPCB",25-04-2024 00:00:00,28.964949,77.278761,NO2,14,93,46
India,Uttar_Pradesh,Baghpat,"Sardar Patel Inter College, Baghpat - UPPCB",25-04-2024 00:00:00,28.964949,77.278761,SO2,17,103,50
India,Uttar_Pradesh,Bareilly,"Civil Lines, Bareilly - UPPCB",25-04-2024 00:00:00,28.359581,79.414455,PM10,NA,NA,NA
India,Uttar_Pradesh,Bareilly,"Rajendra Nagar, Bareilly - UPPCB",25-04-2024 00:00:00,28.38910936,79.42963708,NO2,2,3,2
India,Uttar_Pradesh,Bareilly,"Rajendra Nagar, Bareilly - UPPCB",25-04-2024 00:00:00,28.38910936,79.42963708,OZONE,3,86,30
India,Uttar_Pradesh,Bulandshahr,"Yamunapuram, Bulandshahr - UPPCB",25-04-2024 00:00:00,28.406963,77.849831,PM10,52,162,101
India,Uttar_Pradesh,Bulandshahr,"Yamunapuram, Bulandshahr - UPPCB",25-04-2024 00:00:00,28.406963,77.849831,OZONE,2,217,74
India,Uttar_Pradesh,Firozabad,"Vibhab Nagar, Firozabad - UPPCB",25-04-2024 00:00:00,27.1594,78.3953,PM2.5,32,142,74
India,Uttar_Pradesh,Firozabad,"Vibhab Nagar, Firozabad - UPPCB",25-04-2024 00:00:00,27.1594,78.3953,NH3,2,2,2
India,Uttar_Pradesh,Ghaziabad,"Indirapuram, Ghaziabad - UPPCB",25-04-2024 00:00:00,28.646233,77.358075,CO,20,88,47
India,Uttar_Pradesh,Ghaziabad,"Sanjay Nagar, Ghaziabad - UPPCB",25-04-2024 00:00:00,28.685382,77.453839,SO2,16,80,38
India,Uttar_Pradesh,Ghaziabad,"Vasundhara, Ghaziabad - UPPCB",25-04-2024 00:00:00,28.6603346,77.3572563,PM10,54,254,130
India,Uttar_Pradesh,Ghaziabad,"Vasundhara, Ghaziabad - UPPCB",25-04-2024 00:00:00,28.6603346,77.3572563,SO2,1,125,35
India,Uttar_Pradesh,Gorakhpur,"Madan Mohan Malaviya University of Technology, Gorakhpur - UPPCB",25-04-2024 00:00:00,26.730136,83.433859,NO2,2,2,2
India,Uttar_Pradesh,Gorakhpur,"Madan Mohan Malaviya University of Technology, Gorakhpur - UPPCB",25-04-2024 00:00:00,26.730136,83.433859,OZONE,7,73,51
India,Uttar_Pradesh,Greater Noida,"Knowledge Park - III, Greater Noida - UPPCB",25-04-2024 00:00:00,28.47272,77.482000,NH3,1,6,3
India,Uttar_Pradesh,Greater Noida,"Knowledge Park - V, Greater Noida - UPPCB",25-04-2024 00:00:00,28.557054,77.453663,SO2,5,42,15
India,Uttar_Pradesh,Greater Noida,"Knowledge Park - V, Greater Noida - UPPCB",25-04-2024 00:00:00,28.557054,77.453663,CO,6,118,79
India,Uttar_Pradesh,Hapur,"Anand Vihar, Hapur - UPPCB",25-04-2024 00:00:00,28.725645,77.749675,NH3,4,5,4
India,Uttar_Pradesh,Hapur,"Anand Vihar, Hapur - UPPCB",25-04-2024 00:00:00,28.725645,77.749675,CO,27,42,31
India,Uttar_Pradesh,Hapur,"Anand Vihar, Hapur - UPPCB",25-04-2024 00:00:00,28.725645,77.749675,OZONE,7,71,37
India,Uttar_Pradesh,Jhansi,"Shivaji Nagar, Jhansi - UPPCB",25-04-2024 00:00:00,25.4547,78.6039,SO2,14,19,15
India,Uttar_Pradesh,Jhansi,"Shivaji Nagar, Jhansi - UPPCB",25-04-2024 00:00:00,25.4547,78.6039,OZONE,14,47,34
India,Uttar_Pradesh,Kanpur,"FTI Kidwai Nagar, Kanpur - UPPCB",25-04-2024 00:00:00,26.428282,80.327067,PM2.5,34,144,74
India,Uttar_Pradesh,Kanpur,"FTI Kidwai Nagar, Kanpur - UPPCB",25-04-2024 00:00:00,26.428282,80.327067,PM10,85,280,134
India,Uttar_Pradesh,Kanpur,"FTI Kidwai Nagar, Kanpur - UPPCB",25-04-2024 00:00:00,26.428282,80.327067,NH3,2,4,3
India,Uttar_Pradesh,Kanpur,"NSI Kalyanpur, Kanpur - UPPCB",25-04-2024 00:00:00,26.509954,80.249612,PM2.5,7,93,63
India,Uttar_Pradesh,Kanpur,"NSI Kalyanpur, Kanpur - UPPCB",25-04-2024 00:00:00,26.509954,80.249612,PM10,26,417,137
India,Uttar_Pradesh,Kanpur,"Nehru Nagar, Kanpur - UPPCB",25-04-2024 00:00:00,26.4703136,80.3229863,PM2.5,41,192,68
India,Uttar_Pradesh,Kanpur,"Nehru Nagar, Kanpur - UPPCB",25-04-2024 00:00:00,26.4703136,80.3229863,PM10,37,121,58
India,Uttar_Pradesh,Kanpur,"Nehru Nagar, Kanpur - UPPCB",25-04-2024 00:00:00,26.4703136,80.3229863,CO,50,80,57
India,Uttar_Pradesh,Khurja,"Kalindi Kunj, Khurja - UPPCB",25-04-2024 00:00:00,28.2348927,77.8683002,OZONE,28,43,34
India,Uttar_Pradesh,Lucknow,"B R Ambedkar University, Lucknow - UPPCB",25-04-2024 00:00:00,26.766433,80.927299,NO2,11,12,11
India,Uttar_Pradesh,Lucknow,"Gomti Nagar, Lucknow - UPPCB",25-04-2024 00:00:00,26.868120,81.005119,SO2,7,13,10
India,Uttar_Pradesh,Lucknow,"Talkatora District Industries Center, Lucknow - CPCB",25-04-2024 00:00:00,26.83399722,80.8917361,PM10,125,188,143
India,Uttar_Pradesh,Lucknow,"Talkatora District Industries Center, Lucknow - CPCB",25-04-2024 00:00:00,26.83399722,80.8917361,SO2,1,60,9
India,Uttar_Pradesh,Lucknow,"Talkatora District Industries Center, Lucknow - CPCB",25-04-2024 00:00:00,26.83399722,80.8917361,CO,4,45,30
India,Uttar_Pradesh,Meerut,"Ganga Nagar, Meerut - UPPCB",25-04-2024 00:00:00,28.999264,77.7590354,PM10,76,184,130
India,Uttar_Pradesh,Meerut,"Jai Bhim Nagar, Meerut - UPPCB",25-04-2024 00:00:00,28.9535882,77.7622941,NH3,6,24,12
India,Uttar_Pradesh,Meerut,"Pallavpuram Phase 2, Meerut - UPPCB",25-04-2024 00:00:00,29.063510,77.709723,CO,10,53,32
India,Uttar_Pradesh,Moradabad,"Eco Herbal Park, Moradabad - UPPCB",25-04-2024 00:00:00,28.840739,78.697531,SO2,2,25,12
India,Uttar_Pradesh,Moradabad,"Employment Office, Moradabad - UPPCB",25-04-2024 00:00:00,28.88528,78.73880,NO2,19,19,19
India,Uttar_Pradesh,Moradabad,"Employment Office, Moradabad - UPPCB",25-04-2024 00:00:00,28.88528,78.73880,NH3,3,4,4
India,Uttar_Pradesh,Moradabad,"Jigar Colony, Moradabad - UPPCB",25-04-2024 00:00:00,28.856664,78.772638,CO,27,50,31
India,Uttar_Pradesh,Moradabad,"Kashiram Nagar, Moradabad - UPPCB",25-04-2024 00:00:00,28.849399,78.742362,SO2,33,46,39
India,Uttar_Pradesh,Moradabad,"Transport Nagar, Moradabad - UPPCB",25-04-2024 00:00:00,28.802625,78.753728,NH3,5,5,5
India,Uttar_Pradesh,Muzaffarnagar,"New Mandi, Muzaffarnagar - UPPCB",25-04-2024 00:00:00,29.4723508,77.7194031,PM2.5,45,356,197
India,Uttar_Pradesh,Muzaffarnagar,"New Mandi, Muzaffarnagar - UPPCB",25-04-2024 00:00:00,29.4723508,77.7194031,CO,21,82,55
India,Uttar_Pradesh,Muzaffarnagar,"New Mandi, Muzaffarnagar - UPPCB",25-04-2024 00:00:00,29.4723508,77.7194031,OZONE,5,145,81
India,Uttar_Pradesh,Noida,"Sector - 125, Noida - UPPCB",25-04-2024 00:00:00,28.5447608,77.3231257,NO2,9,198,90
India,Uttar_Pradesh,Noida,"Sector - 125, Noida - UPPCB",25-04-2024 00:00:00,28.5447608,77.3231257,NH3,2,14,9
India,Uttar_Pradesh,Noida,"Sector - 62, Noida - IMD",25-04-2024 00:00:00,28.6245479,77.3577104,PM10,88,374,151
India,Uttar_Pradesh,Noida,"Sector - 62, Noida - IMD",25-04-2024 00:00:00,28.6245479,77.3577104,OZONE,1,49,26
India,Uttar_Pradesh,Noida,"Sector-1, Noida - UPPCB",25-04-2024 00:00:00,28.5898,77.3101,NO2,38,155,93
India,Uttar_Pradesh,Noida,"Sector-1, Noida - UPPCB",25-04-2024 00:00:00,28.5898,77.3101,SO2,3,21,10
India,Uttar_Pradesh,Noida,"Sector-1, Noida - UPPCB",25-04-2024 00:00:00,28.5898,77.3101,CO,20,103,63
India,Uttar_Pradesh,Noida,"Sector-116, Noida - UPPCB",25-04-2024 00:00:00,28.569230,77.393848,NH3,5,10,8
India,Uttar_Pradesh,Prayagraj,"Jhunsi, Prayagraj - UPPCB",25-04-2024 00:00:00,25.425602,81.917152,PM10,32,136,80
India,Uttar_Pradesh,Prayagraj,"Nagar Nigam, Prayagraj - UPPCB",25-04-2024 00:00:00,25.44919916 ,81.82735986 ,CO,12,44,21
India,Uttar_Pradesh,Prayagraj,"Nagar Nigam, Prayagraj - UPPCB",25-04-2024 00:00:00,25.44919916 ,81.82735986 ,OZONE,11,15,11
India,Uttar_Pradesh,Varanasi,"Bhelupur, Varanasi - UPPCB",25-04-2024 00:00:00,25.301778,82.996789,CO,12,72,40
India,Uttar_Pradesh,Varanasi,"Maldahiya, Varanasi - UPPCB",25-04-2024 00:00:00,25.32393,82.99687,NH3,1,2,1
India,Uttar_Pradesh,Vrindavan,"Omex Eternity, Vrindavan - UPPCB",25-04-2024 00:00:00,27.5714090,77.6557570,PM2.5,12,140,34
India,Uttar_Pradesh,Vrindavan,"Omex Eternity, Vrindavan - UPPCB",25-04-2024 00:00:00,27.5714090,77.6557570,NH3,1,2,1
India,Uttarakhand,Kashipur,"Govt. Girls Inter College, Kashipur - UKPCB",25-04-2024 00:00:00,29.2124114,78.9611753,CO,1,64,31
India,West_Bengal,Asansol,"Asansol Court Area, Asansol - WBPCB",25-04-2024 00:00:00,23.685297,86.945968,CO,36,86,48
India,West_Bengal,Barrackpore,"SVSPA Campus, Barrackpore - WBPCB",25-04-2024 00:00:00,22.7605581,88.3617589,NH3,2,5,3
India,West_Bengal,Barrackpore,"SVSPA Campus, Barrackpore - WBPCB",25-04-2024 00:00:00,22.7605581,88.3617589,SO2,9,23,15
India,West_Bengal,Durgapur,"PCBL Residential Complex, Durgapur - WBPCB",25-04-2024 00:00:00,23.5087640,87.3544400,PM10,92,422,168
India,West_Bengal,Durgapur,"PCBL Residential Complex, Durgapur - WBPCB",25-04-2024 00:00:00,23.5087640,87.3544400,NO2,15,147,69
India,West_Bengal,Haldia,"Priyambada Housing Estate, Haldia - WBPCB",25-04-2024 00:00:00,22.06047,88.109737,NO2,11,46,20
India,West_Bengal,Haldia,"Priyambada Housing Estate, Haldia - WBPCB",25-04-2024 00:00:00,22.06047,88.109737,NH3,3,5,4
India,West_Bengal,Haldia,"Priyambada Housing Estate, Haldia - WBPCB",25-04-2024 00:00:00,22.06047,88.109737,OZONE,22,70,33
India,West_Bengal,Howrah,"Belur Math, Howrah - WBPCB",25-04-2024 00:00:00,22.629801,88.352017,PM10,54,119,90
India,West_Bengal,Howrah,"Ghusuri, Howrah - WBPCB",25-04-2024 00:00:00,22.611968,88.347422,NO2,16,20,18
India,West_Bengal,Howrah,"Ghusuri, Howrah - WBPCB",25-04-2024 00:00:00,22.611968,88.347422,NH3,3,3,3
India,West_Bengal,Howrah,"Padmapukur, Howrah - WBPCB",25-04-2024 00:00:00,22.5687319,88.2797276,PM2.5,62,94,78
India,West_Bengal,Howrah,"Padmapukur, Howrah - WBPCB",25-04-2024 00:00:00,22.5687319,88.2797276,PM10,56,106,88
India,West_Bengal,Howrah,"Padmapukur, Howrah - WBPCB",25-04-2024 00:00:00,22.5687319,88.2797276,NH3,7,12,8
India,West_Bengal,Howrah,"Padmapukur, Howrah - WBPCB",25-04-2024 00:00:00,22.5687319,88.2797276,SO2,15,109,45
India,West_Bengal,Kolkata,"Ballygunge, Kolkata - WBPCB",25-04-2024 00:00:00,22.5367507,88.3638022,PM2.5,59,110,80
India,West_Bengal,Kolkata,"Bidhannagar, Kolkata - WBPCB",25-04-2024 00:00:00,22.58157048,88.41002457,SO2,18,72,33
India,West_Bengal,Kolkata,"Fort William, Kolkata - WBPCB",25-04-2024 00:00:00,22.556640,88.342674,SO2,18,82,34
India,West_Bengal,Kolkata,"Jadavpur, Kolkata - WBPCB",25-04-2024 00:00:00,22.49929,88.36917,PM2.5,51,85,67
India,West_Bengal,Kolkata,"Jadavpur, Kolkata - WBPCB",25-04-2024 00:00:00,22.49929,88.36917,PM10,57,85,72
India,West_Bengal,Kolkata,"Rabindra Sarobar, Kolkata - WBPCB",25-04-2024 00:00:00,22.51106,88.35142,OZONE,37,104,69
India,West_Bengal,Kolkata,"Victoria, Kolkata - WBPCB",25-04-2024 00:00:00,22.5448082,88.3403691,PM10,72,105,87
India,West_Bengal,Kolkata,"Victoria, Kolkata - WBPCB",25-04-2024 00:00:00,22.5448082,88.3403691,NO2,19,22,21
India,West_Bengal,Siliguri,"Ward-32 Bapupara, Siliguri - WBPCB",25-04-2024 00:00:00,26.6879226,88.4152495,PM10,90,169,118
India,Andhra_Pradesh,Anantapur,"Gulzarpet, Anantapur - APPCB",25-04-2024 00:00:00,14.675886,77.593027,PM10,19,111,81
India,Andhra_Pradesh,Anantapur,"Gulzarpet, Anantapur - APPCB",25-04-2024 00:00:00,14.675886,77.593027,CO,20,54,33
India,Andhra_Pradesh,Chittoor,"Gangineni Cheruvu, Chittoor - APPCB",25-04-2024 00:00:00,13.204880,79.097889,CO,NA,NA,NA
India,Andhra_Pradesh,Kadapa,"Yerramukkapalli, Kadapa - APPCB",25-04-2024 00:00:00,14.465052,78.824187,OZONE,9,103,78
India,Andhra_Pradesh,Rajamahendravaram,"Anand Kala Kshetram, Rajamahendravaram - APPCB",25-04-2024 00:00:00,16.9872867,81.7363176,SO2,11,12,12
India,Andhra_Pradesh,Rajamahendravaram,"Anand Kala Kshetram, Rajamahendravaram - APPCB",25-04-2024 00:00:00,16.9872867,81.7363176,CO,22,33,30
India,Andhra_Pradesh,Tirupati,"Tirumala, Tirupati - APPCB",25-04-2024 00:00:00,13.67,79.35,PM2.5,20,90,45
India,Andhra_Pradesh,Tirupati,"Vaikuntapuram, Tirupati - APPCB",25-04-2024 00:00:00,13.615387,79.409230,NO2,15,30,22
India,Andhra_Pradesh,Vijayawada,"HB Colony, Vijayawada - APPCB",25-04-2024 00:00:00,16.536107,80.594233,SO2,4,5,5
India,Andhra_Pradesh,Vijayawada,"Kanuru, Vijayawada - APPCB",25-04-2024 00:00:00,16.486692,80.699436,SO2,NA,NA,NA
India,Andhra_Pradesh,Vijayawada,"Kanuru, Vijayawada - APPCB",25-04-2024 00:00:00,16.486692,80.699436,CO,28,50,40
India,Andhra_Pradesh,Vijayawada,"Rajiv Gandhi Park, Vijayawada - APPCB",25-04-2024 00:00:00,16.509717,80.612222,NH3,1,3,2
India,Andhra_Pradesh,Vijayawada,"Rajiv Gandhi Park, Vijayawada - APPCB",25-04-2024 00:00:00,16.509717,80.612222,SO2,4,24,9
India,Andhra_Pradesh,Vijayawada,"Rajiv Gandhi Park, Vijayawada - APPCB",25-04-2024 00:00:00,16.509717,80.612222,CO,40,43,43
India,Andhra_Pradesh,Vijayawada,"Rajiv Nagar, Vijayawada - APPCB",25-04-2024 00:00:00,16.554731,80.649110,SO2,15,21,18
India,Andhra_Pradesh,Vijayawada,"Rajiv Nagar, Vijayawada - APPCB",25-04-2024 00:00:00,16.554731,80.649110,OZONE,8,33,20
India,Assam,Byrnihat,"Central Academy for SFS, Byrnihat - PCBA",25-04-2024 00:00:00,26.071318,91.87488,PM2.5,NA,NA,NA
India,Assam,Byrnihat,"Central Academy for SFS, Byrnihat - PCBA",25-04-2024 00:00:00,26.071318,91.87488,NO2,NA,NA,NA
India,Assam,Byrnihat,"Central Academy for SFS, Byrnihat - PCBA",25-04-2024 00:00:00,26.071318,91.87488,SO2,NA,NA,NA
India,Assam,Guwahati,"IITG, Guwahati - PCBA",25-04-2024 00:00:00,26.2028636,91.70046436,PM10,121,500,175
India,Assam,Guwahati,"IITG, Guwahati - PCBA",25-04-2024 00:00:00,26.2028636,91.70046436,NH3,5,5,5
India,Assam,Guwahati,"IITG, Guwahati - PCBA",25-04-2024 00:00:00,26.2028636,91.70046436,CO,8,28,14
India,Assam,Guwahati,"Railway Colony, Guwahati - PCBA",25-04-2024 00:00:00,26.181742,91.78063,NO2,3,4,3
India,Assam,Nagaon,"Christianpatty, Nagaon - PCBA",25-04-2024 00:00:00,26.349082,92.68449,PM10,79,117,99
India,Assam,Nagaon,"Christianpatty, Nagaon - PCBA",25-04-2024 00:00:00,26.349082,92.68449,CO,34,62,51
India,Assam,Nalbari,"Bata Chowk, Nalbari - PCBA",25-04-2024 00:00:00,26.446912,91.439057,NO2,12,35,20
India,Assam,Nalbari,"Bata Chowk, Nalbari - PCBA",25-04-2024 00:00:00,26.446912,91.439057,OZONE,22,189,135
India,Assam,Silchar,"Tarapur, Silchar - PCBA",25-04-2024 00:00:00,24.82827,92.79525,CO,28,37,33
India,Assam,Sivasagar,"Girls College, Sivasagar - PCBA",25-04-2024 00:00:00,26.987634,94.636574,SO2,3,14,10
India,Assam,Sivasagar,"Girls College, Sivasagar - PCBA",25-04-2024 00:00:00,26.987634,94.636574,CO,14,20,17
India,Bihar,Araria,"Kharahiya Basti, Araria - BSPCB",25-04-2024 00:00:00,26.146529,87.454184,PM10,67,199,118
India,Bihar,Araria,"Kharahiya Basti, Araria - BSPCB",25-04-2024 00:00:00,26.146529,87.454184,NO2,6,10,7
India,Bihar,Arrah,"New DM Office, Arrah - BSPCB",25-04-2024 00:00:00,25.5626095,84.663264,NO2,4,25,12
India,Bihar,Bhagalpur,"DM Office_Kachari Chowk, Bhagalpur - BSPCB",25-04-2024 00:00:00,25.251013,86.989001,NH3,3,5,4
India,Bihar,Bhagalpur,"DM Office_Kachari Chowk, Bhagalpur - BSPCB",25-04-2024 00:00:00,25.251013,86.989001,SO2,15,19,16
India,Bihar,Bhagalpur,"Mayaganj, Bhagalpur - BSPCB",25-04-2024 00:00:00,25.265194,87.012947,PM2.5,25,85,53
India,Bihar,Bhagalpur,"Mayaganj, Bhagalpur - BSPCB",25-04-2024 00:00:00,25.265194,87.012947,SO2,3,12,12
India,Bihar,Bhagalpur,"Mayaganj, Bhagalpur - BSPCB",25-04-2024 00:00:00,25.265194,87.012947,CO,8,10,9
India,Bihar,Bihar Sharif,"D M Colony, Bihar Sharif - BSPCB",25-04-2024 00:00:00,25.204762,85.514960,NH3,2,2,2
India,Bihar,Bihar Sharif,"D M Colony, Bihar Sharif - BSPCB",25-04-2024 00:00:00,25.204762,85.514960,SO2,6,16,13
India,Bihar,Bihar Sharif,"D M Colony, Bihar Sharif - BSPCB",25-04-2024 00:00:00,25.204762,85.514960,OZONE,15,87,31
India,Bihar,Chhapra,"Darshan Nagar, Chhapra - BSPCB",25-04-2024 00:00:00,25.7808257,84.7446768,NO2,18,31,25
India,Bihar,Gaya,"Collectorate, Gaya - BSPCB",25-04-2024 00:00:00,24.7955,84.9994,NO2,1,3,2
India,Bihar,Gaya,"Kareemganj, Gaya - BSPCB",25-04-2024 00:00:00,24.792403,84.992416,CO,9,23,14
India,Bihar,Hajipur,"Industrial Area, Hajipur - BSPCB",25-04-2024 00:00:00,25.697189,85.245900,NH3,1,10,6
India,Bihar,Hajipur,"Industrial Area, Hajipur - BSPCB",25-04-2024 00:00:00,25.697189,85.245900,SO2,6,13,7
India,Bihar,Hajipur,"Industrial Area, Hajipur - BSPCB",25-04-2024 00:00:00,25.697189,85.245900,OZONE,1,176,64
India,Bihar,Katihar,"Mirchaibari, Katihar - BSPCB",25-04-2024 00:00:00,25.560083,87.553265,PM10,53,169,107
India,Bihar,Katihar,"Mirchaibari, Katihar - BSPCB",25-04-2024 00:00:00,25.560083,87.553265,NH3,4,11,8
India,Bihar,Katihar,"Mirchaibari, Katihar - BSPCB",25-04-2024 00:00:00,25.560083,87.553265,SO2,16,26,21
India,Bihar,Kishanganj,"SDM Office_Khagra, Kishanganj - BSPCB",25-04-2024 00:00:00,26.0881305,87.93840336,PM2.5,55,85,70
India,Bihar,Kishanganj,"SDM Office_Khagra, Kishanganj - BSPCB",25-04-2024 00:00:00,26.0881305,87.93840336,OZONE,57,66,57
India,Bihar,Motihari,"Gandak Colony, Motihari - BSPCB",25-04-2024 00:00:00,26.63086,84.90051,OZONE,33,193,112
India,Bihar,Munger,"Town Hall, Munger - BSPCB",25-04-2024 00:00:00,25.376776,86.471523,PM10,35,152,97
India,Bihar,Munger,"Town Hall, Munger - BSPCB",25-04-2024 00:00:00,25.376776,86.471523,NO2,6,8,7
India,Bihar,Muzaffarpur,"Buddha Colony, Muzaffarpur - BSPCB",25-04-2024 00:00:00,26.11442,85.39813,PM2.5,194,326,267
India,Bihar,Muzaffarpur,"Buddha Colony, Muzaffarpur - BSPCB",25-04-2024 00:00:00,26.11442,85.39813,PM10,152,267,189
India,Bihar,Muzaffarpur,"Buddha Colony, Muzaffarpur - BSPCB",25-04-2024 00:00:00,26.11442,85.39813,CO,18,36,28
India,Bihar,Muzaffarpur,"MIT-Daudpur Kothi, Muzaffarpur - BSPCB",25-04-2024 00:00:00,26.1403345,85.3650192,CO,28,101,60
India,Bihar,Muzaffarpur,"Muzaffarpur Collectorate, Muzaffarpur - BSPCB",25-04-2024 00:00:00,26.1209,85.3647,PM2.5,59,125,81
India,Bihar,Muzaffarpur,"Muzaffarpur Collectorate, Muzaffarpur - BSPCB",25-04-2024 00:00:00,26.1209,85.3647,SO2,6,12,9
India,Bihar,Patna,"DRM Office Danapur, Patna - BSPCB",25-04-2024 00:00:00,25.586562,85.043586,CO,9,102,42
India,Bihar,Patna,"Govt. High School Shikarpur, Patna - BSPCB",25-04-2024 00:00:00,25.592539,85.227158,OZONE,1,59,20
India,Bihar,Patna,"Muradpur, Patna - BSPCB",25-04-2024 00:00:00,25.619651,85.147382,CO,2,69,47
India,Bihar,Patna,"Rajbansi Nagar, Patna - BSPCB",25-04-2024 00:00:00,25.599486,85.113666,PM10,124,173,145
India,Bihar,Patna,"Rajbansi Nagar, Patna - BSPCB",25-04-2024 00:00:00,25.599486,85.113666,NO2,14,44,23
India,Bihar,Patna,"Rajbansi Nagar, Patna - BSPCB",25-04-2024 00:00:00,25.599486,85.113666,CO,24,79,50
India,Bihar,Patna,"Samanpura, Patna - BSPCB",25-04-2024 00:00:00,25.596727,85.085624,SO2,5,13,8
India,Bihar,Rajgir,"Dangi Tola, Rajgir - BSPCB",25-04-2024 00:00:00,25.03280,85.41948,NO2,NA,NA,NA
India,Bihar,Rajgir,"Dangi Tola, Rajgir - BSPCB",25-04-2024 00:00:00,25.03280,85.41948,NH3,NA,NA,NA
India,Bihar,Rajgir,"Dangi Tola, Rajgir - BSPCB",25-04-2024 00:00:00,25.03280,85.41948,SO2,NA,NA,NA
India,Bihar,Rajgir,"Dangi Tola, Rajgir - BSPCB",25-04-2024 00:00:00,25.03280,85.41948,CO,28,51,37
India,Bihar,Rajgir,"Dangi Tola, Rajgir - BSPCB",25-04-2024 00:00:00,25.03280,85.41948,OZONE,27,49,34
India,Bihar,Saharsa,"Police Line, Saharsa - BSPCB",25-04-2024 00:00:00,25.892357,86.590325,PM2.5,18,75,40
India,Bihar,Saharsa,"Police Line, Saharsa - BSPCB",25-04-2024 00:00:00,25.892357,86.590325,NH3,9,9,9
India,Bihar,Samastipur,"DM Office_Kasipur, Samastipur - BSPCB",25-04-2024 00:00:00,25.859655,85.77944,PM10,NA,NA,NA
India,Bihar,Samastipur,"DM Office_Kasipur, Samastipur - BSPCB",25-04-2024 00:00:00,25.859655,85.77944,NH3,NA,NA,NA
India,Bihar,Samastipur,"DM Office_Kasipur, Samastipur - BSPCB",25-04-2024 00:00:00,25.859655,85.77944,SO2,NA,NA,NA
India,Bihar,Sasaram,"Dada Peer, Sasaram - BSPCB",25-04-2024 00:00:00,24.952822,84.002396,PM10,37,107,69
India,Bihar,Sasaram,"Dada Peer, Sasaram - BSPCB",25-04-2024 00:00:00,24.952822,84.002396,NO2,19,108,55
India,Bihar,Sasaram,"Dada Peer, Sasaram - BSPCB",25-04-2024 00:00:00,24.952822,84.002396,OZONE,1,80,54
India,Bihar,Siwan,"Chitragupta Nagar, Siwan - BSPCB",25-04-2024 00:00:00,26.2271665,84.3570427,OZONE,35,138,136
India,Chandigarh,Chandigarh,"Sector 22, Chandigarh - CPCC",25-04-2024 00:00:00,30.735567,76.775714,CO,34,84,51
India,Chandigarh,Chandigarh,"Sector-25, Chandigarh - CPCC",25-04-2024 00:00:00,30.751462,76.762879,NO2,11,53,23
India,Chandigarh,Chandigarh,"Sector-25, Chandigarh - CPCC",25-04-2024 00:00:00,30.751462,76.762879,OZONE,2,57,20
India,Chandigarh,Chandigarh,"Sector-53, Chandigarh - CPCC",25-04-2024 00:00:00,30.719859,76.738637,PM2.5,25,277,83
India,Chandigarh,Chandigarh,"Sector-53, Chandigarh - CPCC",25-04-2024 00:00:00,30.719859,76.738637,NO2,14,118,55
India,Chandigarh,Chandigarh,"Sector-53, Chandigarh - CPCC",25-04-2024 00:00:00,30.719859,76.738637,SO2,1,16,9
India,Chandigarh,Chandigarh,"Sector-53, Chandigarh - CPCC",25-04-2024 00:00:00,30.719859,76.738637,CO,22,115,77
India,Chhattisgarh,Bhilai,"32Bungalows, Bhilai - CECB",25-04-2024 00:00:00,21.194815,81.314770,CO,14,37,25
India,Chhattisgarh,Bhilai,"Hathkhoj, Bhilai - CECB",25-04-2024 00:00:00,21.224231,81.408350,PM2.5,7,122,39
India,Chhattisgarh,Bhilai,"Hathkhoj, Bhilai - CECB",25-04-2024 00:00:00,21.224231,81.408350,NH3,7,8,8
India,Chhattisgarh,Bilaspur,"Mangala, Bilaspur - NTPC",25-04-2024 00:00:00,22.08815,82.13737,NO2,NA,NA,NA
India,Chhattisgarh,Chhal,"Nawapara SECL Colony, Chhal - CECB",25-04-2024 00:00:00,22.118125,83.140608,PM2.5,34,224,58
India,Chhattisgarh,Chhal,"Nawapara SECL Colony, Chhal - CECB",25-04-2024 00:00:00,22.118125,83.140608,PM10,30,241,61
India,Chhattisgarh,Chhal,"Nawapara SECL Colony, Chhal - CECB",25-04-2024 00:00:00,22.118125,83.140608,NO2,15,80,30
India,Chhattisgarh,Chhal,"Nawapara SECL Colony, Chhal - CECB",25-04-2024 00:00:00,22.118125,83.140608,CO,22,108,42
India,Chhattisgarh,Korba,"Rampur, Korba - CECB",25-04-2024 00:00:00,22.368195,82.746431,CO,16,30,18
India,Chhattisgarh,Raipur,"Bhatagaon New ISBT, Raipur - CECB",25-04-2024 00:00:00,21.219665,81.630094,PM10,7,119,48
India,Chhattisgarh,Raipur,"Bhatagaon New ISBT, Raipur - CECB",25-04-2024 00:00:00,21.219665,81.630094,NH3,2,2,2
India,Chhattisgarh,Raipur,"Bhatagaon New ISBT, Raipur - CECB",25-04-2024 00:00:00,21.219665,81.630094,SO2,1,3,2
India,Chhattisgarh,Raipur,"Siltara Phase-II, Raipur - CECB",25-04-2024 00:00:00,21.371751,81.664929,SO2,8,85,28
India,Chhattisgarh,Tumidih,"OP Jindal Industrial Park, Tumidih - CECB",25-04-2024 00:00:00,22.06631475,83.33820077,NH3,1,2,1
India,Delhi,Delhi,"Aya Nagar, Delhi - IMD",25-04-2024 00:00:00,28.4706914,77.1099364,PM2.5,40,231,132
India,Delhi,Delhi,"Aya Nagar, Delhi - IMD",25-04-2024 00:00:00,28.4706914,77.1099364,PM10,72,188,123
India,Delhi,Delhi,"Aya Nagar, Delhi - IMD",25-04-2024 00:00:00,28.4706914,77.1099364,NO2,39,49,44
India,Delhi,Delhi,"Bawana, Delhi - DPCC",25-04-2024 00:00:00,28.776200,77.051074,OZONE,2,155,98
India,Delhi,Delhi,"CRRI Mathura Road, Delhi - IMD",25-04-2024 00:00:00,28.5512005,77.2735737,CO,30,112,97
India,Delhi,Delhi,"Chandni Chowk, Delhi - IITM",25-04-2024 00:00:00,28.656756,77.227234,PM2.5,95,252,177
India,Delhi,Delhi,"Chandni Chowk, Delhi - IITM",25-04-2024 00:00:00,28.656756,77.227234,SO2,20,58,45
India,Delhi,Delhi,"Chandni Chowk, Delhi - IITM",25-04-2024 00:00:00,28.656756,77.227234,OZONE,5,27,26
India,Delhi,Delhi,"DTU, Delhi - CPCB",25-04-2024 00:00:00,28.7500499,77.1112615,OZONE,26,266,160
India,Delhi,Delhi,"Dr. Karni Singh Shooting Range, Delhi - DPCC",25-04-2024 00:00:00,28.498571,77.264840,PM10,73,186,126
India,Delhi,Delhi,"Dwarka-Sector 8, Delhi - DPCC ",25-04-2024 00:00:00,28.5710274,77.0719006,NH3,NA,NA,NA
India,Delhi,Delhi,"Dwarka-Sector 8, Delhi - DPCC ",25-04-2024 00:00:00,28.5710274,77.0719006,OZONE,2,93,37
India,Delhi,Delhi,"IGI Airport (T3), Delhi - IMD",25-04-2024 00:00:00,28.5627763,77.1180053,NO2,6,14,10
India,Delhi,Delhi,"IHBAS, Dilshad Garden, Delhi - CPCB",25-04-2024 00:00:00,28.6811736,77.3025234,PM10,60,164,121
India,Delhi,Delhi,"IHBAS, Dilshad Garden, Delhi - CPCB",25-04-2024 00:00:00,28.6811736,77.3025234,NO2,36,70,50
India,Delhi,Delhi,"IHBAS, Dilshad Garden, Delhi - CPCB",25-04-2024 00:00:00,28.6811736,77.3025234,SO2,11,36,21
India,Delhi,Delhi,"Jahangirpuri, Delhi - DPCC",25-04-2024 00:00:00,28.732820,77.170633,NO2,32,208,117
India,Delhi,Delhi,"Jawaharlal Nehru Stadium, Delhi - DPCC",25-04-2024 00:00:00,28.580280,77.233829,PM2.5,16,261,79
India,Delhi,Delhi,"Jawaharlal Nehru Stadium, Delhi - DPCC",25-04-2024 00:00:00,28.580280,77.233829,PM10,61,178,116
India,Delhi,Delhi,"Jawaharlal Nehru Stadium, Delhi - DPCC",25-04-2024 00:00:00,28.580280,77.233829,OZONE,1,264,100
India,Delhi,Delhi,"Lodhi Road, Delhi - IITM",25-04-2024 00:00:00,28.588333,77.221667,OZONE,NA,NA,NA
India,Delhi,Delhi,"Najafgarh, Delhi - DPCC",25-04-2024 00:00:00,28.570173,76.933762,NO2,21,102,56
India,Delhi,Delhi,"Najafgarh, Delhi - DPCC",25-04-2024 00:00:00,28.570173,76.933762,SO2,8,21,14
India,Delhi,Delhi,"Narela, Delhi - DPCC",25-04-2024 00:00:00,28.822836,77.101981,PM10,69,477,222
India,Delhi,Delhi,"Narela, Delhi - DPCC",25-04-2024 00:00:00,28.822836,77.101981,CO,13,72,41
India,Delhi,Delhi,"Nehru Nagar, Delhi - DPCC",25-04-2024 00:00:00,28.567890,77.250515,PM10,70,199,122
India,Delhi,Delhi,"Nehru Nagar, Delhi - DPCC",25-04-2024 00:00:00,28.567890,77.250515,NO2,9,22,12
India,Delhi,Delhi,"Nehru Nagar, Delhi - DPCC",25-04-2024 00:00:00,28.567890,77.250515,OZONE,1,238,88
India,Delhi,Delhi,"North Campus, DU, Delhi - IMD",25-04-2024 00:00:00,28.6573814,77.1585447,PM2.5,46,206,128
India,Delhi,Delhi,"Okhla Phase-2, Delhi - DPCC",25-04-2024 00:00:00,28.530785,77.271255,NO2,46,143,88
India,Delhi,Delhi,"Okhla Phase-2, Delhi - DPCC",25-04-2024 00:00:00,28.530785,77.271255,NH3,5,11,8
India,Delhi,Delhi,"Okhla Phase-2, Delhi - DPCC",25-04-2024 00:00:00,28.530785,77.271255,CO,46,117,85
India,Delhi,Delhi,"Patparganj, Delhi - DPCC",25-04-2024 00:00:00,28.623763,77.287209,PM2.5,23,197,81
India,Delhi,Delhi,"Patparganj, Delhi - DPCC",25-04-2024 00:00:00,28.623763,77.287209,NH3,6,11,8
India,Delhi,Delhi,"Patparganj, Delhi - DPCC",25-04-2024 00:00:00,28.623763,77.287209,SO2,3,7,5
India,Delhi,Delhi,"Patparganj, Delhi - DPCC",25-04-2024 00:00:00,28.623763,77.287209,OZONE,5,157,74
India,Delhi,Delhi,"Punjabi Bagh, Delhi - DPCC",25-04-2024 00:00:00,28.674045,77.131023,NO2,38,89,57
India,Delhi,Delhi,"Pusa, Delhi - DPCC",25-04-2024 00:00:00,28.639652,77.146275,NO2,57,182,97
India,Delhi,Delhi,"Pusa, Delhi - DPCC",25-04-2024 00:00:00,28.639652,77.146275,NH3,5,11,8
India,Delhi,Delhi,"Pusa, Delhi - DPCC",25-04-2024 00:00:00,28.639652,77.146275,OZONE,10,91,42
India,Delhi,Delhi,"R K Puram, Delhi - DPCC",25-04-2024 00:00:00,28.563262,77.186937,NO2,11,93,45
India,Delhi,Delhi,"R K Puram, Delhi - DPCC",25-04-2024 00:00:00,28.563262,77.186937,NH3,3,6,5
India,Delhi,Delhi,"R K Puram, Delhi - DPCC",25-04-2024 00:00:00,28.563262,77.186937,SO2,7,96,25
India,Delhi,Delhi,"Rohini, Delhi - DPCC",25-04-2024 00:00:00,28.732528,77.119920,PM2.5,23,433,154
India,Delhi,Delhi,"Rohini, Delhi - DPCC",25-04-2024 00:00:00,28.732528,77.119920,NO2,16,85,53
India,Delhi,Delhi,"Rohini, Delhi - DPCC",25-04-2024 00:00:00,28.732528,77.119920,NH3,8,18,11
India,Delhi,Delhi,"Shadipur, Delhi - CPCB",25-04-2024 00:00:00,28.6514781,77.1473105,NH3,6,8,7
India,Delhi,Delhi,"Sirifort, Delhi - CPCB",25-04-2024 00:00:00,28.5504249,77.2159377,NH3,21,27,24
India,Delhi,Delhi,"Sonia Vihar, Delhi - DPCC",25-04-2024 00:00:00,28.710508,77.249485,PM2.5,17,341,141
India,Delhi,Delhi,"Sonia Vihar, Delhi - DPCC",25-04-2024 00:00:00,28.710508,77.249485,PM10,62,383,173
India,Delhi,Delhi,"Sri Aurobindo Marg, Delhi - DPCC",25-04-2024 00:00:00,28.531346,77.190156,PM10,72,173,109
India,Delhi,Delhi,"Vivek Vihar, Delhi - DPCC",25-04-2024 00:00:00,28.672342,77.315260,NO2,26,125,74
India,Delhi,Delhi,"Vivek Vihar, Delhi - DPCC",25-04-2024 00:00:00,28.672342,77.315260,NH3,15,16,15
India,Gujarat,Ahmedabad,"Chandkheda, Ahmedabad - IITM",25-04-2024 00:00:00,23.107969,72.574648,PM2.5,69,301,124
India,Gujarat,Ahmedabad,"Chandkheda, Ahmedabad - IITM",25-04-2024 00:00:00,23.107969,72.574648,NO2,52,178,99
India,Gujarat,Ahmedabad,"Maninagar, Ahmedabad - GPCB",25-04-2024 00:00:00,23.002657,72.591912,PM2.5,NA,NA,NA
India,Gujarat,Ahmedabad,"Maninagar, Ahmedabad - GPCB",25-04-2024 00:00:00,23.002657,72.591912,NO2,NA,NA,NA
India,Gujarat,Ahmedabad,"Raikhad, Ahmedabad - IITM",25-04-2024 00:00:00,23.020509,72.579261,NO2,42,65,47
India,Gujarat,Ahmedabad,"Raikhad, Ahmedabad - IITM",25-04-2024 00:00:00,23.020509,72.579261,SO2,6,24,10
India,Gujarat,Ahmedabad,"Raikhad, Ahmedabad - IITM",25-04-2024 00:00:00,23.020509,72.579261,CO,2,129,53
India,Gujarat,Ahmedabad,"Rakhial, Ahmedabad - IITM",25-04-2024 00:00:00,23.016834,72.625775,SO2,4,51,13
India,Gujarat,Ahmedabad,"SVPI Airport Hansol, Ahmedabad - IITM",25-04-2024 00:00:00,23.076793,72.627874,PM10,81,162,114
India,Gujarat,Ahmedabad,"Sardar Vallabhbhai Patel Stadium, Ahmedabad - IITM",25-04-2024 00:00:00,23.043070,72.562968,PM2.5,59,236,110
India,Gujarat,Ahmedabad,"Sardar Vallabhbhai Patel Stadium, Ahmedabad - IITM",25-04-2024 00:00:00,23.043070,72.562968,CO,46,139,106
India,Gujarat,Ankleshwar,"GIDC, Ankleshwar - GPCB",25-04-2024 00:00:00,21.613267,73.010555,SO2,8,39,21
India,Gujarat,Gandhinagar,"IIPHG Lekawada, Gandhinagar - IITM",25-04-2024 00:00:00,23.243639,72.68994,OZONE,32,53,52
India,Gujarat,Nandesari,"GIDC, Nandesari - Nandesari Ind. Association",25-04-2024 00:00:00,22.410802,73.097923,PM2.5,69,335,193
India,Gujarat,Surat,"Science Center, Surat - SMC",25-04-2024 00:00:00,21.170046,72.795405,NO2,25,53,41
India,Gujarat,Surat,"Science Center, Surat - SMC",25-04-2024 00:00:00,21.170046,72.795405,SO2,1,6,3
India,Gujarat,Vatva,"Phase-4 GIDC, Vatva - GPCB",25-04-2024 00:00:00,22.969611,72.643500,SO2,1,40,11
India,Haryana,Ambala,"Patti Mehar, Ambala - HSPCB",25-04-2024 00:00:00,30.379589,76.778328,CO,30,60,38
India,Haryana,Bahadurgarh,"Arya Nagar, Bahadurgarh - HSPCB",25-04-2024 00:00:00,28.6701,76.9254,NH3,8,10,9
India,Haryana,Ballabgarh,"Nathu Colony, Ballabgarh - HSPCB",25-04-2024 00:00:00,28.3419248,77.319699,OZONE,2,29,13
India,Haryana,Bhiwani,"H.B. Colony, Bhiwani - HSPCB",25-04-2024 00:00:00,28.806223,76.141105,OZONE,7,41,34
India,Haryana,Charkhi Dadri,"Mini Secretariat, Charkhi Dadri - HSPCB",25-04-2024 00:00:00,28.593883,76.270653,NH3,6,8,7
India,Haryana,Dharuhera,"Municipal Corporation Office, Dharuhera -  HSPCB",25-04-2024 00:00:00,28.206800,76.799700,NO2,45,112,68
India,Haryana,Faridabad,"New Industrial Town, Faridabad - HSPCB",25-04-2024 00:00:00,28.39072,77.30059,PM10,95,213,138
India,Haryana,Faridabad,"New Industrial Town, Faridabad - HSPCB",25-04-2024 00:00:00,28.39072,77.30059,NO2,NA,NA,NA
India,Haryana,Faridabad,"Sector 11, Faridabad - HSPCB",25-04-2024 00:00:00,28.376058,77.315741,NO2,30,33,31
India,Haryana,Faridabad,"Sector 30, Faridabad - HSPCB",25-04-2024 00:00:00,28.4417,77.3217,PM2.5,NA,NA,NA
India,Haryana,Faridabad,"Sector 30, Faridabad - HSPCB",25-04-2024 00:00:00,28.4417,77.3217,NH3,NA,NA,NA
India,Haryana,Faridabad,"Sector 30, Faridabad - HSPCB",25-04-2024 00:00:00,28.4417,77.3217,CO,18,62,60
India,Haryana,Faridabad,"Sector 30, Faridabad - HSPCB",25-04-2024 00:00:00,28.4417,77.3217,OZONE,10,76,10
India,Haryana,Faridabad,"Sector- 16A, Faridabad - HSPCB",25-04-2024 00:00:00,28.4088421,77.3099081,PM2.5,12,125,70
India,Haryana,Fatehabad,"Huda Sector, Fatehabad - HSPCB",25-04-2024 00:00:00,29.503664,75.467934,PM10,90,147,106
India,Haryana,Gurugram,"Sector-51, Gurugram - HSPCB",25-04-2024 00:00:00,28.4227,77.0667,OZONE,27,67,56
India,Haryana,Gurugram,"Teri Gram, Gurugram - HSPCB",25-04-2024 00:00:00,28.4275,77.1465,PM2.5,20,366,138
India,Haryana,Gurugram,"Teri Gram, Gurugram - HSPCB",25-04-2024 00:00:00,28.4275,77.1465,PM10,139,221,175
India,Haryana,Gurugram,"Teri Gram, Gurugram - HSPCB",25-04-2024 00:00:00,28.4275,77.1465,NO2,23,72,39
India,Haryana,Gurugram,"Teri Gram, Gurugram - HSPCB",25-04-2024 00:00:00,28.4275,77.1465,NH3,37,47,42
India,Haryana,Gurugram,"Teri Gram, Gurugram - HSPCB",25-04-2024 00:00:00,28.4275,77.1465,SO2,3,7,5
India,Haryana,Gurugram,"Vikas Sadan, Gurugram - HSPCB",25-04-2024 00:00:00,28.4501238,77.0263051,PM2.5,59,500,246
India,Haryana,Gurugram,"Vikas Sadan, Gurugram - HSPCB",25-04-2024 00:00:00,28.4501238,77.0263051,CO,67,152,114
India,Haryana,Jind,"Police Lines, Jind - HSPCB",25-04-2024 00:00:00,29.307814,76.337619,CO,10,68,23
India,Haryana,Karnal,"Sector-12, Karnal - HSPCB",25-04-2024 00:00:00,29.695300,77.002700,NH3,10,13,11
India,Haryana,Karnal,"Sector-12, Karnal - HSPCB",25-04-2024 00:00:00,29.695300,77.002700,OZONE,27,36,31
India,Haryana,Kurukshetra,"Sector-7, Kurukshetra - HSPCB",25-04-2024 00:00:00,29.966942,76.875879,NH3,5,5,5
India,Haryana,Kurukshetra,"Sector-7, Kurukshetra - HSPCB",25-04-2024 00:00:00,29.966942,76.875879,SO2,2,3,2
India,Haryana,Kurukshetra,"Sector-7, Kurukshetra - HSPCB",25-04-2024 00:00:00,29.966942,76.875879,CO,4,46,16
India,Haryana,Mandikhera,"General Hospital, Mandikhera - HSPCB",25-04-2024 00:00:00,27.9002,76.9938,PM2.5,7,54,26
India,Haryana,Narnaul,"Shastri Nagar, Narnaul - HSPCB",25-04-2024 00:00:00,28.060249,76.113115,PM10,52,113,84
India,Haryana,Palwal,"Shyam Nagar, Palwal - HSPCB",25-04-2024 00:00:00,28.1485564,77.3320667,PM2.5,43,99,68
India,Haryana,Palwal,"Shyam Nagar, Palwal - HSPCB",25-04-2024 00:00:00,28.1485564,77.3320667,NH3,8,9,9
India,Haryana,Panipat,"Sector-18, Panipat - HSPCB",25-04-2024 00:00:00,29.497973,76.993331,PM10,95,99,97
India,Haryana,Sirsa,"F-Block, Sirsa - HSPCB",25-04-2024 00:00:00,29.536400,75.015800,NO2,9,11,10
India,Haryana,Sonipat,"Murthal, Sonipat - HSPCB",25-04-2024 00:00:00,29.027200,77.062100,PM10,97,99,98
India,Haryana,Sonipat,"Murthal, Sonipat - HSPCB",25-04-2024 00:00:00,29.027200,77.062100,CO,10,36,15
India,Himachal Pradesh,Baddi,"HIMUDA Complex Phase-1, Baddi - HPPCB",25-04-2024 00:00:00,30.943887,76.801991,PM10,29,216,87
India,Himachal Pradesh,Baddi,"HIMUDA Complex Phase-1, Baddi - HPPCB",25-04-2024 00:00:00,30.943887,76.801991,SO2,7,57,19
India,Jharkhand,Dhanbad,"Kalakusuma, Dhanbad - DMC",25-04-2024 00:00:00,23.811548,86.481238,PM2.5,23,35,29
India,Jharkhand,Dhanbad,"Kalakusuma, Dhanbad - DMC",25-04-2024 00:00:00,23.811548,86.481238,CO,130,134,132
India,Jharkhand,Dhanbad,"Sardar Patel Nagar, Dhanbad - JSPCB",25-04-2024 00:00:00,23.80569,86.44268,SO2,NA,NA,NA
India,Jharkhand,Dhanbad,"Sardar Patel Nagar, Dhanbad - JSPCB",25-04-2024 00:00:00,23.80569,86.44268,OZONE,16,40,26
India,Karnataka,Bagalkot,"Vidayagiri, Bagalkot - KSPCB",25-04-2024 00:00:00,16.172806,75.659694,PM10,46,50,48
India,Karnataka,Belgaum,"Ramteerth Nagar, Belgaum - KSPCB",25-04-2024 00:00:00,15.888653,74.541751,CO,27,38,32
India,Karnataka,Bengaluru,"BTM Layout, Bengaluru - CPCB",25-04-2024 00:00:00,12.9135218,77.5950804,NO2,28,40,33
India,Karnataka,Bengaluru,"BTM Layout, Bengaluru - CPCB",25-04-2024 00:00:00,12.9135218,77.5950804,SO2,10,17,13
India,Karnataka,Bengaluru,"BTM Layout, Bengaluru - CPCB",25-04-2024 00:00:00,12.9135218,77.5950804,CO,22,30,27
India,Karnataka,Bengaluru,"Bapuji Nagar, Bengaluru - KSPCB",25-04-2024 00:00:00,12.951913,77.539784,CO,13,62,42
India,Karnataka,Bengaluru,"Hebbal, Bengaluru - KSPCB",25-04-2024 00:00:00,13.029152,77.585901,PM2.5,35,103,55
India,Karnataka,Bengaluru,"Hebbal, Bengaluru - KSPCB",25-04-2024 00:00:00,13.029152,77.585901,SO2,14,22,19
India,Karnataka,Bengaluru,"Hebbal, Bengaluru - KSPCB",25-04-2024 00:00:00,13.029152,77.585901,CO,1,55,24
India,Karnataka,Bengaluru,"Hebbal, Bengaluru - KSPCB",25-04-2024 00:00:00,13.029152,77.585901,OZONE,7,22,10
India,Karnataka,Bengaluru,"Hombegowda Nagar, Bengaluru - KSPCB",25-04-2024 00:00:00,12.938539,77.590100,PM2.5,28,71,50
India,Karnataka,Bengaluru,"Hombegowda Nagar, Bengaluru - KSPCB",25-04-2024 00:00:00,12.938539,77.590100,PM10,41,104,74
India,Karnataka,Bengaluru,"Jayanagar 5th Block, Bengaluru - KSPCB",25-04-2024 00:00:00,12.920984,77.584908,NH3,3,4,3
India,Karnataka,Bengaluru,"Peenya, Bengaluru - CPCB",25-04-2024 00:00:00,13.0270199,77.494094,PM2.5,55,76,65
India,Karnataka,Bengaluru,"Peenya, Bengaluru - CPCB",25-04-2024 00:00:00,13.0270199,77.494094,NH3,3,5,4
India,Karnataka,Bengaluru,"Peenya, Bengaluru - CPCB",25-04-2024 00:00:00,13.0270199,77.494094,OZONE,4,20,11
India,Karnataka,Bengaluru,"RVCE-Mailasandra, Bengaluru - KSPCB",25-04-2024 00:00:00,12.921418,77.502466,OZONE,39,39,39
India,Karnataka,Bengaluru,"Sanegurava Halli, Bengaluru - KSPCB",25-04-2024 00:00:00,12.990328,77.5431385,SO2,2,3,3
India,Karnataka,Bengaluru,"Shivapura_Peenya, Bengaluru - KSPCB",25-04-2024 00:00:00,13.0246342,77.5080115,OZONE,53,55,54
India,Karnataka,Bengaluru,"Silk Board, Bengaluru - KSPCB",25-04-2024 00:00:00,12.917348,77.622813,NO2,6,20,10
India,Karnataka,Bengaluru,"Silk Board, Bengaluru - KSPCB",25-04-2024 00:00:00,12.917348,77.622813,NH3,NA,NA,NA
India,Karnataka,Bengaluru,"Silk Board, Bengaluru - KSPCB",25-04-2024 00:00:00,12.917348,77.622813,CO,1,36,8
