country,state,city,station,last_update,latitude,longitude,pollutant_id,pollutant_min,pollutant_max,pollutant_avg
India,Andhra_Pradesh,Amaravati,"Secretariat, Amaravati - APPCB",05-04-2024 06:00:00,16.5150833,80.5181667,NO2,3,13,7
India,Andhra_Pradesh,Amaravati,"Secretariat, Amaravati - APPCB",05-04-2024 06:00:00,16.5150833,80.5181667,SO2,14,19,16
India,Andhra_Pradesh,Anantapur,"Gulzarpet, Anantapur - APPCB",05-04-2024 06:00:00,14.675886,77.593027,PM2.5,5,61,29
India,Andhra_Pradesh,Anantapur,"Gulzarpet, Anantapur - APPCB",05-04-2024 06:00:00,14.675886,77.593027,CO,24,102,36
India,Andhra_Pradesh,Kadapa,"Yerramukkapalli, Kadapa - APPCB",05-04-2024 06:00:00,14.465052,78.824187,NO2,NA,NA,NA
India,Andhra_Pradesh,Kadapa,"Yerramukkapalli, Kadapa - APPCB",05-04-2024 06:00:00,14.465052,78.824187,CO,3,30,12
India,Andhra_Pradesh,Rajamahendravaram,"Anand Kala Kshetram, Rajamahendravaram - APPCB",05-04-2024 06:00:00,16.9872867,81.7363176,CO,22,34,29
India,Andhra_Pradesh,Tirupati,"Tirumala, Tirupati - APPCB",05-04-2024 06:00:00,13.67,79.35,PM2.5,11,62,32
India,Andhra_Pradesh,Tirupati,"Tirumala, Tirupati - APPCB",05-04-2024 06:00:00,13.67,79.35,PM10,26,68,44
India,Andhra_Pradesh,Tirupati,"Tirumala, Tirupati - APPCB",05-04-2024 06:00:00,13.67,79.35,NO2,17,36,22
India,Andhra_Pradesh,Tirupati,"Tirumala, Tirupati - APPCB",05-04-2024 06:00:00,13.67,79.35,CO,2,58,9
India,Andhra_Pradesh,Tirupati,"Tirumala, Tirupati - APPCB",05-04-2024 06:00:00,13.67,79.35,OZONE,14,65,59
India,Andhra_Pradesh,Tirupati,"Vaikuntapuram, Tirupati - APPCB",05-04-2024 06:00:00,13.615387,79.409230,PM10,14,151,56
India,Andhra_Pradesh,Vijayawada,"HB Colony, Vijayawada - APPCB",05-04-2024 06:00:00,16.536107,80.594233,NO2,3,12,6
India,Andhra_Pradesh,Vijayawada,"HB Colony, Vijayawada - APPCB",05-04-2024 06:00:00,16.536107,80.594233,CO,38,46,46
India,Andhra_Pradesh,Vijayawada,"Kanuru, Vijayawada - APPCB",05-04-2024 06:00:00,16.486692,80.699436,PM10,50,81,59
India,Andhra_Pradesh,Vijayawada,"Kanuru, Vijayawada - APPCB",05-04-2024 06:00:00,16.486692,80.699436,NO2,14,18,15
India,Andhra_Pradesh,Vijayawada,"Rajiv Gandhi Park, Vijayawada - APPCB",05-04-2024 06:00:00,16.509717,80.612222,NO2,2,56,24
India,Andhra_Pradesh,Vijayawada,"Rajiv Gandhi Park, Vijayawada - APPCB",05-04-2024 06:00:00,16.509717,80.612222,NH3,5,7,6
India,Andhra_Pradesh,Vijayawada,"Rajiv Gandhi Park, Vijayawada - APPCB",05-04-2024 06:00:00,16.509717,80.612222,CO,42,46,46
India,Andhra_Pradesh,Vijayawada,"Rajiv Nagar, Vijayawada - APPCB",05-04-2024 06:00:00,16.554731,80.649110,PM2.5,42,81,46
India,Andhra_Pradesh,Vijayawada,"Rajiv Nagar, Vijayawada - APPCB",05-04-2024 06:00:00,16.554731,80.649110,PM10,59,104,64
India,Andhra_Pradesh,Visakhapatnam,"GVM Corporation, Visakhapatnam - APPCB",05-04-2024 06:00:00,17.72,83.3,NH3,2,5,3
India,Andhra_Pradesh,Visakhapatnam,"GVM Corporation, Visakhapatnam - APPCB",05-04-2024 06:00:00,17.72,83.3,CO,14,80,22
India,Arunachal_Pradesh,Naharlagun,"Naharlagun, Naharlagun - APSPCB",05-04-2024 06:00:00,27.103358,93.679645,PM2.5,33,104,61
India,Arunachal_Pradesh,Naharlagun,"Naharlagun, Naharlagun - APSPCB",05-04-2024 06:00:00,27.103358,93.679645,NO2,3,3,3
India,Arunachal_Pradesh,Naharlagun,"Naharlagun, Naharlagun - APSPCB",05-04-2024 06:00:00,27.103358,93.679645,SO2,4,4,4
India,Assam,Byrnihat,"Central Academy for SFS, Byrnihat - PCBA",05-04-2024 06:00:00,26.071318,91.87488,PM2.5,48,425,157
India,Assam,Guwahati,"IITG, Guwahati - PCBA",05-04-2024 06:00:00,26.2028636,91.70046436,NH3,5,5,5
India,Assam,Guwahati,"IITG, Guwahati - PCBA",05-04-2024 06:00:00,26.2028636,91.70046436,OZONE,11,44,21
India,Assam,Guwahati,"LGBI Airport, Guwahati - PCBA",05-04-2024 06:00:00,26.10887,91.589544,SO2,1,22,12
India,Assam,Guwahati,"Pan Bazaar, Guwahati - PCBA",05-04-2024 06:00:00,26.187500,91.744194,NO2,1,1,1
India,Assam,Guwahati,"Railway Colony, Guwahati - PCBA",05-04-2024 06:00:00,26.181742,91.78063,NO2,3,4,3
India,Assam,Nagaon,"Christianpatty, Nagaon - PCBA",05-04-2024 06:00:00,26.349082,92.68449,NH3,7,11,9
India,Assam,Silchar,"Tarapur, Silchar - PCBA",05-04-2024 06:00:00,24.82827,92.79525,CO,26,46,31
India,Assam,Sivasagar,"Girls College, Sivasagar - PCBA",05-04-2024 06:00:00,26.987634,94.636574,PM10,50,75,61
India,Assam,Sivasagar,"Girls College, Sivasagar - PCBA",05-04-2024 06:00:00,26.987634,94.636574,NH3,1,1,1
India,Bihar,Araria,"Kharahiya Basti, Araria - BSPCB",05-04-2024 06:00:00,26.146529,87.454184,PM10,75,248,138
India,Bihar,Arrah,"New DM Office, Arrah - BSPCB",05-04-2024 06:00:00,25.5626095,84.663264,NO2,NA,NA,NA
India,Bihar,Aurangabad,"Gurdeo Nagar, Aurangabad - BSPCB",05-04-2024 06:00:00,24.75746,84.366208,SO2,1,13,6
India,Bihar,Bettiah,"Kamalnath Nagar, Bettiah - BSPCB",05-04-2024 06:00:00,26.80365,84.51954,PM10,63,144,94
India,Bihar,Bhagalpur,"Mayaganj, Bhagalpur - BSPCB",05-04-2024 06:00:00,25.265194,87.012947,PM2.5,NA,NA,NA
India,Bihar,Bhagalpur,"Mayaganj, Bhagalpur - BSPCB",05-04-2024 06:00:00,25.265194,87.012947,OZONE,10,26,11
India,Bihar,Chhapra,"Darshan Nagar, Chhapra - BSPCB",05-04-2024 06:00:00,25.7808257,84.7446768,NO2,20,29,26
India,Bihar,Chhapra,"Darshan Nagar, Chhapra - BSPCB",05-04-2024 06:00:00,25.7808257,84.7446768,OZONE,1,4,1
India,Bihar,Gaya,"Collectorate, Gaya - BSPCB",05-04-2024 06:00:00,24.7955,84.9994,NO2,1,5,3
India,Bihar,Gaya,"Collectorate, Gaya - BSPCB",05-04-2024 06:00:00,24.7955,84.9994,OZONE,47,86,71
India,Bihar,Gaya,"SFTI Kusdihra, Gaya - BSPCB",05-04-2024 06:00:00,24.762518,84.982348,NH3,4,6,5
India,Bihar,Gaya,"SFTI Kusdihra, Gaya - BSPCB",05-04-2024 06:00:00,24.762518,84.982348,SO2,7,12,9
India,Bihar,Gaya,"SFTI Kusdihra, Gaya - BSPCB",05-04-2024 06:00:00,24.762518,84.982348,OZONE,2,84,24
India,Bihar,Hajipur,"Industrial Area, Hajipur - BSPCB",05-04-2024 06:00:00,25.697189,85.245900,PM2.5,47,169,99
India,Bihar,Hajipur,"Industrial Area, Hajipur - BSPCB",05-04-2024 06:00:00,25.697189,85.245900,SO2,5,8,7
India,Bihar,Hajipur,"Industrial Area, Hajipur - BSPCB",05-04-2024 06:00:00,25.697189,85.245900,OZONE,3,78,6
India,Bihar,Katihar,"Mirchaibari, Katihar - BSPCB",05-04-2024 06:00:00,25.560083,87.553265,SO2,17,21,19
India,Bihar,Manguraha,"Forest Rest House, Manguraha - BSPCB",05-04-2024 06:00:00,27.308328,84.531742,OZONE,13,156,19
India,Bihar,Muzaffarpur,"Buddha Colony, Muzaffarpur - BSPCB",05-04-2024 06:00:00,26.11442,85.39813,PM10,137,244,192
India,Bihar,Muzaffarpur,"Buddha Colony, Muzaffarpur - BSPCB",05-04-2024 06:00:00,26.11442,85.39813,SO2,11,21,15
India,Bihar,Muzaffarpur,"Buddha Colony, Muzaffarpur - BSPCB",05-04-2024 06:00:00,26.11442,85.39813,OZONE,33,50,41
India,Bihar,Muzaffarpur,"MIT-Daudpur Kothi, Muzaffarpur - BSPCB",05-04-2024 06:00:00,26.1403345,85.3650192,NO2,6,10,7
India,Bihar,Muzaffarpur,"Muzaffarpur Collectorate, Muzaffarpur - BSPCB",05-04-2024 06:00:00,26.1209,85.3647,SO2,8,21,14
India,Bihar,Patna,"Govt. High School Shikarpur, Patna - BSPCB",05-04-2024 06:00:00,25.592539,85.227158,PM10,118,405,199
India,Bihar,Patna,"Govt. High School Shikarpur, Patna - BSPCB",05-04-2024 06:00:00,25.592539,85.227158,NH3,4,5,5
India,Bihar,Patna,"Govt. High School Shikarpur, Patna - BSPCB",05-04-2024 06:00:00,25.592539,85.227158,SO2,8,20,12
India,Bihar,Patna,"Muradpur, Patna - BSPCB",05-04-2024 06:00:00,25.619651,85.147382,PM2.5,154,359,300
India,Bihar,Patna,"Muradpur, Patna - BSPCB",05-04-2024 06:00:00,25.619651,85.147382,PM10,164,500,314
India,Bihar,Patna,"Muradpur, Patna - BSPCB",05-04-2024 06:00:00,25.619651,85.147382,NO2,7,23,14
India,Bihar,Patna,"Rajbansi Nagar, Patna - BSPCB",05-04-2024 06:00:00,25.599486,85.113666,NO2,21,47,33
India,Bihar,Patna,"Rajbansi Nagar, Patna - BSPCB",05-04-2024 06:00:00,25.599486,85.113666,OZONE,4,91,11
India,Bihar,Purnia,"Mariam Nagar, Purnia - BSPCB",05-04-2024 06:00:00,25.366336,87.117468,PM2.5,32,177,87
India,Bihar,Purnia,"Mariam Nagar, Purnia - BSPCB",05-04-2024 06:00:00,25.366336,87.117468,NH3,2,2,2
India,Bihar,Purnia,"Mariam Nagar, Purnia - BSPCB",05-04-2024 06:00:00,25.366336,87.117468,CO,8,60,54
India,Bihar,Rajgir,"Dangi Tola, Rajgir - BSPCB",05-04-2024 06:00:00,25.03280,85.41948,PM10,NA,NA,NA
India,Bihar,Saharsa,"Police Line, Saharsa - BSPCB",05-04-2024 06:00:00,25.892357,86.590325,PM2.5,33,325,127
India,Bihar,Saharsa,"Police Line, Saharsa - BSPCB",05-04-2024 06:00:00,25.892357,86.590325,SO2,16,16,16
India,Bihar,Samastipur,"DM Office_Kasipur, Samastipur - BSPCB",05-04-2024 06:00:00,25.859655,85.77944,NH3,3,5,4
India,Bihar,Sasaram,"Dada Peer, Sasaram - BSPCB",05-04-2024 06:00:00,24.952822,84.002396,SO2,22,23,22
India,Bihar,Siwan,"Chitragupta Nagar, Siwan - BSPCB",05-04-2024 06:00:00,26.2271665,84.3570427,NO2,14,103,30
India,Chandigarh,Chandigarh,"Sector 22, Chandigarh - CPCC",05-04-2024 06:00:00,30.735567,76.775714,PM10,59,160,92
India,Chandigarh,Chandigarh,"Sector 22, Chandigarh - CPCC",05-04-2024 06:00:00,30.735567,76.775714,SO2,8,53,19
India,Chandigarh,Chandigarh,"Sector-25, Chandigarh - CPCC",05-04-2024 06:00:00,30.751462,76.762879,NH3,10,24,15
India,Chandigarh,Chandigarh,"Sector-53, Chandigarh - CPCC",05-04-2024 06:00:00,30.719859,76.738637,PM2.5,30,220,83
India,Chandigarh,Chandigarh,"Sector-53, Chandigarh - CPCC",05-04-2024 06:00:00,30.719859,76.738637,NH3,4,7,6
India,Chhattisgarh,Bhilai,"32Bungalows, Bhilai - CECB",05-04-2024 06:00:00,21.194815,81.314770,NH3,6,7,7
India,Chhattisgarh,Bhilai,"Civic Center, Bhilai - Bhilai Steel Plant",05-04-2024 06:00:00,21.185571,81.343175,PM10,44,114,72
India,Chhattisgarh,Bhilai,"Civic Center, Bhilai - Bhilai Steel Plant",05-04-2024 06:00:00,21.185571,81.343175,SO2,3,14,9
India,Chhattisgarh,Bhilai,"Hathkhoj, Bhilai - CECB",05-04-2024 06:00:00,21.224231,81.408350,PM2.5,NA,NA,NA
India,Chhattisgarh,Chhal,"Nawapara SECL Colony, Chhal - CECB",05-04-2024 06:00:00,22.118125,83.140608,PM10,NA,NA,NA
India,Chhattisgarh,Korba,"Rampur, Korba - CECB",05-04-2024 06:00:00,22.368195,82.746431,NH3,2,5,4
India,Chhattisgarh,Korba,"Rampur, Korba - CECB",05-04-2024 06:00:00,22.368195,82.746431,OZONE,2,56,3
India,Chhattisgarh,Kunjemura,"OP Jindal School, Kunjemura - CECB",05-04-2024 06:00:00,22.126650,83.483212,OZONE,4,93,6
India,Chhattisgarh,Milupara,"Govt. Higher Secondary School, Milupara - CECB",05-04-2024 06:00:00,22.1910172,83.5197009,OZONE,1,34,1
India,Chhattisgarh,Raipur,"AIIMS, Raipur - CECB",05-04-2024 06:00:00,21.258815,81.578979,PM2.5,42,69,58
India,Chhattisgarh,Raipur,"AIIMS, Raipur - CECB",05-04-2024 06:00:00,21.258815,81.578979,PM10,52,100,79
India,Chhattisgarh,Raipur,"AIIMS, Raipur - CECB",05-04-2024 06:00:00,21.258815,81.578979,SO2,6,27,13
India,Chhattisgarh,Raipur,"Bhatagaon New ISBT, Raipur - CECB",05-04-2024 06:00:00,21.219665,81.630094,NH3,2,3,2
India,Chhattisgarh,Raipur,"Bhatagaon New ISBT, Raipur - CECB",05-04-2024 06:00:00,21.219665,81.630094,OZONE,3,13,4
India,Chhattisgarh,Raipur,"Krishak Nagar, Raipur - CECB",05-04-2024 06:00:00,21.237755,81.705301,NH3,1,1,1
India,Chhattisgarh,Raipur,"Siltara Phase-II, Raipur - CECB",05-04-2024 06:00:00,21.371751,81.664929,CO,30,88,76
India,Chhattisgarh,Tumidih,"OP Jindal Industrial Park, Tumidih - CECB",05-04-2024 06:00:00,22.06631475,83.33820077,PM10,NA,NA,NA
India,Chhattisgarh,Tumidih,"OP Jindal Industrial Park, Tumidih - CECB",05-04-2024 06:00:00,22.06631475,83.33820077,NH3,NA,NA,NA
India,Delhi,Delhi,"Alipur, Delhi - DPCC",05-04-2024 06:00:00,28.815329,77.153010,PM2.5,26,312,107
India,Delhi,Delhi,"Alipur, Delhi - DPCC",05-04-2024 06:00:00,28.815329,77.153010,NH3,3,6,4
India,Delhi,Delhi,"Anand Vihar, Delhi - DPCC",05-04-2024 06:00:00,28.647622,77.3158090,PM2.5,7,329,138
India,Delhi,Delhi,"Anand Vihar, Delhi - DPCC",05-04-2024 06:00:00,28.647622,77.3158090,PM10,116,432,234
India,Delhi,Delhi,"Anand Vihar, Delhi - DPCC",05-04-2024 06:00:00,28.647622,77.3158090,OZONE,3,96,13
India,Delhi,Delhi,"Ashok Vihar, Delhi - DPCC",05-04-2024 06:00:00,28.695381,77.181665,NH3,1,10,6
India,Delhi,Delhi,"Aya Nagar, Delhi - IMD",05-04-2024 06:00:00,28.4706914,77.1099364,CO,48,89,80
India,Delhi,Delhi,"Bawana, Delhi - DPCC",05-04-2024 06:00:00,28.776200,77.051074,NO2,11,108,40
India,Delhi,Delhi,"Bawana, Delhi - DPCC",05-04-2024 06:00:00,28.776200,77.051074,CO,37,92,61
India,Delhi,Delhi,"Burari Crossing, Delhi - IMD",05-04-2024 06:00:00,28.7256504,77.2011573,PM10,79,306,171
India,Delhi,Delhi,"Burari Crossing, Delhi - IMD",05-04-2024 06:00:00,28.7256504,77.2011573,CO,26,47,42
India,Delhi,Delhi,"DTU, Delhi - CPCB",05-04-2024 06:00:00,28.7500499,77.1112615,PM10,98,315,154
India,Delhi,Delhi,"ITO, Delhi - CPCB",05-04-2024 06:00:00,28.628624,77.241060,NO2,13,136,63
India,Delhi,Delhi,"ITO, Delhi - CPCB",05-04-2024 06:00:00,28.628624,77.241060,NH3,1,8,5
India,Delhi,Delhi,"Jahangirpuri, Delhi - DPCC",05-04-2024 06:00:00,28.732820,77.170633,PM10,105,445,220
India,Delhi,Delhi,"Jahangirpuri, Delhi - DPCC",05-04-2024 06:00:00,28.732820,77.170633,SO2,4,96,44
India,Delhi,Delhi,"Jahangirpuri, Delhi - DPCC",05-04-2024 06:00:00,28.732820,77.170633,CO,35,117,72
India,Delhi,Delhi,"Jawaharlal Nehru Stadium, Delhi - DPCC",05-04-2024 06:00:00,28.580280,77.233829,PM10,80,180,132
India,Delhi,Delhi,"Lodhi Road, Delhi - IITM",05-04-2024 06:00:00,28.588333,77.221667,PM2.5,190,458,319
India,Delhi,Delhi,"Lodhi Road, Delhi - IITM",05-04-2024 06:00:00,28.588333,77.221667,OZONE,15,20,16
India,Delhi,Delhi,"Major Dhyan Chand National Stadium, Delhi - DPCC",05-04-2024 06:00:00,28.611281,77.237738,CO,18,118,59
India,Delhi,Delhi,"Mandir Marg, Delhi - DPCC",05-04-2024 06:00:00,28.636429,77.201067,PM2.5,27,169,71
India,Delhi,Delhi,"Mandir Marg, Delhi - DPCC",05-04-2024 06:00:00,28.636429,77.201067,SO2,5,16,10
India,Delhi,Delhi,"Mandir Marg, Delhi - DPCC",05-04-2024 06:00:00,28.636429,77.201067,CO,56,85,57
India,Delhi,Delhi,"Mundka, Delhi - DPCC",05-04-2024 06:00:00,28.684678,77.076574,SO2,13,111,36
India,Delhi,Delhi,"Mundka, Delhi - DPCC",05-04-2024 06:00:00,28.684678,77.076574,CO,21,78,55
India,Delhi,Delhi,"Mundka, Delhi - DPCC",05-04-2024 06:00:00,28.684678,77.076574,OZONE,18,195,63
India,Delhi,Delhi,"NSIT Dwarka, Delhi - CPCB",05-04-2024 06:00:00,28.60909,77.0325413,PM2.5,91,317,208
India,Delhi,Delhi,"Najafgarh, Delhi - DPCC",05-04-2024 06:00:00,28.570173,76.933762,PM10,58,217,120
India,Delhi,Delhi,"Najafgarh, Delhi - DPCC",05-04-2024 06:00:00,28.570173,76.933762,NO2,12,85,38
India,Delhi,Delhi,"Narela, Delhi - DPCC",05-04-2024 06:00:00,28.822836,77.101981,PM2.5,20,346,125
India,Delhi,Delhi,"Narela, Delhi - DPCC",05-04-2024 06:00:00,28.822836,77.101981,PM10,80,361,160
India,Delhi,Delhi,"Narela, Delhi - DPCC",05-04-2024 06:00:00,28.822836,77.101981,OZONE,7,137,34
India,Delhi,Delhi,"North Campus, DU, Delhi - IMD",05-04-2024 06:00:00,28.6573814,77.1585447,CO,NA,NA,NA
India,Delhi,Delhi,"Okhla Phase-2, Delhi - DPCC",05-04-2024 06:00:00,28.530785,77.271255,CO,86,133,109
India,Delhi,Delhi,"Punjabi Bagh, Delhi - DPCC",05-04-2024 06:00:00,28.674045,77.131023,PM2.5,45,236,99
India,Delhi,Delhi,"Punjabi Bagh, Delhi - DPCC",05-04-2024 06:00:00,28.674045,77.131023,PM10,90,215,134
India,Delhi,Delhi,"Pusa, Delhi - DPCC",05-04-2024 06:00:00,28.639652,77.146275,PM10,100,262,159
India,Delhi,Delhi,"Pusa, Delhi - DPCC",05-04-2024 06:00:00,28.639652,77.146275,NH3,6,13,9
India,Delhi,Delhi,"R K Puram, Delhi - DPCC",05-04-2024 06:00:00,28.563262,77.186937,PM2.5,60,336,132
India,Delhi,Delhi,"R K Puram, Delhi - DPCC",05-04-2024 06:00:00,28.563262,77.186937,NH3,5,9,6
India,Delhi,Delhi,"Rohini, Delhi - DPCC",05-04-2024 06:00:00,28.732528,77.119920,CO,13,119,55
India,Delhi,Delhi,"Shadipur, Delhi - CPCB",05-04-2024 06:00:00,28.6514781,77.1473105,PM10,102,500,223
India,Delhi,Delhi,"Shadipur, Delhi - CPCB",05-04-2024 06:00:00,28.6514781,77.1473105,NO2,42,92,71
India,Delhi,Delhi,"Shadipur, Delhi - CPCB",05-04-2024 06:00:00,28.6514781,77.1473105,SO2,8,33,17
India,Delhi,Delhi,"Sonia Vihar, Delhi - DPCC",05-04-2024 06:00:00,28.710508,77.249485,NO2,17,106,54
India,Delhi,Delhi,"Sri Aurobindo Marg, Delhi - DPCC",05-04-2024 06:00:00,28.531346,77.190156,PM10,60,162,133
India,Delhi,Delhi,"Wazirpur, Delhi - DPCC",05-04-2024 06:00:00,28.699793,77.165453,PM10,113,314,184
India,Delhi,Delhi,"Wazirpur, Delhi - DPCC",05-04-2024 06:00:00,28.699793,77.165453,OZONE,4,111,14
India,Gujarat,Ahmedabad,"Gyaspur, Ahmedabad - IITM",05-04-2024 06:00:00,22.977134,72.553024,SO2,3,4,4
India,Gujarat,Ahmedabad,"Maninagar, Ahmedabad - GPCB",05-04-2024 06:00:00,23.002657,72.591912,CO,41,84,58
India,Gujarat,Ahmedabad,"Raikhad, Ahmedabad - IITM",05-04-2024 06:00:00,23.020509,72.579261,NH3,2,6,3
India,Gujarat,Ahmedabad,"Rakhial, Ahmedabad - IITM",05-04-2024 06:00:00,23.016834,72.625775,NO2,14,43,26
India,Gujarat,Ahmedabad,"Rakhial, Ahmedabad - IITM",05-04-2024 06:00:00,23.016834,72.625775,NH3,6,21,13
India,Gujarat,Ahmedabad,"Rakhial, Ahmedabad - IITM",05-04-2024 06:00:00,23.016834,72.625775,OZONE,7,45,11
India,Gujarat,Ahmedabad,"SAC ISRO Satellite, Ahmedabad - IITM",05-04-2024 06:00:00,23.023389,72.515201,NH3,3,3,3
India,Gujarat,Ahmedabad,"SAC ISRO Satellite, Ahmedabad - IITM",05-04-2024 06:00:00,23.023389,72.515201,SO2,2,16,7
India,Gujarat,Ahmedabad,"SAC ISRO Satellite, Ahmedabad - IITM",05-04-2024 06:00:00,23.023389,72.515201,CO,36,38,37
India,Gujarat,Ankleshwar,"GIDC, Ankleshwar - GPCB",05-04-2024 06:00:00,21.613267,73.010555,PM2.5,39,82,64
India,Gujarat,Gandhinagar,"IIPHG Lekawada, Gandhinagar - IITM",05-04-2024 06:00:00,23.243639,72.68994,PM2.5,47,87,66
India,Gujarat,Gandhinagar,"IIPHG Lekawada, Gandhinagar - IITM",05-04-2024 06:00:00,23.243639,72.68994,CO,20,30,28
India,Gujarat,Gandhinagar,"Sector-10, Gandhinagar - GPCB",05-04-2024 06:00:00,23.221714,72.654328,PM2.5,24,58,42
India,Gujarat,Vapi,"Phase-1 GIDC, Vapi - GPCB",05-04-2024 06:00:00,20.362421,72.918013,PM10,59,116,83
India,Gujarat,Vapi,"Phase-1 GIDC, Vapi - GPCB",05-04-2024 06:00:00,20.362421,72.918013,NO2,6,7,7
India,Gujarat,Vapi,"Phase-1 GIDC, Vapi - GPCB",05-04-2024 06:00:00,20.362421,72.918013,SO2,51,52,51
India,Gujarat,Vatva,"Phase-4 GIDC, Vatva - GPCB",05-04-2024 06:00:00,22.969611,72.643500,PM2.5,32,98,55
India,Gujarat,Vatva,"Phase-4 GIDC, Vatva - GPCB",05-04-2024 06:00:00,22.969611,72.643500,NH3,1,10,6
India,Gujarat,Vatva,"Phase-4 GIDC, Vatva - GPCB",05-04-2024 06:00:00,22.969611,72.643500,OZONE,7,41,10
India,Haryana,Ambala,"Patti Mehar, Ambala - HSPCB",05-04-2024 06:00:00,30.379589,76.778328,PM2.5,27,63,42
India,Haryana,Ambala,"Patti Mehar, Ambala - HSPCB",05-04-2024 06:00:00,30.379589,76.778328,NH3,5,12,8
India,Haryana,Bahadurgarh,"Arya Nagar, Bahadurgarh - HSPCB",05-04-2024 06:00:00,28.6701,76.9254,NH3,11,13,11
India,Haryana,Bahadurgarh,"Arya Nagar, Bahadurgarh - HSPCB",05-04-2024 06:00:00,28.6701,76.9254,SO2,8,54,24
India,Haryana,Bahadurgarh,"Arya Nagar, Bahadurgarh - HSPCB",05-04-2024 06:00:00,28.6701,76.9254,OZONE,39,49,43
India,Haryana,Ballabgarh,"Nathu Colony, Ballabgarh - HSPCB",05-04-2024 06:00:00,28.3419248,77.319699,PM2.5,83,318,194
India,Haryana,Ballabgarh,"Nathu Colony, Ballabgarh - HSPCB",05-04-2024 06:00:00,28.3419248,77.319699,SO2,8,31,17
India,Haryana,Bhiwani,"H.B. Colony, Bhiwani - HSPCB",05-04-2024 06:00:00,28.806223,76.141105,PM10,1,389,93
India,Haryana,Bhiwani,"H.B. Colony, Bhiwani - HSPCB",05-04-2024 06:00:00,28.806223,76.141105,NH3,6,6,6
India,Haryana,Dharuhera,"Municipal Corporation Office, Dharuhera -  HSPCB",05-04-2024 06:00:00,28.206800,76.799700,NO2,44,110,73
India,Haryana,Faridabad,"New Industrial Town, Faridabad - HSPCB",05-04-2024 06:00:00,28.39072,77.30059,NH3,2,7,5
India,Haryana,Faridabad,"New Industrial Town, Faridabad - HSPCB",05-04-2024 06:00:00,28.39072,77.30059,OZONE,14,174,30
India,Haryana,Faridabad,"Sector 30, Faridabad - HSPCB",05-04-2024 06:00:00,28.4417,77.3217,OZONE,10,10,10
India,Haryana,Faridabad,"Sector- 16A, Faridabad - HSPCB",05-04-2024 06:00:00,28.4088421,77.3099081,CO,6,104,43
India,Haryana,Fatehabad,"Huda Sector, Fatehabad - HSPCB",05-04-2024 06:00:00,29.503664,75.467934,CO,6,16,8
India,Haryana,Gurugram,"Vikas Sadan, Gurugram - HSPCB",05-04-2024 06:00:00,28.4501238,77.0263051,PM2.5,78,225,159
India,Haryana,Gurugram,"Vikas Sadan, Gurugram - HSPCB",05-04-2024 06:00:00,28.4501238,77.0263051,OZONE,8,69,10
India,Haryana,Hisar,"Urban Estate-II, Hisar - HSPCB",05-04-2024 06:00:00,29.140560,75.744941,NO2,23,39,27
India,Haryana,Hisar,"Urban Estate-II, Hisar - HSPCB",05-04-2024 06:00:00,29.140560,75.744941,SO2,11,135,51
India,Haryana,Jind,"Police Lines, Jind - HSPCB",05-04-2024 06:00:00,29.307814,76.337619,NH3,2,5,4
India,Haryana,Jind,"Police Lines, Jind - HSPCB",05-04-2024 06:00:00,29.307814,76.337619,SO2,2,21,7
India,Haryana,Kaithal,"Rishi Nagar, Kaithal - HSPCB",05-04-2024 06:00:00,29.8006,76.4155,PM10,64,100,83
India,Haryana,Karnal,"Sector-12, Karnal - HSPCB",05-04-2024 06:00:00,29.695300,77.002700,NH3,10,13,11
India,Haryana,Kurukshetra,"Sector-7, Kurukshetra - HSPCB",05-04-2024 06:00:00,29.966942,76.875879,PM10,51,100,79
India,Haryana,Mandikhera,"General Hospital, Mandikhera - HSPCB",05-04-2024 06:00:00,27.9002,76.9938,PM10,53,140,99
India,Haryana,Manesar,"Sector-2 IMT, Manesar - HSPCB",05-04-2024 06:00:00,28.360699,76.936090,NH3,2,3,2
India,Haryana,Narnaul,"Shastri Nagar, Narnaul - HSPCB",05-04-2024 06:00:00,28.060249,76.113115,NO2,12,75,35
India,Haryana,Palwal,"Shyam Nagar, Palwal - HSPCB",05-04-2024 06:00:00,28.1485564,77.3320667,PM2.5,64,84,75
India,Haryana,Panchkula,"Sector-6, Panchkula - HSPCB ",05-04-2024 06:00:00,30.7057778,76.8531805555555,NO2,10,11,10
India,Haryana,Panipat,"Sector-18, Panipat - HSPCB",05-04-2024 06:00:00,29.497973,76.993331,OZONE,30,30,30
India,Haryana,Sirsa,"F-Block, Sirsa - HSPCB",05-04-2024 06:00:00,29.536400,75.015800,CO,32,40,37
India,Haryana,Sonipat,"Murthal, Sonipat - HSPCB",05-04-2024 06:00:00,29.027200,77.062100,SO2,12,29,20
India,Haryana,Sonipat,"Murthal, Sonipat - HSPCB",05-04-2024 06:00:00,29.027200,77.062100,CO,12,25,21
India,Haryana,Yamuna Nagar,"Gobind Pura, Yamuna Nagar - HSPCB",05-04-2024 06:00:00,30.1480566,77.2893471,SO2,3,101,12
India,Haryana,Yamuna Nagar,"Gobind Pura, Yamuna Nagar - HSPCB",05-04-2024 06:00:00,30.1480566,77.2893471,OZONE,16,37,19
India,Himachal Pradesh,Baddi,"HIMUDA Complex Phase-1, Baddi - HPPCB",05-04-2024 06:00:00,30.943887,76.801991,PM2.5,17,301,66
India,Himachal Pradesh,Baddi,"HIMUDA Complex Phase-1, Baddi - HPPCB",05-04-2024 06:00:00,30.943887,76.801991,CO,2,34,23
India,Himachal Pradesh,Baddi,"HIMUDA Complex Phase-1, Baddi - HPPCB",05-04-2024 06:00:00,30.943887,76.801991,OZONE,41,143,64
India,Jharkhand,Dhanbad,"Kalakusuma, Dhanbad - DMC",05-04-2024 06:00:00,23.811548,86.481238,OZONE,22,77,32
India,Jharkhand,Pathardih,"Mohalbani Ghat, Pathardih - DMC",05-04-2024 06:00:00,23.669880,86.411725,CO,60,174,160
India,Jharkhand,Pathardih,"Mohalbani Ghat, Pathardih - DMC",05-04-2024 06:00:00,23.669880,86.411725,OZONE,15,41,29
India,Karnataka,Bagalkot,"Vidayagiri, Bagalkot - KSPCB",05-04-2024 06:00:00,16.172806,75.659694,PM10,49,50,50
India,Karnataka,Bagalkot,"Vidayagiri, Bagalkot - KSPCB",05-04-2024 06:00:00,16.172806,75.659694,SO2,NA,NA,NA
India,Karnataka,Belgaum,"Ramteerth Nagar, Belgaum - KSPCB",05-04-2024 06:00:00,15.888653,74.541751,PM10,35,102,48
India,Karnataka,Belgaum,"Ramteerth Nagar, Belgaum - KSPCB",05-04-2024 06:00:00,15.888653,74.541751,NO2,26,31,28
India,Karnataka,Bengaluru,"Bapuji Nagar, Bengaluru - KSPCB",05-04-2024 06:00:00,12.951913,77.539784,OZONE,2,26,15
India,Karnataka,Bengaluru,"Hebbal, Bengaluru - KSPCB",05-04-2024 06:00:00,13.029152,77.585901,NO2,NA,NA,NA
India,Karnataka,Bengaluru,"Hebbal, Bengaluru - KSPCB",05-04-2024 06:00:00,13.029152,77.585901,CO,NA,NA,NA
India,Karnataka,Bengaluru,"Hombegowda Nagar, Bengaluru - KSPCB",05-04-2024 06:00:00,12.938539,77.590100,CO,11,13,12
India,Karnataka,Bengaluru,"Kasturi Nagar, Bengaluru - KSPCB",05-04-2024 06:00:00,13.003872,77.664217,NO2,16,17,16
India,Karnataka,Bengaluru,"RVCE-Mailasandra, Bengaluru - KSPCB",05-04-2024 06:00:00,12.921418,77.502466,CO,28,68,37
India,Karnataka,Bengaluru,"Shivapura_Peenya, Bengaluru - KSPCB",05-04-2024 06:00:00,13.0246342,77.5080115,CO,23,65,29
India,Karnataka,Bengaluru,"Silk Board, Bengaluru - KSPCB",05-04-2024 06:00:00,12.917348,77.622813,OZONE,19,51,39
India,Karnataka,Bidar,"Naubad, Bidar - KSPCB",05-04-2024 06:00:00,17.930306,77.482194,NH3,2,3,3
India,Karnataka,Bidar,"Naubad, Bidar - KSPCB",05-04-2024 06:00:00,17.930306,77.482194,OZONE,15,53,26
India,Karnataka,Chamarajanagar,"Urban, Chamarajanagar - KSPCB",05-04-2024 06:00:00,11.55358,76.55521,PM2.5,20,52,29
India,Karnataka,Chikkaballapur,"Chikkaballapur Rural, Chikkaballapur - KSPCB",05-04-2024 06:00:00,13.428828,77.731418,SO2,13,34,20
India,Karnataka,Chikkamagaluru,"Kalyana Nagara, Chikkamagaluru - KSPCB",05-04-2024 06:00:00,13.328028,75.797056,PM2.5,2,43,15
India,Karnataka,Chikkamagaluru,"Kalyana Nagara, Chikkamagaluru - KSPCB",05-04-2024 06:00:00,13.328028,75.797056,PM10,13,119,44
India,Karnataka,Chikkamagaluru,"Kalyana Nagara, Chikkamagaluru - KSPCB",05-04-2024 06:00:00,13.328028,75.797056,NO2,14,34,24
India,Karnataka,Dharwad,"Kalabhavan, Dharwad - KSPCB",05-04-2024 06:00:00,15.459706,75.008381,SO2,2,11,4
India,Karnataka,Gadag,"Panchal Nagar, Gadag - KSPCB",05-04-2024 06:00:00,15.411456,75.638133,CO,42,50,48
India,Karnataka,Haveri,"Ashwini Nagar, Haveri - KSPCB",05-04-2024 06:00:00,14.791800,75.389600,NH3,3,4,3
India,Karnataka,Haveri,"Ashwini Nagar, Haveri - KSPCB",05-04-2024 06:00:00,14.791800,75.389600,CO,36,38,37
India,Karnataka,Haveri,"Ashwini Nagar, Haveri - KSPCB",05-04-2024 06:00:00,14.791800,75.389600,OZONE,18,29,19
India,Karnataka,Hubballi,"Deshpande Nagar, Hubballi - KSPCB",05-04-2024 06:00:00,15.351773,75.140726,PM10,77,151,112
India,Karnataka,Hubballi,"Deshpande Nagar, Hubballi - KSPCB",05-04-2024 06:00:00,15.351773,75.140726,OZONE,1,8,2
India,Karnataka,Hubballi,"Lingaraj Nagar, Hubballi - KSPCB",05-04-2024 06:00:00,15.3714823,75.1160168,PM2.5,43,64,53
India,Karnataka,Hubballi,"Lingaraj Nagar, Hubballi - KSPCB",05-04-2024 06:00:00,15.3714823,75.1160168,CO,5,45,34
India,Karnataka,Kalaburagi,"Lal Bahadur Shastri Nagar, Kalaburagi - KSPCB",05-04-2024 06:00:00,17.321993,76.822628,SO2,11,16,13
India,Karnataka,Kolar,"Tamaka Ind. Area, Kolar - KSPCB",05-04-2024 06:00:00,13.1276288,78.1570122,OZONE,13,16,14
India,Karnataka,Koppal,"Diwator Nagar, Koppal - KSPCB",05-04-2024 06:00:00,15.347630,76.181767,PM2.5,24,78,45
India,Karnataka,Koppal,"Diwator Nagar, Koppal - KSPCB",05-04-2024 06:00:00,15.347630,76.181767,PM10,28,79,48
India,Karnataka,Koppal,"Diwator Nagar, Koppal - KSPCB",05-04-2024 06:00:00,15.347630,76.181767,NH3,3,10,8
India,Karnataka,Madikeri,"Stuart Hill, Madikeri - KSPCB",05-04-2024 06:00:00,12.415911,75.735050,CO,8,131,40
India,Karnataka,Madikeri,"Stuart Hill, Madikeri - KSPCB",05-04-2024 06:00:00,12.415911,75.735050,OZONE,23,44,26
India,Karnataka,Mangalore,"Kadri, Mangalore - KSPCB",05-04-2024 06:00:00,12.889250,74.853000,OZONE,29,34,32
India,Karnataka,Mysuru,"Hebbal 1st Stage, Mysuru - KSPCB",05-04-2024 06:00:00,12.21041,76.37376,PM2.5,24,57,35
India,Karnataka,Mysuru,"Hebbal 1st Stage, Mysuru - KSPCB",05-04-2024 06:00:00,12.21041,76.37376,SO2,1,6,3
India,Karnataka,Mysuru,"Hebbal 1st Stage, Mysuru - KSPCB",05-04-2024 06:00:00,12.21041,76.37376,OZONE,6,96,15
India,Karnataka,Ramanagara,"Vijay Nagar, Ramanagara - KSPCB",05-04-2024 06:00:00,12.733409,77.298051,SO2,10,36,23
India,Karnataka,Shivamogga,"Vinoba Nagara, Shivamogga - KSPCB",05-04-2024 06:00:00,13.940000,75.555917,PM10,44,67,54
India,Karnataka,Shivamogga,"Vinoba Nagara, Shivamogga - KSPCB",05-04-2024 06:00:00,13.940000,75.555917,NO2,11,14,12
India,Karnataka,Tumakuru,"Thimmalapura, Tumakuru - KSPCB",05-04-2024 06:00:00,13.377516,77.099072,PM10,13,74,29
India,Karnataka,Tumakuru,"Thimmalapura, Tumakuru - KSPCB",05-04-2024 06:00:00,13.377516,77.099072,NO2,NA,NA,NA
India,Karnataka,Tumakuru,"Thimmalapura, Tumakuru - KSPCB",05-04-2024 06:00:00,13.377516,77.099072,NH3,NA,NA,NA
India,Karnataka,Tumakuru,"Thimmalapura, Tumakuru - KSPCB",05-04-2024 06:00:00,13.377516,77.099072,CO,30,34,32
India,Karnataka,Vijayapura,"Ibrahimpur, Vijayapura - KSPCB",05-04-2024 06:00:00,16.802639,75.722694,OZONE,14,16,15
India,Kerala,Thiruvananthapuram,"Kariavattom, Thiruvananthapuram - Kerala PCB",05-04-2024 06:00:00,8.563700,76.886500,PM2.5,74,88,82
India,Kerala,Thiruvananthapuram,"Kariavattom, Thiruvananthapuram - Kerala PCB",05-04-2024 06:00:00,8.563700,76.886500,NO2,8,10,9
India,Kerala,Thiruvananthapuram,"Kariavattom, Thiruvananthapuram - Kerala PCB",05-04-2024 06:00:00,8.563700,76.886500,CO,18,48,21
India,Kerala,Thiruvananthapuram,"Kariavattom, Thiruvananthapuram - Kerala PCB",05-04-2024 06:00:00,8.563700,76.886500,OZONE,27,32,30
India,Kerala,Thiruvananthapuram,"Plammoodu, Thiruvananthapuram - Kerala PCB",05-04-2024 06:00:00,8.5149093,76.9435879,NH3,1,1,1
India,Kerala,Thrissur,"Corporation Ground, Thrissur - Kerala PCB",05-04-2024 06:00:00,10.532400,76.215900,PM10,60,70,65
India,Kerala,Thrissur,"Corporation Ground, Thrissur - Kerala PCB",05-04-2024 06:00:00,10.532400,76.215900,CO,14,39,14
India,Kerala,Thrissur,"Corporation Ground, Thrissur - Kerala PCB",05-04-2024 06:00:00,10.532400,76.215900,OZONE,28,32,30
India,Madhya Pradesh,Bhopal,"Idgah Hills, Bhopal - MPPCB",05-04-2024 06:00:00,23.264759,77.381568,OZONE,16,79,29
India,Madhya Pradesh,Bhopal,"Paryavaran Parisar, Bhopal - MPPCB",05-04-2024 06:00:00,23.210494,77.425409,CO,13,54,30
India,Madhya Pradesh,Bhopal,"T T Nagar, Bhopal - MPPCB",05-04-2024 06:00:00,23.233584,77.400574,PM2.5,14,179,70
India,Madhya Pradesh,Bhopal,"T T Nagar, Bhopal - MPPCB",05-04-2024 06:00:00,23.233584,77.400574,PM10,70,151,108
India,Madhya Pradesh,Bhopal,"T T Nagar, Bhopal - MPPCB",05-04-2024 06:00:00,23.233584,77.400574,OZONE,22,80,37
India,Madhya Pradesh,Dewas,"Bhopal Chauraha, Dewas - MPPCB",05-04-2024 06:00:00,22.9682591,76.064118,NO2,12,14,13
India,Madhya Pradesh,Dewas,"Bhopal Chauraha, Dewas - MPPCB",05-04-2024 06:00:00,22.9682591,76.064118,NH3,3,3,3
India,Madhya Pradesh,Dewas,"Bhopal Chauraha, Dewas - MPPCB",05-04-2024 06:00:00,22.9682591,76.064118,SO2,20,34,26
India,Madhya Pradesh,Dewas,"Bhopal Chauraha, Dewas - MPPCB",05-04-2024 06:00:00,22.9682591,76.064118,CO,14,44,34
India,Madhya Pradesh,Dewas,"Bhopal Chauraha, Dewas - MPPCB",05-04-2024 06:00:00,22.9682591,76.064118,OZONE,26,73,31
India,Madhya Pradesh,Gwalior,"City Center, Gwalior - MPPCB",05-04-2024 06:00:00,26.203442,78.193251,PM2.5,36,328,113
India,Madhya Pradesh,Gwalior,"City Center, Gwalior - MPPCB",05-04-2024 06:00:00,26.203442,78.193251,NO2,12,73,28
India,Madhya Pradesh,Gwalior,"Deen Dayal Nagar, Gwalior - MPPCB",05-04-2024 06:00:00,26.259242,78.216432,CO,44,105,75
India,Madhya Pradesh,Gwalior,"Maharaj Bada, Gwalior - MPPCB",05-04-2024 06:00:00,26.200388,78.147714,SO2,14,27,21
India,Madhya Pradesh,Gwalior,"Maharaj Bada, Gwalior - MPPCB",05-04-2024 06:00:00,26.200388,78.147714,CO,4,106,24
India,Madhya Pradesh,Indore,"Maguda Nagar, Indore - IMC",05-04-2024 06:00:00,22.7524,75.8872,NO2,4,6,5
India,Madhya Pradesh,Indore,"Maguda Nagar, Indore - IMC",05-04-2024 06:00:00,22.7524,75.8872,CO,25,38,35
India,Madhya Pradesh,Indore,"Regional Park, Indore - IMC",05-04-2024 06:00:00,22.6780,75.8559,PM2.5,41,233,78
India,Madhya Pradesh,Indore,"Regional Park, Indore - IMC",05-04-2024 06:00:00,22.6780,75.8559,PM10,32,96,57
India,Madhya Pradesh,Indore,"Regional Park, Indore - IMC",05-04-2024 06:00:00,22.6780,75.8559,OZONE,10,32,17
India,Madhya Pradesh,Indore,"Residency Area, Indore - IMC",05-04-2024 06:00:00,22.7084,75.8815,PM10,56,142,82
India,Madhya Pradesh,Jabalpur,"Govindh Bhavan Colony, Jabalpur - JMC",05-04-2024 06:00:00,23.163174,79.973061,PM10,69,200,116
India,Madhya Pradesh,Jabalpur,"Govindh Bhavan Colony, Jabalpur - JMC",05-04-2024 06:00:00,23.163174,79.973061,NO2,12,50,29
India,Madhya Pradesh,Jabalpur,"Suhagi, Jabalpur - JMC",05-04-2024 06:00:00,23.218135,79.957770,CO,14,104,84
India,Madhya Pradesh,Katni,"Gole Bazar, Katni - MPPCB",05-04-2024 06:00:00,23.50016,80.23284,CO,30,117,86
India,Madhya Pradesh,Mandideep,"Sector-D Industrial Area, Mandideep - MPPCB",05-04-2024 06:00:00,23.108440,77.511428,PM2.5,41,328,131
India,Madhya Pradesh,Mandideep,"Sector-D Industrial Area, Mandideep - MPPCB",05-04-2024 06:00:00,23.108440,77.511428,CO,14,88,54
India,Madhya Pradesh,Mandideep,"Sector-D Industrial Area, Mandideep - MPPCB",05-04-2024 06:00:00,23.108440,77.511428,OZONE,8,43,14
India,Madhya Pradesh,Pithampur,"Sector-2 Industrial Area, Pithampur - MPPCB",05-04-2024 06:00:00,22.624758,75.675238,PM10,90,149,117
India,Madhya Pradesh,Sagar,"Civil Lines, Sagar - MPPCB",05-04-2024 06:00:00,23.838586,78.759431,NO2,12,53,23
India,Madhya Pradesh,Satna,"Bandhavgar Colony, Satna - Birla Cement",05-04-2024 06:00:00,24.58434363,80.8549414,PM10,50,170,116
India,Madhya Pradesh,Satna,"Bandhavgar Colony, Satna - Birla Cement",05-04-2024 06:00:00,24.58434363,80.8549414,OZONE,58,81,63
India,Madhya Pradesh,Singrauli,"Suryakiran Bhawan NCL, Singrauli - MPPCB",05-04-2024 06:00:00,24.108970,82.645580,SO2,36,120,53
India,Madhya Pradesh,Ujjain,"Mahakaleshwar Temple, Ujjain - MPPCB",05-04-2024 06:00:00,23.182719 ,75.768218 ,PM2.5,18,98,44
India,Madhya Pradesh,Ujjain,"Mahakaleshwar Temple, Ujjain - MPPCB",05-04-2024 06:00:00,23.182719 ,75.768218 ,SO2,10,30,16
India,Madhya Pradesh,Ujjain,"Mahakaleshwar Temple, Ujjain - MPPCB",05-04-2024 06:00:00,23.182719 ,75.768218 ,OZONE,101,138,123
India,Maharashtra,Ahmednagar,"Tarakpur, Ahmednagar - MPCB",05-04-2024 06:00:00,19.10122,74.73339,NH3,NA,NA,NA
India,Maharashtra,Akola,"Ramdaspeth, Akola - MPCB",05-04-2024 06:00:00,20.719516,77.000253,NH3,4,12,7
India,Maharashtra,Amravati,"Shivneri Colony, Amravati - MPCB",05-04-2024 06:00:00,20.9402359,77.7895248,SO2,22,23,22
India,Maharashtra,Amravati,"Shri Shivaji Science College, Amaravati - MPCB",05-04-2024 06:00:00,20.939198,77.765701,CO,32,89,55
India,Maharashtra,Aurangabad,"MIDC Chilkalthana, Aurangabad - MPCB",05-04-2024 06:00:00,19.875620,75.387310,PM10,37,159,114
India,Maharashtra,Aurangabad,"MIDC Chilkalthana, Aurangabad - MPCB",05-04-2024 06:00:00,19.875620,75.387310,NO2,6,115,30
India,Maharashtra,Aurangabad,"MIDC Chilkalthana, Aurangabad - MPCB",05-04-2024 06:00:00,19.875620,75.387310,NH3,3,4,4
India,Maharashtra,Aurangabad,"More Chowk Waluj, Aurangabad - MPCB",05-04-2024 06:00:00,19.8389439,75.244448,NH3,9,10,9
India,Maharashtra,Aurangabad,"Rachnakar Colony, Aurangabad - MPCB",05-04-2024 06:00:00,19.863756,75.321188,PM10,66,165,107
India,Maharashtra,Badlapur,"Katrap, Badlapur - MPCB",05-04-2024 06:00:00,19.16485,73.23409,CO,13,78,26
India,Maharashtra,Badlapur,"Katrap, Badlapur - MPCB",05-04-2024 06:00:00,19.16485,73.23409,OZONE,1,90,23
India,Maharashtra,Belapur,"CBD Belapur, Belapur - MPCB",05-04-2024 06:00:00,19.0243902,73.0406721,NO2,11,33,21
India,Maharashtra,Bhiwandi,"Gokul Nagar, Bhiwandi - MPCB",05-04-2024 06:00:00,19.309073,73.057223,NO2,14,71,30
India,Maharashtra,Bhiwandi,"Gokul Nagar, Bhiwandi - MPCB",05-04-2024 06:00:00,19.309073,73.057223,CO,12,82,32
India,Maharashtra,Bhiwandi,"Gokul Nagar, Bhiwandi - MPCB",05-04-2024 06:00:00,19.309073,73.057223,OZONE,11,97,34
India,Maharashtra,Boisar,"Khaira, Boisar - MPCB",05-04-2024 06:00:00,19.786089,72.757971,PM10,78,133,114
India,Maharashtra,Boisar,"Khaira, Boisar - MPCB",05-04-2024 06:00:00,19.786089,72.757971,NO2,9,83,42
India,Maharashtra,Boisar,"Khaira, Boisar - MPCB",05-04-2024 06:00:00,19.786089,72.757971,OZONE,53,56,54
India,Maharashtra,Chandrapur,"Chauhan Colony, Chandrapur - MPCB",05-04-2024 06:00:00,19.962900,79.298714,NO2,15,94,41
India,Maharashtra,Chandrapur,"MIDC Khutala, Chandrapur - MPCB",05-04-2024 06:00:00,19.9775302,79.2337086,SO2,20,23,21
India,Maharashtra,Chandrapur,"MIDC Khutala, Chandrapur - MPCB",05-04-2024 06:00:00,19.9775302,79.2337086,CO,26,78,49
India,Maharashtra,Jalgaon,"Prabhat Colony, Jalgaon - MPCB",05-04-2024 06:00:00,21.001264,75.565602,NH3,5,13,9
India,Maharashtra,Jalna,"Old MIDC, Jalna - MPCB",05-04-2024 06:00:00,19.854616,75.905894,SO2,1,2,1
India,Maharashtra,Kalyan,"Khadakpada, Kalyan - MPCB",05-04-2024 06:00:00,19.25292,73.142019,OZONE,7,22,10
India,Maharashtra,Kolhapur,"Shivaji University, Kolhapur - MPCB",05-04-2024 06:00:00,16.6870449,74.2505872,PM2.5,73,320,155
India,Maharashtra,Latur,"Sawe Wadi, Latur - MPCB",05-04-2024 06:00:00,18.39963,76.57452,NH3,11,15,13
India,Maharashtra,Mahad,"Kamble Tarf Birwadi, Mahad - MPCB",05-04-2024 06:00:00,18.1023399,73.4783687,NO2,21,45,26
India,Maharashtra,Mira-Bhayandar,"Bhayandar West, Mira-Bhayandar - MPCB",05-04-2024 06:00:00,19.296481,72.840923,PM2.5,NA,NA,NA
India,Maharashtra,Mira-Bhayandar,"Bhayandar West, Mira-Bhayandar - MPCB",05-04-2024 06:00:00,19.296481,72.840923,NO2,NA,NA,NA
India,Maharashtra,Mira-Bhayandar,"Bhayandar West, Mira-Bhayandar - MPCB",05-04-2024 06:00:00,19.296481,72.840923,NH3,NA,NA,NA
India,Maharashtra,Mira-Bhayandar,"Bhayandar West, Mira-Bhayandar - MPCB",05-04-2024 06:00:00,19.296481,72.840923,CO,NA,NA,NA
India,Maharashtra,Mumbai,"Borivali East, Mumbai - IITM",05-04-2024 06:00:00,19.23241,72.86895,NO2,112,177,141
India,Maharashtra,Mumbai,"Borivali East, Mumbai - IITM",05-04-2024 06:00:00,19.23241,72.86895,CO,20,50,32
India,Maharashtra,Mumbai,"Borivali East, Mumbai - MPCB",05-04-2024 06:00:00,19.2243333,72.8658113,PM2.5,12,48,29
India,Maharashtra,Mumbai,"Byculla, Mumbai - BMC",05-04-2024 06:00:00,18.9767,72.8380,NO2,12,21,16
India,Maharashtra,Mumbai,"Byculla, Mumbai - BMC",05-04-2024 06:00:00,18.9767,72.8380,OZONE,7,62,32
India,Maharashtra,Mumbai,"Chakala-Andheri East, Mumbai - IITM",05-04-2024 06:00:00,19.11074,72.86084,OZONE,13,54,24
India,Maharashtra,Mumbai,"Chembur, Mumbai - MPCB",05-04-2024 06:00:00,19.0364585,72.8954371,NO2,24,58,36
India,Maharashtra,Mumbai,"Chembur, Mumbai - MPCB",05-04-2024 06:00:00,19.0364585,72.8954371,SO2,1,5,2
India,Maharashtra,Mumbai,"Chhatrapati Shivaji Intl. Airport (T2), Mumbai - MPCB",05-04-2024 06:00:00,19.10078,72.87462,NO2,1,39,20
India,Maharashtra,Mumbai,"Chhatrapati Shivaji Intl. Airport (T2), Mumbai - MPCB",05-04-2024 06:00:00,19.10078,72.87462,OZONE,4,13,4
India,Maharashtra,Mumbai,"Ghatkopar, Mumbai - BMC",05-04-2024 06:00:00,19.083694,72.920967,PM10,46,93,73
India,Maharashtra,Mumbai,"Kandivali East, Mumbai - MPCB",05-04-2024 06:00:00,19.205800,72.868200,PM2.5,29,88,55
India,Maharashtra,Mumbai,"Kandivali East, Mumbai - MPCB",05-04-2024 06:00:00,19.205800,72.868200,PM10,46,139,90
India,Maharashtra,Mumbai,"Kandivali West, Mumbai - BMC",05-04-2024 06:00:00,19.215859,72.831718,SO2,1,3,2
India,Maharashtra,Mumbai,"Kandivali West, Mumbai - BMC",05-04-2024 06:00:00,19.215859,72.831718,OZONE,4,25,10
India,Maharashtra,Mumbai,"Kherwadi_Bandra East, Mumbai - MPCB",05-04-2024 06:00:00,19.0632143,72.8456324,NO2,8,64,25
India,Maharashtra,Mumbai,"Kurla, Mumbai - MPCB",05-04-2024 06:00:00,19.0863,72.8888,NH3,2,2,2
India,Maharashtra,Mumbai,"Kurla, Mumbai - MPCB",05-04-2024 06:00:00,19.0863,72.8888,OZONE,28,37,29
India,Maharashtra,Mumbai,"Mazgaon, Mumbai - IITM",05-04-2024 06:00:00,18.96702,72.84214,NO2,27,89,58
India,Maharashtra,Mumbai,"Mindspace-Malad West, Mumbai - MPCB",05-04-2024 06:00:00,19.1878657,72.8304069,NO2,5,66,20
India,Maharashtra,Mumbai,"Mindspace-Malad West, Mumbai - MPCB",05-04-2024 06:00:00,19.1878657,72.8304069,NH3,3,5,4
India,Maharashtra,Mumbai,"Mulund West, Mumbai - MPCB",05-04-2024 06:00:00,19.1750,72.9419,NO2,20,23,22
India,Maharashtra,Mumbai,"Navy Nagar-Colaba, Mumbai - IITM",05-04-2024 06:00:00,18.897756,72.813320,CO,8,28,16
India,Maharashtra,Mumbai,"Powai, Mumbai - MPCB",05-04-2024 06:00:00,19.137500,72.915056,PM2.5,21,58,37
India,Maharashtra,Mumbai,"Powai, Mumbai - MPCB",05-04-2024 06:00:00,19.137500,72.915056,PM10,47,133,95
India,Maharashtra,Mumbai,"Powai, Mumbai - MPCB",05-04-2024 06:00:00,19.137500,72.915056,NH3,NA,NA,NA
India,Maharashtra,Mumbai,"Sewri, Mumbai - BMC",05-04-2024 06:00:00,19.000084,72.856730,CO,13,35,23
India,Maharashtra,Mumbai,"Shivaji Nagar, Mumbai - BMC",05-04-2024 06:00:00,19.060498,72.923356,NO2,35,119,66
India,Maharashtra,Mumbai,"Shivaji Nagar, Mumbai - BMC",05-04-2024 06:00:00,19.060498,72.923356,SO2,2,16,7
India,Maharashtra,Mumbai,"Shivaji Nagar, Mumbai - BMC",05-04-2024 06:00:00,19.060498,72.923356,OZONE,3,57,13
India,Maharashtra,Mumbai,"Siddharth Nagar-Worli, Mumbai - IITM",05-04-2024 06:00:00,19.000083,72.813993,PM10,71,123,102
India,Maharashtra,Mumbai,"Sion, Mumbai - MPCB",05-04-2024 06:00:00,19.047000,72.874600,NO2,12,36,23
India,Maharashtra,Mumbai,"Vasai West, Mumbai - MPCB",05-04-2024 06:00:00,19.383200,72.820400,OZONE,13,54,18
India,Maharashtra,Mumbai,"Vile Parle West, Mumbai - MPCB",05-04-2024 06:00:00,19.10861,72.83622,NO2,7,12,10
India,Maharashtra,Mumbai,"Vile Parle West, Mumbai - MPCB",05-04-2024 06:00:00,19.10861,72.83622,OZONE,2,3,3
India,Maharashtra,Mumbai,"Worli, Mumbai - MPCB",05-04-2024 06:00:00,18.9936162,72.8128113,SO2,11,12,11
India,Maharashtra,Nagpur,"Ambazari, Nagpur - MPCB",05-04-2024 06:00:00,21.121801,79.04952,PM10,78,138,102
India,Maharashtra,Nagpur,"Opp GPO Civil Lines, Nagpur - MPCB",05-04-2024 06:00:00,21.152875,79.0517531,CO,16,126,46
India,Maharashtra,Nagpur,"Ram Nagar, Nagpur - MPCB",05-04-2024 06:00:00,21.143383,79.048912,OZONE,NA,NA,NA
India,Maharashtra,Nanded,"Sneh Nagar, Nanded - MPCB",05-04-2024 06:00:00,19.173852,77.296291,PM10,49,125,95
India,Maharashtra,Nashik,"Hirawadi, Nashik - MPCB",05-04-2024 06:00:00,20.021503,73.813844,NH3,1,2,1
India,Maharashtra,Nashik,"Hirawadi, Nashik - MPCB",05-04-2024 06:00:00,20.021503,73.813844,OZONE,27,79,49
India,Maharashtra,Nashik,"MIDC Ambad, Nashik - MPCB",05-04-2024 06:00:00,19.950220,73.731480,PM10,40,90,60
India,Maharashtra,Navi Mumbai,"Kopripada-Vashi, Navi Mumbai - MPCB",05-04-2024 06:00:00,19.090337,73.014232,NH3,4,15,7
India,Maharashtra,Navi Mumbai,"Kopripada-Vashi, Navi Mumbai - MPCB",05-04-2024 06:00:00,19.090337,73.014232,OZONE,5,80,14
India,Maharashtra,Navi Mumbai,"Mahape, Navi Mumbai - MPCB",05-04-2024 06:00:00,19.1135051,73.008978,PM2.5,37,105,63
India,Maharashtra,Navi Mumbai,"Mahape, Navi Mumbai - MPCB",05-04-2024 06:00:00,19.1135051,73.008978,NO2,37,38,38
India,Maharashtra,Navi Mumbai,"Nerul, Navi Mumbai - MPCB",05-04-2024 06:00:00,19.008751,73.016620,CO,30,50,38
India,Maharashtra,Navi Mumbai,"Sanpada, Navi Mumbai - MPCB",05-04-2024 06:00:00,19.0575752,73.0151367,NH3,4,8,6
India,Maharashtra,Navi Mumbai,"Sanpada, Navi Mumbai - MPCB",05-04-2024 06:00:00,19.0575752,73.0151367,SO2,3,74,18
India,Maharashtra,Navi Mumbai,"Sector-19A Nerul, Navi Mumbai - IITM",05-04-2024 06:00:00,19.044,73.0325,NH3,6,12,8
India,Maharashtra,Navi Mumbai,"Sector-19A Nerul, Navi Mumbai - IITM",05-04-2024 06:00:00,19.044,73.0325,CO,6,79,42
India,Maharashtra,Navi Mumbai,"Sector-2E Kalamboli, Navi Mumbai - MPCB",05-04-2024 06:00:00,19.02579,73.10297,PM10,71,120,94
India,Maharashtra,Navi Mumbai,"Sector-2E Kalamboli, Navi Mumbai - MPCB",05-04-2024 06:00:00,19.02579,73.10297,OZONE,4,60,6
India,Maharashtra,Parbhani,"Masoom Colony, Parbhani - MPCB",05-04-2024 06:00:00,19.265594,76.761463,PM2.5,62,286,162
India,Maharashtra,Parbhani,"Masoom Colony, Parbhani - MPCB",05-04-2024 06:00:00,19.265594,76.761463,PM10,104,147,126
India,Maharashtra,Pimpri-Chinchwad,"Gavalinagar, Pimpri Chinchwad - MPCB",05-04-2024 06:00:00,18.63673,73.82487,PM2.5,47,121,74
India,Maharashtra,Pimpri-Chinchwad,"Gavalinagar, Pimpri Chinchwad - MPCB",05-04-2024 06:00:00,18.63673,73.82487,PM10,46,137,88
India,Maharashtra,Pimpri-Chinchwad,"Gavalinagar, Pimpri Chinchwad - MPCB",05-04-2024 06:00:00,18.63673,73.82487,OZONE,3,168,49
India,Maharashtra,Pimpri-Chinchwad,"Thergaon, Pimpri Chinchwad - MPCB",05-04-2024 06:00:00,18.616318,73.765797,PM10,74,125,101
India,Maharashtra,Pune,"Karve Road, Pune - MPCB",05-04-2024 06:00:00,18.5011743,73.8165527,CO,74,76,76
India,Maharashtra,Pune,"Katraj Dairy, Pune - MPCB",05-04-2024 06:00:00,18.454450,73.854155,PM2.5,45,108,71
India,Maharashtra,Pune,"Katraj Dairy, Pune - MPCB",05-04-2024 06:00:00,18.454450,73.854155,CO,30,104,61
India,Maharashtra,Pune,"Revenue Colony-Shivajinagar, Pune - IITM",05-04-2024 06:00:00,18.530085,73.849598,PM2.5,14,72,33
India,Maharashtra,Pune,"Revenue Colony-Shivajinagar, Pune - IITM",05-04-2024 06:00:00,18.530085,73.849598,PM10,13,72,33
India,Maharashtra,Pune,"Revenue Colony-Shivajinagar, Pune - IITM",05-04-2024 06:00:00,18.530085,73.849598,SO2,63,119,95
India,Maharashtra,Pune,"Transport Nagar-Nigdi, Pune - IITM",05-04-2024 06:00:00,18.664282,73.763966,OZONE,17,61,33
India,Maharashtra,Sangli,"Vijay Nagar, Sangli - MPCB",05-04-2024 06:00:00, 16.5038,74.3623,OZONE,8,80,30
India,Maharashtra,Solapur,"Dnyaneshwar Nagar, Solapur - MPCB",05-04-2024 06:00:00,17.6336264,75.9132495,PM10,91,159,122
India,Maharashtra,Solapur,"Dnyaneshwar Nagar, Solapur - MPCB",05-04-2024 06:00:00,17.6336264,75.9132495,NH3,11,24,16
India,Maharashtra,Solapur,"Dnyaneshwar Nagar, Solapur - MPCB",05-04-2024 06:00:00,17.6336264,75.9132495,CO,16,40,21
India,Maharashtra,Solapur,"Ratandeep Housing Society, Solapur - MPCB",05-04-2024 06:00:00,17.65439,75.90649,NH3,8,14,10
India,Maharashtra,Solapur,"Solapur, Solapur - MPCB",05-04-2024 06:00:00,17.6599188,75.9063906,PM2.5,82,101,95
India,Maharashtra,Solapur,"Solapur, Solapur - MPCB",05-04-2024 06:00:00,17.6599188,75.9063906,NO2,53,55,54
India,Maharashtra,Solapur,"Solapur, Solapur - MPCB",05-04-2024 06:00:00,17.6599188,75.9063906,SO2,101,105,103
India,Maharashtra,Thane,"Kasarvadavali, Thane - MPCB",05-04-2024 06:00:00,19.26777,72.97182,PM10,67,121,99
India,Maharashtra,Thane,"Kasarvadavali, Thane - MPCB",05-04-2024 06:00:00,19.26777,72.97182,NO2,30,61,40
India,Maharashtra,Thane,"Kasarvadavali, Thane - MPCB",05-04-2024 06:00:00,19.26777,72.97182,NH3,6,9,7
India,Maharashtra,Thane,"Pimpleshwar Mandir, Thane - MPCB",05-04-2024 06:00:00,19.192056,72.9585188,CO,2,144,59
India,Maharashtra,Thane,"Upvan Fort, Thane - MPCB",05-04-2024 06:00:00,19.222279,72.957979,NO2,8,56,18
India,Maharashtra,Virar,"Bolinj, Virar - MPCB",05-04-2024 06:00:00,19.4458210,72.7988231,PM2.5,55,85,67
India,Maharashtra,Virar,"Bolinj, Virar - MPCB",05-04-2024 06:00:00,19.4458210,72.7988231,NH3,7,10,7
India,Maharashtra,Virar,"Bolinj, Virar - MPCB",05-04-2024 06:00:00,19.4458210,72.7988231,CO,11,101,30
India,Manipur,Imphal,"Manipur University, Imphal - Manipur PCB",05-04-2024 06:00:00,24.7524239,93.9286218,SO2,84,88,86
India,Manipur,Imphal,"Manipur University, Imphal - Manipur PCB",05-04-2024 06:00:00,24.7524239,93.9286218,CO,11,23,16
India,Meghalaya,Shillong,"Lumpyngngad, Shillong - Meghalaya PCB",05-04-2024 06:00:00,25.5586,91.8985,PM10,43,245,125
India,Meghalaya,Shillong,"Lumpyngngad, Shillong - Meghalaya PCB",05-04-2024 06:00:00,25.5586,91.8985,SO2,39,41,40
India,Meghalaya,Shillong,"Lumpyngngad, Shillong - Meghalaya PCB",05-04-2024 06:00:00,25.5586,91.8985,CO,8,12,9
India,Mizoram,Aizawl,"Sikulpuikawn, Aizawl - Mizoram PCB",05-04-2024 06:00:00,23.7176342,92.7192841,NH3,1,6,4
India,Mizoram,Aizawl,"Sikulpuikawn, Aizawl - Mizoram PCB",05-04-2024 06:00:00,23.7176342,92.7192841,SO2,2,2,2
India,Nagaland,Kohima,"PWD Juction, Kohima - NPCB",05-04-2024 06:00:00,25.6635413,94.0989878,OZONE,11,27,19
India,Odisha,Angul,"Hakimapada, Angul - OSPCB",05-04-2024 06:00:00,20.832874,85.104082,NO2,5,41,15
India,Odisha,Angul,"Hakimapada, Angul - OSPCB",05-04-2024 06:00:00,20.832874,85.104082,OZONE,4,164,34
India,Odisha,Balasore,"Kalidaspur, Balasore - OSPCB",05-04-2024 06:00:00,21.51161,86.89088,SO2,13,16,14
India,Odisha,Baripada,"Meher Colony, Baripada - OSPCB",05-04-2024 06:00:00,21.941841,86.728318,NO2,NA,NA,NA
India,Odisha,Baripada,"Meher Colony, Baripada - OSPCB",05-04-2024 06:00:00,21.941841,86.728318,NH3,NA,NA,NA
India,Odisha,Baripada,"Meher Colony, Baripada - OSPCB",05-04-2024 06:00:00,21.941841,86.728318,CO,NA,NA,NA
India,Odisha,Baripada,"Meher Colony, Baripada - OSPCB",05-04-2024 06:00:00,21.941841,86.728318,OZONE,NA,NA,NA
India,Odisha,Bhubaneswar,"Lingraj Mandir, Bhubaneswar - OSPCB",05-04-2024 06:00:00,20.240790,85.836784,SO2,1,13,5
India,Odisha,Bhubaneswar,"Patia, Bhubaneswar - OSPCB",05-04-2024 06:00:00,20.34652,85.81630,SO2,2,4,3
India,Odisha,Brajrajnagar,"GM Office, Brajrajnagar - OSPCB",05-04-2024 06:00:00,21.8004996,83.8396977,PM10,59,147,102
India,Odisha,Brajrajnagar,"GM Office, Brajrajnagar - OSPCB",05-04-2024 06:00:00,21.8004996,83.8396977,CO,90,105,101
India,Odisha,Brajrajnagar,"GM Office, Brajrajnagar - OSPCB",05-04-2024 06:00:00,21.8004996,83.8396977,OZONE,19,20,19
India,Odisha,Cuttack,"CDA Area, Cuttack - OSPCB",05-04-2024 06:00:00,20.48891     ,85.84768     ,PM10,36,106,73
India,Odisha,Cuttack,"CDA Area, Cuttack - OSPCB",05-04-2024 06:00:00,20.48891     ,85.84768     ,SO2,1,4,3
India,Odisha,Keonjhar,"Jagamohanpur, Keonjhar - OSPCB",05-04-2024 06:00:00,21.643900,85.599355,NO2,11,103,30
India,Odisha,Keonjhar,"Jagamohanpur, Keonjhar - OSPCB",05-04-2024 06:00:00,21.643900,85.599355,NH3,6,13,7
India,Odisha,Keonjhar,"Jagamohanpur, Keonjhar - OSPCB",05-04-2024 06:00:00,21.643900,85.599355,SO2,2,5,3
India,Odisha,Keonjhar,"Jagamohanpur, Keonjhar - OSPCB",05-04-2024 06:00:00,21.643900,85.599355,OZONE,1,31,6
India,Odisha,Nayagarh,"Dabuna, Nayagarh - OSPCB",05-04-2024 06:00:00,21.847279,85.416905,PM10,109,320,175
India,Odisha,Rairangpur,"Divisional Forest Office, Rairangpur - OSPCB",05-04-2024 06:00:00,22.265816,86.174829,CO,18,43,25
India,Odisha,Rourkela,"Raghunathpali, Rourkela - OSPCB",05-04-2024 06:00:00,22.220833,84.809444,NO2,36,240,96
India,Odisha,Rourkela,"Sector-2, Rourkela - OSPCB",05-04-2024 06:00:00,22.24500000,84.88111111,NO2,33,34,33
India,Odisha,Suakati,"OMC Colony, Suakati - OSPCB",05-04-2024 06:00:00,21.606865,85.510538,PM10,136,259,160
India,Odisha,Suakati,"OMC Colony, Suakati - OSPCB",05-04-2024 06:00:00,21.606865,85.510538,NO2,5,10,8
India,Puducherry,Puducherry,"Jawahar Nagar, Puducherry - PPCC",05-04-2024 06:00:00,11.9309,79.8027,NH3,2,4,3
India,Puducherry,Puducherry,"Jawahar Nagar, Puducherry - PPCC",05-04-2024 06:00:00,11.9309,79.8027,CO,19,38,26
India,Punjab,Amritsar,"Golden Temple, Amritsar - PPCB",05-04-2024 06:00:00,31.620000,74.876512,PM2.5,33,67,36
India,Punjab,Amritsar,"Golden Temple, Amritsar - PPCB",05-04-2024 06:00:00,31.620000,74.876512,SO2,10,38,24
India,Punjab,Amritsar,"Golden Temple, Amritsar - PPCB",05-04-2024 06:00:00,31.620000,74.876512,CO,10,90,47
India,Punjab,Bathinda,"Hardev Nagar, Bathinda - PPCB",05-04-2024 06:00:00,30.233011,74.907758,PM10,28,295,93
India,Punjab,Jalandhar,"Civil Line, Jalandhar - PPCB",05-04-2024 06:00:00,31.321907,75.578914,PM2.5,12,79,44
India,Punjab,Jalandhar,"Civil Line, Jalandhar - PPCB",05-04-2024 06:00:00,31.321907,75.578914,SO2,8,14,10
India,Punjab,Jalandhar,"Civil Line, Jalandhar - PPCB",05-04-2024 06:00:00,31.321907,75.578914,OZONE,6,99,12
India,Punjab,Khanna,"Kalal Majra, Khanna - PPCB",05-04-2024 06:00:00,30.736056 ,76.209694,NH3,15,16,16
India,Punjab,Mandi Gobindgarh,"RIMT University, Mandi Gobindgarh - PPCB",05-04-2024 06:00:00,30.649961,76.331442,PM2.5,42,390,162
India,Punjab,Mandi Gobindgarh,"RIMT University, Mandi Gobindgarh - PPCB",05-04-2024 06:00:00,30.649961,76.331442,NH3,9,9,9
India,Punjab,Patiala,"Model Town, Patiala - PPCB",05-04-2024 06:00:00,30.349388,76.366642,PM10,73,151,100
India,Punjab,Patiala,"Model Town, Patiala - PPCB",05-04-2024 06:00:00,30.349388,76.366642,OZONE,9,59,18
India,Punjab,Rupnagar,"Ratanpura, Rupnagar - Ambuja Cements",05-04-2024 06:00:00,31.0325454,76.5623046,SO2,9,13,11
India,Punjab,Rupnagar,"Ratanpura, Rupnagar - Ambuja Cements",05-04-2024 06:00:00,31.0325454,76.5623046,CO,32,70,45
India,Rajasthan,Ajmer,"Civil Lines,  Ajmer - RSPCB",05-04-2024 06:00:00,26.470859,74.646594,OZONE,19,81,64
India,Rajasthan,Alwar,"Moti Doongri, Alwar - RSPCB",05-04-2024 06:00:00,27.554793,76.611536,PM10,32,108,72
India,Rajasthan,Baran,"Bamboliya, Baran - RSPCB",05-04-2024 06:00:00,25.106006,76.469948,PM10,87,213,123
India,Rajasthan,Baran,"Bamboliya, Baran - RSPCB",05-04-2024 06:00:00,25.106006,76.469948,OZONE,9,80,36
India,Rajasthan,Barmer,"Railway Colony, Barmer - RSPCB",05-04-2024 06:00:00,25.747299,71.393989,NO2,9,34,14
India,Rajasthan,Barmer,"Railway Colony, Barmer - RSPCB",05-04-2024 06:00:00,25.747299,71.393989,SO2,8,12,10
India,Rajasthan,Bhilwara,"Pratap Nagar, Bhilwara - RSPCB",05-04-2024 06:00:00,25.339605,74.618883,PM2.5,34,88,53
India,Rajasthan,Bhilwara,"Pratap Nagar, Bhilwara - RSPCB",05-04-2024 06:00:00,25.339605,74.618883,NO2,13,49,25
India,Rajasthan,Bhiwadi,"RIICO Ind. Area III, Bhiwadi - RSPCB",05-04-2024 06:00:00,28.194909,76.862296,PM2.5,36,309,185
India,Rajasthan,Bhiwadi,"RIICO Ind. Area III, Bhiwadi - RSPCB",05-04-2024 06:00:00,28.194909,76.862296,PM10,71,269,172
India,Rajasthan,Bhiwadi,"RIICO Ind. Area III, Bhiwadi - RSPCB",05-04-2024 06:00:00,28.194909,76.862296,NH3,16,22,19
India,Rajasthan,Bikaner,"MM Ground, Bikaner - RSPCB",05-04-2024 06:00:00,28.018792,73.292658,NH3,7,10,9
India,Rajasthan,Bikaner,"MM Ground, Bikaner - RSPCB",05-04-2024 06:00:00,28.018792,73.292658,CO,12,57,21
India,Rajasthan,Bundi,"New Colony, Bundi - RSPCB",05-04-2024 06:00:00,25.435774,75.644272,NH3,2,3,3
India,Rajasthan,Bundi,"New Colony, Bundi - RSPCB",05-04-2024 06:00:00,25.435774,75.644272,SO2,6,20,10
India,Rajasthan,Chittorgarh,"Shastri Nagar, Chittorgarh - RSPCB",05-04-2024 06:00:00,24.892047,74.623527,CO,NA,NA,NA
India,Rajasthan,Churu,"Subash Chowk, Churu - RSPCB",05-04-2024 06:00:00,28.296139,74.961696,PM10,84,142,108
India,Rajasthan,Dholpur,"Raja Ganj, Dholpur - RSPCB",05-04-2024 06:00:00,26.699557,77.898881,PM10,86,430,197
India,Rajasthan,Dungarpur,"Bhoiwada, Dungarpur - RSPCB",05-04-2024 06:00:00,23.837789,73.714926,NO2,9,19,13
India,Rajasthan,Dungarpur,"Bhoiwada, Dungarpur - RSPCB",05-04-2024 06:00:00,23.837789,73.714926,SO2,7,11,9
India,Rajasthan,Dungarpur,"Bhoiwada, Dungarpur - RSPCB",05-04-2024 06:00:00,23.837789,73.714926,OZONE,26,58,39
India,Rajasthan,Hanumangarh,"Housing Board, Hanumangarh - RSPCB",05-04-2024 06:00:00,29.610750,74.283608,PM10,97,342,156
India,Rajasthan,Jaipur,"Mansarovar Sector-12, Jaipur - RSPCB",05-04-2024 06:00:00,26.843698,75.766894,PM10,104,410,189
India,Rajasthan,Jaipur,"Mansarovar Sector-12, Jaipur - RSPCB",05-04-2024 06:00:00,26.843698,75.766894,NH3,3,41,14
India,Rajasthan,Jaipur,"Police Commissionerate, Jaipur - RSPCB",05-04-2024 06:00:00,26.9164092,75.7994901,NH3,2,9,7
India,Rajasthan,Jaipur,"RIICO Sitapura, Jaipur - RSPCB",05-04-2024 06:00:00,26.786682,75.827928,PM2.5,29,309,113
India,Rajasthan,Jaipur,"Sector-2 Murlipura, Jaipur - RSPCB",05-04-2024 06:00:00,26.960669,75.771817,NH3,4,17,8
India,Rajasthan,Jaipur,"Shastri Nagar, Jaipur - RSPCB",05-04-2024 06:00:00,26.9502929,75.730943,PM2.5,68,196,114
India,Rajasthan,Jaipur,"Shastri Nagar, Jaipur - RSPCB",05-04-2024 06:00:00,26.9502929,75.730943,PM10,106,182,138
India,Rajasthan,Jaipur,"Shastri Nagar, Jaipur - RSPCB",05-04-2024 06:00:00,26.9502929,75.730943,NO2,11,133,46
India,Rajasthan,Jaipur,"Shastri Nagar, Jaipur - RSPCB",05-04-2024 06:00:00,26.9502929,75.730943,NH3,3,38,12
India,Rajasthan,Jhalawar,"Rajlaxmi Nagar, Jhalawar - RSPCB",05-04-2024 06:00:00,24.588397,76.172782,NO2,19,29,24
India,Rajasthan,Jhalawar,"Rajlaxmi Nagar, Jhalawar - RSPCB",05-04-2024 06:00:00,24.588397,76.172782,NH3,5,8,7
India,Rajasthan,Jodhpur,"Collectorate, Jodhpur - RSPCB",05-04-2024 06:00:00,26.268249,73.0193853,CO,25,92,66
India,Rajasthan,Jodhpur,"Collectorate, Jodhpur - RSPCB",05-04-2024 06:00:00,26.268249,73.0193853,OZONE,44,118,67
India,Rajasthan,Jodhpur,"Digari Kalan, Jodhpur - RSPCB",05-04-2024 06:00:00,26.295810,73.082283,PM2.5,33,88,54
India,Rajasthan,Jodhpur,"Digari Kalan, Jodhpur - RSPCB",05-04-2024 06:00:00,26.295810,73.082283,SO2,4,8,6
India,Rajasthan,Jodhpur,"Digari Kalan, Jodhpur - RSPCB",05-04-2024 06:00:00,26.295810,73.082283,CO,13,34,15
India,Rajasthan,Jodhpur,"Jhalamand, Jodhpur - RSPCB",05-04-2024 06:00:00,26.215415,73.070156,OZONE,34,86,49
India,Rajasthan,Jodhpur,"Mandor, Jodhpur - RSPCB",05-04-2024 06:00:00,26.358805,73.047444,PM2.5,31,53,41
India,Rajasthan,Jodhpur,"Samrat Ashok Udhyan, Jodhpur - RSPCB",05-04-2024 06:00:00,26.253384,72.976571,PM2.5,27,58,42
India,Rajasthan,Jodhpur,"Samrat Ashok Udhyan, Jodhpur - RSPCB",05-04-2024 06:00:00,26.253384,72.976571,NH3,3,6,4
India,Rajasthan,Jodhpur,"Samrat Ashok Udhyan, Jodhpur - RSPCB",05-04-2024 06:00:00,26.253384,72.976571,OZONE,29,126,59
India,Rajasthan,Kota,"Dhanmandi, Kota - RSPCB",05-04-2024 06:00:00,25.164090,75.858137,PM10,68,193,106
India,Rajasthan,Kota,"Dhanmandi, Kota - RSPCB",05-04-2024 06:00:00,25.164090,75.858137,SO2,6,70,12
India,Rajasthan,Kota,"Dhanmandi, Kota - RSPCB",05-04-2024 06:00:00,25.164090,75.858137,OZONE,10,73,54
India,Rajasthan,Kota,"Shrinath Puram, Kota - RSPCB",05-04-2024 06:00:00,25.14389,75.821256,NH3,3,5,4
India,Rajasthan,Nagaur,"Karni Colony, Nagaur - RSPCB",05-04-2024 06:00:00,27.213494,73.734444,PM2.5,15,187,47
India,Rajasthan,Nagaur,"Karni Colony, Nagaur - RSPCB",05-04-2024 06:00:00,27.213494,73.734444,CO,15,28,20
India,Rajasthan,Pali,"Indira Colony Vistar, Pali - RSPCB",05-04-2024 06:00:00,25.771061, 73.340227,PM10,106,189,132
India,Rajasthan,Pali,"Indira Colony Vistar, Pali - RSPCB",05-04-2024 06:00:00,25.771061, 73.340227,CO,33,72,57
India,Rajasthan,Pratapgarh,"Pragati Nagar, Pratapgarh - RSPCB",05-04-2024 06:00:00,24.041198,74.780702,PM10,51,157,100
India,Rajasthan,Pratapgarh,"Pragati Nagar, Pratapgarh - RSPCB",05-04-2024 06:00:00,24.041198,74.780702,SO2,5,13,8
India,Rajasthan,Pratapgarh,"Pragati Nagar, Pratapgarh - RSPCB",05-04-2024 06:00:00,24.041198,74.780702,OZONE,40,80,50
India,Rajasthan,Rajsamand,"Dhoinda, Rajsamand - RSPCB",05-04-2024 06:00:00,25.036360,73.883502,PM2.5,25,113,54
India,Rajasthan,Rajsamand,"Dhoinda, Rajsamand - RSPCB",05-04-2024 06:00:00,25.036360,73.883502,CO,52,72,64
India,Rajasthan,Sikar,"Radhakishan Pura, Sikar - RSPCB",05-04-2024 06:00:00,27.608912,75.153302,CO,28,68,33
India,Rajasthan,Sirohi,"Vedhaynath Colony, Sirohi - RSPCB",05-04-2024 06:00:00,24.885261,72.857549,PM2.5,46,73,58
India,Rajasthan,Sirohi,"Vedhaynath Colony, Sirohi - RSPCB",05-04-2024 06:00:00,24.885261,72.857549,NH3,3,9,5
India,Rajasthan,Tonk,"Shastri Nagar, Tonk - RSPCB",05-04-2024 06:00:00,26.159933,75.780517,NO2,7,108,29
India,Rajasthan,Tonk,"Shastri Nagar, Tonk - RSPCB",05-04-2024 06:00:00,26.159933,75.780517,CO,2,86,13
India,Rajasthan,Udaipur,"Ashok Nagar, Udaipur - RSPCB",05-04-2024 06:00:00,24.5886166,73.6321397,PM10,76,141,104
India,Rajasthan,Udaipur,"Ashok Nagar, Udaipur - RSPCB",05-04-2024 06:00:00,24.5886166,73.6321397,NO2,75,120,101
India,Sikkim,Gangtok,"Zero Point GICI, Gangtok - SSPCB",05-04-2024 06:00:00,27.338530,88.614099,CO,18,26,21
India,TamilNadu,Chengalpattu,"Crescent University, Chengalpattu - TNPCB",05-04-2024 06:00:00,12.8777316,80.0834807,PM2.5,NA,NA,NA
India,TamilNadu,Chennai,"Alandur Bus Depot, Chennai - CPCB",05-04-2024 06:00:00,12.9099161,80.1076538,PM10,29,70,46
India,TamilNadu,Chennai,"Arumbakkam, Chennai - TNPCB",05-04-2024 06:00:00,13.0664,80.2112 ,PM10,10,63,34
India,TamilNadu,Chennai,"Arumbakkam, Chennai - TNPCB",05-04-2024 06:00:00,13.0664,80.2112 ,SO2,2,4,3
India,TamilNadu,Chennai,"Kodungaiyur, Chennai - TNPCB",05-04-2024 06:00:00,13.1278,80.2642,NH3,2,4,3
India,TamilNadu,Chennai,"Manali, Chennai - CPCB",05-04-2024 06:00:00,13.164544,80.26285,CO,88,106,96
India,TamilNadu,Chennai,"Perungudi, Chennai - TNPCB",05-04-2024 06:00:00,12.9533,80.2357,PM2.5,2,19,11
India,TamilNadu,Chennai,"Perungudi, Chennai - TNPCB",05-04-2024 06:00:00,12.9533,80.2357,PM10,9,84,37
India,TamilNadu,Chennai,"Perungudi, Chennai - TNPCB",05-04-2024 06:00:00,12.9533,80.2357,NO2,2,6,4
India,TamilNadu,Chennai,"Perungudi, Chennai - TNPCB",05-04-2024 06:00:00,12.9533,80.2357,CO,8,101,17
India,TamilNadu,Chennai,"Royapuram, Chennai - TNPCB",05-04-2024 06:00:00,13.1036,80.2909,PM2.5,2,21,9
India,TamilNadu,Coimbatore,"PSG College of Arts and Science, Coimbatore - TNPCB",05-04-2024 06:00:00,11.0328,77.0349,NO2,1,3,2
India,TamilNadu,Gummidipoondi,"Anthoni Pillai Nagar, Gummidipoondi - TNPCB",05-04-2024 06:00:00,13.4127,80.1081,PM10,39,136,83
India,TamilNadu,Kanchipuram,"Kilambi, Kanchipuram - TNPCB",05-04-2024 06:00:00,12.864618,79.659968,NO2,NA,NA,NA
India,TamilNadu,Kanchipuram,"Kilambi, Kanchipuram - TNPCB",05-04-2024 06:00:00,12.864618,79.659968,SO2,5,14,10
India,TamilNadu,Ooty,"Bombay Castel, Ooty - TNPCB",05-04-2024 06:00:00,11.4068288,76.7138973,NO2,NA,NA,NA
India,TamilNadu,Palkalaiperur,"Bharathidasan University, Palkalaiperur - TNPCB",05-04-2024 06:00:00,10.681158,78.741746,SO2,27,29,28
India,TamilNadu,Ramanathapuram,"Chalai Bazaar, Ramanathapuram - TNPCB",05-04-2024 06:00:00,9.36399,78.831977,NH3,1,1,1
India,TamilNadu,Ramanathapuram,"Chalai Bazaar, Ramanathapuram - TNPCB",05-04-2024 06:00:00,9.36399,78.831977,SO2,7,9,8
India,TamilNadu,Salem,"Sona College of Technology, Salem - TNPCB",05-04-2024 06:00:00,11.679111,78.125052,NH3,NA,NA,NA
India,TamilNadu,Salem,"Sona College of Technology, Salem - TNPCB",05-04-2024 06:00:00,11.679111,78.125052,CO,52,58,57
India,TamilNadu,Thoothukudi,"Meelavittan, Thoothukudi - TNPCB",05-04-2024 06:00:00,8.816428 ,78.099039,PM10,32,151,75
India,TamilNadu,Thoothukudi,"Meelavittan, Thoothukudi - TNPCB",05-04-2024 06:00:00,8.816428 ,78.099039,NO2,30,49,36
India,TamilNadu,Vellore,"Vasanthapuram, Vellore - TNPCB",05-04-2024 06:00:00,12.909494,79.131861,NH3,1,1,1
India,TamilNadu,Virudhunagar,"Collectorate Office, Virudhunagar - TNPCB",05-04-2024 06:00:00,9.559382,77.948828,CO,27,28,28
India,TamilNadu,Virudhunagar,"Collectorate Office, Virudhunagar - TNPCB",05-04-2024 06:00:00,9.559382,77.948828,OZONE,6,7,6
India,Telangana,Hyderabad,"Central University, Hyderabad - TSPCB",05-04-2024 06:00:00,17.460103,78.334361,SO2,6,12,8
India,Telangana,Hyderabad,"Central University, Hyderabad - TSPCB",05-04-2024 06:00:00,17.460103,78.334361,CO,12,44,36
India,Telangana,Hyderabad,"ECIL Kapra, Hyderabad - TSPCB",05-04-2024 06:00:00,17.470431,78.566959,PM10,75,89,81
India,Telangana,Hyderabad,"ECIL Kapra, Hyderabad - TSPCB",05-04-2024 06:00:00,17.470431,78.566959,NH3,6,8,6
India,Telangana,Hyderabad,"ICRISAT Patancheru, Hyderabad - TSPCB",05-04-2024 06:00:00,17.518400,78.278777,SO2,15,47,21
India,Telangana,Hyderabad,"IITH Kandi, Hyderabad - TSPCB",05-04-2024 06:00:00,17.585705,78.126199,SO2,NA,NA,NA
India,Telangana,Hyderabad,"IITH Kandi, Hyderabad - TSPCB",05-04-2024 06:00:00,17.585705,78.126199,OZONE,NA,NA,NA
India,Telangana,Hyderabad,"Kompally Municipal Office, Hyderabad - TSPCB",05-04-2024 06:00:00,17.544899,78.486949,PM10,39,80,57
India,Telangana,Hyderabad,"New Malakpet, Hyderabad - TSPCB",05-04-2024 06:00:00,17.37206,78.50864,SO2,1,6,3
India,Telangana,Hyderabad,"Ramachandrapuram, Hyderabad - TSPCB",05-04-2024 06:00:00,17.528544,78.286195,NO2,8,11,9
India,Telangana,Hyderabad,"Zoo Park, Hyderabad - TSPCB",05-04-2024 06:00:00,17.349694,78.451437,PM2.5,45,109,65
India,Telangana,Hyderabad,"Zoo Park, Hyderabad - TSPCB",05-04-2024 06:00:00,17.349694,78.451437,NO2,20,47,31
India,Telangana,Hyderabad,"Zoo Park, Hyderabad - TSPCB",05-04-2024 06:00:00,17.349694,78.451437,NH3,NA,NA,NA
India,Telangana,Hyderabad,"Zoo Park, Hyderabad - TSPCB",05-04-2024 06:00:00,17.349694,78.451437,SO2,2,7,4
India,Tripura,Agartala,"Bardowali, Agartala - Tripura SPCB",05-04-2024 06:00:00,23.8175497,91.2726974,NO2,4,11,7
India,Tripura,Agartala,"Bardowali, Agartala - Tripura SPCB",05-04-2024 06:00:00,23.8175497,91.2726974,CO,12,28,18
India,Tripura,Agartala,"Bardowali, Agartala - Tripura SPCB",05-04-2024 06:00:00,23.8175497,91.2726974,OZONE,1,47,2
India,Uttar_Pradesh,Agra,"Manoharpur, Agra - UPPCB",05-04-2024 06:00:00,27.23711,78.01936,PM10,18,88,43
India,Uttar_Pradesh,Agra,"Sanjay Palace, Agra - UPPCB",05-04-2024 06:00:00,27.19865833,78.00598056,PM2.5,8,62,26
India,Uttar_Pradesh,Agra,"Sanjay Palace, Agra - UPPCB",05-04-2024 06:00:00,27.19865833,78.00598056,CO,11,94,51
India,Uttar_Pradesh,Agra,"Sector-3B Avas Vikas Colony, Agra - UPPCB",05-04-2024 06:00:00,27.19412,77.96237,NO2,37,39,38
India,Uttar_Pradesh,Agra,"Shastripuram, Agra - UPPCB",05-04-2024 06:00:00,27.19862,77.92066,PM2.5,23,148,64
India,Uttar_Pradesh,Baghpat,"Sardar Patel Inter College, Baghpat - UPPCB",05-04-2024 06:00:00,28.964949,77.278761,PM10,49,188,112
India,Uttar_Pradesh,Baghpat,"Sardar Patel Inter College, Baghpat - UPPCB",05-04-2024 06:00:00,28.964949,77.278761,NH3,2,7,3
India,Uttar_Pradesh,Baghpat,"Sardar Patel Inter College, Baghpat - UPPCB",05-04-2024 06:00:00,28.964949,77.278761,OZONE,14,75,24
India,Uttar_Pradesh,Bareilly,"Civil Lines, Bareilly - UPPCB",05-04-2024 06:00:00,28.359581,79.414455,PM2.5,4,12,7
India,Uttar_Pradesh,Bareilly,"Civil Lines, Bareilly - UPPCB",05-04-2024 06:00:00,28.359581,79.414455,PM10,42,125,70
India,Uttar_Pradesh,Bareilly,"Civil Lines, Bareilly - UPPCB",05-04-2024 06:00:00,28.359581,79.414455,CO,10,43,35
India,Uttar_Pradesh,Bareilly,"Rajendra Nagar, Bareilly - UPPCB",05-04-2024 06:00:00,28.38910936,79.42963708,PM10,32,85,60
India,Uttar_Pradesh,Bareilly,"Rajendra Nagar, Bareilly - UPPCB",05-04-2024 06:00:00,28.38910936,79.42963708,SO2,43,46,44
India,Uttar_Pradesh,Bulandshahr,"Yamunapuram, Bulandshahr - UPPCB",05-04-2024 06:00:00,28.406963,77.849831,PM10,66,181,125
India,Uttar_Pradesh,Bulandshahr,"Yamunapuram, Bulandshahr - UPPCB",05-04-2024 06:00:00,28.406963,77.849831,SO2,11,63,34
India,Uttar_Pradesh,Firozabad,"Nagla Bhau, Firozabad - UPPCB",05-04-2024 06:00:00,27.168897,78.376960,PM2.5,10,64,33
India,Uttar_Pradesh,Firozabad,"Nagla Bhau, Firozabad - UPPCB",05-04-2024 06:00:00,27.168897,78.376960,NH3,1,2,2
India,Uttar_Pradesh,Firozabad,"Nagla Bhau, Firozabad - UPPCB",05-04-2024 06:00:00,27.168897,78.376960,OZONE,16,109,17
India,Uttar_Pradesh,Firozabad,"Vibhab Nagar, Firozabad - UPPCB",05-04-2024 06:00:00,27.1594,78.3953,CO,9,28,24
India,Uttar_Pradesh,Ghaziabad,"Indirapuram, Ghaziabad - UPPCB",05-04-2024 06:00:00,28.646233,77.358075,NO2,74,142,106
India,Uttar_Pradesh,Ghaziabad,"Vasundhara, Ghaziabad - UPPCB",05-04-2024 06:00:00,28.6603346,77.3572563,PM2.5,19,266,104
India,Uttar_Pradesh,Ghaziabad,"Vasundhara, Ghaziabad - UPPCB",05-04-2024 06:00:00,28.6603346,77.3572563,SO2,8,110,46
India,Uttar_Pradesh,Gorakhpur,"Madan Mohan Malaviya University of Technology, Gorakhpur - UPPCB",05-04-2024 06:00:00,26.730136,83.433859,NH3,1,2,2
India,Uttar_Pradesh,Gorakhpur,"Madan Mohan Malaviya University of Technology, Gorakhpur - UPPCB",05-04-2024 06:00:00,26.730136,83.433859,CO,8,30,23
India,Uttar_Pradesh,Greater Noida,"Knowledge Park - V, Greater Noida - UPPCB",05-04-2024 06:00:00,28.557054,77.453663,NH3,3,6,4
India,Uttar_Pradesh,Greater Noida,"Knowledge Park - V, Greater Noida - UPPCB",05-04-2024 06:00:00,28.557054,77.453663,SO2,13,48,27
India,Uttar_Pradesh,Jhansi,"Shivaji Nagar, Jhansi - UPPCB",05-04-2024 06:00:00,25.4547,78.6039,CO,10,84,42
India,Uttar_Pradesh,Kanpur,"Nehru Nagar, Kanpur - UPPCB",05-04-2024 06:00:00,26.4703136,80.3229863,PM2.5,30,259,78
India,Uttar_Pradesh,Khurja,"Kalindi Kunj, Khurja - UPPCB",05-04-2024 06:00:00,28.2348927,77.8683002,PM10,25,120,87
India,Uttar_Pradesh,Lucknow,"B R Ambedkar University, Lucknow - UPPCB",05-04-2024 06:00:00,26.766433,80.927299,CO,22,43,29
India,Uttar_Pradesh,Lucknow,"Gomti Nagar, Lucknow - UPPCB",05-04-2024 06:00:00,26.868120,81.005119,CO,38,46,40
India,Uttar_Pradesh,Lucknow,"Gomti Nagar, Lucknow - UPPCB",05-04-2024 06:00:00,26.868120,81.005119,OZONE,32,43,35
India,Uttar_Pradesh,Lucknow,"Kendriya Vidyalaya, Lucknow - CPCB",05-04-2024 06:00:00,26.906111,80.948222,PM10,90,151,125
India,Uttar_Pradesh,Lucknow,"Kendriya Vidyalaya, Lucknow - CPCB",05-04-2024 06:00:00,26.906111,80.948222,NO2,8,55,22
India,Uttar_Pradesh,Lucknow,"Kendriya Vidyalaya, Lucknow - CPCB",05-04-2024 06:00:00,26.906111,80.948222,OZONE,9,75,34
India,Uttar_Pradesh,Lucknow,"Kukrail Picnic Spot-1, Lucknow - UPPCB",05-04-2024 06:00:00,26.90723,80.98579,PM2.5,42,184,88
India,Uttar_Pradesh,Lucknow,"Kukrail Picnic Spot-1, Lucknow - UPPCB",05-04-2024 06:00:00,26.90723,80.98579,PM10,65,153,103
India,Uttar_Pradesh,Lucknow,"Kukrail Picnic Spot-1, Lucknow - UPPCB",05-04-2024 06:00:00,26.90723,80.98579,CO,13,30,24
India,Uttar_Pradesh,Lucknow,"Kukrail Picnic Spot-1, Lucknow - UPPCB",05-04-2024 06:00:00,26.90723,80.98579,OZONE,4,39,16
India,Uttar_Pradesh,Lucknow,"Talkatora District Industries Center, Lucknow - CPCB",05-04-2024 06:00:00,26.83399722,80.8917361,CO,7,54,30
India,Uttar_Pradesh,Meerut,"Ganga Nagar, Meerut - UPPCB",05-04-2024 06:00:00,28.999264,77.7590354,NH3,4,8,6
India,Uttar_Pradesh,Moradabad,"Employment Office, Moradabad - UPPCB",05-04-2024 06:00:00,28.88528,78.73880,OZONE,1,66,7
India,Uttar_Pradesh,Muzaffarnagar,"New Mandi, Muzaffarnagar - UPPCB",05-04-2024 06:00:00,29.4723508,77.7194031,NH3,10,11,10
India,Uttar_Pradesh,Muzaffarnagar,"New Mandi, Muzaffarnagar - UPPCB",05-04-2024 06:00:00,29.4723508,77.7194031,CO,23,71,39
India,Uttar_Pradesh,Noida,"Sector - 125, Noida - UPPCB",05-04-2024 06:00:00,28.5447608,77.3231257,PM10,70,205,111
India,Uttar_Pradesh,Noida,"Sector - 62, Noida - IMD",05-04-2024 06:00:00,28.6245479,77.3577104,PM2.5,41,300,134
India,Uttar_Pradesh,Noida,"Sector-1, Noida - UPPCB",05-04-2024 06:00:00,28.5898,77.3101,NH3,1,4,2
India,Uttar_Pradesh,Noida,"Sector-116, Noida - UPPCB",05-04-2024 06:00:00,28.569230,77.393848,OZONE,1,58,5
India,Uttar_Pradesh,Prayagraj,"Jhunsi, Prayagraj - UPPCB",05-04-2024 06:00:00,25.425602,81.917152,SO2,30,32,31
India,Uttar_Pradesh,Prayagraj,"Motilal Nehru NIT, Prayagraj - UPPCB",05-04-2024 06:00:00,25.494,81.863,CO,14,52,32
India,Uttar_Pradesh,Prayagraj,"Nagar Nigam, Prayagraj - UPPCB",05-04-2024 06:00:00,25.44919916 ,81.82735986 ,PM2.5,36,66,50
India,Uttar_Pradesh,Prayagraj,"Nagar Nigam, Prayagraj - UPPCB",05-04-2024 06:00:00,25.44919916 ,81.82735986 ,CO,18,58,33
India,Uttar_Pradesh,Varanasi,"Ardhali Bazar, Varanasi - UPPCB",05-04-2024 06:00:00,25.3505986,82.9083074,PM10,19,77,51
India,Uttar_Pradesh,Varanasi,"Bhelupur, Varanasi - UPPCB",05-04-2024 06:00:00,25.301778,82.996789,PM2.5,6,22,13
India,Uttar_Pradesh,Varanasi,"IESD Banaras Hindu University, Varanasi - UPPCB",05-04-2024 06:00:00,25.262326,82.995408,NO2,2,2,2
India,Uttar_Pradesh,Varanasi,"IESD Banaras Hindu University, Varanasi - UPPCB",05-04-2024 06:00:00,25.262326,82.995408,CO,8,34,30
India,Uttar_Pradesh,Vrindavan,"Omex Eternity, Vrindavan - UPPCB",05-04-2024 06:00:00,27.5714090,77.6557570,NH3,2,7,3
India,Uttar_Pradesh,Vrindavan,"Omex Eternity, Vrindavan - UPPCB",05-04-2024 06:00:00,27.5714090,77.6557570,SO2,40,50,43
India,Uttar_Pradesh,Vrindavan,"Omex Eternity, Vrindavan - UPPCB",05-04-2024 06:00:00,27.5714090,77.6557570,OZONE,26,34,31
India,Uttarakhand,Dehradun,"Doon University, Dehradun - UKPCB",05-04-2024 06:00:00,30.269444,78.044167,NO2,1,6,3
India,Uttarakhand,Dehradun,"Doon University, Dehradun - UKPCB",05-04-2024 06:00:00,30.269444,78.044167,OZONE,38,176,57
India,Uttarakhand,Kashipur,"Govt. Girls Inter College, Kashipur - UKPCB",05-04-2024 06:00:00,29.2124114,78.9611753,NO2,4,12,7
India,Uttarakhand,Kashipur,"Govt. Girls Inter College, Kashipur - UKPCB",05-04-2024 06:00:00,29.2124114,78.9611753,SO2,7,9,8
India,Uttarakhand,Kashipur,"Govt. Girls Inter College, Kashipur - UKPCB",05-04-2024 06:00:00,29.2124114,78.9611753,OZONE,17,68,25
India,Uttarakhand,Rishikesh,"Shivaji Nagar, Rishikesh - UKPCB",05-04-2024 06:00:00,30.075911,78.2859547,PM2.5,25,54,44
India,Uttarakhand,Rishikesh,"Shivaji Nagar, Rishikesh - UKPCB",05-04-2024 06:00:00,30.075911,78.2859547,NH3,2,4,3
India,Uttarakhand,Rishikesh,"Shivaji Nagar, Rishikesh - UKPCB",05-04-2024 06:00:00,30.075911,78.2859547,OZONE,24,128,37
India,West_Bengal,Asansol,"Asansol Court Area, Asansol - WBPCB",05-04-2024 06:00:00,23.685297,86.945968,CO,15,108,55
India,West_Bengal,Barrackpore,"SVSPA Campus, Barrackpore - WBPCB",05-04-2024 06:00:00,22.7605581,88.3617589,NH3,2,5,3
India,West_Bengal,Barrackpore,"SVSPA Campus, Barrackpore - WBPCB",05-04-2024 06:00:00,22.7605581,88.3617589,CO,8,30,11
India,West_Bengal,Haldia,"Priyambada Housing Estate, Haldia - WBPCB",05-04-2024 06:00:00,22.06047,88.109737,SO2,8,25,15
India,West_Bengal,Haldia,"Priyambada Housing Estate, Haldia - WBPCB",05-04-2024 06:00:00,22.06047,88.109737,OZONE,18,29,21
India,West_Bengal,Howrah,"Ghusuri, Howrah - WBPCB",05-04-2024 06:00:00,22.611968,88.347422,NO2,7,27,15
India,West_Bengal,Howrah,"Ghusuri, Howrah - WBPCB",05-04-2024 06:00:00,22.611968,88.347422,SO2,4,6,5
India,West_Bengal,Howrah,"Ghusuri, Howrah - WBPCB",05-04-2024 06:00:00,22.611968,88.347422,CO,2,12,4
India,West_Bengal,Howrah,"Ghusuri, Howrah - WBPCB",05-04-2024 06:00:00,22.611968,88.347422,OZONE,14,32,18
India,West_Bengal,Howrah,"Padmapukur, Howrah - WBPCB",05-04-2024 06:00:00,22.5687319,88.2797276,PM10,51,105,77
India,West_Bengal,Howrah,"Padmapukur, Howrah - WBPCB",05-04-2024 06:00:00,22.5687319,88.2797276,CO,6,54,28
India,West_Bengal,Howrah,"Padmapukur, Howrah - WBPCB",05-04-2024 06:00:00,22.5687319,88.2797276,OZONE,7,45,9
India,West_Bengal,Kolkata,"Ballygunge, Kolkata - WBPCB",05-04-2024 06:00:00,22.5367507,88.3638022,NO2,12,35,18
India,West_Bengal,Kolkata,"Ballygunge, Kolkata - WBPCB",05-04-2024 06:00:00,22.5367507,88.3638022,CO,2,23,18
India,West_Bengal,Kolkata,"Bidhannagar, Kolkata - WBPCB",05-04-2024 06:00:00,22.58157048,88.41002457,NO2,19,26,22
India,West_Bengal,Kolkata,"Fort William, Kolkata - WBPCB",05-04-2024 06:00:00,22.556640,88.342674,PM2.5,39,78,55
India,West_Bengal,Kolkata,"Rabindra Bharati University, Kolkata - WBPCB",05-04-2024 06:00:00,22.627847,88.380669,PM10,45,98,72
India,West_Bengal,Kolkata,"Rabindra Bharati University, Kolkata - WBPCB",05-04-2024 06:00:00,22.627847,88.380669,OZONE,13,303,22
India,West_Bengal,Kolkata,"Rabindra Sarobar, Kolkata - WBPCB",05-04-2024 06:00:00,22.51106,88.35142,NO2,4,22,14
India,West_Bengal,Kolkata,"Victoria, Kolkata - WBPCB",05-04-2024 06:00:00,22.5448082,88.3403691,NH3,2,2,2
India,West_Bengal,Siliguri,"Ward-32 Bapupara, Siliguri - WBPCB",05-04-2024 06:00:00,26.6879226,88.4152495,PM10,51,135,100
India,Andhra_Pradesh,Amaravati,"Secretariat, Amaravati - APPCB",05-04-2024 06:00:00,16.5150833,80.5181667,OZONE,1,48,12
India,Andhra_Pradesh,Anantapur,"Gulzarpet, Anantapur - APPCB",05-04-2024 06:00:00,14.675886,77.593027,OZONE,8,57,23
India,Andhra_Pradesh,Chittoor,"Gangineni Cheruvu, Chittoor - APPCB",05-04-2024 06:00:00,13.204880,79.097889,NH3,1,3,1
India,Andhra_Pradesh,Chittoor,"Gangineni Cheruvu, Chittoor - APPCB",05-04-2024 06:00:00,13.204880,79.097889,CO,NA,NA,NA
India,Andhra_Pradesh,Kadapa,"Yerramukkapalli, Kadapa - APPCB",05-04-2024 06:00:00,14.465052,78.824187,PM10,28,53,37
India,Andhra_Pradesh,Kadapa,"Yerramukkapalli, Kadapa - APPCB",05-04-2024 06:00:00,14.465052,78.824187,SO2,1,3,2
India,Andhra_Pradesh,Kadapa,"Yerramukkapalli, Kadapa - APPCB",05-04-2024 06:00:00,14.465052,78.824187,OZONE,15,80,47
India,Andhra_Pradesh,Rajamahendravaram,"Anand Kala Kshetram, Rajamahendravaram - APPCB",05-04-2024 06:00:00,16.9872867,81.7363176,PM2.5,2,21,9
India,Andhra_Pradesh,Rajamahendravaram,"Anand Kala Kshetram, Rajamahendravaram - APPCB",05-04-2024 06:00:00,16.9872867,81.7363176,PM10,14,37,26
India,Andhra_Pradesh,Tirupati,"Tirumala, Tirupati - APPCB",05-04-2024 06:00:00,13.67,79.35,SO2,3,17,8
India,Andhra_Pradesh,Tirupati,"Vaikuntapuram, Tirupati - APPCB",05-04-2024 06:00:00,13.615387,79.409230,PM2.5,14,249,62
India,Andhra_Pradesh,Tirupati,"Vaikuntapuram, Tirupati - APPCB",05-04-2024 06:00:00,13.615387,79.409230,NO2,14,54,24
India,Andhra_Pradesh,Tirupati,"Vaikuntapuram, Tirupati - APPCB",05-04-2024 06:00:00,13.615387,79.409230,CO,5,15,13
India,Andhra_Pradesh,Vijayawada,"HB Colony, Vijayawada - APPCB",05-04-2024 06:00:00,16.536107,80.594233,PM10,45,61,52
India,Andhra_Pradesh,Vijayawada,"HB Colony, Vijayawada - APPCB",05-04-2024 06:00:00,16.536107,80.594233,SO2,3,5,4
India,Andhra_Pradesh,Visakhapatnam,"GVM Corporation, Visakhapatnam - APPCB",05-04-2024 06:00:00,17.72,83.3,PM2.5,15,58,41
India,Assam,Byrnihat,"Central Academy for SFS, Byrnihat - PCBA",05-04-2024 06:00:00,26.071318,91.87488,PM10,42,384,108
India,Assam,Byrnihat,"Central Academy for SFS, Byrnihat - PCBA",05-04-2024 06:00:00,26.071318,91.87488,CO,34,101,43
India,Assam,Guwahati,"IITG, Guwahati - PCBA",05-04-2024 06:00:00,26.2028636,91.70046436,PM2.5,35,178,92
India,Assam,Guwahati,"IITG, Guwahati - PCBA",05-04-2024 06:00:00,26.2028636,91.70046436,SO2,11,12,12
India,Assam,Guwahati,"LGBI Airport, Guwahati - PCBA",05-04-2024 06:00:00,26.10887,91.589544,NO2,24,102,73
India,Assam,Guwahati,"LGBI Airport, Guwahati - PCBA",05-04-2024 06:00:00,26.10887,91.589544,OZONE,25,38,30
India,Assam,Guwahati,"Pan Bazaar, Guwahati - PCBA",05-04-2024 06:00:00,26.187500,91.744194,PM10,45,500,257
India,Assam,Guwahati,"Pan Bazaar, Guwahati - PCBA",05-04-2024 06:00:00,26.187500,91.744194,NH3,3,4,4
India,Assam,Guwahati,"Railway Colony, Guwahati - PCBA",05-04-2024 06:00:00,26.181742,91.78063,PM2.5,63,483,300
India,Assam,Guwahati,"Railway Colony, Guwahati - PCBA",05-04-2024 06:00:00,26.181742,91.78063,OZONE,1,39,21
India,Assam,Nagaon,"Christianpatty, Nagaon - PCBA",05-04-2024 06:00:00,26.349082,92.68449,PM2.5,63,97,78
India,Assam,Silchar,"Tarapur, Silchar - PCBA",05-04-2024 06:00:00,24.82827,92.79525,NO2,10,12,12
India,Assam,Silchar,"Tarapur, Silchar - PCBA",05-04-2024 06:00:00,24.82827,92.79525,NH3,1,1,1
India,Assam,Silchar,"Tarapur, Silchar - PCBA",05-04-2024 06:00:00,24.82827,92.79525,OZONE,1,26,1
India,Assam,Sivasagar,"Girls College, Sivasagar - PCBA",05-04-2024 06:00:00,26.987634,94.636574,SO2,3,4,4
India,Bihar,Araria,"Kharahiya Basti, Araria - BSPCB",05-04-2024 06:00:00,26.146529,87.454184,NO2,3,8,7
India,Bihar,Araria,"Kharahiya Basti, Araria - BSPCB",05-04-2024 06:00:00,26.146529,87.454184,CO,12,30,24
India,Bihar,Arrah,"New DM Office, Arrah - BSPCB",05-04-2024 06:00:00,25.5626095,84.663264,PM2.5,NA,NA,NA
India,Bihar,Arrah,"New DM Office, Arrah - BSPCB",05-04-2024 06:00:00,25.5626095,84.663264,NH3,NA,NA,NA
India,Bihar,Arrah,"New DM Office, Arrah - BSPCB",05-04-2024 06:00:00,25.5626095,84.663264,SO2,NA,NA,NA
India,Bihar,Arrah,"New DM Office, Arrah - BSPCB",05-04-2024 06:00:00,25.5626095,84.663264,CO,NA,NA,NA
India,Bihar,Bettiah,"Kamalnath Nagar, Bettiah - BSPCB",05-04-2024 06:00:00,26.80365,84.51954,PM2.5,57,193,93
India,Bihar,Bhagalpur,"DM Office_Kachari Chowk, Bhagalpur - BSPCB",05-04-2024 06:00:00,25.251013,86.989001,NO2,33,106,79
India,Bihar,Bhagalpur,"DM Office_Kachari Chowk, Bhagalpur - BSPCB",05-04-2024 06:00:00,25.251013,86.989001,NH3,6,11,8
India,Bihar,Bhagalpur,"Mayaganj, Bhagalpur - BSPCB",05-04-2024 06:00:00,25.265194,87.012947,NO2,NA,NA,NA
India,Bihar,Bhagalpur,"Mayaganj, Bhagalpur - BSPCB",05-04-2024 06:00:00,25.265194,87.012947,NH3,NA,NA,NA
India,Bihar,Bhagalpur,"Mayaganj, Bhagalpur - BSPCB",05-04-2024 06:00:00,25.265194,87.012947,CO,8,10,9
India,Bihar,Bihar Sharif,"D M Colony, Bihar Sharif - BSPCB",05-04-2024 06:00:00,25.204762,85.514960,OZONE,7,102,14
India,Bihar,Buxar,"Charitra Van, Buxar - BSPCB (Formerly known as Central Jail)",05-04-2024 06:00:00,25.567520,83.966379,NO2,41,313,93
India,Bihar,Chhapra,"Darshan Nagar, Chhapra - BSPCB",05-04-2024 06:00:00,25.7808257,84.7446768,NH3,7,14,10
India,Bihar,Gaya,"Kareemganj, Gaya - BSPCB",05-04-2024 06:00:00,24.792403,84.992416,PM10,60,223,124
India,Bihar,Gaya,"SFTI Kusdihra, Gaya - BSPCB",05-04-2024 06:00:00,24.762518,84.982348,NO2,23,69,42
India,Bihar,Katihar,"Mirchaibari, Katihar - BSPCB",05-04-2024 06:00:00,25.560083,87.553265,CO,46,56,51
India,Bihar,Kishanganj,"SDM Office_Khagra, Kishanganj - BSPCB",05-04-2024 06:00:00,26.0881305,87.93840336,NO2,28,33,29
India,Bihar,Kishanganj,"SDM Office_Khagra, Kishanganj - BSPCB",05-04-2024 06:00:00,26.0881305,87.93840336,NH3,10,11,10
India,Bihar,Kishanganj,"SDM Office_Khagra, Kishanganj - BSPCB",05-04-2024 06:00:00,26.0881305,87.93840336,OZONE,6,22,7
India,Bihar,Manguraha,"Forest Rest House, Manguraha - BSPCB",05-04-2024 06:00:00,27.308328,84.531742,NH3,1,3,2
India,Bihar,Munger,"Town Hall, Munger - BSPCB",05-04-2024 06:00:00,25.376776,86.471523,PM2.5,67,253,132
India,Bihar,Muzaffarpur,"Buddha Colony, Muzaffarpur - BSPCB",05-04-2024 06:00:00,26.11442,85.39813,NH3,5,8,6
India,Bihar,Muzaffarpur,"Buddha Colony, Muzaffarpur - BSPCB",05-04-2024 06:00:00,26.11442,85.39813,CO,24,78,53
India,Bihar,Muzaffarpur,"MIT-Daudpur Kothi, Muzaffarpur - BSPCB",05-04-2024 06:00:00,26.1403345,85.3650192,OZONE,6,70,9
India,Bihar,Muzaffarpur,"Muzaffarpur Collectorate, Muzaffarpur - BSPCB",05-04-2024 06:00:00,26.1209,85.3647,OZONE,39,121,62
India,Bihar,Patna,"Govt. High School Shikarpur, Patna - BSPCB",05-04-2024 06:00:00,25.592539,85.227158,CO,22,72,54
India,Bihar,Patna,"IGSC Planetarium Complex, Patna - BSPCB",05-04-2024 06:00:00,25.610369,85.132568,CO,12,14,13
India,Bihar,Patna,"Muradpur, Patna - BSPCB",05-04-2024 06:00:00,25.619651,85.147382,SO2,9,21,14
India,Bihar,Patna,"Muradpur, Patna - BSPCB",05-04-2024 06:00:00,25.619651,85.147382,CO,4,110,67
India,Bihar,Patna,"Muradpur, Patna - BSPCB",05-04-2024 06:00:00,25.619651,85.147382,OZONE,1,42,4
India,Bihar,Patna,"Rajbansi Nagar, Patna - BSPCB",05-04-2024 06:00:00,25.599486,85.113666,PM2.5,2,315,218
India,Bihar,Patna,"Rajbansi Nagar, Patna - BSPCB",05-04-2024 06:00:00,25.599486,85.113666,CO,17,104,37
India,Bihar,Patna,"Samanpura, Patna - BSPCB",05-04-2024 06:00:00,25.596727,85.085624,NH3,18,44,29
India,Bihar,Sasaram,"Dada Peer, Sasaram - BSPCB",05-04-2024 06:00:00,24.952822,84.002396,PM2.5,8,128,47
India,Bihar,Sasaram,"Dada Peer, Sasaram - BSPCB",05-04-2024 06:00:00,24.952822,84.002396,NH3,7,11,9
India,Bihar,Siwan,"Chitragupta Nagar, Siwan - BSPCB",05-04-2024 06:00:00,26.2271665,84.3570427,PM2.5,25,110,64
India,Bihar,Siwan,"Chitragupta Nagar, Siwan - BSPCB",05-04-2024 06:00:00,26.2271665,84.3570427,PM10,72,129,94
India,Bihar,Siwan,"Chitragupta Nagar, Siwan - BSPCB",05-04-2024 06:00:00,26.2271665,84.3570427,OZONE,19,148,61
India,Chandigarh,Chandigarh,"Sector 22, Chandigarh - CPCC",05-04-2024 06:00:00,30.735567,76.775714,NO2,20,79,40
India,Chandigarh,Chandigarh,"Sector 22, Chandigarh - CPCC",05-04-2024 06:00:00,30.735567,76.775714,OZONE,9,144,53
India,Chandigarh,Chandigarh,"Sector-25, Chandigarh - CPCC",05-04-2024 06:00:00,30.751462,76.762879,OZONE,1,49,13
India,Chandigarh,Chandigarh,"Sector-53, Chandigarh - CPCC",05-04-2024 06:00:00,30.719859,76.738637,PM10,64,185,104
India,Chandigarh,Chandigarh,"Sector-53, Chandigarh - CPCC",05-04-2024 06:00:00,30.719859,76.738637,NO2,8,65,30
India,Chandigarh,Chandigarh,"Sector-53, Chandigarh - CPCC",05-04-2024 06:00:00,30.719859,76.738637,SO2,11,27,19
India,Chhattisgarh,Bhilai,"32Bungalows, Bhilai - CECB",05-04-2024 06:00:00,21.194815,81.314770,PM10,55,79,66
India,Chhattisgarh,Bhilai,"32Bungalows, Bhilai - CECB",05-04-2024 06:00:00,21.194815,81.314770,NO2,23,31,27
India,Chhattisgarh,Bhilai,"32Bungalows, Bhilai - CECB",05-04-2024 06:00:00,21.194815,81.314770,OZONE,4,43,7
India,Chhattisgarh,Bhilai,"Civic Center, Bhilai - Bhilai Steel Plant",05-04-2024 06:00:00,21.185571,81.343175,PM2.5,38,84,56
India,Chhattisgarh,Bhilai,"Civic Center, Bhilai - Bhilai Steel Plant",05-04-2024 06:00:00,21.185571,81.343175,OZONE,10,89,14
India,Chhattisgarh,Bhilai,"Hathkhoj, Bhilai - CECB",05-04-2024 06:00:00,21.224231,81.408350,NO2,NA,NA,NA
India,Chhattisgarh,Bhilai,"Hathkhoj, Bhilai - CECB",05-04-2024 06:00:00,21.224231,81.408350,NH3,NA,NA,NA
India,Chhattisgarh,Bhilai,"Hathkhoj, Bhilai - CECB",05-04-2024 06:00:00,21.224231,81.408350,OZONE,NA,NA,NA
India,Chhattisgarh,Bilaspur,"Mangala, Bilaspur - NTPC",05-04-2024 06:00:00,22.08815,82.13737,PM10,48,110,77
India,Chhattisgarh,Bilaspur,"Mangala, Bilaspur - NTPC",05-04-2024 06:00:00,22.08815,82.13737,SO2,6,16,11
India,Chhattisgarh,Chhal,"Nawapara SECL Colony, Chhal - CECB",05-04-2024 06:00:00,22.118125,83.140608,SO2,11,19,14
India,Chhattisgarh,Korba,"Rampur, Korba - CECB",05-04-2024 06:00:00,22.368195,82.746431,CO,20,52,46
India,Chhattisgarh,Korba,"Urja Nagar, Korba - CECB",05-04-2024 06:00:00,22.348441,82.549611,PM2.5,66,308,184
India,Chhattisgarh,Korba,"Urja Nagar, Korba - CECB",05-04-2024 06:00:00,22.348441,82.549611,NH3,4,15,8
India,Chhattisgarh,Korba,"Urja Nagar, Korba - CECB",05-04-2024 06:00:00,22.348441,82.549611,OZONE,1,65,1
India,Chhattisgarh,Kunjemura,"OP Jindal School, Kunjemura - CECB",05-04-2024 06:00:00,22.126650,83.483212,NH3,1,5,2
India,Chhattisgarh,Kunjemura,"OP Jindal School, Kunjemura - CECB",05-04-2024 06:00:00,22.126650,83.483212,CO,36,113,91
India,Chhattisgarh,Milupara,"Govt. Higher Secondary School, Milupara - CECB",05-04-2024 06:00:00,22.1910172,83.5197009,PM2.5,79,227,143
India,Chhattisgarh,Raipur,"AIIMS, Raipur - CECB",05-04-2024 06:00:00,21.258815,81.578979,CO,24,44,37
India,Chhattisgarh,Raipur,"AIIMS, Raipur - CECB",05-04-2024 06:00:00,21.258815,81.578979,OZONE,3,34,9
India,Chhattisgarh,Raipur,"Bhatagaon New ISBT, Raipur - CECB",05-04-2024 06:00:00,21.219665,81.630094,PM10,34,98,66
India,Chhattisgarh,Raipur,"Bhatagaon New ISBT, Raipur - CECB",05-04-2024 06:00:00,21.219665,81.630094,CO,19,63,49
India,Chhattisgarh,Raipur,"Krishak Nagar, Raipur - CECB",05-04-2024 06:00:00,21.237755,81.705301,PM10,47,108,66
India,Chhattisgarh,Raipur,"Krishak Nagar, Raipur - CECB",05-04-2024 06:00:00,21.237755,81.705301,SO2,13,27,19
India,Chhattisgarh,Raipur,"Krishak Nagar, Raipur - CECB",05-04-2024 06:00:00,21.237755,81.705301,CO,28,58,53
India,Chhattisgarh,Raipur,"Krishak Nagar, Raipur - CECB",05-04-2024 06:00:00,21.237755,81.705301,OZONE,3,38,4
India,Chhattisgarh,Raipur,"Siltara Phase-II, Raipur - CECB",05-04-2024 06:00:00,21.371751,81.664929,NH3,3,3,3
India,Chhattisgarh,Raipur,"Siltara Phase-II, Raipur - CECB",05-04-2024 06:00:00,21.371751,81.664929,OZONE,3,51,10
India,Chhattisgarh,Tumidih,"OP Jindal Industrial Park, Tumidih - CECB",05-04-2024 06:00:00,22.06631475,83.33820077,NO2,NA,NA,NA
India,Chhattisgarh,Tumidih,"OP Jindal Industrial Park, Tumidih - CECB",05-04-2024 06:00:00,22.06631475,83.33820077,SO2,NA,NA,NA
India,Delhi,Delhi,"Alipur, Delhi - DPCC",05-04-2024 06:00:00,28.815329,77.153010,NO2,4,100,37
India,Delhi,Delhi,"Alipur, Delhi - DPCC",05-04-2024 06:00:00,28.815329,77.153010,CO,29,100,60
India,Delhi,Delhi,"Ashok Vihar, Delhi - DPCC",05-04-2024 06:00:00,28.695381,77.181665,PM2.5,40,272,104
India,Delhi,Delhi,"Ashok Vihar, Delhi - DPCC",05-04-2024 06:00:00,28.695381,77.181665,PM10,114,287,170
India,Delhi,Delhi,"Ashok Vihar, Delhi - DPCC",05-04-2024 06:00:00,28.695381,77.181665,NO2,14,142,64
India,Delhi,Delhi,"Ashok Vihar, Delhi - DPCC",05-04-2024 06:00:00,28.695381,77.181665,OZONE,2,21,3
India,Delhi,Delhi,"Aya Nagar, Delhi - IMD",05-04-2024 06:00:00,28.4706914,77.1099364,OZONE,2,13,3
India,Delhi,Delhi,"Bawana, Delhi - DPCC",05-04-2024 06:00:00,28.776200,77.051074,OZONE,5,148,41
India,Delhi,Delhi,"Burari Crossing, Delhi - IMD",05-04-2024 06:00:00,28.7256504,77.2011573,PM2.5,25,318,154
India,Delhi,Delhi,"Burari Crossing, Delhi - IMD",05-04-2024 06:00:00,28.7256504,77.2011573,NO2,17,33,24
India,Delhi,Delhi,"Burari Crossing, Delhi - IMD",05-04-2024 06:00:00,28.7256504,77.2011573,OZONE,13,83,20
India,Delhi,Delhi,"CRRI Mathura Road, Delhi - IMD",05-04-2024 06:00:00,28.5512005,77.2735737,PM10,106,500,197
India,Delhi,Delhi,"CRRI Mathura Road, Delhi - IMD",05-04-2024 06:00:00,28.5512005,77.2735737,NO2,7,35,17
India,Delhi,Delhi,"DTU, Delhi - CPCB",05-04-2024 06:00:00,28.7500499,77.1112615,PM2.5,64,304,134
India,Delhi,Delhi,"DTU, Delhi - CPCB",05-04-2024 06:00:00,28.7500499,77.1112615,CO,16,57,45
India,Delhi,Delhi,"DTU, Delhi - CPCB",05-04-2024 06:00:00,28.7500499,77.1112615,OZONE,29,140,37
India,Delhi,Delhi,"Dr. Karni Singh Shooting Range, Delhi - DPCC",05-04-2024 06:00:00,28.498571,77.264840,CO,22,114,64
India,Delhi,Delhi,"Dwarka-Sector 8, Delhi - DPCC ",05-04-2024 06:00:00,28.5710274,77.0719006,PM2.5,43,309,127
India,Delhi,Delhi,"Dwarka-Sector 8, Delhi - DPCC ",05-04-2024 06:00:00,28.5710274,77.0719006,PM10,105,490,217
India,Delhi,Delhi,"Dwarka-Sector 8, Delhi - DPCC ",05-04-2024 06:00:00,28.5710274,77.0719006,OZONE,2,81,20
India,Delhi,Delhi,"IHBAS, Dilshad Garden, Delhi - CPCB",05-04-2024 06:00:00,28.6811736,77.3025234,PM2.5,103,223,137
India,Delhi,Delhi,"ITO, Delhi - CPCB",05-04-2024 06:00:00,28.628624,77.241060,CO,28,109,64
India,Delhi,Delhi,"ITO, Delhi - CPCB",05-04-2024 06:00:00,28.628624,77.241060,OZONE,12,92,16
India,Delhi,Delhi,"Jahangirpuri, Delhi - DPCC",05-04-2024 06:00:00,28.732820,77.170633,PM2.5,40,370,159
India,Delhi,Delhi,"Jawaharlal Nehru Stadium, Delhi - DPCC",05-04-2024 06:00:00,28.580280,77.233829,NO2,23,148,86
India,Delhi,Delhi,"Major Dhyan Chand National Stadium, Delhi - DPCC",05-04-2024 06:00:00,28.611281,77.237738,PM10,84,217,135
India,Delhi,Delhi,"Major Dhyan Chand National Stadium, Delhi - DPCC",05-04-2024 06:00:00,28.611281,77.237738,NH3,3,8,6
India,Delhi,Delhi,"Major Dhyan Chand National Stadium, Delhi - DPCC",05-04-2024 06:00:00,28.611281,77.237738,OZONE,2,243,20
India,Delhi,Delhi,"Mandir Marg, Delhi - DPCC",05-04-2024 06:00:00,28.636429,77.201067,NO2,85,149,115
India,Delhi,Delhi,"Mundka, Delhi - DPCC",05-04-2024 06:00:00,28.684678,77.076574,PM10,119,472,227
India,Delhi,Delhi,"Mundka, Delhi - DPCC",05-04-2024 06:00:00,28.684678,77.076574,NH3,4,7,6
India,Delhi,Delhi,"NSIT Dwarka, Delhi - CPCB",05-04-2024 06:00:00,28.60909,77.0325413,NH3,7,15,9
India,Delhi,Delhi,"Najafgarh, Delhi - DPCC",05-04-2024 06:00:00,28.570173,76.933762,CO,1,48,40
India,Delhi,Delhi,"Najafgarh, Delhi - DPCC",05-04-2024 06:00:00,28.570173,76.933762,OZONE,20,144,47
India,Delhi,Delhi,"Nehru Nagar, Delhi - DPCC",05-04-2024 06:00:00,28.567890,77.250515,NO2,29,53,37
India,Delhi,Delhi,"Nehru Nagar, Delhi - DPCC",05-04-2024 06:00:00,28.567890,77.250515,NH3,8,11,9
India,Delhi,Delhi,"Nehru Nagar, Delhi - DPCC",05-04-2024 06:00:00,28.567890,77.250515,OZONE,3,125,12
India,Delhi,Delhi,"New Moti Bagh, Delhi - MHUA",05-04-2024 06:00:00,28.57834,77.18400,PM2.5,29,313,103
India,Delhi,Delhi,"Patparganj, Delhi - DPCC",05-04-2024 06:00:00,28.623763,77.287209,PM10,109,300,167
India,Delhi,Delhi,"Patparganj, Delhi - DPCC",05-04-2024 06:00:00,28.623763,77.287209,NH3,6,11,9
India,Delhi,Delhi,"Patparganj, Delhi - DPCC",05-04-2024 06:00:00,28.623763,77.287209,SO2,16,21,19
India,Delhi,Delhi,"Punjabi Bagh, Delhi - DPCC",05-04-2024 06:00:00,28.674045,77.131023,SO2,4,30,13
India,Delhi,Delhi,"Punjabi Bagh, Delhi - DPCC",05-04-2024 06:00:00,28.674045,77.131023,CO,32,102,60
India,Delhi,Delhi,"Pusa, Delhi - DPCC",05-04-2024 06:00:00,28.639652,77.146275,SO2,10,47,23
India,Delhi,Delhi,"R K Puram, Delhi - DPCC",05-04-2024 06:00:00,28.563262,77.186937,CO,9,141,66
India,Delhi,Delhi,"Shadipur, Delhi - CPCB",05-04-2024 06:00:00,28.6514781,77.1473105,NH3,2,7,5
India,Delhi,Delhi,"Sirifort, Delhi - CPCB",05-04-2024 06:00:00,28.5504249,77.2159377,PM10,92,287,145
India,Delhi,Delhi,"Sirifort, Delhi - CPCB",05-04-2024 06:00:00,28.5504249,77.2159377,SO2,23,35,28
India,Delhi,Delhi,"Sirifort, Delhi - CPCB",05-04-2024 06:00:00,28.5504249,77.2159377,CO,9,118,70
India,Delhi,Delhi,"Sonia Vihar, Delhi - DPCC",05-04-2024 06:00:00,28.710508,77.249485,NH3,5,8,6
India,Delhi,Delhi,"Sri Aurobindo Marg, Delhi - DPCC",05-04-2024 06:00:00,28.531346,77.190156,NO2,15,104,62
India,Delhi,Delhi,"Vivek Vihar, Delhi - DPCC",05-04-2024 06:00:00,28.672342,77.315260,SO2,32,60,40
India,Delhi,Delhi,"Vivek Vihar, Delhi - DPCC",05-04-2024 06:00:00,28.672342,77.315260,CO,12,101,48
India,Delhi,Delhi,"Vivek Vihar, Delhi - DPCC",05-04-2024 06:00:00,28.672342,77.315260,OZONE,1,98,17
India,Delhi,Delhi,"Wazirpur, Delhi - DPCC",05-04-2024 06:00:00,28.699793,77.165453,CO,8,118,55
India,Gujarat,Ahmedabad,"Chandkheda, Ahmedabad - IITM",05-04-2024 06:00:00,23.107969,72.574648,SO2,6,10,8
India,Gujarat,Ahmedabad,"Maninagar, Ahmedabad - GPCB",05-04-2024 06:00:00,23.002657,72.591912,PM2.5,42,239,92
India,Gujarat,Ahmedabad,"SAC ISRO Satellite, Ahmedabad - IITM",05-04-2024 06:00:00,23.023389,72.515201,OZONE,11,21,14
India,Gujarat,Ahmedabad,"Sardar Vallabhbhai Patel Stadium, Ahmedabad - IITM",05-04-2024 06:00:00,23.043070,72.562968,CO,29,51,39
India,Gujarat,Ahmedabad,"Sardar Vallabhbhai Patel Stadium, Ahmedabad - IITM",05-04-2024 06:00:00,23.043070,72.562968,OZONE,3,14,6
India,Gujarat,Ankleshwar,"GIDC, Ankleshwar - GPCB",05-04-2024 06:00:00,21.613267,73.010555,NO2,34,35,35
India,Gujarat,Ankleshwar,"GIDC, Ankleshwar - GPCB",05-04-2024 06:00:00,21.613267,73.010555,NH3,6,6,6
India,Gujarat,Gandhinagar,"IIPHG Lekawada, Gandhinagar - IITM",05-04-2024 06:00:00,23.243639,72.68994,PM10,59,112,83
India,Gujarat,Gandhinagar,"Sector-10, Gandhinagar - GPCB",05-04-2024 06:00:00,23.221714,72.654328,NO2,18,23,19
India,Gujarat,Nandesari,"GIDC, Nandesari - Nandesari Ind. Association",05-04-2024 06:00:00,22.410802,73.097923,NO2,4,134,33
India,Gujarat,Surat,"Science Center, Surat - SMC",05-04-2024 06:00:00,21.170046,72.795405,PM2.5,3,27,13
India,Gujarat,Vatva,"Phase-4 GIDC, Vatva - GPCB",05-04-2024 06:00:00,22.969611,72.643500,NO2,38,125,70
India,Haryana,Ambala,"Patti Mehar, Ambala - HSPCB",05-04-2024 06:00:00,30.379589,76.778328,SO2,NA,NA,NA
India,Haryana,Ambala,"Patti Mehar, Ambala - HSPCB",05-04-2024 06:00:00,30.379589,76.778328,OZONE,34,53,44
India,Haryana,Bahadurgarh,"Arya Nagar, Bahadurgarh - HSPCB",05-04-2024 06:00:00,28.6701,76.9254,PM10,80,178,134
India,Haryana,Ballabgarh,"Nathu Colony, Ballabgarh - HSPCB",05-04-2024 06:00:00,28.3419248,77.319699,OZONE,6,42,7
India,Haryana,Bhiwani,"H.B. Colony, Bhiwani - HSPCB",05-04-2024 06:00:00,28.806223,76.141105,CO,8,32,25
India,Haryana,Charkhi Dadri,"Mini Secretariat, Charkhi Dadri - HSPCB",05-04-2024 06:00:00,28.593883,76.270653,PM2.5,62,261,137
India,Haryana,Charkhi Dadri,"Mini Secretariat, Charkhi Dadri - HSPCB",05-04-2024 06:00:00,28.593883,76.270653,PM10,62,154,104
India,Haryana,Dharuhera,"Municipal Corporation Office, Dharuhera -  HSPCB",05-04-2024 06:00:00,28.206800,76.799700,NH3,9,26,19
India,Haryana,Dharuhera,"Municipal Corporation Office, Dharuhera -  HSPCB",05-04-2024 06:00:00,28.206800,76.799700,OZONE,22,46,24
India,Haryana,Faridabad,"Sector 11, Faridabad - HSPCB",05-04-2024 06:00:00,28.376058,77.315741,OZONE,3,25,4
India,Haryana,Faridabad,"Sector 30, Faridabad - HSPCB",05-04-2024 06:00:00,28.4417,77.3217,NH3,9,9,9
India,Haryana,Faridabad,"Sector- 16A, Faridabad - HSPCB",05-04-2024 06:00:00,28.4088421,77.3099081,PM2.5,18,219,119
India,Haryana,Fatehabad,"Huda Sector, Fatehabad - HSPCB",05-04-2024 06:00:00,29.503664,75.467934,OZONE,78,107,95
India,Haryana,Gurugram,"Sector-51, Gurugram - HSPCB",05-04-2024 06:00:00,28.4227,77.0667,PM2.5,174,374,272
India,Haryana,Gurugram,"Sector-51, Gurugram - HSPCB",05-04-2024 06:00:00,28.4227,77.0667,SO2,3,4,4
India,Haryana,Gurugram,"Sector-51, Gurugram - HSPCB",05-04-2024 06:00:00,28.4227,77.0667,CO,30,81,66
India,Haryana,Gurugram,"Teri Gram, Gurugram - HSPCB",05-04-2024 06:00:00,28.4275,77.1465,PM2.5,91,290,218
India,Haryana,Gurugram,"Teri Gram, Gurugram - HSPCB",05-04-2024 06:00:00,28.4275,77.1465,NO2,32,48,40
India,Haryana,Gurugram,"Teri Gram, Gurugram - HSPCB",05-04-2024 06:00:00,28.4275,77.1465,NH3,52,95,69
India,Haryana,Gurugram,"Vikas Sadan, Gurugram - HSPCB",05-04-2024 06:00:00,28.4501238,77.0263051,CO,54,152,101
India,Haryana,Jind,"Police Lines, Jind - HSPCB",05-04-2024 06:00:00,29.307814,76.337619,PM10,36,69,55
India,Haryana,Jind,"Police Lines, Jind - HSPCB",05-04-2024 06:00:00,29.307814,76.337619,OZONE,11,23,17
India,Haryana,Karnal,"Sector-12, Karnal - HSPCB",05-04-2024 06:00:00,29.695300,77.002700,OZONE,26,36,33
India,Haryana,Kurukshetra,"Sector-7, Kurukshetra - HSPCB",05-04-2024 06:00:00,29.966942,76.875879,NH3,3,5,5
India,Haryana,Mandikhera,"General Hospital, Mandikhera - HSPCB",05-04-2024 06:00:00,27.9002,76.9938,OZONE,25,33,28
India,Haryana,Narnaul,"Shastri Nagar, Narnaul - HSPCB",05-04-2024 06:00:00,28.060249,76.113115,NH3,4,24,11
India,Haryana,Narnaul,"Shastri Nagar, Narnaul - HSPCB",05-04-2024 06:00:00,28.060249,76.113115,SO2,13,13,13
India,Haryana,Palwal,"Shyam Nagar, Palwal - HSPCB",05-04-2024 06:00:00,28.1485564,77.3320667,NH3,8,9,9
India,Haryana,Panchkula,"Sector-6, Panchkula - HSPCB ",05-04-2024 06:00:00,30.7057778,76.8531805555555,PM2.5,8,30,17
India,Haryana,Panipat,"Sector-18, Panipat - HSPCB",05-04-2024 06:00:00,29.497973,76.993331,PM10,64,70,69
India,Haryana,Panipat,"Sector-18, Panipat - HSPCB",05-04-2024 06:00:00,29.497973,76.993331,NH3,2,3,3
India,Haryana,Rohtak,"MD University, Rohtak - HSPCB",05-04-2024 06:00:00,28.52123,76.37138,PM2.5,2,13,7
India,Haryana,Rohtak,"MD University, Rohtak - HSPCB",05-04-2024 06:00:00,28.52123,76.37138,CO,17,106,38
India,Haryana,Sirsa,"F-Block, Sirsa - HSPCB",05-04-2024 06:00:00,29.536400,75.015800,PM2.5,30,75,56
India,Haryana,Sonipat,"Murthal, Sonipat - HSPCB",05-04-2024 06:00:00,29.027200,77.062100,NO2,37,44,39
India,Haryana,Yamuna Nagar,"Gobind Pura, Yamuna Nagar - HSPCB",05-04-2024 06:00:00,30.1480566,77.2893471,NO2,11,29,18
India,Haryana,Yamuna Nagar,"Gobind Pura, Yamuna Nagar - HSPCB",05-04-2024 06:00:00,30.1480566,77.2893471,NH3,1,6,4
India,Haryana,Yamuna Nagar,"Gobind Pura, Yamuna Nagar - HSPCB",05-04-2024 06:00:00,30.1480566,77.2893471,CO,34,80,55
India,Himachal Pradesh,Baddi,"HIMUDA Complex Phase-1, Baddi - HPPCB",05-04-2024 06:00:00,30.943887,76.801991,NO2,13,50,26
India,Jharkhand,Dhanbad,"Kalakusuma, Dhanbad - DMC",05-04-2024 06:00:00,23.811548,86.481238,PM2.5,36,367,107
India,Jharkhand,Dhanbad,"Kalakusuma, Dhanbad - DMC",05-04-2024 06:00:00,23.811548,86.481238,SO2,9,28,16
India,Jharkhand,Dhanbad,"Sardar Patel Nagar, Dhanbad - JSPCB",05-04-2024 06:00:00,23.80569,86.44268,CO,102,192,11
India,Jharkhand,Dhanbad,"Sardar Patel Nagar, Dhanbad - JSPCB",05-04-2024 06:00:00,23.80569,86.44268,OZONE,13,67,22
India,Karnataka,Bagalkot,"Vidayagiri, Bagalkot - KSPCB",05-04-2024 06:00:00,16.172806,75.659694,NO2,9,11,9
India,Karnataka,Bagalkot,"Vidayagiri, Bagalkot - KSPCB",05-04-2024 06:00:00,16.172806,75.659694,OZONE,NA,NA,NA
India,Karnataka,Bengaluru,"BTM Layout, Bengaluru - CPCB",05-04-2024 06:00:00,12.9135218,77.5950804,OZONE,11,100,25
India,Karnataka,Bengaluru,"Bapuji Nagar, Bengaluru - KSPCB",05-04-2024 06:00:00,12.951913,77.539784,NO2,8,14,11
India,Karnataka,Bengaluru,"Hombegowda Nagar, Bengaluru - KSPCB",05-04-2024 06:00:00,12.938539,77.590100,NO2,10,32,16
India,Karnataka,Bengaluru,"Hombegowda Nagar, Bengaluru - KSPCB",05-04-2024 06:00:00,12.938539,77.590100,NH3,1,2,2
India,Karnataka,Bengaluru,"Hombegowda Nagar, Bengaluru - KSPCB",05-04-2024 06:00:00,12.938539,77.590100,SO2,3,4,4
India,Karnataka,Bengaluru,"Hombegowda Nagar, Bengaluru - KSPCB",05-04-2024 06:00:00,12.938539,77.590100,OZONE,4,5,4
India,Karnataka,Bengaluru,"Shivapura_Peenya, Bengaluru - KSPCB",05-04-2024 06:00:00,13.0246342,77.5080115,PM2.5,1,102,33
India,Karnataka,Bidar,"Naubad, Bidar - KSPCB",05-04-2024 06:00:00,17.930306,77.482194,SO2,17,21,18
India,Karnataka,Chamarajanagar,"Urban, Chamarajanagar - KSPCB",05-04-2024 06:00:00,11.55358,76.55521,PM10,34,65,43
India,Karnataka,Chamarajanagar,"Urban, Chamarajanagar - KSPCB",05-04-2024 06:00:00,11.55358,76.55521,NO2,23,35,30
India,Karnataka,Chamarajanagar,"Urban, Chamarajanagar - KSPCB",05-04-2024 06:00:00,11.55358,76.55521,SO2,2,9,4
India,Karnataka,Chamarajanagar,"Urban, Chamarajanagar - KSPCB",05-04-2024 06:00:00,11.55358,76.55521,OZONE,14,38,15
India,Karnataka,Chikkaballapur,"Chikkaballapur Rural, Chikkaballapur - KSPCB",05-04-2024 06:00:00,13.428828,77.731418,PM2.5,15,80,46
India,Karnataka,Chikkaballapur,"Chikkaballapur Rural, Chikkaballapur - KSPCB",05-04-2024 06:00:00,13.428828,77.731418,NO2,7,16,10
India,Karnataka,Chikkamagaluru,"Kalyana Nagara, Chikkamagaluru - KSPCB",05-04-2024 06:00:00,13.328028,75.797056,SO2,3,7,4
India,Karnataka,Chikkamagaluru,"Kalyana Nagara, Chikkamagaluru - KSPCB",05-04-2024 06:00:00,13.328028,75.797056,CO,11,73,13
India,Karnataka,Dharwad,"Kalabhavan, Dharwad - KSPCB",05-04-2024 06:00:00,15.459706,75.008381,NO2,2,19,10
India,Karnataka,Gadag,"Panchal Nagar, Gadag - KSPCB",05-04-2024 06:00:00,15.411456,75.638133,PM10,45,66,58
India,Karnataka,Gadag,"Panchal Nagar, Gadag - KSPCB",05-04-2024 06:00:00,15.411456,75.638133,NO2,6,23,14
India,Karnataka,Hassan,"B.Katihalli, Hassan - KSPCB",05-04-2024 06:00:00,13.008556,76.125258,NH3,1,4,2
India,Karnataka,Hassan,"B.Katihalli, Hassan - KSPCB",05-04-2024 06:00:00,13.008556,76.125258,SO2,1,18,10
India,Karnataka,Hubballi,"Deshpande Nagar, Hubballi - KSPCB",05-04-2024 06:00:00,15.351773,75.140726,NH3,4,5,5
India,Karnataka,Hubballi,"Lingaraj Nagar, Hubballi - KSPCB",05-04-2024 06:00:00,15.3714823,75.1160168,NO2,7,16,11
India,Karnataka,Kalaburagi,"Lal Bahadur Shastri Nagar, Kalaburagi - KSPCB",05-04-2024 06:00:00,17.321993,76.822628,PM2.5,36,255,71
