country,state,city,station,last_update,latitude,longitude,pollutant_id,pollutant_min,pollutant_max,pollutant_avg
India,Andhra_Pradesh,Amaravati,"Secretariat, Amaravati - APPCB",13-06-2024 03:00:00,16.5150833,80.5181667,NH3,3,4,4
India,Andhra_Pradesh,Amaravati,"Secretariat, Amaravati - APPCB",13-06-2024 03:00:00,16.5150833,80.5181667,OZONE,15,49,31
India,Andhra_Pradesh,Anantapur,"Gulzarpet, Anantapur - APPCB",13-06-2024 03:00:00,14.675886,77.593027,NO2,NA,NA,NA
India,Andhra_Pradesh,Anantapur,"Gulzarpet, Anantapur - APPCB",13-06-2024 03:00:00,14.675886,77.593027,CO,12,40,16
India,Andhra_Pradesh,Chittoor,"Gangineni Cheruvu, Chittoor - APPCB",13-06-2024 03:00:00,13.204880,79.097889,SO2,3,8,6
India,Andhra_Pradesh,Chittoor,"Gangineni Cheruvu, Chittoor - APPCB",13-06-2024 03:00:00,13.204880,79.097889,CO,10,26,16
India,Andhra_Pradesh,Kadapa,"Yerramukkapalli, Kadapa - APPCB",13-06-2024 03:00:00,14.465052,78.824187,PM2.5,NA,NA,NA
India,Andhra_Pradesh,Rajamahendravaram,"Anand Kala Kshetram, Rajamahendravaram - APPCB",13-06-2024 03:00:00,16.9872867,81.7363176,CO,34,71,47
India,Andhra_Pradesh,Tirupati,"Tirumala, Tirupati - APPCB",13-06-2024 03:00:00,13.67,79.35,NO2,9,24,18
India,Andhra_Pradesh,Tirupati,"Vaikuntapuram, Tirupati - APPCB",13-06-2024 03:00:00,13.615387,79.409230,PM2.5,NA,NA,NA
India,Andhra_Pradesh,Vijayawada,"HB Colony, Vijayawada - APPCB",13-06-2024 03:00:00,16.536107,80.594233,OZONE,14,48,25
India,Andhra_Pradesh,Vijayawada,"Kanuru, Vijayawada - APPCB",13-06-2024 03:00:00,16.486692,80.699436,OZONE,40,40,40
India,Andhra_Pradesh,Visakhapatnam,"GVM Corporation, Visakhapatnam - APPCB",13-06-2024 03:00:00,17.72,83.3,NH3,4,7,5
India,Andhra_Pradesh,Visakhapatnam,"GVM Corporation, Visakhapatnam - APPCB",13-06-2024 03:00:00,17.72,83.3,CO,3,71,43
India,Arunachal_Pradesh,Naharlagun,"Naharlagun, Naharlagun - APSPCB",13-06-2024 03:00:00,27.103358,93.679645,CO,NA,NA,NA
India,Assam,Byrnihat,"Central Academy for SFS, Byrnihat - PCBA",13-06-2024 03:00:00,26.071318,91.87488,SO2,7,79,52
India,Assam,Guwahati,"IITG, Guwahati - PCBA",13-06-2024 03:00:00,26.2028636,91.70046436,NH3,5,5,5
India,Assam,Guwahati,"IITG, Guwahati - PCBA",13-06-2024 03:00:00,26.2028636,91.70046436,CO,8,22,16
India,Assam,Guwahati,"LGBI Airport, Guwahati - PCBA",13-06-2024 03:00:00,26.10887,91.589544,SO2,10,13,11
India,Assam,Guwahati,"Pan Bazaar, Guwahati - PCBA",13-06-2024 03:00:00,26.187500,91.744194,PM2.5,36,99,54
India,Assam,Guwahati,"Pan Bazaar, Guwahati - PCBA",13-06-2024 03:00:00,26.187500,91.744194,OZONE,16,17,17
India,Assam,Guwahati,"Railway Colony, Guwahati - PCBA",13-06-2024 03:00:00,26.181742,91.78063,PM10,42,138,74
India,Assam,Guwahati,"Railway Colony, Guwahati - PCBA",13-06-2024 03:00:00,26.181742,91.78063,SO2,2,2,2
India,Assam,Nalbari,"Bata Chowk, Nalbari - PCBA",13-06-2024 03:00:00,26.446912,91.439057,PM10,35,205,94
India,Assam,Nalbari,"Bata Chowk, Nalbari - PCBA",13-06-2024 03:00:00,26.446912,91.439057,NH3,1,1,1
India,Assam,Nalbari,"Bata Chowk, Nalbari - PCBA",13-06-2024 03:00:00,26.446912,91.439057,OZONE,19,41,38
India,Assam,Silchar,"Tarapur, Silchar - PCBA",13-06-2024 03:00:00,24.82827,92.79525,NO2,16,16,16
India,Assam,Sivasagar,"Girls College, Sivasagar - PCBA",13-06-2024 03:00:00,26.987634,94.636574,CO,8,12,10
India,Bihar,Arrah,"New DM Office, Arrah - BSPCB",13-06-2024 03:00:00,25.5626095,84.663264,NO2,10,16,12
India,Bihar,Aurangabad,"Gurdeo Nagar, Aurangabad - BSPCB",13-06-2024 03:00:00,24.75746,84.366208,PM2.5,NA,NA,NA
India,Bihar,Aurangabad,"Gurdeo Nagar, Aurangabad - BSPCB",13-06-2024 03:00:00,24.75746,84.366208,NO2,3,23,7
India,Bihar,Aurangabad,"Gurdeo Nagar, Aurangabad - BSPCB",13-06-2024 03:00:00,24.75746,84.366208,OZONE,6,119,34
India,Bihar,Bettiah,"Kamalnath Nagar, Bettiah - BSPCB",13-06-2024 03:00:00,26.80365,84.51954,OZONE,1,16,7
India,Bihar,Bhagalpur,"DM Office_Kachari Chowk, Bhagalpur - BSPCB",13-06-2024 03:00:00,25.251013,86.989001,PM2.5,60,193,130
India,Bihar,Bhagalpur,"Mayaganj, Bhagalpur - BSPCB",13-06-2024 03:00:00,25.265194,87.012947,NH3,9,10,9
India,Bihar,Bihar Sharif,"D M Colony, Bihar Sharif - BSPCB",13-06-2024 03:00:00,25.204762,85.514960,PM2.5,5,277,102
India,Bihar,Buxar,"Charitra Van, Buxar - BSPCB (Formerly known as Central Jail)",13-06-2024 03:00:00,25.567520,83.966379,PM2.5,NA,NA,NA
India,Bihar,Buxar,"Charitra Van, Buxar - BSPCB (Formerly known as Central Jail)",13-06-2024 03:00:00,25.567520,83.966379,OZONE,NA,NA,NA
India,Bihar,Chhapra,"Darshan Nagar, Chhapra - BSPCB",13-06-2024 03:00:00,25.7808257,84.7446768,PM2.5,NA,NA,NA
India,Bihar,Gaya,"Kareemganj, Gaya - BSPCB",13-06-2024 03:00:00,24.792403,84.992416,NH3,1,17,6
India,Bihar,Gaya,"Kareemganj, Gaya - BSPCB",13-06-2024 03:00:00,24.792403,84.992416,OZONE,15,25,18
India,Bihar,Hajipur,"Industrial Area, Hajipur - BSPCB",13-06-2024 03:00:00,25.697189,85.245900,PM2.5,96,251,153
India,Bihar,Hajipur,"Industrial Area, Hajipur - BSPCB",13-06-2024 03:00:00,25.697189,85.245900,NH3,9,13,11
India,Bihar,Hajipur,"Industrial Area, Hajipur - BSPCB",13-06-2024 03:00:00,25.697189,85.245900,SO2,6,8,7
India,Bihar,Katihar,"Mirchaibari, Katihar - BSPCB",13-06-2024 03:00:00,25.560083,87.553265,PM10,41,143,79
India,Bihar,Katihar,"Mirchaibari, Katihar - BSPCB",13-06-2024 03:00:00,25.560083,87.553265,CO,16,37,29
India,Bihar,Kishanganj,"SDM Office_Khagra, Kishanganj - BSPCB",13-06-2024 03:00:00,26.0881305,87.93840336,PM2.5,NA,NA,NA
India,Bihar,Manguraha,"Forest Rest House, Manguraha - BSPCB",13-06-2024 03:00:00,27.308328,84.531742,OZONE,9,84,22
India,Bihar,Motihari,"Gandak Colony, Motihari - BSPCB",13-06-2024 03:00:00,26.63086,84.90051,PM10,NA,NA,NA
India,Bihar,Munger,"Town Hall, Munger - BSPCB",13-06-2024 03:00:00,25.376776,86.471523,NO2,4,6,5
India,Bihar,Muzaffarpur,"Muzaffarpur Collectorate, Muzaffarpur - BSPCB",13-06-2024 03:00:00,26.1209,85.3647,NO2,28,29,28
India,Bihar,Patna,"Govt. High School Shikarpur, Patna - BSPCB",13-06-2024 03:00:00,25.592539,85.227158,NO2,1,37,31
India,Bihar,Patna,"Muradpur, Patna - BSPCB",13-06-2024 03:00:00,25.619651,85.147382,OZONE,5,62,13
India,Bihar,Patna,"Samanpura, Patna - BSPCB",13-06-2024 03:00:00,25.596727,85.085624,PM10,123,288,179
India,Bihar,Patna,"Samanpura, Patna - BSPCB",13-06-2024 03:00:00,25.596727,85.085624,CO,47,92,67
India,Bihar,Saharsa,"Police Line, Saharsa - BSPCB",13-06-2024 03:00:00,25.892357,86.590325,PM10,61,157,95
India,Bihar,Samastipur,"DM Office_Kasipur, Samastipur - BSPCB",13-06-2024 03:00:00,25.859655,85.77944,SO2,65,78,72
India,Bihar,Sasaram,"Dada Peer, Sasaram - BSPCB",13-06-2024 03:00:00,24.952822,84.002396,PM10,22,95,53
India,Bihar,Sasaram,"Dada Peer, Sasaram - BSPCB",13-06-2024 03:00:00,24.952822,84.002396,NH3,4,14,8
India,Chandigarh,Chandigarh,"Sector 22, Chandigarh - CPCC",13-06-2024 03:00:00,30.735567,76.775714,PM2.5,33,173,84
India,Chandigarh,Chandigarh,"Sector 22, Chandigarh - CPCC",13-06-2024 03:00:00,30.735567,76.775714,NH3,6,20,10
India,Chhattisgarh,Bhilai,"32Bungalows, Bhilai - CECB",13-06-2024 03:00:00,21.194815,81.314770,PM10,39,89,62
India,Chhattisgarh,Bhilai,"Civic Center, Bhilai - Bhilai Steel Plant",13-06-2024 03:00:00,21.185571,81.343175,PM10,23,63,39
India,Chhattisgarh,Bhilai,"Civic Center, Bhilai - Bhilai Steel Plant",13-06-2024 03:00:00,21.185571,81.343175,OZONE,36,68,43
India,Chhattisgarh,Bhilai,"Hathkhoj, Bhilai - CECB",13-06-2024 03:00:00,21.224231,81.408350,PM2.5,25,86,45
India,Chhattisgarh,Chhal,"Nawapara SECL Colony, Chhal - CECB",13-06-2024 03:00:00,22.118125,83.140608,OZONE,64,215,89
India,Chhattisgarh,Korba,"Rampur, Korba - CECB",13-06-2024 03:00:00,22.368195,82.746431,PM2.5,NA,NA,NA
India,Chhattisgarh,Korba,"Rampur, Korba - CECB",13-06-2024 03:00:00,22.368195,82.746431,OZONE,NA,NA,NA
India,Chhattisgarh,Kunjemura,"OP Jindal School, Kunjemura - CECB",13-06-2024 03:00:00,22.126650,83.483212,PM10,62,256,111
India,Chhattisgarh,Kunjemura,"OP Jindal School, Kunjemura - CECB",13-06-2024 03:00:00,22.126650,83.483212,NO2,16,111,51
India,Chhattisgarh,Milupara,"Govt. Higher Secondary School, Milupara - CECB",13-06-2024 03:00:00,22.1910172,83.5197009,PM10,78,124,99
India,Chhattisgarh,Milupara,"Govt. Higher Secondary School, Milupara - CECB",13-06-2024 03:00:00,22.1910172,83.5197009,NO2,17,79,42
India,Chhattisgarh,Raipur,"AIIMS, Raipur - CECB",13-06-2024 03:00:00,21.258815,81.578979,PM10,38,76,54
India,Chhattisgarh,Raipur,"Bhatagaon New ISBT, Raipur - CECB",13-06-2024 03:00:00,21.219665,81.630094,NH3,2,2,2
India,Chhattisgarh,Raipur,"Krishak Nagar, Raipur - CECB",13-06-2024 03:00:00,21.237755,81.705301,PM2.5,12,41,29
India,Chhattisgarh,Raipur,"Krishak Nagar, Raipur - CECB",13-06-2024 03:00:00,21.237755,81.705301,SO2,11,44,17
India,Chhattisgarh,Raipur,"Siltara Phase-II, Raipur - CECB",13-06-2024 03:00:00,21.371751,81.664929,PM10,88,194,124
India,Chhattisgarh,Raipur,"Siltara Phase-II, Raipur - CECB",13-06-2024 03:00:00,21.371751,81.664929,OZONE,4,48,7
India,Chhattisgarh,Tumidih,"OP Jindal Industrial Park, Tumidih - CECB",13-06-2024 03:00:00,22.06631475,83.33820077,SO2,5,11,7
India,Delhi,Delhi,"Alipur, Delhi - DPCC",13-06-2024 03:00:00,28.815329,77.153010,NH3,3,6,4
India,Delhi,Delhi,"Alipur, Delhi - DPCC",13-06-2024 03:00:00,28.815329,77.153010,CO,37,72,59
India,Delhi,Delhi,"Anand Vihar, Delhi - DPCC",13-06-2024 03:00:00,28.647622,77.3158090,NO2,67,135,92
India,Delhi,Delhi,"Ashok Vihar, Delhi - DPCC",13-06-2024 03:00:00,28.695381,77.181665,PM10,94,215,144
India,Delhi,Delhi,"Aya Nagar, Delhi - IMD",13-06-2024 03:00:00,28.4706914,77.1099364,CO,82,106,96
India,Delhi,Delhi,"Aya Nagar, Delhi - IMD",13-06-2024 03:00:00,28.4706914,77.1099364,OZONE,2,56,21
India,Delhi,Delhi,"Bawana, Delhi - DPCC",13-06-2024 03:00:00,28.776200,77.051074,OZONE,6,184,57
India,Delhi,Delhi,"CRRI Mathura Road, Delhi - IMD",13-06-2024 03:00:00,28.5512005,77.2735737,CO,24,118,97
India,Delhi,Delhi,"Chandni Chowk, Delhi - IITM",13-06-2024 03:00:00,28.656756,77.227234,CO,52,106,70
India,Delhi,Delhi,"DTU, Delhi - CPCB",13-06-2024 03:00:00,28.7500499,77.1112615,CO,30,73,52
India,Delhi,Delhi,"Dr. Karni Singh Shooting Range, Delhi - DPCC",13-06-2024 03:00:00,28.498571,77.264840,NO2,23,137,60
India,Delhi,Delhi,"Dr. Karni Singh Shooting Range, Delhi - DPCC",13-06-2024 03:00:00,28.498571,77.264840,SO2,7,39,16
India,Delhi,Delhi,"Dr. Karni Singh Shooting Range, Delhi - DPCC",13-06-2024 03:00:00,28.498571,77.264840,OZONE,3,267,52
India,Delhi,Delhi,"Dwarka-Sector 8, Delhi - DPCC ",13-06-2024 03:00:00,28.5710274,77.0719006,CO,11,158,82
India,Delhi,Delhi,"IGI Airport (T3), Delhi - IMD",13-06-2024 03:00:00,28.5627763,77.1180053,OZONE,1,57,10
India,Delhi,Delhi,"IHBAS, Dilshad Garden, Delhi - CPCB",13-06-2024 03:00:00,28.6811736,77.3025234,PM10,113,173,144
India,Delhi,Delhi,"IHBAS, Dilshad Garden, Delhi - CPCB",13-06-2024 03:00:00,28.6811736,77.3025234,NO2,9,50,28
India,Delhi,Delhi,"ITO, Delhi - CPCB",13-06-2024 03:00:00,28.628624,77.241060,OZONE,2,65,13
India,Delhi,Delhi,"Jawaharlal Nehru Stadium, Delhi - DPCC",13-06-2024 03:00:00,28.580280,77.233829,PM2.5,23,130,63
India,Delhi,Delhi,"Lodhi Road, Delhi - IMD",13-06-2024 03:00:00,28.5918245,77.2273074,NO2,3,24,11
India,Delhi,Delhi,"Major Dhyan Chand National Stadium, Delhi - DPCC",13-06-2024 03:00:00,28.611281,77.237738,PM10,92,277,172
India,Delhi,Delhi,"Mandir Marg, Delhi - DPCC",13-06-2024 03:00:00,28.636429,77.201067,NH3,NA,NA,NA
India,Delhi,Delhi,"NSIT Dwarka, Delhi - CPCB",13-06-2024 03:00:00,28.60909,77.0325413,PM10,101,216,139
India,Delhi,Delhi,"Najafgarh, Delhi - DPCC",13-06-2024 03:00:00,28.570173,76.933762,NH3,5,7,6
India,Delhi,Delhi,"Najafgarh, Delhi - DPCC",13-06-2024 03:00:00,28.570173,76.933762,SO2,8,31,15
India,Delhi,Delhi,"Najafgarh, Delhi - DPCC",13-06-2024 03:00:00,28.570173,76.933762,CO,28,54,41
India,Delhi,Delhi,"Narela, Delhi - DPCC",13-06-2024 03:00:00,28.822836,77.101981,PM10,134,408,237
India,Delhi,Delhi,"Narela, Delhi - DPCC",13-06-2024 03:00:00,28.822836,77.101981,NH3,1,38,10
India,Delhi,Delhi,"Nehru Nagar, Delhi - DPCC",13-06-2024 03:00:00,28.567890,77.250515,PM10,131,237,177
India,Delhi,Delhi,"Nehru Nagar, Delhi - DPCC",13-06-2024 03:00:00,28.567890,77.250515,SO2,6,12,8
India,Delhi,Delhi,"New Moti Bagh, Delhi - MHUA",13-06-2024 03:00:00,28.57834,77.18400,PM2.5,38,314,121
India,Delhi,Delhi,"Okhla Phase-2, Delhi - DPCC",13-06-2024 03:00:00,28.530785,77.271255,PM2.5,45,270,107
India,Delhi,Delhi,"Okhla Phase-2, Delhi - DPCC",13-06-2024 03:00:00,28.530785,77.271255,NO2,31,182,93
India,Delhi,Delhi,"Okhla Phase-2, Delhi - DPCC",13-06-2024 03:00:00,28.530785,77.271255,NH3,8,18,11
India,Delhi,Delhi,"Okhla Phase-2, Delhi - DPCC",13-06-2024 03:00:00,28.530785,77.271255,SO2,6,20,12
India,Delhi,Delhi,"Patparganj, Delhi - DPCC",13-06-2024 03:00:00,28.623763,77.287209,PM10,125,335,220
India,Delhi,Delhi,"Patparganj, Delhi - DPCC",13-06-2024 03:00:00,28.623763,77.287209,NO2,18,175,88
India,Delhi,Delhi,"Punjabi Bagh, Delhi - DPCC",13-06-2024 03:00:00,28.674045,77.131023,CO,8,94,60
India,Delhi,Delhi,"Pusa, Delhi - DPCC",13-06-2024 03:00:00,28.639652,77.146275,SO2,8,34,16
India,Delhi,Delhi,"Pusa, Delhi - DPCC",13-06-2024 03:00:00,28.639652,77.146275,CO,9,111,60
India,Delhi,Delhi,"Pusa, Delhi - IMD",13-06-2024 03:00:00,28.636110,77.173332,PM2.5,19,346,122
India,Delhi,Delhi,"Pusa, Delhi - IMD",13-06-2024 03:00:00,28.636110,77.173332,OZONE,3,46,15
India,Delhi,Delhi,"R K Puram, Delhi - DPCC",13-06-2024 03:00:00,28.563262,77.186937,PM10,106,349,189
India,Delhi,Delhi,"R K Puram, Delhi - DPCC",13-06-2024 03:00:00,28.563262,77.186937,SO2,1,38,13
India,Delhi,Delhi,"R K Puram, Delhi - DPCC",13-06-2024 03:00:00,28.563262,77.186937,OZONE,9,207,45
India,Delhi,Delhi,"Rohini, Delhi - DPCC",13-06-2024 03:00:00,28.732528,77.119920,SO2,10,96,33
India,Delhi,Delhi,"Shadipur, Delhi - CPCB",13-06-2024 03:00:00,28.6514781,77.1473105,NO2,77,237,135
India,Delhi,Delhi,"Shadipur, Delhi - CPCB",13-06-2024 03:00:00,28.6514781,77.1473105,SO2,2,55,20
India,Delhi,Delhi,"Shadipur, Delhi - CPCB",13-06-2024 03:00:00,28.6514781,77.1473105,OZONE,14,196,112
India,Delhi,Delhi,"Sirifort, Delhi - CPCB",13-06-2024 03:00:00,28.5504249,77.2159377,PM2.5,38,304,122
India,Delhi,Delhi,"Sirifort, Delhi - CPCB",13-06-2024 03:00:00,28.5504249,77.2159377,NO2,2,83,49
India,Delhi,Delhi,"Sirifort, Delhi - CPCB",13-06-2024 03:00:00,28.5504249,77.2159377,SO2,44,54,49
India,Delhi,Delhi,"Vivek Vihar, Delhi - DPCC",13-06-2024 03:00:00,28.672342,77.315260,PM10,140,415,220
India,Delhi,Delhi,"Wazirpur, Delhi - DPCC",13-06-2024 03:00:00,28.699793,77.165453,PM2.5,42,270,122
India,Gujarat,Ahmedabad,"Chandkheda, Ahmedabad - IITM",13-06-2024 03:00:00,23.107969,72.574648,NO2,101,106,103
India,Gujarat,Ahmedabad,"Chandkheda, Ahmedabad - IITM",13-06-2024 03:00:00,23.107969,72.574648,SO2,7,20,17
India,Gujarat,Ahmedabad,"Chandkheda, Ahmedabad - IITM",13-06-2024 03:00:00,23.107969,72.574648,OZONE,NA,NA,NA
India,Gujarat,Ahmedabad,"Gyaspur, Ahmedabad - IITM",13-06-2024 03:00:00,22.977134,72.553024,PM10,NA,NA,NA
India,Gujarat,Ahmedabad,"Gyaspur, Ahmedabad - IITM",13-06-2024 03:00:00,22.977134,72.553024,CO,29,38,34
India,Gujarat,Ahmedabad,"Maninagar, Ahmedabad - GPCB",13-06-2024 03:00:00,23.002657,72.591912,CO,30,90,40
India,Gujarat,Ahmedabad,"Raikhad, Ahmedabad - IITM",13-06-2024 03:00:00,23.020509,72.579261,NH3,6,7,6
India,Gujarat,Ahmedabad,"Raikhad, Ahmedabad - IITM",13-06-2024 03:00:00,23.020509,72.579261,SO2,18,24,20
India,Gujarat,Ahmedabad,"Sardar Vallabhbhai Patel Stadium, Ahmedabad - IITM",13-06-2024 03:00:00,23.043070,72.562968,PM2.5,46,132,76
India,Gujarat,Ahmedabad,"Sardar Vallabhbhai Patel Stadium, Ahmedabad - IITM",13-06-2024 03:00:00,23.043070,72.562968,NH3,6,6,6
India,Gujarat,Ankleshwar,"GIDC, Ankleshwar - GPCB",13-06-2024 03:00:00,21.613267,73.010555,PM2.5,20,50,34
India,Gujarat,Ankleshwar,"GIDC, Ankleshwar - GPCB",13-06-2024 03:00:00,21.613267,73.010555,NO2,21,42,27
India,Gujarat,Ankleshwar,"GIDC, Ankleshwar - GPCB",13-06-2024 03:00:00,21.613267,73.010555,OZONE,22,30,25
India,Gujarat,Gandhinagar,"GIFT City, Gandhinagar - IITM",13-06-2024 03:00:00,23.163798,72.677768,OZONE,8,66,31
India,Gujarat,Gandhinagar,"Sector-10, Gandhinagar - GPCB",13-06-2024 03:00:00,23.221714,72.654328,NH3,2,2,2
India,Gujarat,Gandhinagar,"Sector-10, Gandhinagar - GPCB",13-06-2024 03:00:00,23.221714,72.654328,SO2,2,4,2
India,Gujarat,Gandhinagar,"Sector-10, Gandhinagar - GPCB",13-06-2024 03:00:00,23.221714,72.654328,OZONE,17,18,18
India,Gujarat,Nandesari,"GIDC, Nandesari - Nandesari Ind. Association",13-06-2024 03:00:00,22.410802,73.097923,SO2,1,28,12
India,Gujarat,Surat,"Science Center, Surat - SMC",13-06-2024 03:00:00,21.170046,72.795405,PM2.5,NA,NA,NA
India,Gujarat,Surat,"Science Center, Surat - SMC",13-06-2024 03:00:00,21.170046,72.795405,CO,NA,NA,NA
India,Gujarat,Vatva,"Phase-4 GIDC, Vatva - GPCB",13-06-2024 03:00:00,22.969611,72.643500,NO2,28,87,52
India,Haryana,Ambala,"Patti Mehar, Ambala - HSPCB",13-06-2024 03:00:00,30.379589,76.778328,NH3,5,12,8
India,Haryana,Ballabgarh,"Nathu Colony, Ballabgarh - HSPCB",13-06-2024 03:00:00,28.3419248,77.319699,NO2,8,13,12
India,Haryana,Ballabgarh,"Nathu Colony, Ballabgarh - HSPCB",13-06-2024 03:00:00,28.3419248,77.319699,CO,7,118,73
India,Haryana,Bhiwani,"H.B. Colony, Bhiwani - HSPCB",13-06-2024 03:00:00,28.806223,76.141105,PM2.5,64,136,91
India,Haryana,Bhiwani,"H.B. Colony, Bhiwani - HSPCB",13-06-2024 03:00:00,28.806223,76.141105,NO2,5,12,8
India,Haryana,Charkhi Dadri,"Mini Secretariat, Charkhi Dadri - HSPCB",13-06-2024 03:00:00,28.593883,76.270653,OZONE,15,17,16
India,Haryana,Dharuhera,"Municipal Corporation Office, Dharuhera -  HSPCB",13-06-2024 03:00:00,28.206800,76.799700,PM2.5,44,154,87
India,Haryana,Faridabad,"New Industrial Town, Faridabad - HSPCB",13-06-2024 03:00:00,28.39072,77.30059,NO2,7,23,12
India,Haryana,Faridabad,"New Industrial Town, Faridabad - HSPCB",13-06-2024 03:00:00,28.39072,77.30059,NH3,2,4,3
India,Haryana,Faridabad,"New Industrial Town, Faridabad - HSPCB",13-06-2024 03:00:00,28.39072,77.30059,SO2,1,18,13
India,Haryana,Faridabad,"Sector 11, Faridabad - HSPCB",13-06-2024 03:00:00,28.376058,77.315741,PM10,129,286,184
India,Haryana,Faridabad,"Sector 11, Faridabad - HSPCB",13-06-2024 03:00:00,28.376058,77.315741,NO2,30,33,31
India,Haryana,Faridabad,"Sector 11, Faridabad - HSPCB",13-06-2024 03:00:00,28.376058,77.315741,NH3,6,6,6
India,Haryana,Faridabad,"Sector- 16A, Faridabad - HSPCB",13-06-2024 03:00:00,28.4088421,77.3099081,PM2.5,30,222,91
India,Haryana,Fatehabad,"Huda Sector, Fatehabad - HSPCB",13-06-2024 03:00:00,29.503664,75.467934,PM2.5,30,152,63
India,Haryana,Gurugram,"NISE Gwal Pahari, Gurugram - IMD",13-06-2024 03:00:00,28.422681,77.148944,PM2.5,42,320,91
India,Haryana,Gurugram,"Sector-51, Gurugram - HSPCB",13-06-2024 03:00:00,28.4227,77.0667,PM2.5,50,367,178
India,Haryana,Gurugram,"Sector-51, Gurugram - HSPCB",13-06-2024 03:00:00,28.4227,77.0667,OZONE,27,45,32
India,Haryana,Hisar,"Urban Estate-II, Hisar - HSPCB",13-06-2024 03:00:00,29.140560,75.744941,NH3,1,4,4
India,Haryana,Hisar,"Urban Estate-II, Hisar - HSPCB",13-06-2024 03:00:00,29.140560,75.744941,SO2,1,50,23
India,Haryana,Hisar,"Urban Estate-II, Hisar - HSPCB",13-06-2024 03:00:00,29.140560,75.744941,CO,25,101,61
India,Haryana,Karnal,"Sector-12, Karnal - HSPCB",13-06-2024 03:00:00,29.695300,77.002700,NO2,7,12,10
India,Haryana,Kurukshetra,"Sector-7, Kurukshetra - HSPCB",13-06-2024 03:00:00,29.966942,76.875879,PM10,116,157,134
India,Haryana,Kurukshetra,"Sector-7, Kurukshetra - HSPCB",13-06-2024 03:00:00,29.966942,76.875879,NH3,3,5,5
India,Haryana,Mandikhera,"General Hospital, Mandikhera - HSPCB",13-06-2024 03:00:00,27.9002,76.9938,PM10,73,150,106
India,Haryana,Mandikhera,"General Hospital, Mandikhera - HSPCB",13-06-2024 03:00:00,27.9002,76.9938,NO2,19,23,21
India,Haryana,Mandikhera,"General Hospital, Mandikhera - HSPCB",13-06-2024 03:00:00,27.9002,76.9938,SO2,29,37,34
India,Haryana,Manesar,"Sector-2 IMT, Manesar - HSPCB",13-06-2024 03:00:00,28.360699,76.936090,PM10,48,120,84
India,Haryana,Narnaul,"Shastri Nagar, Narnaul - HSPCB",13-06-2024 03:00:00,28.060249,76.113115,PM2.5,38,61,50
India,Haryana,Narnaul,"Shastri Nagar, Narnaul - HSPCB",13-06-2024 03:00:00,28.060249,76.113115,PM10,38,61,50
India,Haryana,Narnaul,"Shastri Nagar, Narnaul - HSPCB",13-06-2024 03:00:00,28.060249,76.113115,NO2,15,84,46
India,Haryana,Palwal,"Shyam Nagar, Palwal - HSPCB",13-06-2024 03:00:00,28.1485564,77.3320667,NO2,23,25,24
India,Haryana,Palwal,"Shyam Nagar, Palwal - HSPCB",13-06-2024 03:00:00,28.1485564,77.3320667,CO,13,38,30
India,Haryana,Panchkula,"Sector-6, Panchkula - HSPCB ",13-06-2024 03:00:00,30.7057778,76.8531805555555,OZONE,34,48,37
India,Haryana,Panipat,"Sector-18, Panipat - HSPCB",13-06-2024 03:00:00,29.432304,76.972765,NH3,2,3,3
India,Haryana,Rohtak,"MD University, Rohtak - HSPCB",13-06-2024 03:00:00,28.52123,76.37138,NO2,47,56,51
India,Haryana,Rohtak,"MD University, Rohtak - HSPCB",13-06-2024 03:00:00,28.52123,76.37138,CO,38,62,47
India,Haryana,Rohtak,"MD University, Rohtak - HSPCB",13-06-2024 03:00:00,28.52123,76.37138,OZONE,45,53,49
India,Haryana,Sirsa,"F-Block, Sirsa - HSPCB",13-06-2024 03:00:00,29.536400,75.015800,PM10,68,97,82
India,Haryana,Sonipat,"Murthal, Sonipat - HSPCB",13-06-2024 03:00:00,29.027200,77.062100,NO2,37,44,39
India,Haryana,Sonipat,"Murthal, Sonipat - HSPCB",13-06-2024 03:00:00,29.027200,77.062100,CO,24,26,25
India,Haryana,Yamuna Nagar,"Gobind Pura, Yamuna Nagar - HSPCB",13-06-2024 03:00:00,30.1480566,77.2893471,PM2.5,75,214,130
India,Himachal Pradesh,Baddi,"HIMUDA Complex Phase-1, Baddi - HPPCB",13-06-2024 03:00:00,30.943887,76.801991,NH3,4,6,5
India,Himachal Pradesh,Baddi,"HIMUDA Complex Phase-1, Baddi - HPPCB",13-06-2024 03:00:00,30.943887,76.801991,SO2,13,122,40
India,Jammu_and_Kashmir,Srinagar,"Rajbagh, Srinagar - JKSPCB",13-06-2024 03:00:00,34.066206,74.819820,PM2.5,NA,NA,NA
India,Jammu_and_Kashmir,Srinagar,"Rajbagh, Srinagar - JKSPCB",13-06-2024 03:00:00,34.066206,74.819820,PM10,NA,NA,NA
India,Jammu_and_Kashmir,Srinagar,"Rajbagh, Srinagar - JKSPCB",13-06-2024 03:00:00,34.066206,74.819820,SO2,NA,NA,NA
India,Jharkhand,Dhanbad,"Kalakusuma, Dhanbad - DMC",13-06-2024 03:00:00,23.811548,86.481238,NO2,356,356,356
India,Jharkhand,Dhanbad,"Sardar Patel Nagar, Dhanbad - JSPCB",13-06-2024 03:00:00,23.80569,86.44268,NO2,NA,NA,NA
India,Karnataka,Belgaum,"Ramteerth Nagar, Belgaum - KSPCB",13-06-2024 03:00:00,15.888653,74.541751,NO2,17,49,31
India,Karnataka,Belgaum,"Ramteerth Nagar, Belgaum - KSPCB",13-06-2024 03:00:00,15.888653,74.541751,CO,30,46,42
India,Karnataka,Bengaluru,"Hombegowda Nagar, Bengaluru - KSPCB",13-06-2024 03:00:00,12.938539,77.590100,NH3,1,1,1
India,Karnataka,Bengaluru,"Hombegowda Nagar, Bengaluru - KSPCB",13-06-2024 03:00:00,12.938539,77.590100,CO,10,20,14
India,Karnataka,Bengaluru,"Jayanagar 5th Block, Bengaluru - KSPCB",13-06-2024 03:00:00,12.920984,77.584908,PM2.5,5,33,20
India,Karnataka,Bengaluru,"Jayanagar 5th Block, Bengaluru - KSPCB",13-06-2024 03:00:00,12.920984,77.584908,SO2,9,27,22
India,Karnataka,Bengaluru,"Jayanagar 5th Block, Bengaluru - KSPCB",13-06-2024 03:00:00,12.920984,77.584908,CO,20,22,22
India,Karnataka,Bengaluru,"Jigani, Bengaluru - KSPCB",13-06-2024 03:00:00,12.7816279,77.6299145,NO2,42,43,42
India,Karnataka,Bengaluru,"Kasturi Nagar, Bengaluru - KSPCB",13-06-2024 03:00:00,13.003872,77.664217,NO2,16,17,17
India,Karnataka,Bengaluru,"Peenya, Bengaluru - CPCB",13-06-2024 03:00:00,13.0270199,77.494094,NH3,NA,NA,NA
India,Karnataka,Bengaluru,"Sanegurava Halli, Bengaluru - KSPCB",13-06-2024 03:00:00,12.990328,77.5431385,PM10,34,39,36
India,Karnataka,Bengaluru,"Shivapura_Peenya, Bengaluru - KSPCB",13-06-2024 03:00:00,13.0246342,77.5080115,NH3,4,4,4
India,Karnataka,Bengaluru,"Shivapura_Peenya, Bengaluru - KSPCB",13-06-2024 03:00:00,13.0246342,77.5080115,CO,16,30,22
India,Karnataka,Bengaluru,"Silk Board, Bengaluru - KSPCB",13-06-2024 03:00:00,12.917348,77.622813,NO2,9,37,22
India,Karnataka,Bengaluru,"Silk Board, Bengaluru - KSPCB",13-06-2024 03:00:00,12.917348,77.622813,CO,16,25,21
India,Karnataka,Bengaluru,"Silk Board, Bengaluru - KSPCB",13-06-2024 03:00:00,12.917348,77.622813,OZONE,12,22,19
India,Karnataka,Bidar,"Naubad, Bidar - KSPCB",13-06-2024 03:00:00,17.930306,77.482194,PM10,34,86,51
India,Karnataka,Bidar,"Naubad, Bidar - KSPCB",13-06-2024 03:00:00,17.930306,77.482194,OZONE,19,26,26
India,Karnataka,Chamarajanagar,"Urban, Chamarajanagar - KSPCB",13-06-2024 03:00:00,11.55358,76.55521,PM2.5,21,42,32
India,Karnataka,Chamarajanagar,"Urban, Chamarajanagar - KSPCB",13-06-2024 03:00:00,11.55358,76.55521,NO2,12,29,23
India,Karnataka,Chamarajanagar,"Urban, Chamarajanagar - KSPCB",13-06-2024 03:00:00,11.55358,76.55521,OZONE,16,31,16
India,Karnataka,Chikkaballapur,"Chikkaballapur Rural, Chikkaballapur - KSPCB",13-06-2024 03:00:00,13.428828,77.731418,PM2.5,3,26,13
India,Karnataka,Chikkaballapur,"Chikkaballapur Rural, Chikkaballapur - KSPCB",13-06-2024 03:00:00,13.428828,77.731418,OZONE,24,26,25
India,Karnataka,Chikkamagaluru,"Kalyana Nagara, Chikkamagaluru - KSPCB",13-06-2024 03:00:00,13.328028,75.797056,PM10,21,41,30
India,Karnataka,Chikkamagaluru,"Kalyana Nagara, Chikkamagaluru - KSPCB",13-06-2024 03:00:00,13.328028,75.797056,CO,11,43,18
India,Karnataka,Dharwad,"Kalabhavan, Dharwad - KSPCB",13-06-2024 03:00:00,15.459706,75.008381,PM2.5,6,38,24
India,Karnataka,Dharwad,"Kalabhavan, Dharwad - KSPCB",13-06-2024 03:00:00,15.459706,75.008381,CO,1,52,29
India,Karnataka,Dharwad,"Kalabhavan, Dharwad - KSPCB",13-06-2024 03:00:00,15.459706,75.008381,OZONE,24,132,26
India,Karnataka,Gadag,"Panchal Nagar, Gadag - KSPCB",13-06-2024 03:00:00,15.411456,75.638133,PM2.5,8,35,26
India,Karnataka,Gadag,"Panchal Nagar, Gadag - KSPCB",13-06-2024 03:00:00,15.411456,75.638133,NH3,1,3,2
India,Karnataka,Hassan,"B.Katihalli, Hassan - KSPCB",13-06-2024 03:00:00,13.008556,76.125258,PM2.5,12,47,24
India,Karnataka,Haveri,"Ashwini Nagar, Haveri - KSPCB",13-06-2024 03:00:00,14.791800,75.389600,NH3,3,4,3
India,Karnataka,Hubballi,"Lingaraj Nagar, Hubballi - KSPCB",13-06-2024 03:00:00,15.3714823,75.1160168,PM2.5,25,42,36
India,Karnataka,Kalaburagi,"Lal Bahadur Shastri Nagar, Kalaburagi - KSPCB",13-06-2024 03:00:00,17.321993,76.822628,PM10,7,49,26
India,Karnataka,Kalaburagi,"Mahatma Basaveswar Colony, Kalaburgi - KSPCB",13-06-2024 03:00:00,17.336318,76.847397,CO,26,56,39
India,Karnataka,Kolar,"Tamaka Ind. Area, Kolar - KSPCB",13-06-2024 03:00:00,13.1276288,78.1570122,NO2,21,30,24
India,Karnataka,Kolar,"Tamaka Ind. Area, Kolar - KSPCB",13-06-2024 03:00:00,13.1276288,78.1570122,NH3,3,7,6
India,Karnataka,Koppal,"Diwator Nagar, Koppal - KSPCB",13-06-2024 03:00:00,15.347630,76.181767,PM10,2,14,8
India,Karnataka,Madikeri,"Stuart Hill, Madikeri - KSPCB",13-06-2024 03:00:00,12.415911,75.735050,PM2.5,8,22,16
India,Karnataka,Mangalore,"Kadri, Mangalore - KSPCB",13-06-2024 03:00:00,12.889250,74.853000,CO,39,44,41
India,Karnataka,Mangalore,"Kadri, Mangalore - KSPCB",13-06-2024 03:00:00,12.889250,74.853000,OZONE,31,32,32
India,Karnataka,Mysuru,"Hebbal 1st Stage, Mysuru - KSPCB",13-06-2024 03:00:00,12.21041,76.37376,PM10,20,53,31
India,Karnataka,Mysuru,"Hebbal 1st Stage, Mysuru - KSPCB",13-06-2024 03:00:00,12.21041,76.37376,NO2,6,33,20
India,Karnataka,Raichur,"Haji Colony, Raichur - KSPCB",13-06-2024 03:00:00,16.208139,77.348417,NH3,NA,NA,NA
India,Karnataka,Ramanagara,"Vijay Nagar, Ramanagara - KSPCB",13-06-2024 03:00:00,12.733409,77.298051,PM2.5,3,16,8
India,Karnataka,Ramanagara,"Vijay Nagar, Ramanagara - KSPCB",13-06-2024 03:00:00,12.733409,77.298051,NO2,9,29,14
India,Karnataka,Ramanagara,"Vijay Nagar, Ramanagara - KSPCB",13-06-2024 03:00:00,12.733409,77.298051,SO2,15,30,25
India,Karnataka,Shivamogga,"Vinoba Nagara, Shivamogga - KSPCB",13-06-2024 03:00:00,13.940000,75.555917,PM10,38,58,47
India,Karnataka,Tumakuru,"Thimmalapura, Tumakuru - KSPCB",13-06-2024 03:00:00,13.377516,77.099072,PM2.5,15,50,28
India,Karnataka,Tumakuru,"Thimmalapura, Tumakuru - KSPCB",13-06-2024 03:00:00,13.377516,77.099072,NH3,2,3,3
India,Karnataka,Tumakuru,"Thimmalapura, Tumakuru - KSPCB",13-06-2024 03:00:00,13.377516,77.099072,SO2,7,8,8
India,Karnataka,Vijayapura,"Ibrahimpur, Vijayapura - KSPCB",13-06-2024 03:00:00,16.802639,75.722694,PM2.5,26,31,30
India,Karnataka,Vijayapura,"Ibrahimpur, Vijayapura - KSPCB",13-06-2024 03:00:00,16.802639,75.722694,PM10,41,43,42
India,Kerala,Thiruvananthapuram,"Kariavattom, Thiruvananthapuram - Kerala PCB",13-06-2024 03:00:00,8.563700,76.886500,CO,18,59,40
India,Kerala,Thiruvananthapuram,"Plammoodu, Thiruvananthapuram - Kerala PCB",13-06-2024 03:00:00,8.5149093,76.9435879,NO2,8,11,9
India,Kerala,Thiruvananthapuram,"Plammoodu, Thiruvananthapuram - Kerala PCB",13-06-2024 03:00:00,8.5149093,76.9435879,CO,8,26,22
India,Kerala,Thrissur,"Corporation Ground, Thrissur - Kerala PCB",13-06-2024 03:00:00,10.532400,76.215900,OZONE,28,31,30
India,Madhya Pradesh,Bhopal,"Idgah Hills, Bhopal - MPPCB",13-06-2024 03:00:00,23.264759,77.381568,NO2,11,37,17
India,Madhya Pradesh,Bhopal,"Idgah Hills, Bhopal - MPPCB",13-06-2024 03:00:00,23.264759,77.381568,SO2,NA,NA,NA
India,Madhya Pradesh,Bhopal,"T T Nagar, Bhopal - MPPCB",13-06-2024 03:00:00,23.233584,77.400574,NO2,20,29,25
India,Madhya Pradesh,Dewas,"Bhopal Chauraha, Dewas - MPPCB",13-06-2024 03:00:00,22.9682591,76.064118,CO,14,37,22
India,Madhya Pradesh,Gwalior,"Deen Dayal Nagar, Gwalior - MPPCB",13-06-2024 03:00:00,26.259242,78.216432,NH3,4,7,5
India,Madhya Pradesh,Gwalior,"Deen Dayal Nagar, Gwalior - MPPCB",13-06-2024 03:00:00,26.259242,78.216432,OZONE,79,198,104
India,Madhya Pradesh,Gwalior,"Phool Bagh, Gwalior - Mondelez Ind. Food",13-06-2024 03:00:00,26.210536,78.171,CO,72,94,86
India,Madhya Pradesh,Indore,"Chhoti Gwaltoli, Indore - MPPCB",13-06-2024 03:00:00,22.4310,75.5213,PM2.5,17,71,45
India,Madhya Pradesh,Indore,"Chhoti Gwaltoli, Indore - MPPCB",13-06-2024 03:00:00,22.4310,75.5213,PM10,29,124,73
India,Madhya Pradesh,Indore,"Maguda Nagar, Indore - IMC",13-06-2024 03:00:00,22.7524,75.8872,PM10,15,72,40
India,Madhya Pradesh,Indore,"Residency Area, Indore - IMC",13-06-2024 03:00:00,22.7084,75.8815,PM10,NA,NA,NA
India,Madhya Pradesh,Indore,"Residency Area, Indore - IMC",13-06-2024 03:00:00,22.7084,75.8815,OZONE,9,21,14
India,Madhya Pradesh,Jabalpur,"Govindh Bhavan Colony, Jabalpur - JMC",13-06-2024 03:00:00,23.163174,79.973061,OZONE,21,95,71
India,Madhya Pradesh,Jabalpur,"Gupteshwar, Jabalpur - JMC",13-06-2024 03:00:00,23.142888,79.916147,NH3,5,6,5
India,Madhya Pradesh,Jabalpur,"Gupteshwar, Jabalpur - JMC",13-06-2024 03:00:00,23.142888,79.916147,SO2,3,41,10
India,Madhya Pradesh,Jabalpur,"Marhatal, Jabalpur - MPPCB",13-06-2024 03:00:00,23.168606,79.932247,PM2.5,30,108,65
India,Madhya Pradesh,Jabalpur,"Suhagi, Jabalpur - JMC",13-06-2024 03:00:00,23.218135,79.957770,SO2,18,20,19
India,Madhya Pradesh,Maihar,"Sahilara, Maihar - KJS Cements",13-06-2024 03:00:00,24.2613009,80.7231783,SO2,NA,NA,NA
India,Madhya Pradesh,Mandideep,"Sector-D Industrial Area, Mandideep - MPPCB",13-06-2024 03:00:00,23.108440,77.511428,PM2.5,38,83,50
India,Madhya Pradesh,Pithampur,"Sector-2 Industrial Area, Pithampur - MPPCB",13-06-2024 03:00:00,22.624758,75.675238,NH3,3,3,3
India,Madhya Pradesh,Ratlam,"Shasthri Nagar, Ratlam - IPCA Lab",13-06-2024 03:00:00,23.331731,75.045981,PM2.5,5,78,50
India,Madhya Pradesh,Ratlam,"Shasthri Nagar, Ratlam - IPCA Lab",13-06-2024 03:00:00,23.331731,75.045981,PM10,22,234,110
India,Madhya Pradesh,Sagar,"Civil Lines, Sagar - MPPCB",13-06-2024 03:00:00,23.838586,78.759431,NH3,2,10,6
India,Madhya Pradesh,Sagar,"Deen Dayal Nagar, Sagar - MPPCB",13-06-2024 03:00:00,23.8640158,78.80289321,PM2.5,9,31,21
India,Madhya Pradesh,Ujjain,"Mahakaleshwar Temple, Ujjain - MPPCB",13-06-2024 03:00:00,23.182719 ,75.768218 ,PM2.5,24,500,80
India,Madhya Pradesh,Ujjain,"Mahakaleshwar Temple, Ujjain - MPPCB",13-06-2024 03:00:00,23.182719 ,75.768218 ,NO2,14,19,16
India,Madhya Pradesh,Ujjain,"Mahakaleshwar Temple, Ujjain - MPPCB",13-06-2024 03:00:00,23.182719 ,75.768218 ,NH3,6,8,7
India,Maharashtra,Akola,"Ramdaspeth, Akola - MPCB",13-06-2024 03:00:00,20.719516,77.000253,NO2,6,43,17
India,Maharashtra,Akola,"Ramdaspeth, Akola - MPCB",13-06-2024 03:00:00,20.719516,77.000253,CO,7,100,37
India,Maharashtra,Amravati,"Shivneri Colony, Amravati - MPCB",13-06-2024 03:00:00,20.9402359,77.7895248,PM10,32,101,63
India,Maharashtra,Amravati,"Shri Shivaji Science College, Amaravati - MPCB",13-06-2024 03:00:00,20.939198,77.765701,PM2.5,28,53,41
India,Maharashtra,Aurangabad,"MIDC Chilkalthana, Aurangabad - MPCB",13-06-2024 03:00:00,19.875620,75.387310,PM10,49,78,64
India,Maharashtra,Aurangabad,"MIDC Chilkalthana, Aurangabad - MPCB",13-06-2024 03:00:00,19.875620,75.387310,NH3,5,6,5
India,Maharashtra,Aurangabad,"MIDC Chilkalthana, Aurangabad - MPCB",13-06-2024 03:00:00,19.875620,75.387310,OZONE,19,59,47
India,Maharashtra,Aurangabad,"More Chowk Waluj, Aurangabad - MPCB",13-06-2024 03:00:00,19.8389439,75.244448,NH3,4,5,5
India,Maharashtra,Aurangabad,"Rachnakar Colony, Aurangabad - MPCB",13-06-2024 03:00:00,19.863756,75.321188,NO2,17,39,26
India,Maharashtra,Aurangabad,"Rachnakar Colony, Aurangabad - MPCB",13-06-2024 03:00:00,19.863756,75.321188,CO,14,27,23
India,Maharashtra,Badlapur,"Katrap, Badlapur - MPCB",13-06-2024 03:00:00,19.16485,73.23409,PM10,48,500,133
India,Maharashtra,Belapur,"CBD Belapur, Belapur - MPCB",13-06-2024 03:00:00,19.0243902,73.0406721,PM2.5,16,46,28
India,Maharashtra,Belapur,"CBD Belapur, Belapur - MPCB",13-06-2024 03:00:00,19.0243902,73.0406721,PM10,41,74,54
India,Maharashtra,Belapur,"CBD Belapur, Belapur - MPCB",13-06-2024 03:00:00,19.0243902,73.0406721,SO2,6,9,7
India,Maharashtra,Bhiwandi,"Gokul Nagar, Bhiwandi - MPCB",13-06-2024 03:00:00,19.309073,73.057223,PM10,61,122,91
India,Maharashtra,Bhiwandi,"Gokul Nagar, Bhiwandi - MPCB",13-06-2024 03:00:00,19.309073,73.057223,NO2,12,41,25
India,Maharashtra,Boisar,"Khaira, Boisar - MPCB",13-06-2024 03:00:00,19.786089,72.757971,NO2,6,27,12
India,Maharashtra,Boisar,"Khaira, Boisar - MPCB",13-06-2024 03:00:00,19.786089,72.757971,CO,2,28,16
India,Maharashtra,Chandrapur,"Chauhan Colony, Chandrapur - MPCB",13-06-2024 03:00:00,19.962900,79.298714,NO2,7,28,17
India,Maharashtra,Chandrapur,"Chauhan Colony, Chandrapur - MPCB",13-06-2024 03:00:00,19.962900,79.298714,CO,26,28,27
India,Maharashtra,Jalgaon,"Prabhat Colony, Jalgaon - MPCB",13-06-2024 03:00:00,21.001264,75.565602,NH3,9,18,14
India,Maharashtra,Jalgaon,"Prabhat Colony, Jalgaon - MPCB",13-06-2024 03:00:00,21.001264,75.565602,OZONE,6,75,20
India,Maharashtra,Jalna,"Old MIDC, Jalna - MPCB",13-06-2024 03:00:00,19.854616,75.905894,CO,20,28,25
India,Maharashtra,Kalyan,"Khadakpada, Kalyan - MPCB",13-06-2024 03:00:00,19.25292,73.142019,PM2.5,9,39,20
India,Maharashtra,Kolhapur,"Shivaji University, Kolhapur - MPCB",13-06-2024 03:00:00,16.6870449,74.2505872,PM10,23,77,50
India,Maharashtra,Kolhapur,"Shivaji University, Kolhapur - MPCB",13-06-2024 03:00:00,16.6870449,74.2505872,CO,82,105,96
India,Maharashtra,Kolhapur,"Sinchan Bhavan, Kolhapur - MPCB",13-06-2024 03:00:00,16.7143745,74.2426398,PM10,17,60,32
India,Maharashtra,Kolhapur,"Sinchan Bhavan, Kolhapur - MPCB",13-06-2024 03:00:00,16.7143745,74.2426398,CO,8,18,11
India,Maharashtra,Latur,"Sawe Wadi, Latur - MPCB",13-06-2024 03:00:00,18.39963,76.57452,PM2.5,5,55,30
India,Maharashtra,Latur,"Sawe Wadi, Latur - MPCB",13-06-2024 03:00:00,18.39963,76.57452,SO2,2,6,4
India,Maharashtra,Latur,"Sawe Wadi, Latur - MPCB",13-06-2024 03:00:00,18.39963,76.57452,OZONE,24,84,40
India,Maharashtra,Mahad,"Kamble Tarf Birwadi, Mahad - MPCB",13-06-2024 03:00:00,18.1023399,73.4783687,PM2.5,1,57,25
India,Maharashtra,Malegaon,"Mahesh Nagar, Malegaon - MPCB",13-06-2024 03:00:00,20.555712,74.529236,PM2.5,33,68,55
India,Maharashtra,Mira-Bhayandar,"Bhayandar West, Mira-Bhayandar - MPCB",13-06-2024 03:00:00,19.296481,72.840923,PM2.5,14,35,23
India,Maharashtra,Mira-Bhayandar,"Bhayandar West, Mira-Bhayandar - MPCB",13-06-2024 03:00:00,19.296481,72.840923,NH3,4,5,4
India,Maharashtra,Mira-Bhayandar,"Bhayandar West, Mira-Bhayandar - MPCB",13-06-2024 03:00:00,19.296481,72.840923,CO,18,44,26
India,Maharashtra,Mira-Bhayandar,"Bhayandar West, Mira-Bhayandar - MPCB",13-06-2024 03:00:00,19.296481,72.840923,OZONE,1,35,11
India,Maharashtra,Mumbai,"Bandra Kurla Complex, Mumbai - MPCB",13-06-2024 03:00:00,19.065931,72.862131,PM2.5,17,61,38
India,Maharashtra,Mumbai,"Borivali East, Mumbai - IITM",13-06-2024 03:00:00,19.23241,72.86895,PM2.5,13,48,26
India,Maharashtra,Mumbai,"Borivali East, Mumbai - IITM",13-06-2024 03:00:00,19.23241,72.86895,NO2,22,53,32
India,Maharashtra,Mumbai,"Borivali East, Mumbai - MPCB",13-06-2024 03:00:00,19.2243333,72.8658113,PM2.5,2,16,8
India,Maharashtra,Mumbai,"Borivali East, Mumbai - MPCB",13-06-2024 03:00:00,19.2243333,72.8658113,NH3,1,2,1
India,Maharashtra,Mumbai,"Byculla, Mumbai - BMC",13-06-2024 03:00:00,18.9767,72.8380,PM2.5,5,18,12
India,Maharashtra,Mumbai,"Byculla, Mumbai - BMC",13-06-2024 03:00:00,18.9767,72.8380,OZONE,2,29,14
India,Maharashtra,Mumbai,"Chakala-Andheri East, Mumbai - IITM",13-06-2024 03:00:00,19.11074,72.86084,PM2.5,10,44,26
India,Maharashtra,Mumbai,"Chakala-Andheri East, Mumbai - IITM",13-06-2024 03:00:00,19.11074,72.86084,SO2,2,34,10
India,Maharashtra,Mumbai,"Chakala-Andheri East, Mumbai - IITM",13-06-2024 03:00:00,19.11074,72.86084,CO,3,41,11
India,Maharashtra,Mumbai,"Chembur, Mumbai - MPCB",13-06-2024 03:00:00,19.0364585,72.8954371,SO2,1,2,1
India,Maharashtra,Mumbai,"Chhatrapati Shivaji Intl. Airport (T2), Mumbai - MPCB",13-06-2024 03:00:00,19.10078,72.87462,PM10,24,74,41
India,Maharashtra,Mumbai,"Ghatkopar, Mumbai - BMC",13-06-2024 03:00:00,19.083694,72.920967,PM10,10,25,19
India,Maharashtra,Mumbai,"Ghatkopar, Mumbai - BMC",13-06-2024 03:00:00,19.083694,72.920967,NO2,27,43,36
India,Maharashtra,Mumbai,"Kandivali East, Mumbai - MPCB",13-06-2024 03:00:00,19.205800,72.868200,PM2.5,4,500,67
India,Maharashtra,Mumbai,"Kandivali East, Mumbai - MPCB",13-06-2024 03:00:00,19.205800,72.868200,NO2,12,238,46
India,Maharashtra,Mumbai,"Kandivali East, Mumbai - MPCB",13-06-2024 03:00:00,19.205800,72.868200,NH3,3,33,7
India,Maharashtra,Mumbai,"Kandivali West, Mumbai - BMC",13-06-2024 03:00:00,19.215859,72.831718,SO2,1,3,2
India,Maharashtra,Mumbai,"Kandivali West, Mumbai - BMC",13-06-2024 03:00:00,19.215859,72.831718,CO,6,36,17
India,Maharashtra,Mumbai,"Kandivali West, Mumbai - BMC",13-06-2024 03:00:00,19.215859,72.831718,OZONE,1,49,8
India,Maharashtra,Mumbai,"Kherwadi_Bandra East, Mumbai - MPCB",13-06-2024 03:00:00,19.0632143,72.8456324,OZONE,2,42,20
India,Maharashtra,Mumbai,"Khindipada-Bhandup West, Mumbai - IITM",13-06-2024 03:00:00,19.1653323,72.922099,NO2,5,9,7
India,Maharashtra,Mumbai,"Khindipada-Bhandup West, Mumbai - IITM",13-06-2024 03:00:00,19.1653323,72.922099,NH3,2,6,3
India,Maharashtra,Mumbai,"Kurla, Mumbai - MPCB",13-06-2024 03:00:00,19.0863,72.8888,SO2,32,32,32
India,Maharashtra,Mumbai,"Mazgaon, Mumbai - IITM",13-06-2024 03:00:00,18.96702,72.84214,PM10,11,29,19
India,Maharashtra,Mumbai,"Mindspace-Malad West, Mumbai - MPCB",13-06-2024 03:00:00,19.1878657,72.8304069,CO,18,40,20
India,Maharashtra,Mumbai,"Mulund West, Mumbai - MPCB",13-06-2024 03:00:00,19.1750,72.9419,OZONE,7,8,8
India,Maharashtra,Mumbai,"Navy Nagar-Colaba, Mumbai - IITM",13-06-2024 03:00:00,18.897756,72.813320,SO2,1,10,4
India,Maharashtra,Mumbai,"Powai, Mumbai - MPCB",13-06-2024 03:00:00,19.137500,72.915056,NO2,9,23,17
India,Maharashtra,Mumbai,"Sewri, Mumbai - BMC",13-06-2024 03:00:00,19.000084,72.856730,PM10,24,141,46
India,Maharashtra,Mumbai,"Sewri, Mumbai - BMC",13-06-2024 03:00:00,19.000084,72.856730,NH3,1,5,3
India,Maharashtra,Mumbai,"Sewri, Mumbai - BMC",13-06-2024 03:00:00,19.000084,72.856730,SO2,1,11,5
India,Maharashtra,Mumbai,"Sion, Mumbai - MPCB",13-06-2024 03:00:00,19.047000,72.874600,PM2.5,13,46,24
India,Maharashtra,Mumbai,"Sion, Mumbai - MPCB",13-06-2024 03:00:00,19.047000,72.874600,NO2,34,54,43
India,Maharashtra,Mumbai,"Vasai West, Mumbai - MPCB",13-06-2024 03:00:00,19.383200,72.820400,OZONE,7,20,7
India,Maharashtra,Mumbai,"Vile Parle West, Mumbai - MPCB",13-06-2024 03:00:00,19.10861,72.83622,PM2.5,NA,NA,NA
India,Maharashtra,Mumbai,"Vile Parle West, Mumbai - MPCB",13-06-2024 03:00:00,19.10861,72.83622,NO2,NA,NA,NA
India,Maharashtra,Mumbai,"Vile Parle West, Mumbai - MPCB",13-06-2024 03:00:00,19.10861,72.83622,SO2,NA,NA,NA
India,Maharashtra,Mumbai,"Worli, Mumbai - MPCB",13-06-2024 03:00:00,18.9936162,72.8128113,PM2.5,6,38,15
India,Maharashtra,Mumbai,"Worli, Mumbai - MPCB",13-06-2024 03:00:00,18.9936162,72.8128113,PM10,32,131,75
India,Maharashtra,Mumbai,"Worli, Mumbai - MPCB",13-06-2024 03:00:00,18.9936162,72.8128113,CO,24,26,25
India,Maharashtra,Nagpur,"Ambazari, Nagpur - MPCB",13-06-2024 03:00:00,21.121801,79.04952,OZONE,17,91,33
India,Maharashtra,Nanded,"Sneh Nagar, Nanded - MPCB",13-06-2024 03:00:00,19.173852,77.296291,PM10,19,79,51
India,Maharashtra,Nashik,"Hirawadi, Nashik - MPCB",13-06-2024 03:00:00,20.021503,73.813844,PM2.5,13,30,22
India,Maharashtra,Nashik,"Hirawadi, Nashik - MPCB",13-06-2024 03:00:00,20.021503,73.813844,NH3,1,5,3
India,Maharashtra,Nashik,"Pandav Nagari, Nashik - MPCB",13-06-2024 03:00:00,19.9591346,73.7788008,NO2,13,45,28
India,Maharashtra,Navi Mumbai,"Kopripada-Vashi, Navi Mumbai - MPCB",13-06-2024 03:00:00,19.090337,73.014232,PM2.5,12,31,20
India,Maharashtra,Navi Mumbai,"Kopripada-Vashi, Navi Mumbai - MPCB",13-06-2024 03:00:00,19.090337,73.014232,CO,8,32,21
India,Maharashtra,Navi Mumbai,"Kopripada-Vashi, Navi Mumbai - MPCB",13-06-2024 03:00:00,19.090337,73.014232,OZONE,6,192,11
India,Maharashtra,Navi Mumbai,"Mahape, Navi Mumbai - MPCB",13-06-2024 03:00:00,19.1135051,73.008978,PM2.5,15,64,33
India,Maharashtra,Navi Mumbai,"Mahape, Navi Mumbai - MPCB",13-06-2024 03:00:00,19.1135051,73.008978,NO2,41,43,42
India,Maharashtra,Navi Mumbai,"Nerul, Navi Mumbai - MPCB",13-06-2024 03:00:00,19.008751,73.016620,SO2,5,8,8
India,Maharashtra,Navi Mumbai,"Sector-19A Nerul, Navi Mumbai - IITM",13-06-2024 03:00:00,19.044,73.0325,NO2,21,45,31
India,Maharashtra,Pune,"Bhumkar Nagar, Pune - IITM",13-06-2024 03:00:00,18.605770,73.749976,PM10,14,51,27
India,Maharashtra,Pune,"Bhumkar Nagar, Pune - IITM",13-06-2024 03:00:00,18.605770,73.749976,OZONE,16,38,20
India,Maharashtra,Pune,"Hadapsar, Pune - IITM",13-06-2024 03:00:00,18.501793,73.927532,OZONE,12,23,14
India,Maharashtra,Pune,"Mhada Colony, Pune - IITM",13-06-2024 03:00:00,18.573040,73.927715,PM2.5,31,45,37
India,Maharashtra,Pune,"Transport Nagar-Nigdi, Pune - IITM",13-06-2024 03:00:00,18.664282,73.763966,PM2.5,NA,NA,NA
India,Maharashtra,Sangli,"Vijay Nagar, Sangli - MPCB",13-06-2024 03:00:00, 16.5038,74.3623,SO2,3,21,14
India,Maharashtra,Solapur,"Dnyaneshwar Nagar, Solapur - MPCB",13-06-2024 03:00:00,17.6336264,75.9132495,NO2,1,16,6
India,Maharashtra,Solapur,"Solapur, Solapur - MPCB",13-06-2024 03:00:00,17.6599188,75.9063906,SO2,NA,NA,NA
India,Maharashtra,Thane,"Kasarvadavali, Thane - MPCB",13-06-2024 03:00:00,19.26777,72.97182,PM10,15,82,38
India,Maharashtra,Thane,"Kasarvadavali, Thane - MPCB",13-06-2024 03:00:00,19.26777,72.97182,NO2,6,25,17
India,Maharashtra,Thane,"Kasarvadavali, Thane - MPCB",13-06-2024 03:00:00,19.26777,72.97182,CO,8,52,15
India,Maharashtra,Thane,"Upvan Fort, Thane - MPCB",13-06-2024 03:00:00,19.222279,72.957979,CO,9,42,23
India,Maharashtra,Ulhasnagar,"Sidhi Vinayak Nagar, Ulhasnagar - MPCB",13-06-2024 03:00:00,19.235581,73.159121,PM2.5,31,83,53
India,Maharashtra,Ulhasnagar,"Sidhi Vinayak Nagar, Ulhasnagar - MPCB",13-06-2024 03:00:00,19.235581,73.159121,PM10,52,103,76
India,Maharashtra,Ulhasnagar,"Sidhi Vinayak Nagar, Ulhasnagar - MPCB",13-06-2024 03:00:00,19.235581,73.159121,CO,18,42,35
India,Maharashtra,Ulhasnagar,"Sidhi Vinayak Nagar, Ulhasnagar - MPCB",13-06-2024 03:00:00,19.235581,73.159121,OZONE,3,62,12
India,Maharashtra,Virar,"Bolinj, Virar - MPCB",13-06-2024 03:00:00,19.4458210,72.7988231,CO,12,77,41
India,Manipur,Imphal,"DM College of Science, Imphal - Manipur PCB",13-06-2024 03:00:00,24.8207389,93.9423085,NO2,7,8,7
India,Manipur,Imphal,"Manipur University, Imphal - Manipur PCB",13-06-2024 03:00:00,24.7524239,93.9286218,NO2,6,10,8
India,Manipur,Imphal,"Manipur University, Imphal - Manipur PCB",13-06-2024 03:00:00,24.7524239,93.9286218,CO,9,16,12
India,Meghalaya,Shillong,"Lumpyngngad, Shillong - Meghalaya PCB",13-06-2024 03:00:00,25.5586,91.8985,CO,6,22,9
India,Mizoram,Aizawl,"Sikulpuikawn, Aizawl - Mizoram PCB",13-06-2024 03:00:00,23.7176342,92.7192841,PM10,11,55,33
India,Odisha,Angul,"Hakimapada, Angul - OSPCB",13-06-2024 03:00:00,20.832874,85.104082,PM10,61,161,98
India,Odisha,Balasore,"Kalidaspur, Balasore - OSPCB",13-06-2024 03:00:00,21.51161,86.89088,OZONE,25,78,32
India,Odisha,Baripada,"Meher Colony, Baripada - OSPCB",13-06-2024 03:00:00,21.941841,86.728318,SO2,4,13,7
India,Odisha,Bhubaneswar,"Lingraj Mandir, Bhubaneswar - OSPCB",13-06-2024 03:00:00,20.240790,85.836784,CO,42,103,88
India,Odisha,Bhubaneswar,"Patia, Bhubaneswar - OSPCB",13-06-2024 03:00:00,20.34652,85.81630,OZONE,45,192,74
India,Odisha,Bileipada,"Tata Township, Bileipada - OSPCB",13-06-2024 03:00:00,22.06156703,85.47409613,NO2,5,13,7
India,Odisha,Bileipada,"Tata Township, Bileipada - OSPCB",13-06-2024 03:00:00,22.06156703,85.47409613,SO2,38,72,53
India,Odisha,Bileipada,"Tata Township, Bileipada - OSPCB",13-06-2024 03:00:00,22.06156703,85.47409613,OZONE,6,62,32
India,Odisha,Brajrajnagar,"GM Office, Brajrajnagar - OSPCB",13-06-2024 03:00:00,21.8004996,83.8396977,PM10,23,127,71
India,Odisha,Brajrajnagar,"GM Office, Brajrajnagar - OSPCB",13-06-2024 03:00:00,21.8004996,83.8396977,NH3,10,12,12
India,Odisha,Brajrajnagar,"GM Office, Brajrajnagar - OSPCB",13-06-2024 03:00:00,21.8004996,83.8396977,SO2,4,15,13
India,Odisha,Byasanagar,"Ferro Chrome Colony, Byasanagar - OSPCB",13-06-2024 03:00:00,20.94185,86.11510,PM10,61,140,89
India,Odisha,Keonjhar,"Jagamohanpur, Keonjhar - OSPCB",13-06-2024 03:00:00,21.643900,85.599355,PM2.5,44,96,70
India,Odisha,Keonjhar,"Jagamohanpur, Keonjhar - OSPCB",13-06-2024 03:00:00,21.643900,85.599355,SO2,10,22,13
India,Odisha,Nayagarh,"Dabuna, Nayagarh - OSPCB",13-06-2024 03:00:00,21.847279,85.416905,SO2,1,4,2
India,Odisha,Rairangpur,"Divisional Forest Office, Rairangpur - OSPCB",13-06-2024 03:00:00,22.265816,86.174829,SO2,15,22,18
India,Odisha,Rourkela,"Raghunathpali, Rourkela - OSPCB",13-06-2024 03:00:00,22.220833,84.809444,PM2.5,74,235,124
India,Odisha,Rourkela,"Raghunathpali, Rourkela - OSPCB",13-06-2024 03:00:00,22.220833,84.809444,CO,29,59,48
India,Odisha,Suakati,"OMC Colony, Suakati - OSPCB",13-06-2024 03:00:00,21.606865,85.510538,PM10,52,120,91
India,Odisha,Talcher,"Talcher Coalfields,Talcher - OSPCB",13-06-2024 03:00:00,20.9360711,85.1707021,OZONE,23,28,24
India,Odisha,Tensa,"Barsua Iron Ore Mines, Tensa - OSPCB",13-06-2024 03:00:00,21.869985,85.167016,PM2.5,NA,NA,NA
India,Odisha,Tensa,"Barsua Iron Ore Mines, Tensa - OSPCB",13-06-2024 03:00:00,21.869985,85.167016,NO2,NA,NA,NA
India,Odisha,Tensa,"Barsua Iron Ore Mines, Tensa - OSPCB",13-06-2024 03:00:00,21.869985,85.167016,CO,NA,NA,NA
India,Puducherry,Puducherry,"Jawahar Nagar, Puducherry - PPCC",13-06-2024 03:00:00,11.9309,79.8027,PM2.5,3,55,23
India,Puducherry,Puducherry,"Jawahar Nagar, Puducherry - PPCC",13-06-2024 03:00:00,11.9309,79.8027,PM10,24,72,38
India,Puducherry,Puducherry,"Jawahar Nagar, Puducherry - PPCC",13-06-2024 03:00:00,11.9309,79.8027,SO2,7,16,10
India,Punjab,Amritsar,"Golden Temple, Amritsar - PPCB",13-06-2024 03:00:00,31.620000,74.876512,PM10,83,126,105
India,Punjab,Amritsar,"Golden Temple, Amritsar - PPCB",13-06-2024 03:00:00,31.620000,74.876512,OZONE,46,68,56
India,Punjab,Bathinda,"Hardev Nagar, Bathinda - PPCB",13-06-2024 03:00:00,30.233011,74.907758,PM2.5,NA,NA,NA
India,Punjab,Bathinda,"Hardev Nagar, Bathinda - PPCB",13-06-2024 03:00:00,30.233011,74.907758,SO2,13,41,29
India,Punjab,Bathinda,"Hardev Nagar, Bathinda - PPCB",13-06-2024 03:00:00,30.233011,74.907758,CO,1,153,80
India,Punjab,Jalandhar,"Civil Line, Jalandhar - PPCB",13-06-2024 03:00:00,31.321907,75.578914,NO2,40,46,44
India,Punjab,Jalandhar,"Civil Line, Jalandhar - PPCB",13-06-2024 03:00:00,31.321907,75.578914,SO2,7,14,11
India,Punjab,Jalandhar,"Civil Line, Jalandhar - PPCB",13-06-2024 03:00:00,31.321907,75.578914,CO,11,68,46
India,Punjab,Ludhiana,"Punjab Agricultural University, Ludhiana - PPCB",13-06-2024 03:00:00,30.9028,75.8086,OZONE,20,65,41
India,Punjab,Mandi Gobindgarh,"RIMT University, Mandi Gobindgarh - PPCB",13-06-2024 03:00:00,30.649961,76.331442,PM10,95,405,188
India,Punjab,Mandi Gobindgarh,"RIMT University, Mandi Gobindgarh - PPCB",13-06-2024 03:00:00,30.649961,76.331442,SO2,21,76,41
India,Punjab,Patiala,"Model Town, Patiala - PPCB",13-06-2024 03:00:00,30.349388,76.366642,SO2,7,48,21
India,Punjab,Rupnagar,"Ratanpura, Rupnagar - Ambuja Cements",13-06-2024 03:00:00,31.0325454,76.5623046,PM2.5,58,229,123
India,Punjab,Rupnagar,"Ratanpura, Rupnagar - Ambuja Cements",13-06-2024 03:00:00,31.0325454,76.5623046,SO2,6,8,7
India,Punjab,Rupnagar,"Ratanpura, Rupnagar - Ambuja Cements",13-06-2024 03:00:00,31.0325454,76.5623046,CO,22,48,37
India,Rajasthan,Ajmer,"Civil Lines,  Ajmer - RSPCB",13-06-2024 03:00:00,26.470859,74.646594,OZONE,10,77,51
India,Rajasthan,Alwar,"Moti Doongri, Alwar - RSPCB",13-06-2024 03:00:00,27.554793,76.611536,CO,24,56,45
India,Rajasthan,Banswara,"Rati Talai, Banswara - RSPCB",13-06-2024 03:00:00,23.555190,74.440010,NO2,9,55,19
India,Rajasthan,Banswara,"Rati Talai, Banswara - RSPCB",13-06-2024 03:00:00,23.555190,74.440010,CO,23,50,36
India,Rajasthan,Barmer,"Railway Colony, Barmer - RSPCB",13-06-2024 03:00:00,25.747299,71.393989,PM10,54,167,106
India,Rajasthan,Barmer,"Railway Colony, Barmer - RSPCB",13-06-2024 03:00:00,25.747299,71.393989,OZONE,10,73,36
India,Rajasthan,Bharatpur,"Krishna Nagar, Bharatpur - RSPCB",13-06-2024 03:00:00,27.215415,77.50873,CO,19,146,52
India,Rajasthan,Bhilwara,"Pratap Nagar, Bhilwara - RSPCB",13-06-2024 03:00:00,25.339605,74.618883,NH3,1,14,4
India,Rajasthan,Bhiwadi,"RIICO Ind. Area III, Bhiwadi - RSPCB",13-06-2024 03:00:00,28.194909,76.862296,PM2.5,72,343,190
India,Rajasthan,Bundi,"New Colony, Bundi - RSPCB",13-06-2024 03:00:00,25.435774,75.644272,SO2,NA,NA,NA
India,Rajasthan,Chittorgarh,"Shastri Nagar, Chittorgarh - RSPCB",13-06-2024 03:00:00,24.892047,74.623527,OZONE,12,80,37
India,Rajasthan,Dausa,"Khatikan Mohalla, Dausa - RSPCB",13-06-2024 03:00:00,26.895552,76.334753,PM2.5,30,253,90
India,Rajasthan,Dausa,"Khatikan Mohalla, Dausa - RSPCB",13-06-2024 03:00:00,26.895552,76.334753,NH3,5,11,7
India,Rajasthan,Dungarpur,"Bhoiwada, Dungarpur - RSPCB",13-06-2024 03:00:00,23.837789,73.714926,NO2,6,15,10
India,Rajasthan,Dungarpur,"Bhoiwada, Dungarpur - RSPCB",13-06-2024 03:00:00,23.837789,73.714926,CO,12,33,17
India,Rajasthan,Jaipur,"Adarsh Nagar, Jaipur - RSPCB",13-06-2024 03:00:00,26.902909,75.836858,PM10,56,191,107
India,Rajasthan,Jaipur,"Mansarovar Sector-12, Jaipur - RSPCB",13-06-2024 03:00:00,26.843698,75.766894,CO,7,19,15
India,Rajasthan,Jaipur,"Police Commissionerate, Jaipur - RSPCB",13-06-2024 03:00:00,26.9164092,75.7994901,PM2.5,NA,NA,NA
India,Rajasthan,Jaipur,"Police Commissionerate, Jaipur - RSPCB",13-06-2024 03:00:00,26.9164092,75.7994901,SO2,NA,NA,NA
India,Rajasthan,Jaipur,"RIICO Sitapura, Jaipur - RSPCB",13-06-2024 03:00:00,26.786682,75.827928,SO2,7,10,8
India,Rajasthan,Jaipur,"RIICO Sitapura, Jaipur - RSPCB",13-06-2024 03:00:00,26.786682,75.827928,CO,15,44,28
India,Rajasthan,Jaipur,"RIICO Sitapura, Jaipur - RSPCB",13-06-2024 03:00:00,26.786682,75.827928,OZONE,60,155,87
India,Rajasthan,Jaipur,"Sector-2 Murlipura, Jaipur - RSPCB",13-06-2024 03:00:00,26.960669,75.771817,SO2,3,9,6
India,Rajasthan,Jaipur,"Shastri Nagar, Jaipur - RSPCB",13-06-2024 03:00:00,26.9502929,75.730943,PM2.5,65,343,136
India,Rajasthan,Jaipur,"Shastri Nagar, Jaipur - RSPCB",13-06-2024 03:00:00,26.9502929,75.730943,NO2,15,59,30
India,Rajasthan,Jaisalmer,"Sadar Bazar, Jaisalmer - RSPCB",13-06-2024 03:00:00,26.912329,70.909168,NO2,5,42,15
India,Rajasthan,Jaisalmer,"Sadar Bazar, Jaisalmer - RSPCB",13-06-2024 03:00:00,26.912329,70.909168,SO2,1,3,2
India,Rajasthan,Jalore,"Mudtra Sili, Jalore - RSPCB",13-06-2024 03:00:00,25.344694,72.626208,PM2.5,26,41,33
India,Rajasthan,Jalore,"Mudtra Sili, Jalore - RSPCB",13-06-2024 03:00:00,25.344694,72.626208,NO2,2,27,10
India,Rajasthan,Jalore,"Mudtra Sili, Jalore - RSPCB",13-06-2024 03:00:00,25.344694,72.626208,OZONE,31,71,48
India,Rajasthan,Jhalawar,"Rajlaxmi Nagar, Jhalawar - RSPCB",13-06-2024 03:00:00,24.588397,76.172782,PM10,32,193,90
India,Rajasthan,Jodhpur,"Collectorate, Jodhpur - RSPCB",13-06-2024 03:00:00,26.268249,73.0193853,PM10,8,167,85
India,Rajasthan,Jodhpur,"Collectorate, Jodhpur - RSPCB",13-06-2024 03:00:00,26.268249,73.0193853,OZONE,6,65,32
India,Rajasthan,Jodhpur,"Jhalamand, Jodhpur - RSPCB",13-06-2024 03:00:00,26.215415,73.070156,NH3,3,13,5
India,Rajasthan,Jodhpur,"Jhalamand, Jodhpur - RSPCB",13-06-2024 03:00:00,26.215415,73.070156,CO,4,16,8
India,Rajasthan,Jodhpur,"Samrat Ashok Udhyan, Jodhpur - RSPCB",13-06-2024 03:00:00,26.253384,72.976571,NO2,2,26,6
India,Rajasthan,Karauli,"Satyawati Vihar, Karauli - RSPCB",13-06-2024 03:00:00,26.506177,77.025989,OZONE,62,154,88
India,Rajasthan,Kota,"Dhanmandi, Kota - RSPCB",13-06-2024 03:00:00,25.164090,75.858137,PM10,42,155,86
India,Rajasthan,Nagaur,"Karni Colony, Nagaur - RSPCB",13-06-2024 03:00:00,27.213494,73.734444,PM2.5,15,59,28
India,Rajasthan,Nagaur,"Karni Colony, Nagaur - RSPCB",13-06-2024 03:00:00,27.213494,73.734444,NO2,6,14,9
India,Rajasthan,Nagaur,"Karni Colony, Nagaur - RSPCB",13-06-2024 03:00:00,27.213494,73.734444,SO2,2,10,5
India,Rajasthan,Pali,"Indira Colony Vistar, Pali - RSPCB",13-06-2024 03:00:00,25.771061, 73.340227,NO2,20,35,27
India,Rajasthan,Pratapgarh,"Pragati Nagar, Pratapgarh - RSPCB",13-06-2024 03:00:00,24.041198,74.780702,PM2.5,7,147,35
India,Rajasthan,Pratapgarh,"Pragati Nagar, Pratapgarh - RSPCB",13-06-2024 03:00:00,24.041198,74.780702,PM10,19,109,61
India,Rajasthan,Rajsamand,"Dhoinda, Rajsamand - RSPCB",13-06-2024 03:00:00,25.036360,73.883502,OZONE,NA,NA,NA
India,Rajasthan,Sikar,"Radhakishan Pura, Sikar - RSPCB",13-06-2024 03:00:00,27.608912,75.153302,SO2,1,5,3
India,Rajasthan,Sirohi,"Vedhaynath Colony, Sirohi - RSPCB",13-06-2024 03:00:00,24.885261,72.857549,PM2.5,13,37,22
India,Rajasthan,Sri Ganganagar,"Old City, Sri Ganganagar - RSPCB",13-06-2024 03:00:00,29.931624,73.864511,NO2,17,105,44
India,Rajasthan,Sri Ganganagar,"Old City, Sri Ganganagar - RSPCB",13-06-2024 03:00:00,29.931624,73.864511,CO,3,102,63
India,TamilNadu,Ariyalur,"Keelapalur, Ariyalur - TNPCB",13-06-2024 03:00:00,11.06825,79.07033,SO2,23,64,32
India,TamilNadu,Chennai,"Arumbakkam, Chennai - TNPCB",13-06-2024 03:00:00,13.0664,80.2112 ,SO2,3,12,6
India,TamilNadu,Chennai,"Kodungaiyur, Chennai - TNPCB",13-06-2024 03:00:00,13.1278,80.2642,PM2.5,5,33,17
India,TamilNadu,Chennai,"Manali, Chennai - CPCB",13-06-2024 03:00:00,13.164544,80.26285,PM10,18,114,46
India,TamilNadu,Chennai,"Perungudi, Chennai - TNPCB",13-06-2024 03:00:00,12.9533,80.2357,NO2,4,15,8
India,TamilNadu,Chennai,"Perungudi, Chennai - TNPCB",13-06-2024 03:00:00,12.9533,80.2357,NH3,3,5,4
India,TamilNadu,Chennai,"Royapuram, Chennai - TNPCB",13-06-2024 03:00:00,13.1036,80.2909,PM2.5,NA,NA,NA
India,TamilNadu,Chennai,"Velachery Res. Area, Chennai - CPCB",13-06-2024 03:00:00,13.0052189,80.2398125,NO2,16,34,24
India,TamilNadu,Chennai,"Velachery Res. Area, Chennai - CPCB",13-06-2024 03:00:00,13.0052189,80.2398125,NH3,7,21,13
India,TamilNadu,Chennai,"Velachery Res. Area, Chennai - CPCB",13-06-2024 03:00:00,13.0052189,80.2398125,CO,105,108,107
India,TamilNadu,Ooty,"Bombay Castel, Ooty - TNPCB",13-06-2024 03:00:00,11.4068288,76.7138973,NO2,NA,NA,NA
India,TamilNadu,Ramanathapuram,"Chalai Bazaar, Ramanathapuram - TNPCB",13-06-2024 03:00:00,9.36399,78.831977,CO,2,6,4
India,TamilNadu,Tirupur,"Kumaran College, Tirupur - TNPCB",13-06-2024 03:00:00,11.0973603,77.3228673,NO2,NA,NA,NA
India,Telangana,Hyderabad,"Bollaram Industrial Area, Hyderabad - TSPCB",13-06-2024 03:00:00,17.540891,78.358528,NO2,15,39,27
India,Telangana,Hyderabad,"Bollaram Industrial Area, Hyderabad - TSPCB",13-06-2024 03:00:00,17.540891,78.358528,SO2,9,42,25
India,Telangana,Hyderabad,"IITH Kandi, Hyderabad - TSPCB",13-06-2024 03:00:00,17.585705,78.126199,PM2.5,17,21,19
India,Telangana,Hyderabad,"IITH Kandi, Hyderabad - TSPCB",13-06-2024 03:00:00,17.585705,78.126199,OZONE,23,39,28
India,Telangana,Hyderabad,"Kompally Municipal Office, Hyderabad - TSPCB",13-06-2024 03:00:00,17.544899,78.486949,NO2,NA,NA,NA
India,Telangana,Hyderabad,"Kompally Municipal Office, Hyderabad - TSPCB",13-06-2024 03:00:00,17.544899,78.486949,CO,11,26,17
India,Telangana,Hyderabad,"Nacharam_TSIIC IALA, Hyderabad - TSPCB",13-06-2024 03:00:00,17.429398,78.569354,PM10,58,68,60
India,Telangana,Hyderabad,"Nacharam_TSIIC IALA, Hyderabad - TSPCB",13-06-2024 03:00:00,17.429398,78.569354,CO,17,36,31
India,Telangana,Hyderabad,"New Malakpet, Hyderabad - TSPCB",13-06-2024 03:00:00,17.37206,78.50864,PM10,68,96,81
India,Telangana,Hyderabad,"Ramachandrapuram, Hyderabad - TSPCB",13-06-2024 03:00:00,17.528544,78.286195,PM2.5,39,54,45
India,Telangana,Hyderabad,"Ramachandrapuram, Hyderabad - TSPCB",13-06-2024 03:00:00,17.528544,78.286195,CO,28,34,32
India,Telangana,Hyderabad,"Sanathnagar, Hyderabad - TSPCB",13-06-2024 03:00:00,17.4559458,78.4332152,OZONE,15,18,17
India,Telangana,Hyderabad,"Zoo Park, Hyderabad - TSPCB",13-06-2024 03:00:00,17.349694,78.451437,PM2.5,8,30,18
India,Tripura,Agartala,"Bardowali, Agartala - Tripura SPCB",13-06-2024 03:00:00,23.8175497,91.2726974,PM10,59,87,75
India,Tripura,Agartala,"Bardowali, Agartala - Tripura SPCB",13-06-2024 03:00:00,23.8175497,91.2726974,NH3,1,3,2
India,Tripura,Agartala,"Bardowali, Agartala - Tripura SPCB",13-06-2024 03:00:00,23.8175497,91.2726974,CO,9,16,13
India,Uttar_Pradesh,Agra,"Manoharpur, Agra - UPPCB",13-06-2024 03:00:00,27.23711,78.01936,PM2.5,28,75,41
India,Uttar_Pradesh,Agra,"Manoharpur, Agra - UPPCB",13-06-2024 03:00:00,27.23711,78.01936,CO,6,24,15
India,Uttar_Pradesh,Agra,"Rohta, Agra - UPPCB",13-06-2024 03:00:00,27.106972,78.000111,SO2,3,9,5
India,Uttar_Pradesh,Agra,"Rohta, Agra - UPPCB",13-06-2024 03:00:00,27.106972,78.000111,CO,6,17,10
India,Uttar_Pradesh,Agra,"Sector-3B Avas Vikas Colony, Agra - UPPCB",13-06-2024 03:00:00,27.19412,77.96237,NO2,40,49,44
India,Uttar_Pradesh,Agra,"Sector-3B Avas Vikas Colony, Agra - UPPCB",13-06-2024 03:00:00,27.19412,77.96237,OZONE,11,17,13
India,Uttar_Pradesh,Agra,"Shastripuram, Agra - UPPCB",13-06-2024 03:00:00,27.19862,77.92066,PM2.5,7,56,33
India,Uttar_Pradesh,Agra,"Shastripuram, Agra - UPPCB",13-06-2024 03:00:00,27.19862,77.92066,CO,6,20,13
India,Uttar_Pradesh,Baghpat,"Sardar Patel Inter College, Baghpat - UPPCB",13-06-2024 03:00:00,28.964949,77.278761,NH3,2,10,5
India,Uttar_Pradesh,Baghpat,"Sardar Patel Inter College, Baghpat - UPPCB",13-06-2024 03:00:00,28.964949,77.278761,SO2,1,127,64
India,Uttar_Pradesh,Bareilly,"Civil Lines, Bareilly - UPPCB",13-06-2024 03:00:00,28.359581,79.414455,PM2.5,10,25,17
India,Uttar_Pradesh,Bareilly,"Civil Lines, Bareilly - UPPCB",13-06-2024 03:00:00,28.359581,79.414455,SO2,20,25,22
India,Uttar_Pradesh,Bulandshahr,"Yamunapuram, Bulandshahr - UPPCB",13-06-2024 03:00:00,28.406963,77.849831,PM10,122,314,181
India,Uttar_Pradesh,Firozabad,"Vibhab Nagar, Firozabad - UPPCB",13-06-2024 03:00:00,27.1594,78.3953,OZONE,6,103,34
India,Uttar_Pradesh,Ghaziabad,"Indirapuram, Ghaziabad - UPPCB",13-06-2024 03:00:00,28.646233,77.358075,PM10,130,408,233
India,Uttar_Pradesh,Ghaziabad,"Loni, Ghaziabad - UPPCB",13-06-2024 03:00:00,28.757294,77.278792,SO2,9,48,30
India,Uttar_Pradesh,Ghaziabad,"Vasundhara, Ghaziabad - UPPCB",13-06-2024 03:00:00,28.6603346,77.3572563,PM10,98,258,147
India,Uttar_Pradesh,Gorakhpur,"Madan Mohan Malaviya University of Technology, Gorakhpur - UPPCB",13-06-2024 03:00:00,26.730136,83.433859,NH3,1,1,1
India,Uttar_Pradesh,Greater Noida,"Knowledge Park - III, Greater Noida - UPPCB",13-06-2024 03:00:00,28.47272,77.482000,CO,8,108,57
India,Uttar_Pradesh,Greater Noida,"Knowledge Park - III, Greater Noida - UPPCB",13-06-2024 03:00:00,28.47272,77.482000,OZONE,1,218,35
India,Uttar_Pradesh,Greater Noida,"Knowledge Park - V, Greater Noida - UPPCB",13-06-2024 03:00:00,28.557054,77.453663,PM2.5,NA,NA,NA
India,Uttar_Pradesh,Hapur,"Anand Vihar, Hapur - UPPCB",13-06-2024 03:00:00,28.725645,77.749675,PM10,89,230,142
India,Uttar_Pradesh,Kanpur,"FTI Kidwai Nagar, Kanpur - UPPCB",13-06-2024 03:00:00,26.428282,80.327067,PM2.5,50,241,101
India,Uttar_Pradesh,Kanpur,"FTI Kidwai Nagar, Kanpur - UPPCB",13-06-2024 03:00:00,26.428282,80.327067,NH3,2,7,2
India,Uttar_Pradesh,Kanpur,"NSI Kalyanpur, Kanpur - UPPCB",13-06-2024 03:00:00,26.509954,80.249612,PM2.5,42,142,85
India,Uttar_Pradesh,Kanpur,"NSI Kalyanpur, Kanpur - UPPCB",13-06-2024 03:00:00,26.509954,80.249612,NO2,19,19,19
India,Uttar_Pradesh,Kanpur,"Nehru Nagar, Kanpur - UPPCB",13-06-2024 03:00:00,26.4703136,80.3229863,CO,8,82,53
India,Uttar_Pradesh,Lucknow,"Gomti Nagar, Lucknow - UPPCB",13-06-2024 03:00:00,26.868120,81.005119,NO2,10,13,11
India,Uttar_Pradesh,Lucknow,"Gomti Nagar, Lucknow - UPPCB",13-06-2024 03:00:00,26.868120,81.005119,SO2,6,13,10
India,Uttar_Pradesh,Lucknow,"Kendriya Vidyalaya, Lucknow - CPCB",13-06-2024 03:00:00,26.906111,80.948222,NH3,3,17,12
India,Uttar_Pradesh,Lucknow,"Lalbagh, Lucknow - CPCB",13-06-2024 03:00:00,26.8458805,80.9365541,NO2,44,113,67
India,Uttar_Pradesh,Meerut,"Ganga Nagar, Meerut - UPPCB",13-06-2024 03:00:00,28.999264,77.7590354,NH3,7,11,8
India,Uttar_Pradesh,Meerut,"Jai Bhim Nagar, Meerut - UPPCB",13-06-2024 03:00:00,28.9535882,77.7622941,SO2,3,11,6
India,Uttar_Pradesh,Meerut,"Jai Bhim Nagar, Meerut - UPPCB",13-06-2024 03:00:00,28.9535882,77.7622941,OZONE,32,144,65
India,Uttar_Pradesh,Meerut,"Pallavpuram Phase 2, Meerut - UPPCB",13-06-2024 03:00:00,29.063510,77.709723,PM10,110,262,158
India,Uttar_Pradesh,Meerut,"Pallavpuram Phase 2, Meerut - UPPCB",13-06-2024 03:00:00,29.063510,77.709723,NH3,8,12,10
India,Uttar_Pradesh,Moradabad,"Buddhi Vihar, Moradabad - UPPCB",13-06-2024 03:00:00,28.83526,78.74460,NH3,3,3,3
India,Uttar_Pradesh,Moradabad,"Buddhi Vihar, Moradabad - UPPCB",13-06-2024 03:00:00,28.83526,78.74460,SO2,24,48,34
India,Uttar_Pradesh,Moradabad,"Eco Herbal Park, Moradabad - UPPCB",13-06-2024 03:00:00,28.840739,78.697531,PM2.5,28,138,70
India,Uttar_Pradesh,Moradabad,"Eco Herbal Park, Moradabad - UPPCB",13-06-2024 03:00:00,28.840739,78.697531,NH3,7,18,11
India,Uttar_Pradesh,Moradabad,"Kashiram Nagar, Moradabad - UPPCB",13-06-2024 03:00:00,28.849399,78.742362,PM10,NA,NA,NA
India,Uttar_Pradesh,Moradabad,"Transport Nagar, Moradabad - UPPCB",13-06-2024 03:00:00,28.802625,78.753728,NO2,4,4,4
India,Uttar_Pradesh,Moradabad,"Transport Nagar, Moradabad - UPPCB",13-06-2024 03:00:00,28.802625,78.753728,OZONE,12,54,26
India,Uttar_Pradesh,Muzaffarnagar,"New Mandi, Muzaffarnagar - UPPCB",13-06-2024 03:00:00,29.4723508,77.7194031,CO,17,57,41
India,Uttar_Pradesh,Noida,"Sector-1, Noida - UPPCB",13-06-2024 03:00:00,28.5898,77.3101,PM2.5,30,176,96
India,Uttar_Pradesh,Noida,"Sector-1, Noida - UPPCB",13-06-2024 03:00:00,28.5898,77.3101,PM10,136,281,208
India,Uttar_Pradesh,Noida,"Sector-1, Noida - UPPCB",13-06-2024 03:00:00,28.5898,77.3101,NO2,20,160,77
India,Uttar_Pradesh,Noida,"Sector-1, Noida - UPPCB",13-06-2024 03:00:00,28.5898,77.3101,SO2,7,33,18
India,Uttar_Pradesh,Noida,"Sector-1, Noida - UPPCB",13-06-2024 03:00:00,28.5898,77.3101,OZONE,3,173,14
India,Uttar_Pradesh,Noida,"Sector-116, Noida - UPPCB",13-06-2024 03:00:00,28.569230,77.393848,PM2.5,35,303,118
India,Uttar_Pradesh,Noida,"Sector-116, Noida - UPPCB",13-06-2024 03:00:00,28.569230,77.393848,PM10,126,457,242
India,Uttar_Pradesh,Noida,"Sector-116, Noida - UPPCB",13-06-2024 03:00:00,28.569230,77.393848,NH3,7,17,10
India,Uttar_Pradesh,Noida,"Sector-116, Noida - UPPCB",13-06-2024 03:00:00,28.569230,77.393848,OZONE,1,172,23
India,Uttar_Pradesh,Prayagraj,"Motilal Nehru NIT, Prayagraj - UPPCB",13-06-2024 03:00:00,25.494,81.863,NO2,11,12,12
India,Uttar_Pradesh,Prayagraj,"Motilal Nehru NIT, Prayagraj - UPPCB",13-06-2024 03:00:00,25.494,81.863,CO,20,94,59
India,Uttar_Pradesh,Prayagraj,"Nagar Nigam, Prayagraj - UPPCB",13-06-2024 03:00:00,25.44919916 ,81.82735986 ,NO2,5,5,5
India,Uttar_Pradesh,Varanasi,"Bhelupur, Varanasi - UPPCB",13-06-2024 03:00:00,25.301778,82.996789,CO,13,102,70
India,Uttar_Pradesh,Varanasi,"Maldahiya, Varanasi - UPPCB",13-06-2024 03:00:00,25.32393,82.99687,PM10,26,85,49
India,Uttar_Pradesh,Varanasi,"Maldahiya, Varanasi - UPPCB",13-06-2024 03:00:00,25.32393,82.99687,NO2,1,2,2
India,Uttar_Pradesh,Varanasi,"Maldahiya, Varanasi - UPPCB",13-06-2024 03:00:00,25.32393,82.99687,SO2,25,26,25
India,Uttar_Pradesh,Vrindavan,"Omex Eternity, Vrindavan - UPPCB",13-06-2024 03:00:00,27.5714090,77.6557570,PM2.5,18,117,41
India,Uttar_Pradesh,Vrindavan,"Omex Eternity, Vrindavan - UPPCB",13-06-2024 03:00:00,27.5714090,77.6557570,CO,20,56,38
India,Uttarakhand,Dehradun,"Doon University, Dehradun - UKPCB",13-06-2024 03:00:00,30.269444,78.044167,SO2,3,11,5
India,Uttarakhand,Kashipur,"Govt. Girls Inter College, Kashipur - UKPCB",13-06-2024 03:00:00,29.2124114,78.9611753,PM10,94,257,164
India,Uttarakhand,Rishikesh,"Shivaji Nagar, Rishikesh - UKPCB",13-06-2024 03:00:00,30.075911,78.2859547,PM2.5,45,147,92
India,Uttarakhand,Rishikesh,"Shivaji Nagar, Rishikesh - UKPCB",13-06-2024 03:00:00,30.075911,78.2859547,CO,18,66,45
India,West_Bengal,Asansol,"Asansol Court Area, Asansol - WBPCB",13-06-2024 03:00:00,23.685297,86.945968,PM2.5,76,362,238
India,West_Bengal,Asansol,"Asansol Court Area, Asansol - WBPCB",13-06-2024 03:00:00,23.685297,86.945968,NH3,11,36,15
India,West_Bengal,Asansol,"Evelyn Lodge, Asansol - WBPCB",13-06-2024 03:00:00,23.6979360,86.9443950,CO,59,93,73
India,West_Bengal,Barrackpore,"SVSPA Campus, Barrackpore - WBPCB",13-06-2024 03:00:00,22.7605581,88.3617589,PM2.5,22,74,53
India,West_Bengal,Durgapur,"Sidhu Kanhu Indoor Stadium, Durgapur - WBPCB",13-06-2024 03:00:00,23.5404352,87.2892225,PM10,53,153,109
India,West_Bengal,Durgapur,"Sidhu Kanhu Indoor Stadium, Durgapur - WBPCB",13-06-2024 03:00:00,23.5404352,87.2892225,NH3,1,5,3
India,West_Bengal,Durgapur,"Sidhu Kanhu Indoor Stadium, Durgapur - WBPCB",13-06-2024 03:00:00,23.5404352,87.2892225,OZONE,9,83,25
India,West_Bengal,Haldia,"Priyambada Housing Estate, Haldia - WBPCB",13-06-2024 03:00:00,22.06047,88.109737,NO2,11,15,12
India,West_Bengal,Haldia,"Priyambada Housing Estate, Haldia - WBPCB",13-06-2024 03:00:00,22.06047,88.109737,NH3,11,16,12
India,West_Bengal,Howrah,"Belur Math, Howrah - WBPCB",13-06-2024 03:00:00,22.629801,88.352017,PM10,36,79,60
India,West_Bengal,Howrah,"Belur Math, Howrah - WBPCB",13-06-2024 03:00:00,22.629801,88.352017,NH3,1,1,1
India,West_Bengal,Howrah,"Ghusuri, Howrah - WBPCB",13-06-2024 03:00:00,22.611968,88.347422,PM2.5,28,65,45
India,West_Bengal,Howrah,"Ghusuri, Howrah - WBPCB",13-06-2024 03:00:00,22.611968,88.347422,PM10,28,449,85
India,West_Bengal,Howrah,"Ghusuri, Howrah - WBPCB",13-06-2024 03:00:00,22.611968,88.347422,NH3,6,6,6
India,West_Bengal,Howrah,"Padmapukur, Howrah - WBPCB",13-06-2024 03:00:00,22.5687319,88.2797276,PM10,58,83,68
India,West_Bengal,Howrah,"Padmapukur, Howrah - WBPCB",13-06-2024 03:00:00,22.5687319,88.2797276,SO2,6,32,13
India,West_Bengal,Howrah,"Padmapukur, Howrah - WBPCB",13-06-2024 03:00:00,22.5687319,88.2797276,OZONE,12,44,28
India,West_Bengal,Kolkata,"Jadavpur, Kolkata - WBPCB",13-06-2024 03:00:00,22.49929,88.36917,NH3,6,6,6
India,West_Bengal,Kolkata,"Rabindra Bharati University, Kolkata - WBPCB",13-06-2024 03:00:00,22.627847,88.380669,PM2.5,20,55,37
India,West_Bengal,Kolkata,"Rabindra Bharati University, Kolkata - WBPCB",13-06-2024 03:00:00,22.627847,88.380669,PM10,32,73,53
India,West_Bengal,Kolkata,"Rabindra Bharati University, Kolkata - WBPCB",13-06-2024 03:00:00,22.627847,88.380669,CO,22,29,27
India,West_Bengal,Siliguri,"Ward-32 Bapupara, Siliguri - WBPCB",13-06-2024 03:00:00,26.6879226,88.4152495,NH3,10,10,10
India,West_Bengal,Siliguri,"Ward-32 Bapupara, Siliguri - WBPCB",13-06-2024 03:00:00,26.6879226,88.4152495,CO,16,36,24
India,Andhra_Pradesh,Amaravati,"Secretariat, Amaravati - APPCB",13-06-2024 03:00:00,16.5150833,80.5181667,PM2.5,11,42,25
India,Andhra_Pradesh,Amaravati,"Secretariat, Amaravati - APPCB",13-06-2024 03:00:00,16.5150833,80.5181667,SO2,17,38,27
India,Andhra_Pradesh,Amaravati,"Secretariat, Amaravati - APPCB",13-06-2024 03:00:00,16.5150833,80.5181667,CO,14,38,24
India,Andhra_Pradesh,Anantapur,"Gulzarpet, Anantapur - APPCB",13-06-2024 03:00:00,14.675886,77.593027,OZONE,4,13,7
India,Andhra_Pradesh,Kadapa,"Yerramukkapalli, Kadapa - APPCB",13-06-2024 03:00:00,14.465052,78.824187,NO2,NA,NA,NA
India,Andhra_Pradesh,Kadapa,"Yerramukkapalli, Kadapa - APPCB",13-06-2024 03:00:00,14.465052,78.824187,OZONE,2,31,2
India,Andhra_Pradesh,Rajamahendravaram,"Anand Kala Kshetram, Rajamahendravaram - APPCB",13-06-2024 03:00:00,16.9872867,81.7363176,PM2.5,25,52,36
India,Andhra_Pradesh,Rajamahendravaram,"Anand Kala Kshetram, Rajamahendravaram - APPCB",13-06-2024 03:00:00,16.9872867,81.7363176,SO2,11,12,11
India,Andhra_Pradesh,Tirupati,"Tirumala, Tirupati - APPCB",13-06-2024 03:00:00,13.67,79.35,PM10,8,36,24
India,Andhra_Pradesh,Tirupati,"Tirumala, Tirupati - APPCB",13-06-2024 03:00:00,13.67,79.35,OZONE,11,27,25
India,Andhra_Pradesh,Tirupati,"Vaikuntapuram, Tirupati - APPCB",13-06-2024 03:00:00,13.615387,79.409230,NH3,NA,NA,NA
India,Andhra_Pradesh,Tirupati,"Vaikuntapuram, Tirupati - APPCB",13-06-2024 03:00:00,13.615387,79.409230,SO2,NA,NA,NA
India,Andhra_Pradesh,Vijayawada,"HB Colony, Vijayawada - APPCB",13-06-2024 03:00:00,16.536107,80.594233,PM10,49,82,62
India,Andhra_Pradesh,Vijayawada,"HB Colony, Vijayawada - APPCB",13-06-2024 03:00:00,16.536107,80.594233,CO,34,34,34
India,Andhra_Pradesh,Vijayawada,"Kanuru, Vijayawada - APPCB",13-06-2024 03:00:00,16.486692,80.699436,PM10,52,87,60
India,Andhra_Pradesh,Vijayawada,"Kanuru, Vijayawada - APPCB",13-06-2024 03:00:00,16.486692,80.699436,SO2,7,10,8
India,Andhra_Pradesh,Vijayawada,"Rajiv Gandhi Park, Vijayawada - APPCB",13-06-2024 03:00:00,16.509717,80.612222,CO,36,122,36
India,Andhra_Pradesh,Vijayawada,"Rajiv Nagar, Vijayawada - APPCB",13-06-2024 03:00:00,16.554731,80.649110,NH3,1,2,2
India,Andhra_Pradesh,Vijayawada,"Rajiv Nagar, Vijayawada - APPCB",13-06-2024 03:00:00,16.554731,80.649110,CO,38,38,38
India,Andhra_Pradesh,Vijayawada,"Rajiv Nagar, Vijayawada - APPCB",13-06-2024 03:00:00,16.554731,80.649110,OZONE,24,65,41
India,Arunachal_Pradesh,Naharlagun,"Naharlagun, Naharlagun - APSPCB",13-06-2024 03:00:00,27.103358,93.679645,PM2.5,NA,NA,NA
India,Arunachal_Pradesh,Naharlagun,"Naharlagun, Naharlagun - APSPCB",13-06-2024 03:00:00,27.103358,93.679645,NO2,NA,NA,NA
India,Assam,Byrnihat,"Central Academy for SFS, Byrnihat - PCBA",13-06-2024 03:00:00,26.071318,91.87488,NO2,4,27,11
India,Assam,Byrnihat,"Central Academy for SFS, Byrnihat - PCBA",13-06-2024 03:00:00,26.071318,91.87488,OZONE,23,129,23
India,Assam,Guwahati,"IITG, Guwahati - PCBA",13-06-2024 03:00:00,26.2028636,91.70046436,PM2.5,29,128,67
India,Assam,Guwahati,"IITG, Guwahati - PCBA",13-06-2024 03:00:00,26.2028636,91.70046436,SO2,13,14,13
India,Assam,Guwahati,"Pan Bazaar, Guwahati - PCBA",13-06-2024 03:00:00,26.187500,91.744194,NO2,1,4,1
India,Assam,Guwahati,"Pan Bazaar, Guwahati - PCBA",13-06-2024 03:00:00,26.187500,91.744194,SO2,37,50,43
India,Assam,Guwahati,"Railway Colony, Guwahati - PCBA",13-06-2024 03:00:00,26.181742,91.78063,PM2.5,42,215,84
India,Assam,Guwahati,"Railway Colony, Guwahati - PCBA",13-06-2024 03:00:00,26.181742,91.78063,CO,26,49,40
India,Assam,Nagaon,"Christianpatty, Nagaon - PCBA",13-06-2024 03:00:00,26.349082,92.68449,NO2,NA,NA,NA
India,Assam,Silchar,"Tarapur, Silchar - PCBA",13-06-2024 03:00:00,24.82827,92.79525,PM10,38,46,42
India,Assam,Silchar,"Tarapur, Silchar - PCBA",13-06-2024 03:00:00,24.82827,92.79525,NH3,1,1,1
India,Assam,Silchar,"Tarapur, Silchar - PCBA",13-06-2024 03:00:00,24.82827,92.79525,SO2,5,5,5
India,Assam,Sivasagar,"Girls College, Sivasagar - PCBA",13-06-2024 03:00:00,26.987634,94.636574,PM2.5,23,46,29
India,Assam,Sivasagar,"Girls College, Sivasagar - PCBA",13-06-2024 03:00:00,26.987634,94.636574,OZONE,1,14,4
India,Bihar,Arrah,"New DM Office, Arrah - BSPCB",13-06-2024 03:00:00,25.5626095,84.663264,PM2.5,NA,NA,NA
India,Bihar,Arrah,"New DM Office, Arrah - BSPCB",13-06-2024 03:00:00,25.5626095,84.663264,SO2,5,10,8
India,Bihar,Arrah,"New DM Office, Arrah - BSPCB",13-06-2024 03:00:00,25.5626095,84.663264,OZONE,6,29,18
India,Bihar,Aurangabad,"Gurdeo Nagar, Aurangabad - BSPCB",13-06-2024 03:00:00,24.75746,84.366208,PM10,NA,NA,NA
India,Bihar,Bettiah,"Kamalnath Nagar, Bettiah - BSPCB",13-06-2024 03:00:00,26.80365,84.51954,PM2.5,35,253,85
India,Bihar,Bettiah,"Kamalnath Nagar, Bettiah - BSPCB",13-06-2024 03:00:00,26.80365,84.51954,NH3,12,31,22
India,Bihar,Bhagalpur,"Mayaganj, Bhagalpur - BSPCB",13-06-2024 03:00:00,25.265194,87.012947,PM10,35,200,108
India,Bihar,Bhagalpur,"Mayaganj, Bhagalpur - BSPCB",13-06-2024 03:00:00,25.265194,87.012947,NO2,2,11,7
India,Bihar,Bhagalpur,"Mayaganj, Bhagalpur - BSPCB",13-06-2024 03:00:00,25.265194,87.012947,SO2,NA,NA,NA
India,Bihar,Bhagalpur,"Mayaganj, Bhagalpur - BSPCB",13-06-2024 03:00:00,25.265194,87.012947,CO,16,30,23
India,Bihar,Bhagalpur,"Mayaganj, Bhagalpur - BSPCB",13-06-2024 03:00:00,25.265194,87.012947,OZONE,2,55,24
India,Bihar,Bihar Sharif,"D M Colony, Bihar Sharif - BSPCB",13-06-2024 03:00:00,25.204762,85.514960,CO,18,29,28
India,Bihar,Buxar,"Charitra Van, Buxar - BSPCB (Formerly known as Central Jail)",13-06-2024 03:00:00,25.567520,83.966379,SO2,NA,NA,NA
India,Bihar,Buxar,"Charitra Van, Buxar - BSPCB (Formerly known as Central Jail)",13-06-2024 03:00:00,25.567520,83.966379,CO,NA,NA,NA
India,Bihar,Chhapra,"Darshan Nagar, Chhapra - BSPCB",13-06-2024 03:00:00,25.7808257,84.7446768,NH3,NA,NA,NA
India,Bihar,Gaya,"Collectorate, Gaya - BSPCB",13-06-2024 03:00:00,24.7955,84.9994,PM2.5,54,307,116
India,Bihar,Gaya,"Collectorate, Gaya - BSPCB",13-06-2024 03:00:00,24.7955,84.9994,NO2,3,5,4
India,Bihar,Gaya,"SFTI Kusdihra, Gaya - BSPCB",13-06-2024 03:00:00,24.762518,84.982348,PM2.5,51,223,126
India,Bihar,Hajipur,"Industrial Area, Hajipur - BSPCB",13-06-2024 03:00:00,25.697189,85.245900,NO2,11,38,23
India,Bihar,Hajipur,"Industrial Area, Hajipur - BSPCB",13-06-2024 03:00:00,25.697189,85.245900,OZONE,9,103,21
India,Bihar,Katihar,"Mirchaibari, Katihar - BSPCB",13-06-2024 03:00:00,25.560083,87.553265,PM2.5,32,77,57
India,Bihar,Katihar,"Mirchaibari, Katihar - BSPCB",13-06-2024 03:00:00,25.560083,87.553265,SO2,5,13,11
India,Bihar,Kishanganj,"SDM Office_Khagra, Kishanganj - BSPCB",13-06-2024 03:00:00,26.0881305,87.93840336,CO,4,8,6
India,Bihar,Manguraha,"Forest Rest House, Manguraha - BSPCB",13-06-2024 03:00:00,27.308328,84.531742,PM2.5,NA,NA,NA
India,Bihar,Manguraha,"Forest Rest House, Manguraha - BSPCB",13-06-2024 03:00:00,27.308328,84.531742,PM10,NA,NA,NA
India,Bihar,Motihari,"Gandak Colony, Motihari - BSPCB",13-06-2024 03:00:00,26.63086,84.90051,CO,4,38,30
India,Bihar,Motihari,"Gandak Colony, Motihari - BSPCB",13-06-2024 03:00:00,26.63086,84.90051,OZONE,23,94,50
India,Bihar,Munger,"Town Hall, Munger - BSPCB",13-06-2024 03:00:00,25.376776,86.471523,PM2.5,NA,NA,NA
India,Bihar,Muzaffarpur,"Buddha Colony, Muzaffarpur - BSPCB",13-06-2024 03:00:00,26.11442,85.39813,NH3,6,13,9
India,Bihar,Muzaffarpur,"Buddha Colony, Muzaffarpur - BSPCB",13-06-2024 03:00:00,26.11442,85.39813,SO2,2,8,4
India,Bihar,Muzaffarpur,"Buddha Colony, Muzaffarpur - BSPCB",13-06-2024 03:00:00,26.11442,85.39813,CO,12,47,29
India,Bihar,Muzaffarpur,"Muzaffarpur Collectorate, Muzaffarpur - BSPCB",13-06-2024 03:00:00,26.1209,85.3647,CO,40,50,45
India,Bihar,Patna,"DRM Office Danapur, Patna - BSPCB",13-06-2024 03:00:00,25.586562,85.043586,PM10,102,151,129
India,Bihar,Patna,"Govt. High School Shikarpur, Patna - BSPCB",13-06-2024 03:00:00,25.592539,85.227158,PM10,70,147,105
India,Bihar,Patna,"Govt. High School Shikarpur, Patna - BSPCB",13-06-2024 03:00:00,25.592539,85.227158,NH3,4,5,5
India,Bihar,Patna,"Govt. High School Shikarpur, Patna - BSPCB",13-06-2024 03:00:00,25.592539,85.227158,CO,10,68,53
India,Bihar,Patna,"IGSC Planetarium Complex, Patna - BSPCB",13-06-2024 03:00:00,25.610369,85.132568,SO2,3,6,5
India,Bihar,Patna,"Muradpur, Patna - BSPCB",13-06-2024 03:00:00,25.619651,85.147382,PM2.5,116,320,232
India,Bihar,Patna,"Rajbansi Nagar, Patna - BSPCB",13-06-2024 03:00:00,25.599486,85.113666,PM10,1,153,114
India,Bihar,Patna,"Rajbansi Nagar, Patna - BSPCB",13-06-2024 03:00:00,25.599486,85.113666,CO,21,74,41
India,Bihar,Patna,"Samanpura, Patna - BSPCB",13-06-2024 03:00:00,25.596727,85.085624,OZONE,23,118,51
India,Bihar,Rajgir,"Dangi Tola, Rajgir - BSPCB",13-06-2024 03:00:00,25.03280,85.41948,NO2,8,15,13
India,Bihar,Saharsa,"Police Line, Saharsa - BSPCB",13-06-2024 03:00:00,25.892357,86.590325,SO2,16,17,16
India,Bihar,Saharsa,"Police Line, Saharsa - BSPCB",13-06-2024 03:00:00,25.892357,86.590325,OZONE,12,49,28
India,Bihar,Samastipur,"DM Office_Kasipur, Samastipur - BSPCB",13-06-2024 03:00:00,25.859655,85.77944,PM2.5,NA,NA,NA
India,Bihar,Samastipur,"DM Office_Kasipur, Samastipur - BSPCB",13-06-2024 03:00:00,25.859655,85.77944,NO2,4,5,4
India,Bihar,Sasaram,"Dada Peer, Sasaram - BSPCB",13-06-2024 03:00:00,24.952822,84.002396,SO2,22,23,22
India,Bihar,Siwan,"Chitragupta Nagar, Siwan - BSPCB",13-06-2024 03:00:00,26.2271665,84.3570427,OZONE,2,185,18
India,Chandigarh,Chandigarh,"Sector 22, Chandigarh - CPCC",13-06-2024 03:00:00,30.735567,76.775714,SO2,7,64,26
India,Chandigarh,Chandigarh,"Sector-25, Chandigarh - CPCC",13-06-2024 03:00:00,30.751462,76.762879,PM10,112,167,138
India,Chandigarh,Chandigarh,"Sector-25, Chandigarh - CPCC",13-06-2024 03:00:00,30.751462,76.762879,OZONE,2,91,22
India,Chandigarh,Chandigarh,"Sector-53, Chandigarh - CPCC",13-06-2024 03:00:00,30.719859,76.738637,NO2,23,118,66
India,Chandigarh,Chandigarh,"Sector-53, Chandigarh - CPCC",13-06-2024 03:00:00,30.719859,76.738637,NH3,4,6,5
India,Chhattisgarh,Bhilai,"32Bungalows, Bhilai - CECB",13-06-2024 03:00:00,21.194815,81.314770,OZONE,10,59,22
India,Chhattisgarh,Bhilai,"Civic Center, Bhilai - Bhilai Steel Plant",13-06-2024 03:00:00,21.185571,81.343175,PM2.5,23,40,31
India,Chhattisgarh,Bhilai,"Civic Center, Bhilai - Bhilai Steel Plant",13-06-2024 03:00:00,21.185571,81.343175,NO2,7,8,8
India,Chhattisgarh,Bhilai,"Hathkhoj, Bhilai - CECB",13-06-2024 03:00:00,21.224231,81.408350,NO2,4,21,10
India,Chhattisgarh,Bhilai,"Hathkhoj, Bhilai - CECB",13-06-2024 03:00:00,21.224231,81.408350,SO2,11,15,13
India,Chhattisgarh,Bilaspur,"Mangala, Bilaspur - NTPC",13-06-2024 03:00:00,22.08815,82.13737,PM10,32,66,46
India,Chhattisgarh,Kunjemura,"OP Jindal School, Kunjemura - CECB",13-06-2024 03:00:00,22.126650,83.483212,PM2.5,40,233,87
India,Chhattisgarh,Milupara,"Govt. Higher Secondary School, Milupara - CECB",13-06-2024 03:00:00,22.1910172,83.5197009,PM2.5,45,80,59
India,Chhattisgarh,Milupara,"Govt. Higher Secondary School, Milupara - CECB",13-06-2024 03:00:00,22.1910172,83.5197009,CO,20,52,41
India,Chhattisgarh,Raipur,"AIIMS, Raipur - CECB",13-06-2024 03:00:00,21.258815,81.578979,NO2,12,24,16
India,Chhattisgarh,Raipur,"AIIMS, Raipur - CECB",13-06-2024 03:00:00,21.258815,81.578979,NH3,6,6,6
India,Chhattisgarh,Raipur,"Bhatagaon New ISBT, Raipur - CECB",13-06-2024 03:00:00,21.219665,81.630094,PM2.5,23,93,44
India,Chhattisgarh,Raipur,"Bhatagaon New ISBT, Raipur - CECB",13-06-2024 03:00:00,21.219665,81.630094,NO2,4,5,4
India,Chhattisgarh,Raipur,"Bhatagaon New ISBT, Raipur - CECB",13-06-2024 03:00:00,21.219665,81.630094,OZONE,5,9,6
India,Chhattisgarh,Raipur,"Siltara Phase-II, Raipur - CECB",13-06-2024 03:00:00,21.371751,81.664929,PM2.5,67,134,90
India,Delhi,Delhi,"Alipur, Delhi - DPCC",13-06-2024 03:00:00,28.815329,77.153010,PM2.5,30,362,128
India,Delhi,Delhi,"Alipur, Delhi - DPCC",13-06-2024 03:00:00,28.815329,77.153010,SO2,15,101,29
India,Delhi,Delhi,"Anand Vihar, Delhi - DPCC",13-06-2024 03:00:00,28.647622,77.3158090,NH3,4,6,5
India,Delhi,Delhi,"Ashok Vihar, Delhi - DPCC",13-06-2024 03:00:00,28.695381,77.181665,CO,16,102,70
India,Delhi,Delhi,"Burari Crossing, Delhi - IMD",13-06-2024 03:00:00,28.7256504,77.2011573,PM10,117,381,206
India,Delhi,Delhi,"Burari Crossing, Delhi - IMD",13-06-2024 03:00:00,28.7256504,77.2011573,NO2,5,14,12
India,Delhi,Delhi,"Chandni Chowk, Delhi - IITM",13-06-2024 03:00:00,28.656756,77.227234,PM10,118,299,209
India,Delhi,Delhi,"Chandni Chowk, Delhi - IITM",13-06-2024 03:00:00,28.656756,77.227234,OZONE,1,7,3
India,Delhi,Delhi,"DTU, Delhi - CPCB",13-06-2024 03:00:00,28.7500499,77.1112615,NH3,16,17,17
India,Delhi,Delhi,"DTU, Delhi - CPCB",13-06-2024 03:00:00,28.7500499,77.1112615,SO2,41,68,49
India,Delhi,Delhi,"Dwarka-Sector 8, Delhi - DPCC ",13-06-2024 03:00:00,28.5710274,77.0719006,PM2.5,33,306,130
India,Delhi,Delhi,"Dwarka-Sector 8, Delhi - DPCC ",13-06-2024 03:00:00,28.5710274,77.0719006,NH3,4,10,6
India,Delhi,Delhi,"Dwarka-Sector 8, Delhi - DPCC ",13-06-2024 03:00:00,28.5710274,77.0719006,OZONE,6,155,33
India,Delhi,Delhi,"IGI Airport (T3), Delhi - IMD",13-06-2024 03:00:00,28.5627763,77.1180053,PM10,76,186,126
India,Delhi,Delhi,"IHBAS, Dilshad Garden, Delhi - CPCB",13-06-2024 03:00:00,28.6811736,77.3025234,PM2.5,96,332,206
India,Delhi,Delhi,"IHBAS, Dilshad Garden, Delhi - CPCB",13-06-2024 03:00:00,28.6811736,77.3025234,OZONE,16,39,35
India,Delhi,Delhi,"Jahangirpuri, Delhi - DPCC",13-06-2024 03:00:00,28.732820,77.170633,PM2.5,42,348,185
India,Delhi,Delhi,"Jahangirpuri, Delhi - DPCC",13-06-2024 03:00:00,28.732820,77.170633,CO,41,126,85
India,Delhi,Delhi,"Jawaharlal Nehru Stadium, Delhi - DPCC",13-06-2024 03:00:00,28.580280,77.233829,PM10,101,210,162
India,Delhi,Delhi,"Jawaharlal Nehru Stadium, Delhi - DPCC",13-06-2024 03:00:00,28.580280,77.233829,SO2,11,53,28
India,Delhi,Delhi,"Jawaharlal Nehru Stadium, Delhi - DPCC",13-06-2024 03:00:00,28.580280,77.233829,CO,34,128,113
India,Delhi,Delhi,"Major Dhyan Chand National Stadium, Delhi - DPCC",13-06-2024 03:00:00,28.611281,77.237738,SO2,11,22,17
India,Delhi,Delhi,"Major Dhyan Chand National Stadium, Delhi - DPCC",13-06-2024 03:00:00,28.611281,77.237738,CO,10,119,81
India,Delhi,Delhi,"Major Dhyan Chand National Stadium, Delhi - DPCC",13-06-2024 03:00:00,28.611281,77.237738,OZONE,1,238,25
India,Delhi,Delhi,"Mandir Marg, Delhi - DPCC",13-06-2024 03:00:00,28.636429,77.201067,OZONE,10,135,40
India,Delhi,Delhi,"NSIT Dwarka, Delhi - CPCB",13-06-2024 03:00:00,28.60909,77.0325413,NO2,18,52,36
India,Delhi,Delhi,"Najafgarh, Delhi - DPCC",13-06-2024 03:00:00,28.570173,76.933762,NO2,5,51,17
India,Delhi,Delhi,"Najafgarh, Delhi - DPCC",13-06-2024 03:00:00,28.570173,76.933762,OZONE,18,131,60
India,Delhi,Delhi,"Narela, Delhi - DPCC",13-06-2024 03:00:00,28.822836,77.101981,PM2.5,34,391,169
India,Delhi,Delhi,"Narela, Delhi - DPCC",13-06-2024 03:00:00,28.822836,77.101981,NO2,11,134,58
India,Delhi,Delhi,"Nehru Nagar, Delhi - DPCC",13-06-2024 03:00:00,28.567890,77.250515,NO2,11,86,44
India,Delhi,Delhi,"Nehru Nagar, Delhi - DPCC",13-06-2024 03:00:00,28.567890,77.250515,CO,20,75,49
India,Delhi,Delhi,"Okhla Phase-2, Delhi - DPCC",13-06-2024 03:00:00,28.530785,77.271255,PM10,113,402,218
India,Delhi,Delhi,"Okhla Phase-2, Delhi - DPCC",13-06-2024 03:00:00,28.530785,77.271255,OZONE,3,110,17
India,Delhi,Delhi,"Punjabi Bagh, Delhi - DPCC",13-06-2024 03:00:00,28.674045,77.131023,PM10,105,263,185
India,Delhi,Delhi,"Punjabi Bagh, Delhi - DPCC",13-06-2024 03:00:00,28.674045,77.131023,OZONE,3,116,34
India,Delhi,Delhi,"R K Puram, Delhi - DPCC",13-06-2024 03:00:00,28.563262,77.186937,PM2.5,45,324,142
India,Delhi,Delhi,"Rohini, Delhi - DPCC",13-06-2024 03:00:00,28.732528,77.119920,PM2.5,28,336,152
India,Delhi,Delhi,"Rohini, Delhi - DPCC",13-06-2024 03:00:00,28.732528,77.119920,CO,10,104,73
India,Delhi,Delhi,"Shadipur, Delhi - CPCB",13-06-2024 03:00:00,28.6514781,77.1473105,PM10,140,500,295
India,Delhi,Delhi,"Sonia Vihar, Delhi - DPCC",13-06-2024 03:00:00,28.710508,77.249485,NO2,16,114,59
India,Delhi,Delhi,"Sonia Vihar, Delhi - DPCC",13-06-2024 03:00:00,28.710508,77.249485,NH3,5,8,6
India,Delhi,Delhi,"Sonia Vihar, Delhi - DPCC",13-06-2024 03:00:00,28.710508,77.249485,SO2,9,23,14
India,Delhi,Delhi,"Sonia Vihar, Delhi - DPCC",13-06-2024 03:00:00,28.710508,77.249485,OZONE,5,255,55
India,Delhi,Delhi,"Sri Aurobindo Marg, Delhi - DPCC",13-06-2024 03:00:00,28.531346,77.190156,SO2,14,33,20
India,Delhi,Delhi,"Vivek Vihar, Delhi - DPCC",13-06-2024 03:00:00,28.672342,77.315260,CO,59,122,103
India,Delhi,Delhi,"Vivek Vihar, Delhi - DPCC",13-06-2024 03:00:00,28.672342,77.315260,OZONE,1,128,26
India,Delhi,Delhi,"Wazirpur, Delhi - DPCC",13-06-2024 03:00:00,28.699793,77.165453,NO2,26,92,54
India,Gujarat,Ahmedabad,"Chandkheda, Ahmedabad - IITM",13-06-2024 03:00:00,23.107969,72.574648,PM2.5,43,186,69
India,Gujarat,Ahmedabad,"Chandkheda, Ahmedabad - IITM",13-06-2024 03:00:00,23.107969,72.574648,PM10,43,136,70
India,Gujarat,Ahmedabad,"Gyaspur, Ahmedabad - IITM",13-06-2024 03:00:00,22.977134,72.553024,SO2,NA,NA,NA
India,Gujarat,Ahmedabad,"Maninagar, Ahmedabad - GPCB",13-06-2024 03:00:00,23.002657,72.591912,PM2.5,29,77,49
India,Gujarat,Ahmedabad,"Raikhad, Ahmedabad - IITM",13-06-2024 03:00:00,23.020509,72.579261,PM2.5,11,255,110
India,Gujarat,Ahmedabad,"Raikhad, Ahmedabad - IITM",13-06-2024 03:00:00,23.020509,72.579261,OZONE,15,98,35
India,Gujarat,Ankleshwar,"GIDC, Ankleshwar - GPCB",13-06-2024 03:00:00,21.613267,73.010555,PM10,38,60,48
India,Gujarat,Gandhinagar,"GIFT City, Gandhinagar - IITM",13-06-2024 03:00:00,23.163798,72.677768,PM2.5,42,99,63
India,Gujarat,Nandesari,"GIDC, Nandesari - Nandesari Ind. Association",13-06-2024 03:00:00,22.410802,73.097923,PM2.5,49,306,143
India,Gujarat,Vapi,"Phase-1 GIDC, Vapi - GPCB",13-06-2024 03:00:00,20.362421,72.918013,NO2,6,7,6
India,Gujarat,Vatva,"Phase-4 GIDC, Vatva - GPCB",13-06-2024 03:00:00,22.969611,72.643500,CO,21,22,22
India,Haryana,Ambala,"Patti Mehar, Ambala - HSPCB",13-06-2024 03:00:00,30.379589,76.778328,SO2,3,14,11
India,Haryana,Ambala,"Patti Mehar, Ambala - HSPCB",13-06-2024 03:00:00,30.379589,76.778328,OZONE,35,56,49
India,Haryana,Bahadurgarh,"Arya Nagar, Bahadurgarh - HSPCB",13-06-2024 03:00:00,28.6701,76.9254,NH3,8,10,9
India,Haryana,Bahadurgarh,"Arya Nagar, Bahadurgarh - HSPCB",13-06-2024 03:00:00,28.6701,76.9254,SO2,4,100,26
India,Haryana,Bahadurgarh,"Arya Nagar, Bahadurgarh - HSPCB",13-06-2024 03:00:00,28.6701,76.9254,CO,86,102,101
India,Haryana,Ballabgarh,"Nathu Colony, Ballabgarh - HSPCB",13-06-2024 03:00:00,28.3419248,77.319699,OZONE,6,41,11
India,Haryana,Bhiwani,"H.B. Colony, Bhiwani - HSPCB",13-06-2024 03:00:00,28.806223,76.141105,CO,36,66,50
India,Haryana,Bhiwani,"H.B. Colony, Bhiwani - HSPCB",13-06-2024 03:00:00,28.806223,76.141105,OZONE,9,16,11
India,Haryana,Charkhi Dadri,"Mini Secretariat, Charkhi Dadri - HSPCB",13-06-2024 03:00:00,28.593883,76.270653,CO,20,100,60
India,Haryana,Dharuhera,"Municipal Corporation Office, Dharuhera -  HSPCB",13-06-2024 03:00:00,28.206800,76.799700,SO2,6,15,10
India,Haryana,Faridabad,"New Industrial Town, Faridabad - HSPCB",13-06-2024 03:00:00,28.39072,77.30059,PM10,126,442,242
India,Haryana,Faridabad,"New Industrial Town, Faridabad - HSPCB",13-06-2024 03:00:00,28.39072,77.30059,OZONE,35,51,49
India,Haryana,Faridabad,"Sector 30, Faridabad - HSPCB",13-06-2024 03:00:00,28.4417,77.3217,PM10,NA,NA,NA
India,Haryana,Faridabad,"Sector 30, Faridabad - HSPCB",13-06-2024 03:00:00,28.4417,77.3217,SO2,NA,NA,NA
India,Haryana,Faridabad,"Sector 30, Faridabad - HSPCB",13-06-2024 03:00:00,28.4417,77.3217,OZONE,5,34,9
India,Haryana,Faridabad,"Sector- 16A, Faridabad - HSPCB",13-06-2024 03:00:00,28.4088421,77.3099081,SO2,18,31,24
India,Haryana,Faridabad,"Sector- 16A, Faridabad - HSPCB",13-06-2024 03:00:00,28.4088421,77.3099081,CO,12,116,95
India,Haryana,Fatehabad,"Huda Sector, Fatehabad - HSPCB",13-06-2024 03:00:00,29.503664,75.467934,NH3,10,11,10
India,Haryana,Fatehabad,"Huda Sector, Fatehabad - HSPCB",13-06-2024 03:00:00,29.503664,75.467934,OZONE,12,32,25
India,Haryana,Gurugram,"Teri Gram, Gurugram - HSPCB",13-06-2024 03:00:00,28.4275,77.1465,PM2.5,79,221,140
India,Haryana,Gurugram,"Teri Gram, Gurugram - HSPCB",13-06-2024 03:00:00,28.4275,77.1465,SO2,3,6,4
India,Haryana,Gurugram,"Vikas Sadan, Gurugram - HSPCB",13-06-2024 03:00:00,28.4501238,77.0263051,PM2.5,162,344,282
India,Haryana,Gurugram,"Vikas Sadan, Gurugram - HSPCB",13-06-2024 03:00:00,28.4501238,77.0263051,SO2,10,109,50
India,Haryana,Gurugram,"Vikas Sadan, Gurugram - HSPCB",13-06-2024 03:00:00,28.4501238,77.0263051,OZONE,8,68,10
India,Haryana,Jind,"Police Lines, Jind - HSPCB",13-06-2024 03:00:00,29.307814,76.337619,OZONE,10,31,18
India,Haryana,Kaithal,"Rishi Nagar, Kaithal - HSPCB",13-06-2024 03:00:00,29.8006,76.4155,NO2,24,26,25
India,Haryana,Kaithal,"Rishi Nagar, Kaithal - HSPCB",13-06-2024 03:00:00,29.8006,76.4155,CO,18,52,33
India,Haryana,Karnal,"Sector-12, Karnal - HSPCB",13-06-2024 03:00:00,29.695300,77.002700,OZONE,24,32,30
India,Haryana,Kurukshetra,"Sector-7, Kurukshetra - HSPCB",13-06-2024 03:00:00,29.966942,76.875879,NO2,10,10,10
India,Haryana,Kurukshetra,"Sector-7, Kurukshetra - HSPCB",13-06-2024 03:00:00,29.966942,76.875879,CO,4,30,21
India,Haryana,Mandikhera,"General Hospital, Mandikhera - HSPCB",13-06-2024 03:00:00,27.9002,76.9938,NH3,17,20,18
India,Haryana,Mandikhera,"General Hospital, Mandikhera - HSPCB",13-06-2024 03:00:00,27.9002,76.9938,CO,18,33,23
India,Haryana,Mandikhera,"General Hospital, Mandikhera - HSPCB",13-06-2024 03:00:00,27.9002,76.9938,OZONE,21,31,28
India,Haryana,Manesar,"Sector-2 IMT, Manesar - HSPCB",13-06-2024 03:00:00,28.360699,76.936090,SO2,4,17,10
India,Haryana,Palwal,"Shyam Nagar, Palwal - HSPCB",13-06-2024 03:00:00,28.1485564,77.3320667,OZONE,11,51,21
India,Haryana,Panchkula,"Sector-6, Panchkula - HSPCB ",13-06-2024 03:00:00,30.7057778,76.8531805555555,NO2,9,11,10
India,Haryana,Rohtak,"MD University, Rohtak - HSPCB",13-06-2024 03:00:00,28.52123,76.37138,PM2.5,16,363,226
India,Haryana,Sirsa,"F-Block, Sirsa - HSPCB",13-06-2024 03:00:00,29.536400,75.015800,NO2,10,11,10
India,Haryana,Sirsa,"F-Block, Sirsa - HSPCB",13-06-2024 03:00:00,29.536400,75.015800,CO,100,108,105
India,Haryana,Yamuna Nagar,"Gobind Pura, Yamuna Nagar - HSPCB",13-06-2024 03:00:00,30.1480566,77.2893471,OZONE,26,46,30
India,Jharkhand,Dhanbad,"Sardar Patel Nagar, Dhanbad - JSPCB",13-06-2024 03:00:00,23.80569,86.44268,PM10,NA,NA,NA
India,Jharkhand,Dhanbad,"Sardar Patel Nagar, Dhanbad - JSPCB",13-06-2024 03:00:00,23.80569,86.44268,OZONE,20,45,26
India,Karnataka,Bagalkot,"Vidayagiri, Bagalkot - KSPCB",13-06-2024 03:00:00,16.172806,75.659694,NO2,9,10,9
India,Karnataka,Bagalkot,"Vidayagiri, Bagalkot - KSPCB",13-06-2024 03:00:00,16.172806,75.659694,OZONE,17,30,21
India,Karnataka,Belgaum,"Ramteerth Nagar, Belgaum - KSPCB",13-06-2024 03:00:00,15.888653,74.541751,PM2.5,7,36,16
India,Karnataka,Bengaluru,"Bapuji Nagar, Bengaluru - KSPCB",13-06-2024 03:00:00,12.951913,77.539784,NO2,14,16,15
India,Karnataka,Bengaluru,"Bapuji Nagar, Bengaluru - KSPCB",13-06-2024 03:00:00,12.951913,77.539784,CO,16,72,44
India,Karnataka,Bengaluru,"Bapuji Nagar, Bengaluru - KSPCB",13-06-2024 03:00:00,12.951913,77.539784,OZONE,24,35,25
India,Karnataka,Bengaluru,"Hebbal, Bengaluru - KSPCB",13-06-2024 03:00:00,13.029152,77.585901,NO2,4,6,5
India,Karnataka,Bengaluru,"Hombegowda Nagar, Bengaluru - KSPCB",13-06-2024 03:00:00,12.938539,77.590100,SO2,4,5,5
India,Karnataka,Bengaluru,"Jayanagar 5th Block, Bengaluru - KSPCB",13-06-2024 03:00:00,12.920984,77.584908,NH3,2,2,2
India,Karnataka,Bengaluru,"Jigani, Bengaluru - KSPCB",13-06-2024 03:00:00,12.7816279,77.6299145,PM10,33,52,39
India,Karnataka,Bengaluru,"Kasturi Nagar, Bengaluru - KSPCB",13-06-2024 03:00:00,13.003872,77.664217,NH3,3,4,4
India,Karnataka,Bengaluru,"Peenya, Bengaluru - CPCB",13-06-2024 03:00:00,13.0270199,77.494094,CO,NA,NA,NA
India,Karnataka,Bengaluru,"Peenya, Bengaluru - CPCB",13-06-2024 03:00:00,13.0270199,77.494094,OZONE,NA,NA,NA
India,Karnataka,Bengaluru,"RVCE-Mailasandra, Bengaluru - KSPCB",13-06-2024 03:00:00,12.921418,77.502466,OZONE,39,39,39
India,Karnataka,Bengaluru,"Sanegurava Halli, Bengaluru - KSPCB",13-06-2024 03:00:00,12.990328,77.5431385,NO2,21,25,22
India,Karnataka,Bengaluru,"Sanegurava Halli, Bengaluru - KSPCB",13-06-2024 03:00:00,12.990328,77.5431385,SO2,2,3,3
India,Karnataka,Bengaluru,"Shivapura_Peenya, Bengaluru - KSPCB",13-06-2024 03:00:00,13.0246342,77.5080115,PM2.5,14,46,28
India,Karnataka,Bengaluru,"Shivapura_Peenya, Bengaluru - KSPCB",13-06-2024 03:00:00,13.0246342,77.5080115,PM10,15,48,29
India,Karnataka,Bengaluru,"Shivapura_Peenya, Bengaluru - KSPCB",13-06-2024 03:00:00,13.0246342,77.5080115,NO2,15,16,16
India,Karnataka,Bengaluru,"Silk Board, Bengaluru - KSPCB",13-06-2024 03:00:00,12.917348,77.622813,PM2.5,6,36,17
India,Karnataka,Chikkaballapur,"Chikkaballapur Rural, Chikkaballapur - KSPCB",13-06-2024 03:00:00,13.428828,77.731418,NH3,1,1,1
India,Karnataka,Davanagere,"Devaraj Urs Badavane, Davanagere - KSPCB",13-06-2024 03:00:00,14.475800,75.905200,PM2.5,3,21,11
India,Karnataka,Dharwad,"Kalabhavan, Dharwad - KSPCB",13-06-2024 03:00:00,15.459706,75.008381,SO2,1,6,2
India,Karnataka,Gadag,"Panchal Nagar, Gadag - KSPCB",13-06-2024 03:00:00,15.411456,75.638133,NO2,3,26,14
India,Karnataka,Gadag,"Panchal Nagar, Gadag - KSPCB",13-06-2024 03:00:00,15.411456,75.638133,OZONE,7,69,41
India,Karnataka,Haveri,"Ashwini Nagar, Haveri - KSPCB",13-06-2024 03:00:00,14.791800,75.389600,PM10,29,74,48
India,Karnataka,Haveri,"Ashwini Nagar, Haveri - KSPCB",13-06-2024 03:00:00,14.791800,75.389600,NO2,NA,NA,NA
India,Karnataka,Haveri,"Ashwini Nagar, Haveri - KSPCB",13-06-2024 03:00:00,14.791800,75.389600,CO,36,62,52
India,Karnataka,Hubballi,"Lingaraj Nagar, Hubballi - KSPCB",13-06-2024 03:00:00,15.3714823,75.1160168,PM10,30,67,46
India,Karnataka,Hubballi,"Lingaraj Nagar, Hubballi - KSPCB",13-06-2024 03:00:00,15.3714823,75.1160168,CO,8,20,10
India,Karnataka,Kalaburagi,"Lal Bahadur Shastri Nagar, Kalaburagi - KSPCB",13-06-2024 03:00:00,17.321993,76.822628,NH3,2,2,2
India,Karnataka,Kalaburagi,"Lal Bahadur Shastri Nagar, Kalaburagi - KSPCB",13-06-2024 03:00:00,17.321993,76.822628,CO,34,39,35
India,Karnataka,Kalaburagi,"Lal Bahadur Shastri Nagar, Kalaburagi - KSPCB",13-06-2024 03:00:00,17.321993,76.822628,OZONE,1,10,4
India,Karnataka,Kalaburagi,"Mahatma Basaveswar Colony, Kalaburgi - KSPCB",13-06-2024 03:00:00,17.336318,76.847397,PM10,10,37,21
India,Karnataka,Koppal,"Diwator Nagar, Koppal - KSPCB",13-06-2024 03:00:00,15.347630,76.181767,OZONE,12,29,24
India,Karnataka,Madikeri,"Stuart Hill, Madikeri - KSPCB",13-06-2024 03:00:00,12.415911,75.735050,PM10,9,24,14
India,Karnataka,Madikeri,"Stuart Hill, Madikeri - KSPCB",13-06-2024 03:00:00,12.415911,75.735050,NH3,NA,NA,NA
India,Karnataka,Mangalore,"Kadri, Mangalore - KSPCB",13-06-2024 03:00:00,12.889250,74.853000,PM2.5,16,59,40
India,Karnataka,Mysuru,"Hebbal 1st Stage, Mysuru - KSPCB",13-06-2024 03:00:00,12.21041,76.37376,NH3,1,3,2
India,Karnataka,Raichur,"Haji Colony, Raichur - KSPCB",13-06-2024 03:00:00,16.208139,77.348417,PM10,NA,NA,NA
India,Karnataka,Ramanagara,"Vijay Nagar, Ramanagara - KSPCB",13-06-2024 03:00:00,12.733409,77.298051,NH3,1,4,2
India,Karnataka,Ramanagara,"Vijay Nagar, Ramanagara - KSPCB",13-06-2024 03:00:00,12.733409,77.298051,OZONE,27,30,29
India,Karnataka,Tumakuru,"Thimmalapura, Tumakuru - KSPCB",13-06-2024 03:00:00,13.377516,77.099072,PM10,66,107,86
India,Karnataka,Tumakuru,"Thimmalapura, Tumakuru - KSPCB",13-06-2024 03:00:00,13.377516,77.099072,NO2,15,234,50
India,Karnataka,Udupi,"Brahmagiri, Udupi - KSPCB",13-06-2024 03:00:00,13.34194444,74.74694444,OZONE,23,23,23
India,Karnataka,Vijayapura,"Ibrahimpur, Vijayapura - KSPCB",13-06-2024 03:00:00,16.802639,75.722694,NH3,2,2,2
India,Karnataka,Yadgir,"Collector Office, Yadgir - KSPCB",13-06-2024 03:00:00,16.7602,77.1428,NH3,1,3,1
India,Kerala,Kollam,"Polayathode, Kollam - Kerala PCB",13-06-2024 03:00:00,8.8787,76.6073,OZONE,32,36,32
India,Kerala,Thiruvananthapuram,"Kariavattom, Thiruvananthapuram - Kerala PCB",13-06-2024 03:00:00,8.563700,76.886500,NH3,1,1,1
India,Kerala,Thiruvananthapuram,"Plammoodu, Thiruvananthapuram - Kerala PCB",13-06-2024 03:00:00,8.5149093,76.9435879,OZONE,6,17,15
India,Kerala,Thrissur,"Corporation Ground, Thrissur - Kerala PCB",13-06-2024 03:00:00,10.532400,76.215900,SO2,NA,NA,NA
India,Kerala,Thrissur,"Corporation Ground, Thrissur - Kerala PCB",13-06-2024 03:00:00,10.532400,76.215900,CO,14,114,101
India,Madhya Pradesh,Bhopal,"Idgah Hills, Bhopal - MPPCB",13-06-2024 03:00:00,23.264759,77.381568,NH3,4,6,5
India,Madhya Pradesh,Bhopal,"Paryavaran Parisar, Bhopal - MPPCB",13-06-2024 03:00:00,23.210494,77.425409,SO2,6,9,7
India,Madhya Pradesh,Bhopal,"T T Nagar, Bhopal - MPPCB",13-06-2024 03:00:00,23.233584,77.400574,PM2.5,14,42,28
India,Madhya Pradesh,Bhopal,"T T Nagar, Bhopal - MPPCB",13-06-2024 03:00:00,23.233584,77.400574,NH3,8,15,11
India,Madhya Pradesh,Bhopal,"T T Nagar, Bhopal - MPPCB",13-06-2024 03:00:00,23.233584,77.400574,OZONE,39,72,47
India,Madhya Pradesh,Dewas,"Bhopal Chauraha, Dewas - MPPCB",13-06-2024 03:00:00,22.9682591,76.064118,OZONE,14,39,31
India,Madhya Pradesh,Gwalior,"Deen Dayal Nagar, Gwalior - MPPCB",13-06-2024 03:00:00,26.259242,78.216432,PM2.5,27,77,47
India,Madhya Pradesh,Gwalior,"Maharaj Bada, Gwalior - MPPCB",13-06-2024 03:00:00,26.200388,78.147714,NO2,12,88,24
India,Madhya Pradesh,Gwalior,"Maharaj Bada, Gwalior - MPPCB",13-06-2024 03:00:00,26.200388,78.147714,NH3,2,14,4
India,Madhya Pradesh,Gwalior,"Maharaj Bada, Gwalior - MPPCB",13-06-2024 03:00:00,26.200388,78.147714,CO,4,45,18
India,Madhya Pradesh,Gwalior,"Phool Bagh, Gwalior - Mondelez Ind. Food",13-06-2024 03:00:00,26.210536,78.171,NO2,4,5,4
India,Madhya Pradesh,Indore,"Chhoti Gwaltoli, Indore - MPPCB",13-06-2024 03:00:00,22.4310,75.5213,NH3,5,6,5
India,Madhya Pradesh,Indore,"Maguda Nagar, Indore - IMC",13-06-2024 03:00:00,22.7524,75.8872,NH3,1,1,1
India,Madhya Pradesh,Indore,"Maguda Nagar, Indore - IMC",13-06-2024 03:00:00,22.7524,75.8872,CO,18,24,22
India,Madhya Pradesh,Indore,"Regional Park, Indore - IMC",13-06-2024 03:00:00,22.6780,75.8559,PM10,14,59,38
India,Madhya Pradesh,Indore,"Residency Area, Indore - IMC",13-06-2024 03:00:00,22.7084,75.8815,PM2.5,NA,NA,NA
India,Madhya Pradesh,Indore,"Residency Area, Indore - IMC",13-06-2024 03:00:00,22.7084,75.8815,CO,4,12,5
India,Madhya Pradesh,Jabalpur,"Govindh Bhavan Colony, Jabalpur - JMC",13-06-2024 03:00:00,23.163174,79.973061,PM10,63,137,90
India,Madhya Pradesh,Jabalpur,"Gupteshwar, Jabalpur - JMC",13-06-2024 03:00:00,23.142888,79.916147,NO2,7,21,11
India,Madhya Pradesh,Jabalpur,"Marhatal, Jabalpur - MPPCB",13-06-2024 03:00:00,23.168606,79.932247,OZONE,35,87,59
India,Madhya Pradesh,Jabalpur,"Suhagi, Jabalpur - JMC",13-06-2024 03:00:00,23.218135,79.957770,PM2.5,37,140,78
India,Madhya Pradesh,Jabalpur,"Suhagi, Jabalpur - JMC",13-06-2024 03:00:00,23.218135,79.957770,NO2,39,43,41
India,Madhya Pradesh,Jabalpur,"Suhagi, Jabalpur - JMC",13-06-2024 03:00:00,23.218135,79.957770,CO,8,50,31
India,Madhya Pradesh,Katni,"Gole Bazar, Katni - MPPCB",13-06-2024 03:00:00,23.50016,80.23284,CO,19,103,49
India,Madhya Pradesh,Katni,"Gole Bazar, Katni - MPPCB",13-06-2024 03:00:00,23.50016,80.23284,OZONE,22,108,46
India,Madhya Pradesh,Maihar,"Sahilara, Maihar - KJS Cements",13-06-2024 03:00:00,24.2613009,80.7231783,CO,11,22,19
India,Madhya Pradesh,Mandideep,"Sector-D Industrial Area, Mandideep - MPPCB",13-06-2024 03:00:00,23.108440,77.511428,NO2,10,21,16
India,Madhya Pradesh,Pithampur,"Sector-2 Industrial Area, Pithampur - MPPCB",13-06-2024 03:00:00,22.624758,75.675238,PM10,53,139,82
India,Madhya Pradesh,Pithampur,"Sector-2 Industrial Area, Pithampur - MPPCB",13-06-2024 03:00:00,22.624758,75.675238,NO2,8,22,14
India,Madhya Pradesh,Pithampur,"Sector-2 Industrial Area, Pithampur - MPPCB",13-06-2024 03:00:00,22.624758,75.675238,SO2,11,13,13
India,Madhya Pradesh,Pithampur,"Sector-2 Industrial Area, Pithampur - MPPCB",13-06-2024 03:00:00,22.624758,75.675238,CO,42,53,49
India,Madhya Pradesh,Sagar,"Civil Lines, Sagar - MPPCB",13-06-2024 03:00:00,23.838586,78.759431,PM10,31,72,46
India,Madhya Pradesh,Sagar,"Civil Lines, Sagar - MPPCB",13-06-2024 03:00:00,23.838586,78.759431,SO2,1,10,5
India,Madhya Pradesh,Sagar,"Civil Lines, Sagar - MPPCB",13-06-2024 03:00:00,23.838586,78.759431,OZONE,48,138,98
India,Madhya Pradesh,Satna,"Bandhavgar Colony, Satna - Birla Cement",13-06-2024 03:00:00,24.58434363,80.8549414,SO2,2,7,4
