country,state,city,station,last_update,latitude,longitude,pollutant_id,pollutant_min,pollutant_max,pollutant_avg
India,Andhra_Pradesh,Amaravati,"Secretariat, Amaravati - APPCB",18-02-2024 13:00:00,16.5150833,80.5181667,OZONE,3,70,21
India,Andhra_Pradesh,Anantapur,"Gulzarpet, Anantapur - APPCB",18-02-2024 13:00:00,14.675886,77.593027,NO2,17,62,31
India,Andhra_Pradesh,Anantapur,"Gulzarpet, Anantapur - APPCB",18-02-2024 13:00:00,14.675886,77.593027,NH3,2,3,3
India,Andhra_Pradesh,Anantapur,"Gulzarpet, Anantapur - APPCB",18-02-2024 13:00:00,14.675886,77.593027,CO,17,60,35
India,Andhra_Pradesh,Chittoor,"Gangineni Cheruvu, Chittoor - APPCB",18-02-2024 13:00:00,13.204880,79.097889,NH3,1,4,2
India,Andhra_Pradesh,Chittoor,"Gangineni Cheruvu, Chittoor - APPCB",18-02-2024 13:00:00,13.204880,79.097889,SO2,1,56,17
India,Andhra_Pradesh,Kadapa,"Yerramukkapalli, Kadapa - APPCB",18-02-2024 13:00:00,14.465052,78.824187,SO2,1,2,2
India,Andhra_Pradesh,Rajamahendravaram,"Anand Kala Kshetram, Rajamahendravaram - APPCB",18-02-2024 13:00:00,16.9872867,81.7363176,PM10,71,123,97
India,Andhra_Pradesh,Rajamahendravaram,"Anand Kala Kshetram, Rajamahendravaram - APPCB",18-02-2024 13:00:00,16.9872867,81.7363176,CO,28,40,32
India,Andhra_Pradesh,Vijayawada,"HB Colony, Vijayawada - APPCB",18-02-2024 13:00:00,16.536107,80.594233,SO2,3,9,5
India,Andhra_Pradesh,Vijayawada,"HB Colony, Vijayawada - APPCB",18-02-2024 13:00:00,16.536107,80.594233,CO,28,32,28
India,Andhra_Pradesh,Vijayawada,"HB Colony, Vijayawada - APPCB",18-02-2024 13:00:00,16.536107,80.594233,OZONE,1,75,9
India,Andhra_Pradesh,Vijayawada,"Rajiv Nagar, Vijayawada - APPCB",18-02-2024 13:00:00,16.554731,80.649110,NH3,1,2,1
India,Andhra_Pradesh,Visakhapatnam,"GVM Corporation, Visakhapatnam - APPCB",18-02-2024 13:00:00,17.72,83.3,NH3,3,5,4
India,Andhra_Pradesh,Visakhapatnam,"GVM Corporation, Visakhapatnam - APPCB",18-02-2024 13:00:00,17.72,83.3,SO2,8,15,10
India,Arunachal_Pradesh,Naharlagun,"Naharlagun, Naharlagun - APSPCB",18-02-2024 13:00:00,27.103358,93.679645,OZONE,2,2,2
India,Assam,Guwahati,"LGBI Airport, Guwahati - PCBA",18-02-2024 13:00:00,26.10887,91.589544,PM10,113,376,180
India,Assam,Guwahati,"LGBI Airport, Guwahati - PCBA",18-02-2024 13:00:00,26.10887,91.589544,CO,3,106,3
India,Assam,Guwahati,"LGBI Airport, Guwahati - PCBA",18-02-2024 13:00:00,26.10887,91.589544,OZONE,19,97,52
India,Assam,Guwahati,"Pan Bazaar, Guwahati - PCBA",18-02-2024 13:00:00,26.187500,91.744194,PM10,109,221,168
India,Assam,Guwahati,"Pan Bazaar, Guwahati - PCBA",18-02-2024 13:00:00,26.187500,91.744194,NH3,4,6,5
India,Assam,Nagaon,"Christianpatty, Nagaon - PCBA",18-02-2024 13:00:00,26.349082,92.68449,CO,1,110,26
India,Assam,Nalbari,"Bata Chowk, Nalbari - PCBA",18-02-2024 13:00:00,26.446912,91.439057,OZONE,11,110,58
India,Assam,Silchar,"Tarapur, Silchar - PCBA",18-02-2024 13:00:00,24.82827,92.79525,NO2,21,71,36
India,Assam,Sivasagar,"Girls College, Sivasagar - PCBA",18-02-2024 13:00:00,26.987634,94.636574,PM10,27,92,49
India,Bihar,Araria,"Kharahiya Basti, Araria - BSPCB",18-02-2024 13:00:00,26.146529,87.454184,PM10,163,414,276
India,Bihar,Aurangabad,"Gurdeo Nagar, Aurangabad - BSPCB",18-02-2024 13:00:00,24.75746,84.366208,PM10,60,225,107
India,Bihar,Aurangabad,"Gurdeo Nagar, Aurangabad - BSPCB",18-02-2024 13:00:00,24.75746,84.366208,NO2,NA,NA,NA
India,Bihar,Bettiah,"Kamalnath Nagar, Bettiah - BSPCB",18-02-2024 13:00:00,26.80365,84.51954,NO2,6,17,13
India,Bihar,Bihar Sharif,"D M Colony, Bihar Sharif - BSPCB",18-02-2024 13:00:00,25.204762,85.514960,PM2.5,25,213,80
India,Bihar,Bihar Sharif,"D M Colony, Bihar Sharif - BSPCB",18-02-2024 13:00:00,25.204762,85.514960,NO2,9,10,10
India,Bihar,Buxar,"Charitra Van, Buxar - BSPCB (Formerly known as Central Jail)",18-02-2024 13:00:00,25.567520,83.966379,PM2.5,75,355,215
India,Bihar,Buxar,"Charitra Van, Buxar - BSPCB (Formerly known as Central Jail)",18-02-2024 13:00:00,25.567520,83.966379,SO2,16,17,16
India,Bihar,Buxar,"Charitra Van, Buxar - BSPCB (Formerly known as Central Jail)",18-02-2024 13:00:00,25.567520,83.966379,CO,36,116,58
India,Bihar,Chhapra,"Darshan Nagar, Chhapra - BSPCB",18-02-2024 13:00:00,25.7808257,84.7446768,CO,24,49,30
India,Bihar,Chhapra,"Darshan Nagar, Chhapra - BSPCB",18-02-2024 13:00:00,25.7808257,84.7446768,OZONE,2,30,15
India,Bihar,Gaya,"Collectorate, Gaya - BSPCB",18-02-2024 13:00:00,24.7955,84.9994,SO2,4,25,11
India,Bihar,Gaya,"Collectorate, Gaya - BSPCB",18-02-2024 13:00:00,24.7955,84.9994,OZONE,42,82,59
India,Bihar,Hajipur,"Industrial Area, Hajipur - BSPCB",18-02-2024 13:00:00,25.697189,85.245900,SO2,6,7,7
India,Bihar,Hajipur,"Industrial Area, Hajipur - BSPCB",18-02-2024 13:00:00,25.697189,85.245900,OZONE,4,11,6
India,Bihar,Katihar,"Mirchaibari, Katihar - BSPCB",18-02-2024 13:00:00,25.560083,87.553265,PM10,64,188,129
India,Bihar,Kishanganj,"SDM Office_Khagra, Kishanganj - BSPCB",18-02-2024 13:00:00,26.0881305,87.93840336,PM10,145,264,196
India,Bihar,Kishanganj,"SDM Office_Khagra, Kishanganj - BSPCB",18-02-2024 13:00:00,26.0881305,87.93840336,SO2,18,28,23
India,Bihar,Kishanganj,"SDM Office_Khagra, Kishanganj - BSPCB",18-02-2024 13:00:00,26.0881305,87.93840336,OZONE,17,27,18
India,Bihar,Motihari,"Gandak Colony, Motihari - BSPCB",18-02-2024 13:00:00,26.63086,84.90051,NO2,40,78,56
India,Bihar,Motihari,"Gandak Colony, Motihari - BSPCB",18-02-2024 13:00:00,26.63086,84.90051,CO,44,68,58
India,Bihar,Munger,"Town Hall, Munger - BSPCB",18-02-2024 13:00:00,25.376776,86.471523,NO2,7,10,9
India,Bihar,Muzaffarpur,"Buddha Colony, Muzaffarpur - BSPCB",18-02-2024 13:00:00,26.11442,85.39813,PM10,160,234,189
India,Bihar,Muzaffarpur,"Buddha Colony, Muzaffarpur - BSPCB",18-02-2024 13:00:00,26.11442,85.39813,NH3,12,25,15
India,Bihar,Muzaffarpur,"Buddha Colony, Muzaffarpur - BSPCB",18-02-2024 13:00:00,26.11442,85.39813,OZONE,80,235,182
India,Bihar,Muzaffarpur,"MIT-Daudpur Kothi, Muzaffarpur - BSPCB",18-02-2024 13:00:00,26.1403345,85.3650192,PM2.5,43,301,156
India,Bihar,Muzaffarpur,"MIT-Daudpur Kothi, Muzaffarpur - BSPCB",18-02-2024 13:00:00,26.1403345,85.3650192,NO2,5,12,7
India,Bihar,Muzaffarpur,"MIT-Daudpur Kothi, Muzaffarpur - BSPCB",18-02-2024 13:00:00,26.1403345,85.3650192,NH3,14,20,17
India,Bihar,Muzaffarpur,"MIT-Daudpur Kothi, Muzaffarpur - BSPCB",18-02-2024 13:00:00,26.1403345,85.3650192,CO,26,100,38
India,Bihar,Muzaffarpur,"Muzaffarpur Collectorate, Muzaffarpur - BSPCB",18-02-2024 13:00:00,26.1209,85.3647,SO2,5,7,6
India,Bihar,Patna,"DRM Office Danapur, Patna - BSPCB",18-02-2024 13:00:00,25.586562,85.043586,PM2.5,98,305,190
India,Bihar,Patna,"DRM Office Danapur, Patna - BSPCB",18-02-2024 13:00:00,25.586562,85.043586,NH3,3,4,3
India,Bihar,Patna,"DRM Office Danapur, Patna - BSPCB",18-02-2024 13:00:00,25.586562,85.043586,CO,16,102,32
India,Bihar,Patna,"Govt. High School Shikarpur, Patna - BSPCB",18-02-2024 13:00:00,25.592539,85.227158,PM2.5,111,271,175
India,Bihar,Patna,"Govt. High School Shikarpur, Patna - BSPCB",18-02-2024 13:00:00,25.592539,85.227158,NH3,3,4,4
India,Bihar,Patna,"Muradpur, Patna - BSPCB",18-02-2024 13:00:00,25.619651,85.147382,PM2.5,93,327,218
India,Bihar,Patna,"Muradpur, Patna - BSPCB",18-02-2024 13:00:00,25.619651,85.147382,PM10,165,418,283
India,Bihar,Patna,"Rajbansi Nagar, Patna - BSPCB",18-02-2024 13:00:00,25.599486,85.113666,SO2,3,15,10
India,Bihar,Patna,"Samanpura, Patna - BSPCB",18-02-2024 13:00:00,25.596727,85.085624,SO2,15,17,16
India,Bihar,Patna,"Samanpura, Patna - BSPCB",18-02-2024 13:00:00,25.596727,85.085624,OZONE,39,73,58
India,Bihar,Purnia,"Mariam Nagar, Purnia - BSPCB",18-02-2024 13:00:00,25.366336,87.117468,NO2,12,14,13
India,Bihar,Rajgir,"Dangi Tola, Rajgir - BSPCB",18-02-2024 13:00:00,25.03280,85.41948,PM10,111,221,147
India,Bihar,Rajgir,"Dangi Tola, Rajgir - BSPCB",18-02-2024 13:00:00,25.03280,85.41948,SO2,3,4,4
India,Bihar,Saharsa,"Police Line, Saharsa - BSPCB",18-02-2024 13:00:00,25.892357,86.590325,PM10,88,139,117
India,Bihar,Saharsa,"Police Line, Saharsa - BSPCB",18-02-2024 13:00:00,25.892357,86.590325,CO,15,48,23
India,Bihar,Samastipur,"DM Office_Kasipur, Samastipur - BSPCB",18-02-2024 13:00:00,25.859655,85.77944,PM10,97,159,123
India,Bihar,Samastipur,"DM Office_Kasipur, Samastipur - BSPCB",18-02-2024 13:00:00,25.859655,85.77944,CO,12,31,24
India,Bihar,Samastipur,"DM Office_Kasipur, Samastipur - BSPCB",18-02-2024 13:00:00,25.859655,85.77944,OZONE,9,56,19
India,Bihar,Sasaram,"Dada Peer, Sasaram - BSPCB",18-02-2024 13:00:00,24.952822,84.002396,PM10,50,140,99
India,Bihar,Siwan,"Chitragupta Nagar, Siwan - BSPCB",18-02-2024 13:00:00,26.2271665,84.3570427,CO,48,162,106
India,Chandigarh,Chandigarh,"Sector 22, Chandigarh - CPCC",18-02-2024 13:00:00,30.735567,76.775714,SO2,NA,NA,NA
India,Chandigarh,Chandigarh,"Sector-25, Chandigarh - CPCC",18-02-2024 13:00:00,30.751462,76.762879,CO,28,54,43
India,Chandigarh,Chandigarh,"Sector-25, Chandigarh - CPCC",18-02-2024 13:00:00,30.751462,76.762879,OZONE,1,48,11
India,Chandigarh,Chandigarh,"Sector-53, Chandigarh - CPCC",18-02-2024 13:00:00,30.719859,76.738637,NH3,5,11,8
India,Chhattisgarh,Bhilai,"32Bungalows, Bhilai - CECB",18-02-2024 13:00:00,21.194815,81.314770,NO2,15,27,21
India,Chhattisgarh,Bhilai,"Hathkhoj, Bhilai - CECB",18-02-2024 13:00:00,21.224231,81.408350,PM10,84,194,155
India,Chhattisgarh,Bhilai,"Hathkhoj, Bhilai - CECB",18-02-2024 13:00:00,21.224231,81.408350,NO2,23,64,44
India,Chhattisgarh,Bhilai,"Hathkhoj, Bhilai - CECB",18-02-2024 13:00:00,21.224231,81.408350,SO2,15,26,17
India,Chhattisgarh,Bilaspur,"Mangala, Bilaspur - NTPC",18-02-2024 13:00:00,22.08815,82.13737,PM10,28,100,60
India,Chhattisgarh,Chhal,"Nawapara SECL Colony, Chhal - CECB",18-02-2024 13:00:00,22.118125,83.140608,PM2.5,57,169,90
India,Chhattisgarh,Chhal,"Nawapara SECL Colony, Chhal - CECB",18-02-2024 13:00:00,22.118125,83.140608,NO2,18,66,27
India,Chhattisgarh,Korba,"Rampur, Korba - CECB",18-02-2024 13:00:00,22.368195,82.746431,PM2.5,19,47,29
India,Chhattisgarh,Korba,"Rampur, Korba - CECB",18-02-2024 13:00:00,22.368195,82.746431,CO,18,29,21
India,Chhattisgarh,Korba,"Urja Nagar, Korba - CECB",18-02-2024 13:00:00,22.348441,82.549611,NH3,6,10,8
India,Chhattisgarh,Korba,"Urja Nagar, Korba - CECB",18-02-2024 13:00:00,22.348441,82.549611,SO2,2,7,5
India,Chhattisgarh,Kunjemura,"OP Jindal School, Kunjemura - CECB",18-02-2024 13:00:00,22.126650,83.483212,NH3,1,5,2
India,Chhattisgarh,Kunjemura,"OP Jindal School, Kunjemura - CECB",18-02-2024 13:00:00,22.126650,83.483212,CO,24,52,40
India,Chhattisgarh,Milupara,"Govt. Higher Secondary School, Milupara - CECB",18-02-2024 13:00:00,22.1910172,83.5197009,SO2,6,99,18
India,Chhattisgarh,Raipur,"AIIMS, Raipur - CECB",18-02-2024 13:00:00,21.258815,81.578979,PM10,37,113,85
India,Chhattisgarh,Raipur,"AIIMS, Raipur - CECB",18-02-2024 13:00:00,21.258815,81.578979,OZONE,1,23,2
India,Chhattisgarh,Raipur,"Bhatagaon New ISBT, Raipur - CECB",18-02-2024 13:00:00,21.219665,81.630094,NO2,59,78,67
India,Chhattisgarh,Raipur,"Siltara Phase-II, Raipur - CECB",18-02-2024 13:00:00,21.371751,81.664929,PM2.5,43,329,148
India,Chhattisgarh,Raipur,"Siltara Phase-II, Raipur - CECB",18-02-2024 13:00:00,21.371751,81.664929,PM10,58,157,111
India,Chhattisgarh,Raipur,"Siltara Phase-II, Raipur - CECB",18-02-2024 13:00:00,21.371751,81.664929,CO,39,92,72
India,Chhattisgarh,Tumidih,"OP Jindal Industrial Park, Tumidih - CECB",18-02-2024 13:00:00,22.06631475,83.33820077,CO,NA,NA,NA
India,Delhi,Delhi,"Alipur, Delhi - DPCC",18-02-2024 13:00:00,28.815329,77.153010,NH3,6,14,9
India,Delhi,Delhi,"Anand Vihar, Delhi - DPCC",18-02-2024 13:00:00,28.647622,77.3158090,NH3,2,21,11
India,Delhi,Delhi,"Ashok Vihar, Delhi - DPCC",18-02-2024 13:00:00,28.695381,77.181665,NH3,7,9,8
India,Delhi,Delhi,"Aya Nagar, Delhi - IMD",18-02-2024 13:00:00,28.4706914,77.1099364,OZONE,9,57,30
India,Delhi,Delhi,"Bawana, Delhi - DPCC",18-02-2024 13:00:00,28.776200,77.051074,NH3,6,10,8
India,Delhi,Delhi,"Burari Crossing, Delhi - IMD",18-02-2024 13:00:00,28.7256504,77.2011573,PM2.5,35,434,275
India,Delhi,Delhi,"Burari Crossing, Delhi - IMD",18-02-2024 13:00:00,28.7256504,77.2011573,NO2,2,82,45
India,Delhi,Delhi,"CRRI Mathura Road, Delhi - IMD",18-02-2024 13:00:00,28.5512005,77.2735737,CO,115,146,141
India,Delhi,Delhi,"DTU, Delhi - CPCB",18-02-2024 13:00:00,28.7500499,77.1112615,NO2,NA,NA,NA
India,Delhi,Delhi,"Dr. Karni Singh Shooting Range, Delhi - DPCC",18-02-2024 13:00:00,28.498571,77.264840,PM10,102,378,176
India,Delhi,Delhi,"Dwarka-Sector 8, Delhi - DPCC ",18-02-2024 13:00:00,28.5710274,77.0719006,NO2,6,19,11
India,Delhi,Delhi,"Dwarka-Sector 8, Delhi - DPCC ",18-02-2024 13:00:00,28.5710274,77.0719006,CO,3,145,63
India,Delhi,Delhi,"IGI Airport (T3), Delhi - IMD",18-02-2024 13:00:00,28.5627763,77.1180053,NO2,31,131,77
India,Delhi,Delhi,"IHBAS, Dilshad Garden, Delhi - CPCB",18-02-2024 13:00:00,28.6811736,77.3025234,PM2.5,84,346,202
India,Delhi,Delhi,"IHBAS, Dilshad Garden, Delhi - CPCB",18-02-2024 13:00:00,28.6811736,77.3025234,NH3,2,18,13
India,Delhi,Delhi,"IHBAS, Dilshad Garden, Delhi - CPCB",18-02-2024 13:00:00,28.6811736,77.3025234,SO2,2,53,20
India,Delhi,Delhi,"IHBAS, Dilshad Garden, Delhi - CPCB",18-02-2024 13:00:00,28.6811736,77.3025234,OZONE,6,52,21
India,Delhi,Delhi,"ITO, Delhi - CPCB",18-02-2024 13:00:00,28.628624,77.241060,OZONE,13,144,28
India,Delhi,Delhi,"Jawaharlal Nehru Stadium, Delhi - DPCC",18-02-2024 13:00:00,28.580280,77.233829,NH3,2,12,9
India,Delhi,Delhi,"Lodhi Road, Delhi - IITM",18-02-2024 13:00:00,28.588333,77.221667,PM2.5,NA,NA,NA
India,Delhi,Delhi,"Major Dhyan Chand National Stadium, Delhi - DPCC",18-02-2024 13:00:00,28.611281,77.237738,PM2.5,88,342,244
India,Delhi,Delhi,"Mandir Marg, Delhi - DPCC",18-02-2024 13:00:00,28.636429,77.201067,PM2.5,77,340,229
India,Delhi,Delhi,"Mandir Marg, Delhi - DPCC",18-02-2024 13:00:00,28.636429,77.201067,PM10,85,176,133
India,Delhi,Delhi,"Mundka, Delhi - DPCC",18-02-2024 13:00:00,28.684678,77.076574,NO2,37,169,99
India,Delhi,Delhi,"Narela, Delhi - DPCC",18-02-2024 13:00:00,28.822836,77.101981,NH3,5,10,7
India,Delhi,Delhi,"Narela, Delhi - DPCC",18-02-2024 13:00:00,28.822836,77.101981,OZONE,1,176,176
India,Delhi,Delhi,"Nehru Nagar, Delhi - DPCC",18-02-2024 13:00:00,28.567890,77.250515,OZONE,2,234,155
India,Delhi,Delhi,"North Campus, DU, Delhi - IMD",18-02-2024 13:00:00,28.6573814,77.1585447,PM10,77,425,234
India,Delhi,Delhi,"North Campus, DU, Delhi - IMD",18-02-2024 13:00:00,28.6573814,77.1585447,CO,10,102,50
India,Delhi,Delhi,"Okhla Phase-2, Delhi - DPCC",18-02-2024 13:00:00,28.530785,77.271255,SO2,4,21,11
India,Delhi,Delhi,"Patparganj, Delhi - DPCC",18-02-2024 13:00:00,28.623763,77.287209,CO,17,115,73
India,Delhi,Delhi,"Punjabi Bagh, Delhi - DPCC",18-02-2024 13:00:00,28.674045,77.131023,PM2.5,98,443,300
India,Delhi,Delhi,"Punjabi Bagh, Delhi - DPCC",18-02-2024 13:00:00,28.674045,77.131023,NH3,4,7,5
India,Delhi,Delhi,"Pusa, Delhi - DPCC",18-02-2024 13:00:00,28.639652,77.146275,PM10,132,343,180
India,Delhi,Delhi,"R K Puram, Delhi - DPCC",18-02-2024 13:00:00,28.563262,77.186937,PM2.5,101,439,283
India,Delhi,Delhi,"R K Puram, Delhi - DPCC",18-02-2024 13:00:00,28.563262,77.186937,PM10,125,417,225
India,Delhi,Delhi,"R K Puram, Delhi - DPCC",18-02-2024 13:00:00,28.563262,77.186937,NH3,1,3,2
India,Delhi,Delhi,"R K Puram, Delhi - DPCC",18-02-2024 13:00:00,28.563262,77.186937,CO,19,158,72
India,Delhi,Delhi,"Rohini, Delhi - DPCC",18-02-2024 13:00:00,28.732528,77.119920,SO2,2,27,12
India,Delhi,Delhi,"Shadipur, Delhi - CPCB",18-02-2024 13:00:00,28.6514781,77.1473105,SO2,4,51,15
India,Delhi,Delhi,"Sirifort, Delhi - CPCB",18-02-2024 13:00:00,28.5504249,77.2159377,PM10,44,195,92
India,Delhi,Delhi,"Sirifort, Delhi - CPCB",18-02-2024 13:00:00,28.5504249,77.2159377,NH3,9,13,11
India,Delhi,Delhi,"Sonia Vihar, Delhi - DPCC",18-02-2024 13:00:00,28.710508,77.249485,SO2,10,30,16
India,Delhi,Delhi,"Sri Aurobindo Marg, Delhi - DPCC",18-02-2024 13:00:00,28.531346,77.190156,OZONE,1,48,8
India,Delhi,Delhi,"Wazirpur, Delhi - DPCC",18-02-2024 13:00:00,28.699793,77.165453,SO2,NA,NA,NA
India,Gujarat,Ahmedabad,"Chandkheda, Ahmedabad - IITM",18-02-2024 13:00:00,23.107969,72.574648,PM10,10,30,21
India,Gujarat,Ahmedabad,"Chandkheda, Ahmedabad - IITM",18-02-2024 13:00:00,23.107969,72.574648,SO2,9,94,18
India,Gujarat,Ahmedabad,"Chandkheda, Ahmedabad - IITM",18-02-2024 13:00:00,23.107969,72.574648,CO,2,92,75
India,Gujarat,Ahmedabad,"Chandkheda, Ahmedabad - IITM",18-02-2024 13:00:00,23.107969,72.574648,OZONE,1,64,14
India,Gujarat,Ahmedabad,"Gyaspur, Ahmedabad - IITM",18-02-2024 13:00:00,22.977134,72.553024,PM2.5,95,461,258
India,Gujarat,Ahmedabad,"Gyaspur, Ahmedabad - IITM",18-02-2024 13:00:00,22.977134,72.553024,OZONE,1,46,5
India,Gujarat,Ahmedabad,"Maninagar, Ahmedabad - GPCB",18-02-2024 13:00:00,23.002657,72.591912,PM2.5,39,139,76
India,Gujarat,Ahmedabad,"Maninagar, Ahmedabad - GPCB",18-02-2024 13:00:00,23.002657,72.591912,PM10,35,129,83
India,Gujarat,Ahmedabad,"Rakhial, Ahmedabad - IITM",18-02-2024 13:00:00,23.016834,72.625775,PM2.5,66,342,178
India,Gujarat,Ahmedabad,"Rakhial, Ahmedabad - IITM",18-02-2024 13:00:00,23.016834,72.625775,PM10,84,289,150
India,Gujarat,Ahmedabad,"Rakhial, Ahmedabad - IITM",18-02-2024 13:00:00,23.016834,72.625775,NH3,NA,NA,NA
India,Gujarat,Ahmedabad,"SAC ISRO Bopal, Ahmedabad - IITM",18-02-2024 13:00:00,23.041137,72.456691,NO2,12,13,12
India,Gujarat,Ahmedabad,"SAC ISRO Bopal, Ahmedabad - IITM",18-02-2024 13:00:00,23.041137,72.456691,SO2,11,12,12
India,Gujarat,Ahmedabad,"SAC ISRO Satellite, Ahmedabad - IITM",18-02-2024 13:00:00,23.023389,72.515201,NO2,17,17,17
India,Gujarat,Ahmedabad,"Sardar Vallabhbhai Patel Stadium, Ahmedabad - IITM",18-02-2024 13:00:00,23.043070,72.562968,PM10,92,291,152
India,Gujarat,Ahmedabad,"Sardar Vallabhbhai Patel Stadium, Ahmedabad - IITM",18-02-2024 13:00:00,23.043070,72.562968,NO2,12,14,13
India,Gujarat,Ankleshwar,"GIDC, Ankleshwar - GPCB",18-02-2024 13:00:00,21.613267,73.010555,NO2,34,35,34
India,Gujarat,Ankleshwar,"GIDC, Ankleshwar - GPCB",18-02-2024 13:00:00,21.613267,73.010555,SO2,33,128,60
India,Gujarat,Ankleshwar,"GIDC, Ankleshwar - GPCB",18-02-2024 13:00:00,21.613267,73.010555,CO,30,98,76
India,Gujarat,Gandhinagar,"IIPHG Lekawada, Gandhinagar - IITM",18-02-2024 13:00:00,23.243639,72.68994,PM10,61,151,105
India,Gujarat,Gandhinagar,"Sector-10, Gandhinagar - GPCB",18-02-2024 13:00:00,23.221714,72.654328,SO2,3,8,5
India,Gujarat,Gandhinagar,"Sector-10, Gandhinagar - GPCB",18-02-2024 13:00:00,23.221714,72.654328,CO,8,112,19
India,Gujarat,Surat,"Science Center, Surat - SMC",18-02-2024 13:00:00,21.170046,72.795405,NO2,7,13,9
India,Gujarat,Vapi,"Phase-1 GIDC, Vapi - GPCB",18-02-2024 13:00:00,20.362421,72.918013,SO2,45,47,46
India,Gujarat,Vapi,"Phase-1 GIDC, Vapi - GPCB",18-02-2024 13:00:00,20.362421,72.918013,CO,103,194,152
India,Haryana,Ambala,"Patti Mehar, Ambala - HSPCB",18-02-2024 13:00:00,30.379589,76.778328,PM2.5,92,211,142
India,Haryana,Ambala,"Patti Mehar, Ambala - HSPCB",18-02-2024 13:00:00,30.379589,76.778328,NH3,2,5,3
India,Haryana,Ballabgarh,"Nathu Colony, Ballabgarh - HSPCB",18-02-2024 13:00:00,28.3419248,77.319699,CO,6,121,34
India,Haryana,Bhiwani,"H.B. Colony, Bhiwani - HSPCB",18-02-2024 13:00:00,28.806223,76.141105,SO2,6,14,11
India,Haryana,Charkhi Dadri,"Mini Secretariat, Charkhi Dadri - HSPCB",18-02-2024 13:00:00,28.593883,76.270653,PM2.5,74,259,148
India,Haryana,Charkhi Dadri,"Mini Secretariat, Charkhi Dadri - HSPCB",18-02-2024 13:00:00,28.593883,76.270653,NH3,5,7,6
India,Haryana,Charkhi Dadri,"Mini Secretariat, Charkhi Dadri - HSPCB",18-02-2024 13:00:00,28.593883,76.270653,OZONE,14,18,16
India,Haryana,Dharuhera,"Municipal Corporation Office, Dharuhera -  HSPCB",18-02-2024 13:00:00,28.206800,76.799700,CO,19,114,32
India,Haryana,Faridabad,"Sector 11, Faridabad - HSPCB",18-02-2024 13:00:00,28.376058,77.315741,SO2,8,26,16
India,Haryana,Faridabad,"Sector- 16A, Faridabad - HSPCB",18-02-2024 13:00:00,28.4088421,77.3099081,PM2.5,64,500,306
India,Haryana,Faridabad,"Sector- 16A, Faridabad - HSPCB",18-02-2024 13:00:00,28.4088421,77.3099081,NO2,NA,NA,NA
India,Haryana,Faridabad,"Sector- 16A, Faridabad - HSPCB",18-02-2024 13:00:00,28.4088421,77.3099081,CO,4,113,26
India,Haryana,Fatehabad,"Huda Sector, Fatehabad - HSPCB",18-02-2024 13:00:00,29.503664,75.467934,SO2,5,10,8
India,Haryana,Gurugram,"Sector-51, Gurugram - HSPCB",18-02-2024 13:00:00,28.4227,77.0667,CO,26,131,70
India,Haryana,Gurugram,"Vikas Sadan, Gurugram - HSPCB",18-02-2024 13:00:00,28.4501238,77.0263051,SO2,8,34,22
India,Haryana,Gurugram,"Vikas Sadan, Gurugram - HSPCB",18-02-2024 13:00:00,28.4501238,77.0263051,CO,54,137,101
India,Haryana,Gurugram,"Vikas Sadan, Gurugram - HSPCB",18-02-2024 13:00:00,28.4501238,77.0263051,OZONE,7,68,29
India,Haryana,Hisar,"Urban Estate-II, Hisar - HSPCB",18-02-2024 13:00:00,29.140560,75.744941,PM2.5,53,308,193
India,Haryana,Hisar,"Urban Estate-II, Hisar - HSPCB",18-02-2024 13:00:00,29.140560,75.744941,OZONE,24,163,62
India,Haryana,Jind,"Police Lines, Jind - HSPCB",18-02-2024 13:00:00,29.307814,76.337619,NO2,6,16,12
India,Haryana,Jind,"Police Lines, Jind - HSPCB",18-02-2024 13:00:00,29.307814,76.337619,SO2,5,106,20
India,Haryana,Jind,"Police Lines, Jind - HSPCB",18-02-2024 13:00:00,29.307814,76.337619,OZONE,4,21,14
India,Haryana,Kurukshetra,"Sector-7, Kurukshetra - HSPCB",18-02-2024 13:00:00,29.966942,76.875879,NO2,10,10,10
India,Haryana,Mandikhera,"General Hospital, Mandikhera - HSPCB",18-02-2024 13:00:00,27.9002,76.9938,PM10,60,146,111
India,Haryana,Mandikhera,"General Hospital, Mandikhera - HSPCB",18-02-2024 13:00:00,27.9002,76.9938,NO2,17,21,19
India,Haryana,Mandikhera,"General Hospital, Mandikhera - HSPCB",18-02-2024 13:00:00,27.9002,76.9938,OZONE,24,32,27
India,Haryana,Manesar,"Sector-2 IMT, Manesar - HSPCB",18-02-2024 13:00:00,28.360699,76.936090,PM10,75,500,179
India,Haryana,Palwal,"Shyam Nagar, Palwal - HSPCB",18-02-2024 13:00:00,28.1485564,77.3320667,CO,8,21,17
India,Haryana,Palwal,"Shyam Nagar, Palwal - HSPCB",18-02-2024 13:00:00,28.1485564,77.3320667,OZONE,12,57,33
India,Haryana,Panchkula,"Sector-6, Panchkula - HSPCB ",18-02-2024 13:00:00,30.7057778,76.8531805555555,SO2,11,13,12
India,Haryana,Sonipat,"Murthal, Sonipat - HSPCB",18-02-2024 13:00:00,29.027200,77.062100,PM10,70,264,135
India,Haryana,Sonipat,"Murthal, Sonipat - HSPCB",18-02-2024 13:00:00,29.027200,77.062100,CO,16,48,41
India,Haryana,Yamuna Nagar,"Gobind Pura, Yamuna Nagar - HSPCB",18-02-2024 13:00:00,30.1480566,77.2893471,PM2.5,146,338,255
India,Himachal Pradesh,Baddi,"HIMUDA Complex Phase-1, Baddi - HPPCB",18-02-2024 13:00:00,30.943887,76.801991,NH3,6,12,9
India,Jammu_and_Kashmir,Srinagar,"Rajbagh, Srinagar - JKSPCB",18-02-2024 13:00:00,34.066206,74.819820,PM10,NA,NA,NA
India,Jharkhand,Dhanbad,"Sardar Patel Nagar, Dhanbad - JSPCB",18-02-2024 13:00:00,23.80569,86.44268,NO2,NA,NA,NA
India,Jharkhand,Dhanbad,"Sardar Patel Nagar, Dhanbad - JSPCB",18-02-2024 13:00:00,23.80569,86.44268,OZONE,NA,NA,NA
India,Jharkhand,Pathardih,"Mohalbani Ghat, Pathardih - DMC",18-02-2024 13:00:00,23.669880,86.411725,PM10,NA,NA,NA
India,Karnataka,Bagalkot,"Vidayagiri, Bagalkot - KSPCB",18-02-2024 13:00:00,16.172806,75.659694,NH3,NA,NA,NA
India,Karnataka,Belgaum,"Ramteerth Nagar, Belgaum - KSPCB",18-02-2024 13:00:00,15.888653,74.541751,PM2.5,17,93,47
India,Karnataka,Belgaum,"Ramteerth Nagar, Belgaum - KSPCB",18-02-2024 13:00:00,15.888653,74.541751,NO2,23,33,28
India,Karnataka,Bengaluru,"Bapuji Nagar, Bengaluru - KSPCB",18-02-2024 13:00:00,12.951913,77.539784,OZONE,10,14,11
India,Karnataka,Bengaluru,"City Railway Station, Bengaluru - KSPCB",18-02-2024 13:00:00,12.9756843,77.5660749,NO2,22,33,29
India,Karnataka,Bengaluru,"Hebbal, Bengaluru - KSPCB",18-02-2024 13:00:00,13.029152,77.585901,PM2.5,NA,NA,NA
India,Karnataka,Bengaluru,"Hombegowda Nagar, Bengaluru - KSPCB",18-02-2024 13:00:00,12.938539,77.590100,NO2,33,42,37
India,Karnataka,Bengaluru,"Hombegowda Nagar, Bengaluru - KSPCB",18-02-2024 13:00:00,12.938539,77.590100,NH3,2,4,2
India,Karnataka,Bengaluru,"Hombegowda Nagar, Bengaluru - KSPCB",18-02-2024 13:00:00,12.938539,77.590100,OZONE,4,9,5
India,Karnataka,Bengaluru,"Jayanagar 5th Block, Bengaluru - KSPCB",18-02-2024 13:00:00,12.920984,77.584908,PM2.5,43,110,77
India,Karnataka,Bengaluru,"Jayanagar 5th Block, Bengaluru - KSPCB",18-02-2024 13:00:00,12.920984,77.584908,PM10,69,148,100
India,Karnataka,Bengaluru,"Jayanagar 5th Block, Bengaluru - KSPCB",18-02-2024 13:00:00,12.920984,77.584908,SO2,13,28,22
India,Karnataka,Bengaluru,"Jigani, Bengaluru - KSPCB",18-02-2024 13:00:00,12.7816279,77.6299145,NH3,4,4,4
India,Karnataka,Bengaluru,"Jigani, Bengaluru - KSPCB",18-02-2024 13:00:00,12.7816279,77.6299145,OZONE,10,74,41
India,Karnataka,Bengaluru,"Kasturi Nagar, Bengaluru - KSPCB",18-02-2024 13:00:00,13.003872,77.664217,PM10,103,143,117
India,Karnataka,Bengaluru,"Kasturi Nagar, Bengaluru - KSPCB",18-02-2024 13:00:00,13.003872,77.664217,OZONE,27,108,63
India,Karnataka,Bengaluru,"Peenya, Bengaluru - CPCB",18-02-2024 13:00:00,13.0270199,77.494094,PM10,49,96,66
India,Karnataka,Bengaluru,"Peenya, Bengaluru - CPCB",18-02-2024 13:00:00,13.0270199,77.494094,NO2,18,27,22
India,Karnataka,Bengaluru,"Peenya, Bengaluru - CPCB",18-02-2024 13:00:00,13.0270199,77.494094,NH3,3,3,3
India,Karnataka,Bengaluru,"Sanegurava Halli, Bengaluru - KSPCB",18-02-2024 13:00:00,12.990328,77.5431385,PM10,27,76,36
India,Karnataka,Bengaluru,"Shivapura_Peenya, Bengaluru - KSPCB",18-02-2024 13:00:00,13.0246342,77.5080115,CO,22,56,36
India,Karnataka,Bengaluru,"Shivapura_Peenya, Bengaluru - KSPCB",18-02-2024 13:00:00,13.0246342,77.5080115,OZONE,53,56,54
India,Karnataka,Bengaluru,"Silk Board, Bengaluru - KSPCB",18-02-2024 13:00:00,12.917348,77.622813,CO,32,41,37
India,Karnataka,Bengaluru,"Silk Board, Bengaluru - KSPCB",18-02-2024 13:00:00,12.917348,77.622813,OZONE,28,31,29
India,Karnataka,Bidar,"Naubad, Bidar - KSPCB",18-02-2024 13:00:00,17.930306,77.482194,NO2,7,9,8
India,Karnataka,Bidar,"Naubad, Bidar - KSPCB",18-02-2024 13:00:00,17.930306,77.482194,OZONE,18,42,30
India,Karnataka,Chikkamagaluru,"Kalyana Nagara, Chikkamagaluru - KSPCB",18-02-2024 13:00:00,13.328028,75.797056,NH3,2,4,3
India,Karnataka,Chikkamagaluru,"Kalyana Nagara, Chikkamagaluru - KSPCB",18-02-2024 13:00:00,13.328028,75.797056,SO2,3,5,4
India,Karnataka,Chikkamagaluru,"Kalyana Nagara, Chikkamagaluru - KSPCB",18-02-2024 13:00:00,13.328028,75.797056,CO,11,21,12
India,Karnataka,Davanagere,"Devaraj Urs Badavane, Davanagere - KSPCB",18-02-2024 13:00:00,14.475800,75.905200,CO,5,22,15
India,Karnataka,Dharwad,"Kalabhavan, Dharwad - KSPCB",18-02-2024 13:00:00,15.459706,75.008381,NO2,2,45,22
India,Karnataka,Gadag,"Panchal Nagar, Gadag - KSPCB",18-02-2024 13:00:00,15.411456,75.638133,NH3,2,3,2
India,Karnataka,Hassan,"B.Katihalli, Hassan - KSPCB",18-02-2024 13:00:00,13.008556,76.125258,NH3,NA,NA,NA
India,Karnataka,Hassan,"B.Katihalli, Hassan - KSPCB",18-02-2024 13:00:00,13.008556,76.125258,SO2,3,16,6
India,Karnataka,Haveri,"Ashwini Nagar, Haveri - KSPCB",18-02-2024 13:00:00,14.791800,75.389600,OZONE,14,22,16
India,Karnataka,Hubballi,"Lingaraj Nagar, Hubballi - KSPCB",18-02-2024 13:00:00,15.3714823,75.1160168,NO2,7,16,15
India,Karnataka,Hubballi,"Lingaraj Nagar, Hubballi - KSPCB",18-02-2024 13:00:00,15.3714823,75.1160168,SO2,2,14,7
India,Karnataka,Kalaburagi,"Lal Bahadur Shastri Nagar, Kalaburagi - KSPCB",18-02-2024 13:00:00,17.321993,76.822628,PM10,NA,NA,NA
India,Karnataka,Kalaburagi,"Mahatma Basaveswar Colony, Kalaburgi - KSPCB",18-02-2024 13:00:00,17.336318,76.847397,NH3,3,4,3
India,Karnataka,Karwar,"KHB Colony, Karwar - KSPCB",18-02-2024 13:00:00,14.816666,74.141003,NH3,1,5,1
India,Karnataka,Karwar,"KHB Colony, Karwar - KSPCB",18-02-2024 13:00:00,14.816666,74.141003,CO,7,8,8
India,Karnataka,Kolar,"Tamaka Ind. Area, Kolar - KSPCB",18-02-2024 13:00:00,13.1276288,78.1570122,PM10,NA,NA,NA
India,Karnataka,Kolar,"Tamaka Ind. Area, Kolar - KSPCB",18-02-2024 13:00:00,13.1276288,78.1570122,NO2,NA,NA,NA
India,Karnataka,Kolar,"Tamaka Ind. Area, Kolar - KSPCB",18-02-2024 13:00:00,13.1276288,78.1570122,OZONE,9,14,11
India,Karnataka,Koppal,"Diwator Nagar, Koppal - KSPCB",18-02-2024 13:00:00,15.347630,76.181767,PM2.5,10,54,30
India,Karnataka,Koppal,"Diwator Nagar, Koppal - KSPCB",18-02-2024 13:00:00,15.347630,76.181767,SO2,57,59,58
India,Karnataka,Mangalore,"Kadri, Mangalore - KSPCB",18-02-2024 13:00:00,12.889250,74.853000,NO2,6,7,6
India,Karnataka,Mangalore,"Kadri, Mangalore - KSPCB",18-02-2024 13:00:00,12.889250,74.853000,SO2,19,22,21
India,Karnataka,Mangalore,"Kadri, Mangalore - KSPCB",18-02-2024 13:00:00,12.889250,74.853000,CO,36,48,40
India,Karnataka,Mysuru,"Hebbal 1st Stage, Mysuru - KSPCB",18-02-2024 13:00:00,12.21041,76.37376,OZONE,7,94,30
India,Karnataka,Raichur,"Haji Colony, Raichur - KSPCB",18-02-2024 13:00:00,16.208139,77.348417,SO2,60,74,66
India,Karnataka,Ramanagara,"Vijay Nagar, Ramanagara - KSPCB",18-02-2024 13:00:00,12.733409,77.298051,PM2.5,28,81,54
India,Karnataka,Ramanagara,"Vijay Nagar, Ramanagara - KSPCB",18-02-2024 13:00:00,12.733409,77.298051,CO,7,22,19
India,Karnataka,Shivamogga,"Vinoba Nagara, Shivamogga - KSPCB",18-02-2024 13:00:00,13.940000,75.555917,NH3,2,3,3
India,Karnataka,Shivamogga,"Vinoba Nagara, Shivamogga - KSPCB",18-02-2024 13:00:00,13.940000,75.555917,SO2,4,15,8
India,Karnataka,Udupi,"Brahmagiri, Udupi - KSPCB",18-02-2024 13:00:00,13.34194444,74.74694444,NO2,14,14,14
India,Karnataka,Udupi,"Brahmagiri, Udupi - KSPCB",18-02-2024 13:00:00,13.34194444,74.74694444,OZONE,23,24,23
India,Karnataka,Yadgir,"Collector Office, Yadgir - KSPCB",18-02-2024 13:00:00,16.7602,77.1428,PM2.5,NA,NA,NA
India,Karnataka,Yadgir,"Collector Office, Yadgir - KSPCB",18-02-2024 13:00:00,16.7602,77.1428,PM10,NA,NA,NA
India,Karnataka,Yadgir,"Collector Office, Yadgir - KSPCB",18-02-2024 13:00:00,16.7602,77.1428,NO2,NA,NA,NA
India,Kerala,Kochi,"Vyttila, Kochi - Kerala PCB",18-02-2024 13:00:00,9.969447,76.321186,PM10,57,139,97
India,Kerala,Kochi,"Vyttila, Kochi - Kerala PCB",18-02-2024 13:00:00,9.969447,76.321186,NO2,2,15,5
India,Kerala,Thiruvananthapuram,"Kariavattom, Thiruvananthapuram - Kerala PCB",18-02-2024 13:00:00,8.563700,76.886500,PM10,78,92,84
India,Kerala,Thiruvananthapuram,"Kariavattom, Thiruvananthapuram - Kerala PCB",18-02-2024 13:00:00,8.563700,76.886500,NO2,8,10,9
India,Kerala,Thiruvananthapuram,"Kariavattom, Thiruvananthapuram - Kerala PCB",18-02-2024 13:00:00,8.563700,76.886500,OZONE,27,32,29
India,Kerala,Thiruvananthapuram,"Plammoodu, Thiruvananthapuram - Kerala PCB",18-02-2024 13:00:00,8.5149093,76.9435879,NO2,9,13,11
India,Madhya Pradesh,Bhopal,"T T Nagar, Bhopal - MPPCB",18-02-2024 13:00:00,23.233584,77.400574,OZONE,3,125,79
India,Madhya Pradesh,Dewas,"Bhopal Chauraha, Dewas - MPPCB",18-02-2024 13:00:00,22.9682591,76.064118,NO2,11,13,12
India,Madhya Pradesh,Gwalior,"Deen Dayal Nagar, Gwalior - MPPCB",18-02-2024 13:00:00,26.259242,78.216432,SO2,13,24,17
India,Madhya Pradesh,Gwalior,"Maharaj Bada, Gwalior - MPPCB",18-02-2024 13:00:00,26.200388,78.147714,NO2,19,126,45
India,Madhya Pradesh,Gwalior,"Maharaj Bada, Gwalior - MPPCB",18-02-2024 13:00:00,26.200388,78.147714,SO2,9,32,18
India,Madhya Pradesh,Gwalior,"Maharaj Bada, Gwalior - MPPCB",18-02-2024 13:00:00,26.200388,78.147714,CO,11,133,44
India,Madhya Pradesh,Gwalior,"Phool Bagh, Gwalior - Mondelez Ind. Food",18-02-2024 13:00:00,26.210536,78.171,PM2.5,9,306,120
India,Madhya Pradesh,Gwalior,"Phool Bagh, Gwalior - Mondelez Ind. Food",18-02-2024 13:00:00,26.210536,78.171,CO,32,52,33
India,Madhya Pradesh,Indore,"Chhoti Gwaltoli, Indore - MPPCB",18-02-2024 13:00:00,22.4310,75.5213,PM10,64,248,152
India,Madhya Pradesh,Indore,"Maguda Nagar, Indore - IMC",18-02-2024 13:00:00,22.7524,75.8872,CO,23,51,45
India,Madhya Pradesh,Indore,"Residency Area, Indore - IMC",18-02-2024 13:00:00,22.7084,75.8815,OZONE,10,16,11
India,Madhya Pradesh,Jabalpur,"Govindh Bhavan Colony, Jabalpur - JMC",18-02-2024 13:00:00,23.163174,79.973061,PM2.5,40,65,52
India,Madhya Pradesh,Jabalpur,"Govindh Bhavan Colony, Jabalpur - JMC",18-02-2024 13:00:00,23.163174,79.973061,NO2,10,29,16
India,Madhya Pradesh,Jabalpur,"Gupteshwar, Jabalpur - JMC",18-02-2024 13:00:00,23.142888,79.916147,PM10,40,140,72
India,Madhya Pradesh,Jabalpur,"Marhatal, Jabalpur - MPPCB",18-02-2024 13:00:00,23.168606,79.932247,NO2,25,111,51
India,Madhya Pradesh,Maihar,"Sahilara, Maihar - KJS Cements",18-02-2024 13:00:00,24.2613009,80.7231783,PM2.5,17,56,33
India,Madhya Pradesh,Maihar,"Sahilara, Maihar - KJS Cements",18-02-2024 13:00:00,24.2613009,80.7231783,CO,16,21,20
India,Madhya Pradesh,Mandideep,"Sector-D Industrial Area, Mandideep - MPPCB",18-02-2024 13:00:00,23.108440,77.511428,CO,18,105,43
India,Madhya Pradesh,Ratlam,"Shasthri Nagar, Ratlam - IPCA Lab",18-02-2024 13:00:00,23.331731,75.045981,PM10,43,352,175
India,Madhya Pradesh,Ratlam,"Shasthri Nagar, Ratlam - IPCA Lab",18-02-2024 13:00:00,23.331731,75.045981,SO2,37,43,40
India,Madhya Pradesh,Singrauli,"Suryakiran Bhawan NCL, Singrauli - MPPCB",18-02-2024 13:00:00,24.108970,82.645580,PM2.5,NA,NA,NA
India,Madhya Pradesh,Singrauli,"Suryakiran Bhawan NCL, Singrauli - MPPCB",18-02-2024 13:00:00,24.108970,82.645580,SO2,32,101,48
India,Madhya Pradesh,Singrauli,"Suryakiran Bhawan NCL, Singrauli - MPPCB",18-02-2024 13:00:00,24.108970,82.645580,OZONE,7,70,28
India,Madhya Pradesh,Ujjain,"Mahakaleshwar Temple, Ujjain - MPPCB",18-02-2024 13:00:00,23.182719 ,75.768218 ,NH3,5,9,7
India,Maharashtra,Ahmednagar,"Tarakpur, Ahmednagar - MPCB",18-02-2024 13:00:00,19.10122,74.73339,NH3,2,3,3
India,Maharashtra,Ahmednagar,"Tarakpur, Ahmednagar - MPCB",18-02-2024 13:00:00,19.10122,74.73339,SO2,14,36,26
India,Maharashtra,Ahmednagar,"Tarakpur, Ahmednagar - MPCB",18-02-2024 13:00:00,19.10122,74.73339,CO,16,123,29
India,Maharashtra,Ahmednagar,"Tarakpur, Ahmednagar - MPCB",18-02-2024 13:00:00,19.10122,74.73339,OZONE,6,148,80
India,Maharashtra,Akola,"Ramdaspeth, Akola - MPCB",18-02-2024 13:00:00,20.719516,77.000253,PM2.5,61,259,113
India,Maharashtra,Akola,"Ramdaspeth, Akola - MPCB",18-02-2024 13:00:00,20.719516,77.000253,NH3,4,16,8
India,Maharashtra,Akola,"Ramdaspeth, Akola - MPCB",18-02-2024 13:00:00,20.719516,77.000253,SO2,1,14,6
India,Maharashtra,Amravati,"Shivneri Colony, Amravati - MPCB",18-02-2024 13:00:00,20.9402359,77.7895248,NO2,10,87,40
India,Maharashtra,Amravati,"Shri Shivaji Science College, Amaravati - MPCB",18-02-2024 13:00:00,20.939198,77.765701,SO2,1,10,4
India,Maharashtra,Amravati,"Shri Shivaji Science College, Amaravati - MPCB",18-02-2024 13:00:00,20.939198,77.765701,CO,46,121,58
India,Maharashtra,Aurangabad,"MIDC Chilkalthana, Aurangabad - MPCB",18-02-2024 13:00:00,19.875620,75.387310,PM2.5,48,266,131
India,Maharashtra,Aurangabad,"MIDC Chilkalthana, Aurangabad - MPCB",18-02-2024 13:00:00,19.875620,75.387310,CO,4,54,25
India,Maharashtra,Aurangabad,"More Chowk Waluj, Aurangabad - MPCB",18-02-2024 13:00:00,19.8389439,75.244448,NO2,33,40,35
India,Maharashtra,Aurangabad,"More Chowk Waluj, Aurangabad - MPCB",18-02-2024 13:00:00,19.8389439,75.244448,SO2,9,12,11
India,Maharashtra,Aurangabad,"More Chowk Waluj, Aurangabad - MPCB",18-02-2024 13:00:00,19.8389439,75.244448,CO,12,113,29
India,Maharashtra,Aurangabad,"Rachnakar Colony, Aurangabad - MPCB",18-02-2024 13:00:00,19.863756,75.321188,PM2.5,87,171,120
India,Maharashtra,Aurangabad,"Rachnakar Colony, Aurangabad - MPCB",18-02-2024 13:00:00,19.863756,75.321188,PM10,104,232,163
India,Maharashtra,Aurangabad,"Rachnakar Colony, Aurangabad - MPCB",18-02-2024 13:00:00,19.863756,75.321188,NO2,17,118,64
India,Maharashtra,Aurangabad,"Rachnakar Colony, Aurangabad - MPCB",18-02-2024 13:00:00,19.863756,75.321188,CO,18,103,35
India,Maharashtra,Aurangabad,"Rachnakar Colony, Aurangabad - MPCB",18-02-2024 13:00:00,19.863756,75.321188,OZONE,15,88,50
India,Maharashtra,Belapur,"CBD Belapur, Belapur - MPCB",18-02-2024 13:00:00,19.0243902,73.0406721,PM10,77,188,113
India,Maharashtra,Bhiwandi,"Gokul Nagar, Bhiwandi - MPCB",18-02-2024 13:00:00,19.309073,73.057223,PM10,101,199,145
India,Maharashtra,Bhiwandi,"Gokul Nagar, Bhiwandi - MPCB",18-02-2024 13:00:00,19.309073,73.057223,OZONE,2,66,17
India,Maharashtra,Boisar,"Khaira, Boisar - MPCB",18-02-2024 13:00:00,19.786089,72.757971,CO,34,73,48
India,Maharashtra,Chandrapur,"MIDC Khutala, Chandrapur - MPCB",18-02-2024 13:00:00,19.9775302,79.2337086,PM10,NA,NA,NA
India,Maharashtra,Chandrapur,"MIDC Khutala, Chandrapur - MPCB",18-02-2024 13:00:00,19.9775302,79.2337086,NO2,NA,NA,NA
India,Maharashtra,Chandrapur,"MIDC Khutala, Chandrapur - MPCB",18-02-2024 13:00:00,19.9775302,79.2337086,SO2,NA,NA,NA
India,Maharashtra,Jalgaon,"Prabhat Colony, Jalgaon - MPCB",18-02-2024 13:00:00,21.001264,75.565602,PM2.5,72,302,199
India,Maharashtra,Jalgaon,"Prabhat Colony, Jalgaon - MPCB",18-02-2024 13:00:00,21.001264,75.565602,PM10,80,259,166
India,Maharashtra,Kalyan,"Khadakpada, Kalyan - MPCB",18-02-2024 13:00:00,19.25292,73.142019,PM2.5,41,123,68
India,Maharashtra,Kalyan,"Khadakpada, Kalyan - MPCB",18-02-2024 13:00:00,19.25292,73.142019,PM10,84,222,135
India,Maharashtra,Kalyan,"Khadakpada, Kalyan - MPCB",18-02-2024 13:00:00,19.25292,73.142019,NO2,38,101,53
India,Maharashtra,Kolhapur,"Shivaji University, Kolhapur - MPCB",18-02-2024 13:00:00,16.6870449,74.2505872,CO,33,102,64
India,Maharashtra,Kolhapur,"Sinchan Bhavan, Kolhapur - MPCB",18-02-2024 13:00:00,16.7143745,74.2426398,PM2.5,60,326,155
India,Maharashtra,Latur,"Sawe Wadi, Latur - MPCB",18-02-2024 13:00:00,18.39963,76.57452,NH3,8,8,8
India,Maharashtra,Latur,"Sawe Wadi, Latur - MPCB",18-02-2024 13:00:00,18.39963,76.57452,OZONE,14,93,43
India,Maharashtra,Malegaon,"Mahesh Nagar, Malegaon - MPCB",18-02-2024 13:00:00,20.555712,74.529236,PM2.5,84,308,176
India,Maharashtra,Malegaon,"Mahesh Nagar, Malegaon - MPCB",18-02-2024 13:00:00,20.555712,74.529236,OZONE,21,93,42
India,Maharashtra,Mira-Bhayandar,"Bhayandar West, Mira-Bhayandar - MPCB",18-02-2024 13:00:00,19.296481,72.840923,NH3,5,12,7
India,Maharashtra,Mira-Bhayandar,"Bhayandar West, Mira-Bhayandar - MPCB",18-02-2024 13:00:00,19.296481,72.840923,SO2,4,28,10
India,Maharashtra,Mumbai,"Bandra Kurla Complex, Mumbai - MPCB",18-02-2024 13:00:00,19.065931,72.862131,PM10,94,352,182
India,Maharashtra,Mumbai,"Byculla, Mumbai - BMC",18-02-2024 13:00:00,18.9767,72.8380,PM2.5,105,221,154
India,Maharashtra,Mumbai,"Chembur, Mumbai - MPCB",18-02-2024 13:00:00,19.0364585,72.8954371,PM2.5,82,165,120
India,Maharashtra,Mumbai,"Chembur, Mumbai - MPCB",18-02-2024 13:00:00,19.0364585,72.8954371,CO,24,80,52
India,Maharashtra,Mumbai,"Chhatrapati Shivaji Intl. Airport (T2), Mumbai - MPCB",18-02-2024 13:00:00,19.10078,72.87462,PM2.5,30,75,50
India,Maharashtra,Mumbai,"Chhatrapati Shivaji Intl. Airport (T2), Mumbai - MPCB",18-02-2024 13:00:00,19.10078,72.87462,PM10,84,174,121
India,Maharashtra,Mumbai,"Colaba, Mumbai - MPCB",18-02-2024 13:00:00,18.910000,72.820000,PM2.5,76,155,102
India,Maharashtra,Mumbai,"Ghatkopar, Mumbai - BMC",18-02-2024 13:00:00,19.083694,72.920967,PM2.5,36,173,106
India,Maharashtra,Mumbai,"Ghatkopar, Mumbai - BMC",18-02-2024 13:00:00,19.083694,72.920967,CO,5,45,30
India,Maharashtra,Mumbai,"Kandivali East, Mumbai - MPCB",18-02-2024 13:00:00,19.205800,72.868200,PM2.5,12,83,48
India,Maharashtra,Mumbai,"Kandivali West, Mumbai - BMC",18-02-2024 13:00:00,19.215859,72.831718,NH3,NA,NA,NA
India,Maharashtra,Mumbai,"Kherwadi_Bandra East, Mumbai - MPCB",18-02-2024 13:00:00,19.0632143,72.8456324,PM2.5,99,229,169
India,Maharashtra,Mumbai,"Khindipada-Bhandup West, Mumbai - IITM",18-02-2024 13:00:00,19.1653323,72.922099,NH3,5,6,6
India,Maharashtra,Mumbai,"Kurla, Mumbai - MPCB",18-02-2024 13:00:00,19.0863,72.8888,PM2.5,64,237,147
India,Maharashtra,Mumbai,"Kurla, Mumbai - MPCB",18-02-2024 13:00:00,19.0863,72.8888,NO2,22,49,32
India,Maharashtra,Mumbai,"Kurla, Mumbai - MPCB",18-02-2024 13:00:00,19.0863,72.8888,OZONE,32,37,32
India,Maharashtra,Mumbai,"Malad West, Mumbai - IITM",18-02-2024 13:00:00,19.19709,72.82204,SO2,NA,NA,NA
India,Maharashtra,Mumbai,"Mulund West, Mumbai - MPCB",18-02-2024 13:00:00,19.1750,72.9419,NO2,23,28,25
India,Maharashtra,Mumbai,"Mulund West, Mumbai - MPCB",18-02-2024 13:00:00,19.1750,72.9419,CO,32,32,32
India,Maharashtra,Mumbai,"Sewri, Mumbai - BMC",18-02-2024 13:00:00,19.000084,72.856730,NH3,1,9,6
India,Maharashtra,Mumbai,"Shivaji Nagar, Mumbai - BMC",18-02-2024 13:00:00,19.060498,72.923356,PM2.5,60,200,129
India,Maharashtra,Mumbai,"Shivaji Nagar, Mumbai - BMC",18-02-2024 13:00:00,19.060498,72.923356,OZONE,1,114,28
India,Maharashtra,Mumbai,"Siddharth Nagar-Worli, Mumbai - IITM",18-02-2024 13:00:00,19.000083,72.813993,PM10,158,302,216
India,Maharashtra,Mumbai,"Siddharth Nagar-Worli, Mumbai - IITM",18-02-2024 13:00:00,19.000083,72.813993,NH3,4,7,5
India,Maharashtra,Mumbai,"Sion, Mumbai - MPCB",18-02-2024 13:00:00,19.047000,72.874600,PM10,86,249,138
India,Maharashtra,Mumbai,"Sion, Mumbai - MPCB",18-02-2024 13:00:00,19.047000,72.874600,NO2,36,127,83
India,Maharashtra,Mumbai,"Sion, Mumbai - MPCB",18-02-2024 13:00:00,19.047000,72.874600,OZONE,13,35,18
India,Maharashtra,Mumbai,"Vasai West, Mumbai - MPCB",18-02-2024 13:00:00,19.383200,72.820400,SO2,15,16,16
India,Maharashtra,Mumbai,"Vile Parle West, Mumbai - MPCB",18-02-2024 13:00:00,19.10861,72.83622,NO2,1,36,16
India,Maharashtra,Mumbai,"Vile Parle West, Mumbai - MPCB",18-02-2024 13:00:00,19.10861,72.83622,SO2,13,15,14
India,Maharashtra,Mumbai,"Worli, Mumbai - MPCB",18-02-2024 13:00:00,18.9936162,72.8128113,NO2,22,23,23
India,Maharashtra,Mumbai,"Worli, Mumbai - MPCB",18-02-2024 13:00:00,18.9936162,72.8128113,NH3,1,1,1
India,Maharashtra,Nagpur,"Mahal, Nagpur - MPCB",18-02-2024 13:00:00,21.14472,79.107595,NO2,17,53,28
India,Maharashtra,Nagpur,"Mahal, Nagpur - MPCB",18-02-2024 13:00:00,21.14472,79.107595,NH3,4,13,8
India,Maharashtra,Nagpur,"Mahal, Nagpur - MPCB",18-02-2024 13:00:00,21.14472,79.107595,SO2,35,88,58
India,Maharashtra,Nagpur,"Opp GPO Civil Lines, Nagpur - MPCB",18-02-2024 13:00:00,21.152875,79.0517531,PM2.5,76,288,144
India,Maharashtra,Nagpur,"Ram Nagar, Nagpur - MPCB",18-02-2024 13:00:00,21.143383,79.048912,CO,14,54,36
India,Maharashtra,Nanded,"Sneh Nagar, Nanded - MPCB",18-02-2024 13:00:00,19.173852,77.296291,NH3,1,2,1
India,Maharashtra,Nashik,"Gangapur Road, Nashik - MPCB",18-02-2024 13:00:00,20.0073285,73.7762427,PM2.5,43,301,102
India,Maharashtra,Nashik,"Gangapur Road, Nashik - MPCB",18-02-2024 13:00:00,20.0073285,73.7762427,PM10,45,175,92
India,Maharashtra,Nashik,"Hirawadi, Nashik - MPCB",18-02-2024 13:00:00,20.021503,73.813844,PM10,10,84,68
India,Maharashtra,Nashik,"Hirawadi, Nashik - MPCB",18-02-2024 13:00:00,20.021503,73.813844,SO2,2,6,4
India,Maharashtra,Nashik,"Hirawadi, Nashik - MPCB",18-02-2024 13:00:00,20.021503,73.813844,CO,11,60,29
India,Maharashtra,Nashik,"MIDC Ambad, Nashik - MPCB",18-02-2024 13:00:00,19.950220,73.731480,PM10,61,108,86
India,Maharashtra,Nashik,"MIDC Ambad, Nashik - MPCB",18-02-2024 13:00:00,19.950220,73.731480,NO2,11,86,31
India,Maharashtra,Nashik,"Pandav Nagari, Nashik - MPCB",18-02-2024 13:00:00,19.9591346,73.7788008,PM10,63,144,104
India,Maharashtra,Nashik,"Pandav Nagari, Nashik - MPCB",18-02-2024 13:00:00,19.9591346,73.7788008,NH3,4,8,5
India,Maharashtra,Navi Mumbai,"Kopripada-Vashi, Navi Mumbai - MPCB",18-02-2024 13:00:00,19.090337,73.014232,PM2.5,30,416,230
India,Maharashtra,Navi Mumbai,"Mahape, Navi Mumbai - MPCB",18-02-2024 13:00:00,19.1135051,73.008978,PM2.5,36,296,174
India,Maharashtra,Navi Mumbai,"Mahape, Navi Mumbai - MPCB",18-02-2024 13:00:00,19.1135051,73.008978,NH3,3,5,3
India,Maharashtra,Navi Mumbai,"Nerul, Navi Mumbai - MPCB",18-02-2024 13:00:00,19.008751,73.016620,PM10,137,419,229
India,Maharashtra,Navi Mumbai,"Nerul, Navi Mumbai - MPCB",18-02-2024 13:00:00,19.008751,73.016620,SO2,12,12,12
India,Maharashtra,Navi Mumbai,"Sanpada, Navi Mumbai - MPCB",18-02-2024 13:00:00,19.0575752,73.0151367,PM10,33,323,189
India,Maharashtra,Navi Mumbai,"Sanpada, Navi Mumbai - MPCB",18-02-2024 13:00:00,19.0575752,73.0151367,CO,2,107,47
India,Maharashtra,Navi Mumbai,"Sector-2E Kalamboli, Navi Mumbai - MPCB",18-02-2024 13:00:00,19.02579,73.10297,SO2,17,98,36
India,Maharashtra,Parbhani,"Masoom Colony, Parbhani - MPCB",18-02-2024 13:00:00,19.265594,76.761463,NH3,2,3,3
India,Maharashtra,Parbhani,"Masoom Colony, Parbhani - MPCB",18-02-2024 13:00:00,19.265594,76.761463,CO,15,86,32
India,Maharashtra,Pimpri-Chinchwad,"Gavalinagar, Pimpri Chinchwad - MPCB",18-02-2024 13:00:00,18.63673,73.82487,CO,14,98,52
India,Maharashtra,Pimpri-Chinchwad,"Park Street Wakad, Pimpri Chinchwad - MPCB",18-02-2024 13:00:00,18.59051,73.77946,NH3,7,15,10
India,Maharashtra,Pune,"Alandi, Pune - IITM",18-02-2024 13:00:00,18.675076,73.892743,NO2,NA,NA,NA
India,Maharashtra,Pune,"Katraj Dairy, Pune - MPCB",18-02-2024 13:00:00,18.454450,73.854155,PM2.5,24,341,87
India,Maharashtra,Pune,"Katraj Dairy, Pune - MPCB",18-02-2024 13:00:00,18.454450,73.854155,OZONE,6,59,27
India,Maharashtra,Pune,"Revenue Colony-Shivajinagar, Pune - IITM",18-02-2024 13:00:00,18.530085,73.849598,NO2,75,171,128
India,Maharashtra,Pune,"Revenue Colony-Shivajinagar, Pune - IITM",18-02-2024 13:00:00,18.530085,73.849598,SO2,65,117,97
India,Maharashtra,Pune,"Revenue Colony-Shivajinagar, Pune - IITM",18-02-2024 13:00:00,18.530085,73.849598,CO,97,115,109
India,Maharashtra,Sangli,"Vijay Nagar, Sangli - MPCB",18-02-2024 13:00:00, 16.5038,74.3623,PM2.5,44,304,149
India,Maharashtra,Sangli,"Vijay Nagar, Sangli - MPCB",18-02-2024 13:00:00, 16.5038,74.3623,NH3,1,7,3
India,Maharashtra,Sangli,"Vijay Nagar, Sangli - MPCB",18-02-2024 13:00:00, 16.5038,74.3623,CO,10,126,61
India,Maharashtra,Solapur,"Dnyaneshwar Nagar, Solapur - MPCB",18-02-2024 13:00:00,17.6336264,75.9132495,PM10,63,292,108
India,Maharashtra,Solapur,"Dnyaneshwar Nagar, Solapur - MPCB",18-02-2024 13:00:00,17.6336264,75.9132495,OZONE,12,104,54
India,Maharashtra,Solapur,"Solapur, Solapur - MPCB",18-02-2024 13:00:00,17.6599188,75.9063906,PM2.5,NA,NA,NA
India,Maharashtra,Solapur,"Solapur, Solapur - MPCB",18-02-2024 13:00:00,17.6599188,75.9063906,OZONE,NA,NA,NA
India,Maharashtra,Thane,"Kasarvadavali, Thane - MPCB",18-02-2024 13:00:00,19.26777,72.97182,PM10,107,150,124
India,Maharashtra,Thane,"Pimpleshwar Mandir, Thane - MPCB",18-02-2024 13:00:00,19.192056,72.9585188,CO,4,130,77
India,Maharashtra,Ulhasnagar,"Sidhi Vinayak Nagar, Ulhasnagar - MPCB",18-02-2024 13:00:00,19.235581,73.159121,NO2,12,85,36
India,Maharashtra,Virar,"Bolinj, Virar - MPCB",18-02-2024 13:00:00,19.4458210,72.7988231,NH3,6,9,7
India,Manipur,Imphal,"Manipur University, Imphal - Manipur PCB",18-02-2024 13:00:00,24.7524239,93.9286218,OZONE,2,42,23
India,Meghalaya,Shillong,"Lumpyngngad, Shillong - Meghalaya PCB",18-02-2024 13:00:00,25.5586,91.8985,SO2,43,44,43
India,Mizoram,Aizawl,"Sikulpuikawn, Aizawl - Mizoram PCB",18-02-2024 13:00:00,23.7176342,92.7192841,NO2,1,2,1
India,Mizoram,Aizawl,"Sikulpuikawn, Aizawl - Mizoram PCB",18-02-2024 13:00:00,23.7176342,92.7192841,OZONE,14,33,23
India,Nagaland,Kohima,"PWD Juction, Kohima - NPCB",18-02-2024 13:00:00,25.6635413,94.0989878,NO2,3,4,3
India,Odisha,Angul,"Hakimapada, Angul - OSPCB",18-02-2024 13:00:00,20.832874,85.104082,PM2.5,85,347,248
India,Odisha,Angul,"Hakimapada, Angul - OSPCB",18-02-2024 13:00:00,20.832874,85.104082,PM10,105,361,194
India,Odisha,Angul,"Hakimapada, Angul - OSPCB",18-02-2024 13:00:00,20.832874,85.104082,NH3,1,5,3
India,Odisha,Angul,"Hakimapada, Angul - OSPCB",18-02-2024 13:00:00,20.832874,85.104082,SO2,15,127,43
India,Odisha,Angul,"Hakimapada, Angul - OSPCB",18-02-2024 13:00:00,20.832874,85.104082,OZONE,9,233,32
India,Odisha,Balasore,"Kalidaspur, Balasore - OSPCB",18-02-2024 13:00:00,21.51161,86.89088,NH3,4,10,7
India,Odisha,Balasore,"Kalidaspur, Balasore - OSPCB",18-02-2024 13:00:00,21.51161,86.89088,OZONE,15,105,57
India,Odisha,Barbil,"Forest Office, Barbil - OSPCB",18-02-2024 13:00:00,22.1166054,85.3945546,PM2.5,77,312,193
India,Odisha,Barbil,"Forest Office, Barbil - OSPCB",18-02-2024 13:00:00,22.1166054,85.3945546,PM10,83,410,180
India,Odisha,Baripada,"Meher Colony, Baripada - OSPCB",18-02-2024 13:00:00,21.941841,86.728318,SO2,4,7,6
India,Odisha,Baripada,"Meher Colony, Baripada - OSPCB",18-02-2024 13:00:00,21.941841,86.728318,CO,28,54,46
India,Odisha,Bhubaneswar,"Patia, Bhubaneswar - OSPCB",18-02-2024 13:00:00,20.34652,85.81630,NO2,9,29,17
India,Odisha,Bhubaneswar,"Patia, Bhubaneswar - OSPCB",18-02-2024 13:00:00,20.34652,85.81630,NH3,4,8,5
India,Odisha,Brajrajnagar,"GM Office, Brajrajnagar - OSPCB",18-02-2024 13:00:00,21.8004996,83.8396977,NO2,17,22,20
India,Odisha,Brajrajnagar,"GM Office, Brajrajnagar - OSPCB",18-02-2024 13:00:00,21.8004996,83.8396977,CO,54,104,65
India,Odisha,Cuttack,"CDA Area, Cuttack - OSPCB",18-02-2024 13:00:00,20.48891     ,85.84768     ,OZONE,33,122,61
India,Odisha,Keonjhar,"Jagamohanpur, Keonjhar - OSPCB",18-02-2024 13:00:00,21.643900,85.599355,PM2.5,8,286,184
India,Odisha,Keonjhar,"Jagamohanpur, Keonjhar - OSPCB",18-02-2024 13:00:00,21.643900,85.599355,SO2,12,19,14
India,Odisha,Nayagarh,"Dabuna, Nayagarh - OSPCB",18-02-2024 13:00:00,21.847279,85.416905,PM2.5,141,270,189
India,Odisha,Nayagarh,"Dabuna, Nayagarh - OSPCB",18-02-2024 13:00:00,21.847279,85.416905,PM10,83,243,149
India,Odisha,Nayagarh,"Dabuna, Nayagarh - OSPCB",18-02-2024 13:00:00,21.847279,85.416905,SO2,3,11,4
India,Odisha,Nayagarh,"Dabuna, Nayagarh - OSPCB",18-02-2024 13:00:00,21.847279,85.416905,OZONE,2,16,7
India,Odisha,Rairangpur,"Divisional Forest Office, Rairangpur - OSPCB",18-02-2024 13:00:00,22.265816,86.174829,CO,16,46,23
India,Odisha,Rairangpur,"Divisional Forest Office, Rairangpur - OSPCB",18-02-2024 13:00:00,22.265816,86.174829,OZONE,1,50,20
India,Odisha,Rourkela,"Fertilizer Township, Rourkela - OSPCB",18-02-2024 13:00:00,22.18972222,84.86277778,NO2,4,27,16
India,Odisha,Rourkela,"Fertilizer Township, Rourkela - OSPCB",18-02-2024 13:00:00,22.18972222,84.86277778,CO,14,21,18
India,Odisha,Rourkela,"Raghunathpali, Rourkela - OSPCB",18-02-2024 13:00:00,22.220833,84.809444,PM2.5,124,288,204
India,Odisha,Rourkela,"Raghunathpali, Rourkela - OSPCB",18-02-2024 13:00:00,22.220833,84.809444,NH3,1,2,1
India,Odisha,Rourkela,"Sector-2, Rourkela - OSPCB",18-02-2024 13:00:00,22.24500000,84.88111111,PM2.5,78,316,160
India,Odisha,Suakati,"OMC Colony, Suakati - OSPCB",18-02-2024 13:00:00,21.606865,85.510538,NO2,113,403,181
India,Odisha,Suakati,"OMC Colony, Suakati - OSPCB",18-02-2024 13:00:00,21.606865,85.510538,SO2,6,42,20
India,Odisha,Suakati,"OMC Colony, Suakati - OSPCB",18-02-2024 13:00:00,21.606865,85.510538,OZONE,18,178,20
India,Odisha,Talcher,"Talcher Coalfields,Talcher - OSPCB",18-02-2024 13:00:00,20.9360711,85.1707021,SO2,10,100,38
India,Odisha,Talcher,"Talcher Coalfields,Talcher - OSPCB",18-02-2024 13:00:00,20.9360711,85.1707021,CO,5,120,11
India,Odisha,Tensa,"Barsua Iron Ore Mines, Tensa - OSPCB",18-02-2024 13:00:00,21.869985,85.167016,PM2.5,59,124,97
India,Puducherry,Puducherry,"Jawahar Nagar, Puducherry - PPCC",18-02-2024 13:00:00,11.9309,79.8027,PM10,39,90,55
India,Punjab,Amritsar,"Golden Temple, Amritsar - PPCB",18-02-2024 13:00:00,31.620000,74.876512,PM10,67,240,138
India,Punjab,Jalandhar,"Civil Line, Jalandhar - PPCB",18-02-2024 13:00:00,31.321907,75.578914,SO2,3,13,6
India,Punjab,Khanna,"Kalal Majra, Khanna - PPCB",18-02-2024 13:00:00,30.736056 ,76.209694,CO,3,42,39
India,Punjab,Khanna,"Kalal Majra, Khanna - PPCB",18-02-2024 13:00:00,30.736056 ,76.209694,OZONE,2,111,18
India,Punjab,Mandi Gobindgarh,"RIMT University, Mandi Gobindgarh - PPCB",18-02-2024 13:00:00,30.649961,76.331442,PM2.5,22,406,160
India,Punjab,Mandi Gobindgarh,"RIMT University, Mandi Gobindgarh - PPCB",18-02-2024 13:00:00,30.649961,76.331442,SO2,4,49,16
India,Punjab,Patiala,"Model Town, Patiala - PPCB",18-02-2024 13:00:00,30.349388,76.366642,CO,35,68,46
India,Punjab,Rupnagar,"Ratanpura, Rupnagar - Ambuja Cements",18-02-2024 13:00:00,31.0325454,76.5623046,PM2.5,63,248,129
India,Punjab,Rupnagar,"Ratanpura, Rupnagar - Ambuja Cements",18-02-2024 13:00:00,31.0325454,76.5623046,SO2,1,9,6
India,Rajasthan,Ajmer,"Civil Lines,  Ajmer - RSPCB",18-02-2024 13:00:00,26.470859,74.646594,PM2.5,8,114,56
India,Rajasthan,Ajmer,"Civil Lines,  Ajmer - RSPCB",18-02-2024 13:00:00,26.470859,74.646594,CO,20,96,30
India,Rajasthan,Alwar,"Moti Doongri, Alwar - RSPCB",18-02-2024 13:00:00,27.554793,76.611536,NH3,6,10,8
India,Rajasthan,Alwar,"Moti Doongri, Alwar - RSPCB",18-02-2024 13:00:00,27.554793,76.611536,CO,5,114,52
India,Rajasthan,Banswara,"Rati Talai, Banswara - RSPCB",18-02-2024 13:00:00,23.555190,74.440010,PM2.5,61,174,94
India,Rajasthan,Banswara,"Rati Talai, Banswara - RSPCB",18-02-2024 13:00:00,23.555190,74.440010,SO2,1,23,8
India,Rajasthan,Baran,"Bamboliya, Baran - RSPCB",18-02-2024 13:00:00,25.106006,76.469948,PM2.5,66,217,114
India,Rajasthan,Baran,"Bamboliya, Baran - RSPCB",18-02-2024 13:00:00,25.106006,76.469948,PM10,72,148,100
India,Rajasthan,Baran,"Bamboliya, Baran - RSPCB",18-02-2024 13:00:00,25.106006,76.469948,NO2,1,70,13
India,Rajasthan,Barmer,"Railway Colony, Barmer - RSPCB",18-02-2024 13:00:00,25.747299,71.393989,CO,12,124,20
India,Rajasthan,Bharatpur,"Krishna Nagar, Bharatpur - RSPCB",18-02-2024 13:00:00,27.215415,77.50873,PM10,107,328,178
India,Rajasthan,Bharatpur,"Krishna Nagar, Bharatpur - RSPCB",18-02-2024 13:00:00,27.215415,77.50873,CO,4,134,50
India,Rajasthan,Bhilwara,"Pratap Nagar, Bhilwara - RSPCB",18-02-2024 13:00:00,25.339605,74.618883,PM10,82,171,131
India,Rajasthan,Bhilwara,"Pratap Nagar, Bhilwara - RSPCB",18-02-2024 13:00:00,25.339605,74.618883,NH3,1,4,2
India,Rajasthan,Bhilwara,"Pratap Nagar, Bhilwara - RSPCB",18-02-2024 13:00:00,25.339605,74.618883,CO,18,103,35
India,Rajasthan,Bhiwadi,"RIICO Ind. Area III, Bhiwadi - RSPCB",18-02-2024 13:00:00,28.194909,76.862296,NO2,18,42,27
India,Rajasthan,Bhiwadi,"RIICO Ind. Area III, Bhiwadi - RSPCB",18-02-2024 13:00:00,28.194909,76.862296,NH3,6,27,15
India,Rajasthan,Bhiwadi,"RIICO Ind. Area III, Bhiwadi - RSPCB",18-02-2024 13:00:00,28.194909,76.862296,OZONE,1,45,13
India,Rajasthan,Bikaner,"MM Ground, Bikaner - RSPCB",18-02-2024 13:00:00,28.018792,73.292658,PM2.5,36,287,101
India,Rajasthan,Bikaner,"MM Ground, Bikaner - RSPCB",18-02-2024 13:00:00,28.018792,73.292658,PM10,60,412,175
India,Rajasthan,Bikaner,"MM Ground, Bikaner - RSPCB",18-02-2024 13:00:00,28.018792,73.292658,NO2,15,103,37
India,Rajasthan,Bundi,"New Colony, Bundi - RSPCB",18-02-2024 13:00:00,25.435774,75.644272,NH3,3,4,4
India,Rajasthan,Bundi,"New Colony, Bundi - RSPCB",18-02-2024 13:00:00,25.435774,75.644272,OZONE,31,71,32
India,Rajasthan,Churu,"Subash Chowk, Churu - RSPCB",18-02-2024 13:00:00,28.296139,74.961696,PM2.5,24,233,103
India,Rajasthan,Churu,"Subash Chowk, Churu - RSPCB",18-02-2024 13:00:00,28.296139,74.961696,NO2,2,120,36
India,Rajasthan,Churu,"Subash Chowk, Churu - RSPCB",18-02-2024 13:00:00,28.296139,74.961696,OZONE,29,147,82
India,Rajasthan,Dausa,"Khatikan Mohalla, Dausa - RSPCB",18-02-2024 13:00:00,26.895552,76.334753,NO2,52,134,82
India,Rajasthan,Dungarpur,"Bhoiwada, Dungarpur - RSPCB",18-02-2024 13:00:00,23.837789,73.714926,SO2,NA,NA,NA
India,Rajasthan,Dungarpur,"Bhoiwada, Dungarpur - RSPCB",18-02-2024 13:00:00,23.837789,73.714926,OZONE,6,53,21
India,Rajasthan,Jaipur,"Adarsh Nagar, Jaipur - RSPCB",18-02-2024 13:00:00,26.902909,75.836858,PM10,72,156,101
India,Rajasthan,Jaipur,"Mansarovar Sector-12, Jaipur - RSPCB",18-02-2024 13:00:00,26.843698,75.766894,SO2,2,6,4
India,Rajasthan,Jaipur,"Police Commissionerate, Jaipur - RSPCB",18-02-2024 13:00:00,26.9164092,75.7994901,PM10,85,417,178
India,Rajasthan,Jaipur,"RIICO Sitapura, Jaipur - RSPCB",18-02-2024 13:00:00,26.786682,75.827928,CO,16,147,51
India,Rajasthan,Jaipur,"Sector-2 Murlipura, Jaipur - RSPCB",18-02-2024 13:00:00,26.960669,75.771817,PM2.5,20,179,61
India,Rajasthan,Jaipur,"Shastri Nagar, Jaipur - RSPCB",18-02-2024 13:00:00,26.9502929,75.730943,NO2,NA,NA,NA
India,Rajasthan,Jaisalmer,"Sadar Bazar, Jaisalmer - RSPCB",18-02-2024 13:00:00,26.912329,70.909168,PM10,49,500,136
India,Rajasthan,Jaisalmer,"Sadar Bazar, Jaisalmer - RSPCB",18-02-2024 13:00:00,26.912329,70.909168,CO,3,94,14
India,Rajasthan,Jalore,"Mudtra Sili, Jalore - RSPCB",18-02-2024 13:00:00,25.344694,72.626208,NH3,6,12,9
India,Rajasthan,Jalore,"Mudtra Sili, Jalore - RSPCB",18-02-2024 13:00:00,25.344694,72.626208,SO2,1,12,5
India,Rajasthan,Jalore,"Mudtra Sili, Jalore - RSPCB",18-02-2024 13:00:00,25.344694,72.626208,OZONE,1,132,60
India,Rajasthan,Jhalawar,"Rajlaxmi Nagar, Jhalawar - RSPCB",18-02-2024 13:00:00,24.588397,76.172782,SO2,3,33,11
India,Rajasthan,Jhalawar,"Rajlaxmi Nagar, Jhalawar - RSPCB",18-02-2024 13:00:00,24.588397,76.172782,OZONE,18,119,51
India,Rajasthan,Jhunjhunu,"Indra Nagar, Jhunjhunu - RSPCB",18-02-2024 13:00:00,28.108988,75.386577,NH3,8,12,10
India,Rajasthan,Jodhpur,"Collectorate, Jodhpur - RSPCB",18-02-2024 13:00:00,26.268249,73.0193853,PM2.5,8,500,195
India,Rajasthan,Jodhpur,"Collectorate, Jodhpur - RSPCB",18-02-2024 13:00:00,26.268249,73.0193853,OZONE,36,174,68
India,Rajasthan,Jodhpur,"Jhalamand, Jodhpur - RSPCB",18-02-2024 13:00:00,26.215415,73.070156,PM10,67,410,184
India,Rajasthan,Jodhpur,"Mandor, Jodhpur - RSPCB",18-02-2024 13:00:00,26.358805,73.047444,PM10,68,178,118
India,Rajasthan,Jodhpur,"Mandor, Jodhpur - RSPCB",18-02-2024 13:00:00,26.358805,73.047444,NH3,3,41,15
India,Rajasthan,Jodhpur,"Mandor, Jodhpur - RSPCB",18-02-2024 13:00:00,26.358805,73.047444,CO,7,55,35
India,Rajasthan,Jodhpur,"Samrat Ashok Udhyan, Jodhpur - RSPCB",18-02-2024 13:00:00,26.253384,72.976571,OZONE,4,190,55
India,Rajasthan,Karauli,"Satyawati Vihar, Karauli - RSPCB",18-02-2024 13:00:00,26.506177,77.025989,NO2,16,98,39
India,Rajasthan,Kota,"Dhanmandi, Kota - RSPCB",18-02-2024 13:00:00,25.164090,75.858137,PM2.5,82,339,261
India,Rajasthan,Nagaur,"Karni Colony, Nagaur - RSPCB",18-02-2024 13:00:00,27.213494,73.734444,PM2.5,22,333,116
India,Rajasthan,Nagaur,"Karni Colony, Nagaur - RSPCB",18-02-2024 13:00:00,27.213494,73.734444,NH3,9,21,12
India,Rajasthan,Pali,"Indira Colony Vistar, Pali - RSPCB",18-02-2024 13:00:00,25.771061, 73.340227,PM10,NA,NA,NA
India,Rajasthan,Pali,"Indira Colony Vistar, Pali - RSPCB",18-02-2024 13:00:00,25.771061, 73.340227,NH3,6,17,13
India,Rajasthan,Pali,"Indira Colony Vistar, Pali - RSPCB",18-02-2024 13:00:00,25.771061, 73.340227,OZONE,9,79,34
India,Rajasthan,Pratapgarh,"Pragati Nagar, Pratapgarh - RSPCB",18-02-2024 13:00:00,24.041198,74.780702,NO2,15,130,42
India,Rajasthan,Pratapgarh,"Pragati Nagar, Pratapgarh - RSPCB",18-02-2024 13:00:00,24.041198,74.780702,SO2,3,11,6
India,Rajasthan,Rajsamand,"Dhoinda, Rajsamand - RSPCB",18-02-2024 13:00:00,25.036360,73.883502,NO2,NA,NA,NA
India,Rajasthan,Rajsamand,"Dhoinda, Rajsamand - RSPCB",18-02-2024 13:00:00,25.036360,73.883502,SO2,NA,NA,NA
India,Rajasthan,Sawai Madhopur,"Sahu Nagar, Sawai Madhopur - RSPCB",18-02-2024 13:00:00,26.031443,76.359327,NO2,12,60,28
India,Rajasthan,Sawai Madhopur,"Sahu Nagar, Sawai Madhopur - RSPCB",18-02-2024 13:00:00,26.031443,76.359327,SO2,12,24,17
India,Rajasthan,Sirohi,"Vedhaynath Colony, Sirohi - RSPCB",18-02-2024 13:00:00,24.885261,72.857549,PM2.5,27,280,77
India,Rajasthan,Sirohi,"Vedhaynath Colony, Sirohi - RSPCB",18-02-2024 13:00:00,24.885261,72.857549,SO2,6,12,9
India,Rajasthan,Udaipur,"Ashok Nagar, Udaipur - RSPCB",18-02-2024 13:00:00,24.5886166,73.6321397,SO2,6,30,12
India,Rajasthan,Udaipur,"Ashok Nagar, Udaipur - RSPCB",18-02-2024 13:00:00,24.5886166,73.6321397,OZONE,6,76,40
India,Sikkim,Gangtok,"Zero Point GICI, Gangtok - SSPCB",18-02-2024 13:00:00,27.338530,88.614099,PM10,31,77,55
India,Sikkim,Gangtok,"Zero Point GICI, Gangtok - SSPCB",18-02-2024 13:00:00,27.338530,88.614099,NO2,1,7,3
India,Sikkim,Gangtok,"Zero Point GICI, Gangtok - SSPCB",18-02-2024 13:00:00,27.338530,88.614099,CO,21,28,25
India,TamilNadu,Ariyalur,"Keelapalur, Ariyalur - TNPCB",18-02-2024 13:00:00,11.06825,79.07033,PM2.5,NA,NA,NA
India,TamilNadu,Chennai,"Alandur Bus Depot, Chennai - CPCB",18-02-2024 13:00:00,12.9099161,80.1076538,NO2,7,72,25
India,TamilNadu,Chennai,"Alandur Bus Depot, Chennai - CPCB",18-02-2024 13:00:00,12.9099161,80.1076538,NH3,6,14,7
India,TamilNadu,Chennai,"Alandur Bus Depot, Chennai - CPCB",18-02-2024 13:00:00,12.9099161,80.1076538,CO,61,63,62
India,TamilNadu,Chennai,"Arumbakkam, Chennai - TNPCB",18-02-2024 13:00:00,13.0664,80.2112 ,NO2,9,42,20
India,TamilNadu,Chennai,"Arumbakkam, Chennai - TNPCB",18-02-2024 13:00:00,13.0664,80.2112 ,NH3,1,4,3
India,TamilNadu,Chennai,"Manali, Chennai - CPCB",18-02-2024 13:00:00,13.164544,80.26285,CO,35,98,66
India,TamilNadu,Chennai,"Perungudi, Chennai - TNPCB",18-02-2024 13:00:00,12.9533,80.2357,PM2.5,28,334,84
India,TamilNadu,Chennai,"Perungudi, Chennai - TNPCB",18-02-2024 13:00:00,12.9533,80.2357,SO2,1,7,3
India,TamilNadu,Chennai,"Perungudi, Chennai - TNPCB",18-02-2024 13:00:00,12.9533,80.2357,OZONE,2,8,4
India,TamilNadu,Chennai,"Royapuram, Chennai - TNPCB",18-02-2024 13:00:00,13.1036,80.2909,CO,20,68,45
India,TamilNadu,Chennai,"Velachery Res. Area, Chennai - CPCB",18-02-2024 13:00:00,13.0052189,80.2398125,NO2,19,74,30
India,TamilNadu,Chennai,"Velachery Res. Area, Chennai - CPCB",18-02-2024 13:00:00,13.0052189,80.2398125,OZONE,7,25,14
India,TamilNadu,Cuddalore,"Kudikadu, Cuddalore - TNPCB",18-02-2024 13:00:00,11.6829898,79.7532099,PM2.5,42,93,64
India,TamilNadu,Cuddalore,"Kudikadu, Cuddalore - TNPCB",18-02-2024 13:00:00,11.6829898,79.7532099,NH3,4,5,5
India,TamilNadu,Cuddalore,"Semmandalam, Cuddalore - TNPCB",18-02-2024 13:00:00,11.7637683,79.7499835,PM2.5,25,128,58
India,TamilNadu,Cuddalore,"Semmandalam, Cuddalore - TNPCB",18-02-2024 13:00:00,11.7637683,79.7499835,PM10,19,86,43
India,TamilNadu,Cuddalore,"Semmandalam, Cuddalore - TNPCB",18-02-2024 13:00:00,11.7637683,79.7499835,NH3,1,2,2
India,TamilNadu,Ooty,"Bombay Castel, Ooty - TNPCB",18-02-2024 13:00:00,11.4068288,76.7138973,NH3,NA,NA,NA
India,TamilNadu,Palkalaiperur,"Bharathidasan University, Palkalaiperur - TNPCB",18-02-2024 13:00:00,10.681158,78.741746,PM10,34,54,45
India,TamilNadu,Palkalaiperur,"Bharathidasan University, Palkalaiperur - TNPCB",18-02-2024 13:00:00,10.681158,78.741746,CO,2,6,2
India,TamilNadu,Salem,"Sona College of Technology, Salem - TNPCB",18-02-2024 13:00:00,11.679111,78.125052,SO2,21,22,22
India,TamilNadu,Salem,"Sona College of Technology, Salem - TNPCB",18-02-2024 13:00:00,11.679111,78.125052,CO,42,44,43
India,TamilNadu,Salem,"Sona College of Technology, Salem - TNPCB",18-02-2024 13:00:00,11.679111,78.125052,OZONE,3,3,3
India,TamilNadu,Thoothukudi,"Meelavittan, Thoothukudi - TNPCB",18-02-2024 13:00:00,8.816428 ,78.099039,CO,1,50,29
India,TamilNadu,Tirupur,"Kumaran College, Tirupur - TNPCB",18-02-2024 13:00:00,11.0973603,77.3228673,NH3,NA,NA,NA
India,TamilNadu,Virudhunagar,"Collectorate Office, Virudhunagar - TNPCB",18-02-2024 13:00:00,9.559382,77.948828,NO2,16,33,24
India,Telangana,Hyderabad,"Bollaram Industrial Area, Hyderabad - TSPCB",18-02-2024 13:00:00,17.540891,78.358528,PM10,27,114,72
India,Telangana,Hyderabad,"Central University, Hyderabad - TSPCB",18-02-2024 13:00:00,17.460103,78.334361,NO2,12,35,27
India,Telangana,Hyderabad,"Central University, Hyderabad - TSPCB",18-02-2024 13:00:00,17.460103,78.334361,NH3,2,6,4
India,Telangana,Hyderabad,"ECIL Kapra, Hyderabad - TSPCB",18-02-2024 13:00:00,17.470431,78.566959,PM2.5,49,53,51
India,Telangana,Hyderabad,"ECIL Kapra, Hyderabad - TSPCB",18-02-2024 13:00:00,17.470431,78.566959,NH3,7,8,7
India,Telangana,Hyderabad,"ECIL Kapra, Hyderabad - TSPCB",18-02-2024 13:00:00,17.470431,78.566959,SO2,6,34,14
India,Telangana,Hyderabad,"IITH Kandi, Hyderabad - TSPCB",18-02-2024 13:00:00,17.585705,78.126199,SO2,14,15,14
India,Telangana,Hyderabad,"Kompally Municipal Office, Hyderabad - TSPCB",18-02-2024 13:00:00,17.544899,78.486949,NH3,NA,NA,NA
India,Telangana,Hyderabad,"Nacharam_TSIIC IALA, Hyderabad - TSPCB",18-02-2024 13:00:00,17.429398,78.569354,PM10,43,96,63
India,Telangana,Hyderabad,"Nacharam_TSIIC IALA, Hyderabad - TSPCB",18-02-2024 13:00:00,17.429398,78.569354,NO2,9,14,11
India,Telangana,Hyderabad,"Nacharam_TSIIC IALA, Hyderabad - TSPCB",18-02-2024 13:00:00,17.429398,78.569354,SO2,3,42,22
India,Telangana,Hyderabad,"New Malakpet, Hyderabad - TSPCB",18-02-2024 13:00:00,17.37206,78.50864,NH3,2,2,2
India,Telangana,Hyderabad,"Ramachandrapuram, Hyderabad - TSPCB",18-02-2024 13:00:00,17.528544,78.286195,NO2,11,11,11
India,Telangana,Hyderabad,"Somajiguda, Hyderabad - TSPCB",18-02-2024 13:00:00,17.417094,78.457437,NH3,NA,NA,NA
India,Telangana,Hyderabad,"Zoo Park, Hyderabad - TSPCB",18-02-2024 13:00:00,17.349694,78.451437,PM2.5,20,89,56
India,Telangana,Hyderabad,"Zoo Park, Hyderabad - TSPCB",18-02-2024 13:00:00,17.349694,78.451437,CO,30,88,39
India,Tripura,Agartala,"Bardowali, Agartala - Tripura SPCB",18-02-2024 13:00:00,23.8175497,91.2726974,PM2.5,130,350,275
India,Tripura,Agartala,"Bardowali, Agartala - Tripura SPCB",18-02-2024 13:00:00,23.8175497,91.2726974,CO,34,107,38
India,Uttar_Pradesh,Agra,"Manoharpur, Agra - UPPCB",18-02-2024 13:00:00,27.23711,78.01936,PM2.5,14,143,49
India,Uttar_Pradesh,Agra,"Manoharpur, Agra - UPPCB",18-02-2024 13:00:00,27.23711,78.01936,NO2,17,17,17
India,Uttar_Pradesh,Agra,"Manoharpur, Agra - UPPCB",18-02-2024 13:00:00,27.23711,78.01936,OZONE,1,28,12
India,Uttar_Pradesh,Agra,"Rohta, Agra - UPPCB",18-02-2024 13:00:00,27.106972,78.000111,PM2.5,26,194,91
India,Uttar_Pradesh,Agra,"Rohta, Agra - UPPCB",18-02-2024 13:00:00,27.106972,78.000111,NH3,2,2,2
India,Uttar_Pradesh,Agra,"Sanjay Palace, Agra - UPPCB",18-02-2024 13:00:00,27.19865833,78.00598056,PM2.5,16,192,73
India,Uttar_Pradesh,Agra,"Sanjay Palace, Agra - UPPCB",18-02-2024 13:00:00,27.19865833,78.00598056,SO2,4,13,8
India,Uttar_Pradesh,Agra,"Shahjahan Garden, Agra - UPPCB",18-02-2024 13:00:00,27.169338,78.03582,SO2,34,48,40
India,Uttar_Pradesh,Agra,"Shastripuram, Agra - UPPCB",18-02-2024 13:00:00,27.19862,77.92066,SO2,18,25,21
India,Uttar_Pradesh,Agra,"Shastripuram, Agra - UPPCB",18-02-2024 13:00:00,27.19862,77.92066,OZONE,3,18,13
India,Uttar_Pradesh,Baghpat,"Sardar Patel Inter College, Baghpat - UPPCB",18-02-2024 13:00:00,28.964949,77.278761,PM2.5,35,351,199
India,Uttar_Pradesh,Baghpat,"Sardar Patel Inter College, Baghpat - UPPCB",18-02-2024 13:00:00,28.964949,77.278761,PM10,59,260,147
India,Uttar_Pradesh,Baghpat,"Sardar Patel Inter College, Baghpat - UPPCB",18-02-2024 13:00:00,28.964949,77.278761,NH3,2,15,8
India,Uttar_Pradesh,Bareilly,"Rajendra Nagar, Bareilly - UPPCB",18-02-2024 13:00:00,28.38910936,79.42963708,PM2.5,27,75,54
India,Uttar_Pradesh,Bareilly,"Rajendra Nagar, Bareilly - UPPCB",18-02-2024 13:00:00,28.38910936,79.42963708,NO2,31,71,55
India,Uttar_Pradesh,Bareilly,"Rajendra Nagar, Bareilly - UPPCB",18-02-2024 13:00:00,28.38910936,79.42963708,NH3,1,1,1
India,Uttar_Pradesh,Bareilly,"Rajendra Nagar, Bareilly - UPPCB",18-02-2024 13:00:00,28.38910936,79.42963708,SO2,41,42,41
India,Uttar_Pradesh,Bulandshahr,"Yamunapuram, Bulandshahr - UPPCB",18-02-2024 13:00:00,28.406963,77.849831,NH3,7,16,11
India,Uttar_Pradesh,Firozabad,"Nagla Bhau, Firozabad - UPPCB",18-02-2024 13:00:00,27.168897,78.376960,PM2.5,33,121,67
India,Uttar_Pradesh,Firozabad,"Nagla Bhau, Firozabad - UPPCB",18-02-2024 13:00:00,27.168897,78.376960,PM10,35,91,58
India,Uttar_Pradesh,Firozabad,"Vibhab Nagar, Firozabad - UPPCB",18-02-2024 13:00:00,27.1594,78.3953,PM10,31,118,67
India,Uttar_Pradesh,Firozabad,"Vibhab Nagar, Firozabad - UPPCB",18-02-2024 13:00:00,27.1594,78.3953,NO2,14,14,14
India,Uttar_Pradesh,Ghaziabad,"Indirapuram, Ghaziabad - UPPCB",18-02-2024 13:00:00,28.646233,77.358075,PM2.5,36,382,219
India,Uttar_Pradesh,Ghaziabad,"Loni, Ghaziabad - UPPCB",18-02-2024 13:00:00,28.757294,77.278792,PM10,98,484,310
India,Uttar_Pradesh,Ghaziabad,"Loni, Ghaziabad - UPPCB",18-02-2024 13:00:00,28.757294,77.278792,OZONE,1,78,17
India,Uttar_Pradesh,Ghaziabad,"Sanjay Nagar, Ghaziabad - UPPCB",18-02-2024 13:00:00,28.685382,77.453839,PM2.5,48,395,244
India,Uttar_Pradesh,Ghaziabad,"Sanjay Nagar, Ghaziabad - UPPCB",18-02-2024 13:00:00,28.685382,77.453839,NO2,43,141,83
India,Uttar_Pradesh,Ghaziabad,"Sanjay Nagar, Ghaziabad - UPPCB",18-02-2024 13:00:00,28.685382,77.453839,NH3,8,17,13
India,Uttar_Pradesh,Ghaziabad,"Vasundhara, Ghaziabad - UPPCB",18-02-2024 13:00:00,28.6603346,77.3572563,NO2,27,177,86
India,Uttar_Pradesh,Ghaziabad,"Vasundhara, Ghaziabad - UPPCB",18-02-2024 13:00:00,28.6603346,77.3572563,CO,6,152,87
India,Uttar_Pradesh,Gorakhpur,"Madan Mohan Malaviya University of Technology, Gorakhpur - UPPCB",18-02-2024 13:00:00,26.730136,83.433859,NH3,2,2,2
India,Uttar_Pradesh,Gorakhpur,"Madan Mohan Malaviya University of Technology, Gorakhpur - UPPCB",18-02-2024 13:00:00,26.730136,83.433859,CO,20,46,36
India,Uttar_Pradesh,Greater Noida,"Knowledge Park - V, Greater Noida - UPPCB",18-02-2024 13:00:00,28.557054,77.453663,PM2.5,75,386,262
India,Uttar_Pradesh,Greater Noida,"Knowledge Park - V, Greater Noida - UPPCB",18-02-2024 13:00:00,28.557054,77.453663,NO2,14,44,29
India,Uttar_Pradesh,Greater Noida,"Knowledge Park - V, Greater Noida - UPPCB",18-02-2024 13:00:00,28.557054,77.453663,OZONE,4,185,38
India,Uttar_Pradesh,Hapur,"Anand Vihar, Hapur - UPPCB",18-02-2024 13:00:00,28.725645,77.749675,NH3,4,10,6
India,Uttar_Pradesh,Hapur,"Anand Vihar, Hapur - UPPCB",18-02-2024 13:00:00,28.725645,77.749675,SO2,27,62,43
India,Uttar_Pradesh,Jhansi,"Shivaji Nagar, Jhansi - UPPCB",18-02-2024 13:00:00,25.4547,78.6039,PM2.5,24,196,68
India,Uttar_Pradesh,Jhansi,"Shivaji Nagar, Jhansi - UPPCB",18-02-2024 13:00:00,25.4547,78.6039,OZONE,1,11,2
India,Uttar_Pradesh,Kanpur,"FTI Kidwai Nagar, Kanpur - UPPCB",18-02-2024 13:00:00,26.428282,80.327067,NO2,19,19,19
India,Uttar_Pradesh,Kanpur,"FTI Kidwai Nagar, Kanpur - UPPCB",18-02-2024 13:00:00,26.428282,80.327067,CO,28,108,56
India,Uttar_Pradesh,Kanpur,"NSI Kalyanpur, Kanpur - UPPCB",18-02-2024 13:00:00,26.509954,80.249612,CO,NA,NA,NA
India,Uttar_Pradesh,Kanpur,"Nehru Nagar, Kanpur - UPPCB",18-02-2024 13:00:00,26.4703136,80.3229863,NO2,8,130,46
India,Uttar_Pradesh,Kanpur,"Nehru Nagar, Kanpur - UPPCB",18-02-2024 13:00:00,26.4703136,80.3229863,CO,10,121,29
India,Uttar_Pradesh,Khurja,"Kalindi Kunj, Khurja - UPPCB",18-02-2024 13:00:00,28.2348927,77.8683002,PM2.5,15,150,70
India,Uttar_Pradesh,Khurja,"Kalindi Kunj, Khurja - UPPCB",18-02-2024 13:00:00,28.2348927,77.8683002,PM10,15,113,65
India,Uttar_Pradesh,Khurja,"Kalindi Kunj, Khurja - UPPCB",18-02-2024 13:00:00,28.2348927,77.8683002,SO2,33,39,36
India,Uttar_Pradesh,Khurja,"Kalindi Kunj, Khurja - UPPCB",18-02-2024 13:00:00,28.2348927,77.8683002,OZONE,20,23,22
India,Uttar_Pradesh,Lucknow,"B R Ambedkar University, Lucknow - UPPCB",18-02-2024 13:00:00,26.766433,80.927299,PM10,75,225,134
India,Uttar_Pradesh,Lucknow,"B R Ambedkar University, Lucknow - UPPCB",18-02-2024 13:00:00,26.766433,80.927299,CO,26,64,43
India,Uttar_Pradesh,Lucknow,"Gomti Nagar, Lucknow - UPPCB",18-02-2024 13:00:00,26.868120,81.005119,PM2.5,17,155,68
India,Uttar_Pradesh,Lucknow,"Kendriya Vidyalaya, Lucknow - CPCB",18-02-2024 13:00:00,26.906111,80.948222,NO2,16,107,61
India,Uttar_Pradesh,Meerut,"Jai Bhim Nagar, Meerut - UPPCB",18-02-2024 13:00:00,28.9535882,77.7622941,SO2,4,26,10
India,Uttar_Pradesh,Meerut,"Jai Bhim Nagar, Meerut - UPPCB",18-02-2024 13:00:00,28.9535882,77.7622941,OZONE,2,103,34
India,Uttar_Pradesh,Meerut,"Pallavpuram Phase 2, Meerut - UPPCB",18-02-2024 13:00:00,29.063510,77.709723,SO2,12,32,20
India,Uttar_Pradesh,Moradabad,"Jigar Colony, Moradabad - UPPCB",18-02-2024 13:00:00,28.856664,78.772638,PM2.5,35,319,84
India,Uttar_Pradesh,Moradabad,"Kashiram Nagar, Moradabad - UPPCB",18-02-2024 13:00:00,28.849399,78.742362,PM2.5,39,235,86
India,Uttar_Pradesh,Moradabad,"Kashiram Nagar, Moradabad - UPPCB",18-02-2024 13:00:00,28.849399,78.742362,PM10,72,180,114
India,Uttar_Pradesh,Moradabad,"Kashiram Nagar, Moradabad - UPPCB",18-02-2024 13:00:00,28.849399,78.742362,NO2,15,52,38
India,Uttar_Pradesh,Moradabad,"Kashiram Nagar, Moradabad - UPPCB",18-02-2024 13:00:00,28.849399,78.742362,NH3,4,4,4
India,Uttar_Pradesh,Muzaffarnagar,"New Mandi, Muzaffarnagar - UPPCB",18-02-2024 13:00:00,29.4723508,77.7194031,OZONE,11,129,44
India,Uttar_Pradesh,Noida,"Sector - 125, Noida - UPPCB",18-02-2024 13:00:00,28.5447608,77.3231257,CO,8,124,74
India,Uttar_Pradesh,Noida,"Sector - 62, Noida - IMD",18-02-2024 13:00:00,28.6245479,77.3577104,CO,19,101,75
India,Uttar_Pradesh,Noida,"Sector-1, Noida - UPPCB",18-02-2024 13:00:00,28.5898,77.3101,CO,21,128,70
India,Uttar_Pradesh,Noida,"Sector-116, Noida - UPPCB",18-02-2024 13:00:00,28.569230,77.393848,PM10,109,372,237
India,Uttar_Pradesh,Noida,"Sector-116, Noida - UPPCB",18-02-2024 13:00:00,28.569230,77.393848,NO2,25,140,80
India,Uttar_Pradesh,Prayagraj,"Jhunsi, Prayagraj - UPPCB",18-02-2024 13:00:00,25.425602,81.917152,PM2.5,34,118,55
India,Uttar_Pradesh,Prayagraj,"Jhunsi, Prayagraj - UPPCB",18-02-2024 13:00:00,25.425602,81.917152,SO2,30,32,31
India,Uttar_Pradesh,Prayagraj,"Jhunsi, Prayagraj - UPPCB",18-02-2024 13:00:00,25.425602,81.917152,CO,12,76,19
India,Uttar_Pradesh,Prayagraj,"Motilal Nehru NIT, Prayagraj - UPPCB",18-02-2024 13:00:00,25.494,81.863,CO,18,50,40
India,Uttar_Pradesh,Prayagraj,"Nagar Nigam, Prayagraj - UPPCB",18-02-2024 13:00:00,25.44919916 ,81.82735986 ,NO2,5,5,5
India,Uttar_Pradesh,Varanasi,"Ardhali Bazar, Varanasi - UPPCB",18-02-2024 13:00:00,25.3505986,82.9083074,CO,6,29,14
India,Uttar_Pradesh,Varanasi,"Bhelupur, Varanasi - UPPCB",18-02-2024 13:00:00,25.301778,82.996789,SO2,22,24,23
India,Uttar_Pradesh,Varanasi,"Maldahiya, Varanasi - UPPCB",18-02-2024 13:00:00,25.32393,82.99687,OZONE,NA,NA,NA
India,Uttar_Pradesh,Vrindavan,"Omex Eternity, Vrindavan - UPPCB",18-02-2024 13:00:00,27.5714090,77.6557570,PM10,44,319,155
India,Uttar_Pradesh,Vrindavan,"Omex Eternity, Vrindavan - UPPCB",18-02-2024 13:00:00,27.5714090,77.6557570,NH3,2,3,2
India,Uttar_Pradesh,Vrindavan,"Omex Eternity, Vrindavan - UPPCB",18-02-2024 13:00:00,27.5714090,77.6557570,SO2,37,41,39
India,Uttar_Pradesh,Vrindavan,"Omex Eternity, Vrindavan - UPPCB",18-02-2024 13:00:00,27.5714090,77.6557570,CO,40,108,102
India,Uttar_Pradesh,Vrindavan,"Omex Eternity, Vrindavan - UPPCB",18-02-2024 13:00:00,27.5714090,77.6557570,OZONE,30,31,31
India,Uttarakhand,Kashipur,"Govt. Girls Inter College, Kashipur - UKPCB",18-02-2024 13:00:00,29.2124114,78.9611753,PM2.5,89,218,157
India,Uttarakhand,Kashipur,"Govt. Girls Inter College, Kashipur - UKPCB",18-02-2024 13:00:00,29.2124114,78.9611753,NH3,4,7,6
India,Uttarakhand,Rishikesh,"Shivaji Nagar, Rishikesh - UKPCB",18-02-2024 13:00:00,30.075911,78.2859547,OZONE,7,126,31
India,West_Bengal,Asansol,"Asansol Court Area, Asansol - WBPCB",18-02-2024 13:00:00,23.685297,86.945968,NO2,26,99,56
India,West_Bengal,Barrackpore,"SVSPA Campus, Barrackpore - WBPCB",18-02-2024 13:00:00,22.7605581,88.3617589,PM10,106,258,175
India,West_Bengal,Barrackpore,"SVSPA Campus, Barrackpore - WBPCB",18-02-2024 13:00:00,22.7605581,88.3617589,CO,30,87,68
India,West_Bengal,Barrackpore,"SVSPA Campus, Barrackpore - WBPCB",18-02-2024 13:00:00,22.7605581,88.3617589,OZONE,7,117,32
India,West_Bengal,Durgapur,"Sidhu Kanhu Indoor Stadium, Durgapur - WBPCB",18-02-2024 13:00:00,23.5404352,87.2892225,PM2.5,48,311,193
India,West_Bengal,Durgapur,"Sidhu Kanhu Indoor Stadium, Durgapur - WBPCB",18-02-2024 13:00:00,23.5404352,87.2892225,NO2,25,46,32
India,West_Bengal,Durgapur,"Sidhu Kanhu Indoor Stadium, Durgapur - WBPCB",18-02-2024 13:00:00,23.5404352,87.2892225,NH3,2,2,2
India,West_Bengal,Durgapur,"Sidhu Kanhu Indoor Stadium, Durgapur - WBPCB",18-02-2024 13:00:00,23.5404352,87.2892225,SO2,12,34,23
India,West_Bengal,Howrah,"Belur Math, Howrah - WBPCB",18-02-2024 13:00:00,22.629801,88.352017,SO2,13,16,14
India,West_Bengal,Howrah,"Belur Math, Howrah - WBPCB",18-02-2024 13:00:00,22.629801,88.352017,OZONE,7,68,26
India,West_Bengal,Howrah,"Ghusuri, Howrah - WBPCB",18-02-2024 13:00:00,22.611968,88.347422,NO2,24,101,44
India,West_Bengal,Howrah,"Ghusuri, Howrah - WBPCB",18-02-2024 13:00:00,22.611968,88.347422,NH3,7,13,9
India,West_Bengal,Howrah,"Ghusuri, Howrah - WBPCB",18-02-2024 13:00:00,22.611968,88.347422,SO2,4,6,5
India,West_Bengal,Howrah,"Padmapukur, Howrah - WBPCB",18-02-2024 13:00:00,22.5687319,88.2797276,OZONE,5,58,18
India,West_Bengal,Kolkata,"Bidhannagar, Kolkata - WBPCB",18-02-2024 13:00:00,22.58157048,88.41002457,PM2.5,97,292,200
India,West_Bengal,Kolkata,"Bidhannagar, Kolkata - WBPCB",18-02-2024 13:00:00,22.58157048,88.41002457,NH3,10,12,11
India,West_Bengal,Kolkata,"Fort William, Kolkata - WBPCB",18-02-2024 13:00:00,22.556640,88.342674,SO2,7,29,16
India,West_Bengal,Kolkata,"Fort William, Kolkata - WBPCB",18-02-2024 13:00:00,22.556640,88.342674,OZONE,12,85,38
India,West_Bengal,Kolkata,"Jadavpur, Kolkata - WBPCB",18-02-2024 13:00:00,22.49929,88.36917,PM10,95,185,130
India,West_Bengal,Kolkata,"Jadavpur, Kolkata - WBPCB",18-02-2024 13:00:00,22.49929,88.36917,NO2,3,9,4
India,West_Bengal,Kolkata,"Rabindra Bharati University, Kolkata - WBPCB",18-02-2024 13:00:00,22.627847,88.380669,PM10,86,273,140
India,West_Bengal,Kolkata,"Rabindra Sarobar, Kolkata - WBPCB",18-02-2024 13:00:00,22.51106,88.35142,PM2.5,36,157,108
India,West_Bengal,Kolkata,"Rabindra Sarobar, Kolkata - WBPCB",18-02-2024 13:00:00,22.51106,88.35142,OZONE,3,91,33
India,West_Bengal,Kolkata,"Victoria, Kolkata - WBPCB",18-02-2024 13:00:00,22.5448082,88.3403691,SO2,7,17,11
India,West_Bengal,Kolkata,"Victoria, Kolkata - WBPCB",18-02-2024 13:00:00,22.5448082,88.3403691,CO,34,110,60
India,Andhra_Pradesh,Amaravati,"Secretariat, Amaravati - APPCB",18-02-2024 13:00:00,16.5150833,80.5181667,PM10,12,104,60
India,Andhra_Pradesh,Anantapur,"Gulzarpet, Anantapur - APPCB",18-02-2024 13:00:00,14.675886,77.593027,PM2.5,NA,NA,NA
India,Andhra_Pradesh,Chittoor,"Gangineni Cheruvu, Chittoor - APPCB",18-02-2024 13:00:00,13.204880,79.097889,PM2.5,27,60,45
India,Andhra_Pradesh,Chittoor,"Gangineni Cheruvu, Chittoor - APPCB",18-02-2024 13:00:00,13.204880,79.097889,CO,NA,NA,NA
India,Andhra_Pradesh,Kadapa,"Yerramukkapalli, Kadapa - APPCB",18-02-2024 13:00:00,14.465052,78.824187,PM10,37,258,102
India,Andhra_Pradesh,Rajamahendravaram,"Anand Kala Kshetram, Rajamahendravaram - APPCB",18-02-2024 13:00:00,16.9872867,81.7363176,PM2.5,62,119,81
India,Andhra_Pradesh,Vijayawada,"Kanuru, Vijayawada - APPCB",18-02-2024 13:00:00,16.486692,80.699436,PM2.5,NA,NA,NA
India,Andhra_Pradesh,Vijayawada,"Kanuru, Vijayawada - APPCB",18-02-2024 13:00:00,16.486692,80.699436,NH3,NA,NA,NA
India,Andhra_Pradesh,Vijayawada,"Kanuru, Vijayawada - APPCB",18-02-2024 13:00:00,16.486692,80.699436,OZONE,25,25,25
India,Andhra_Pradesh,Vijayawada,"Rajiv Gandhi Park, Vijayawada - APPCB",18-02-2024 13:00:00,16.509717,80.612222,PM2.5,43,72,59
India,Andhra_Pradesh,Vijayawada,"Rajiv Gandhi Park, Vijayawada - APPCB",18-02-2024 13:00:00,16.509717,80.612222,SO2,4,19,7
India,Andhra_Pradesh,Visakhapatnam,"GVM Corporation, Visakhapatnam - APPCB",18-02-2024 13:00:00,17.72,83.3,NO2,10,56,43
India,Assam,Guwahati,"IITG, Guwahati - PCBA",18-02-2024 13:00:00,26.2028636,91.70046436,PM10,96,220,159
India,Assam,Guwahati,"LGBI Airport, Guwahati - PCBA",18-02-2024 13:00:00,26.10887,91.589544,SO2,13,14,13
India,Assam,Guwahati,"Pan Bazaar, Guwahati - PCBA",18-02-2024 13:00:00,26.187500,91.744194,SO2,63,85,71
India,Assam,Nagaon,"Christianpatty, Nagaon - PCBA",18-02-2024 13:00:00,26.349082,92.68449,PM2.5,160,471,278
India,Assam,Nagaon,"Christianpatty, Nagaon - PCBA",18-02-2024 13:00:00,26.349082,92.68449,SO2,2,18,10
India,Assam,Nagaon,"Christianpatty, Nagaon - PCBA",18-02-2024 13:00:00,26.349082,92.68449,OZONE,3,122,62
India,Assam,Nalbari,"Bata Chowk, Nalbari - PCBA",18-02-2024 13:00:00,26.446912,91.439057,SO2,6,9,8
India,Assam,Silchar,"Tarapur, Silchar - PCBA",18-02-2024 13:00:00,24.82827,92.79525,NH3,1,1,1
India,Assam,Silchar,"Tarapur, Silchar - PCBA",18-02-2024 13:00:00,24.82827,92.79525,CO,30,58,47
India,Assam,Sivasagar,"Girls College, Sivasagar - PCBA",18-02-2024 13:00:00,26.987634,94.636574,PM2.5,29,53,36
India,Assam,Sivasagar,"Girls College, Sivasagar - PCBA",18-02-2024 13:00:00,26.987634,94.636574,NO2,16,34,23
India,Assam,Sivasagar,"Girls College, Sivasagar - PCBA",18-02-2024 13:00:00,26.987634,94.636574,CO,8,44,18
India,Bihar,Aurangabad,"Gurdeo Nagar, Aurangabad - BSPCB",18-02-2024 13:00:00,24.75746,84.366208,CO,2,16,7
India,Bihar,Aurangabad,"Gurdeo Nagar, Aurangabad - BSPCB",18-02-2024 13:00:00,24.75746,84.366208,OZONE,2,28,12
India,Bihar,Bhagalpur,"DM Office_Kachari Chowk, Bhagalpur - BSPCB",18-02-2024 13:00:00,25.251013,86.989001,PM10,140,238,172
India,Bihar,Bhagalpur,"DM Office_Kachari Chowk, Bhagalpur - BSPCB",18-02-2024 13:00:00,25.251013,86.989001,SO2,10,18,14
India,Bihar,Bihar Sharif,"D M Colony, Bihar Sharif - BSPCB",18-02-2024 13:00:00,25.204762,85.514960,NH3,2,2,2
India,Bihar,Bihar Sharif,"D M Colony, Bihar Sharif - BSPCB",18-02-2024 13:00:00,25.204762,85.514960,SO2,2,12,6
India,Bihar,Chhapra,"Darshan Nagar, Chhapra - BSPCB",18-02-2024 13:00:00,25.7808257,84.7446768,NO2,15,30,22
India,Bihar,Chhapra,"Darshan Nagar, Chhapra - BSPCB",18-02-2024 13:00:00,25.7808257,84.7446768,SO2,19,108,61
India,Bihar,Gaya,"Collectorate, Gaya - BSPCB",18-02-2024 13:00:00,24.7955,84.9994,NO2,1,4,3
India,Bihar,Gaya,"Kareemganj, Gaya - BSPCB",18-02-2024 13:00:00,24.792403,84.992416,CO,8,107,51
India,Bihar,Gaya,"Kareemganj, Gaya - BSPCB",18-02-2024 13:00:00,24.792403,84.992416,OZONE,2,38,19
India,Bihar,Gaya,"SFTI Kusdihra, Gaya - BSPCB",18-02-2024 13:00:00,24.762518,84.982348,PM10,40,82,72
India,Bihar,Gaya,"SFTI Kusdihra, Gaya - BSPCB",18-02-2024 13:00:00,24.762518,84.982348,NO2,14,57,38
India,Bihar,Gaya,"SFTI Kusdihra, Gaya - BSPCB",18-02-2024 13:00:00,24.762518,84.982348,NH3,2,5,4
India,Bihar,Gaya,"SFTI Kusdihra, Gaya - BSPCB",18-02-2024 13:00:00,24.762518,84.982348,SO2,3,15,7
India,Bihar,Gaya,"SFTI Kusdihra, Gaya - BSPCB",18-02-2024 13:00:00,24.762518,84.982348,OZONE,2,70,21
India,Bihar,Hajipur,"Industrial Area, Hajipur - BSPCB",18-02-2024 13:00:00,25.697189,85.245900,PM10,105,453,237
India,Bihar,Hajipur,"Industrial Area, Hajipur - BSPCB",18-02-2024 13:00:00,25.697189,85.245900,NH3,6,14,10
India,Bihar,Hajipur,"Industrial Area, Hajipur - BSPCB",18-02-2024 13:00:00,25.697189,85.245900,CO,14,49,28
India,Bihar,Katihar,"Mirchaibari, Katihar - BSPCB",18-02-2024 13:00:00,25.560083,87.553265,NO2,9,35,16
India,Bihar,Katihar,"Mirchaibari, Katihar - BSPCB",18-02-2024 13:00:00,25.560083,87.553265,OZONE,20,23,21
India,Bihar,Kishanganj,"SDM Office_Khagra, Kishanganj - BSPCB",18-02-2024 13:00:00,26.0881305,87.93840336,NO2,37,44,40
India,Bihar,Manguraha,"Forest Rest House, Manguraha - BSPCB",18-02-2024 13:00:00,27.308328,84.531742,PM10,NA,NA,NA
India,Bihar,Manguraha,"Forest Rest House, Manguraha - BSPCB",18-02-2024 13:00:00,27.308328,84.531742,OZONE,50,107,64
India,Bihar,Motihari,"Gandak Colony, Motihari - BSPCB",18-02-2024 13:00:00,26.63086,84.90051,NH3,7,13,9
India,Bihar,Motihari,"Gandak Colony, Motihari - BSPCB",18-02-2024 13:00:00,26.63086,84.90051,SO2,1,10,3
India,Bihar,Munger,"Town Hall, Munger - BSPCB",18-02-2024 13:00:00,25.376776,86.471523,SO2,19,49,36
India,Bihar,Muzaffarpur,"Buddha Colony, Muzaffarpur - BSPCB",18-02-2024 13:00:00,26.11442,85.39813,CO,26,78,45
India,Bihar,Muzaffarpur,"MIT-Daudpur Kothi, Muzaffarpur - BSPCB",18-02-2024 13:00:00,26.1403345,85.3650192,PM10,64,189,144
India,Bihar,Muzaffarpur,"MIT-Daudpur Kothi, Muzaffarpur - BSPCB",18-02-2024 13:00:00,26.1403345,85.3650192,OZONE,6,80,35
India,Bihar,Patna,"DRM Office Danapur, Patna - BSPCB",18-02-2024 13:00:00,25.586562,85.043586,SO2,7,9,8
India,Bihar,Patna,"DRM Office Danapur, Patna - BSPCB",18-02-2024 13:00:00,25.586562,85.043586,OZONE,1,83,36
India,Bihar,Patna,"Govt. High School Shikarpur, Patna - BSPCB",18-02-2024 13:00:00,25.592539,85.227158,NO2,23,34,29
India,Bihar,Patna,"Govt. High School Shikarpur, Patna - BSPCB",18-02-2024 13:00:00,25.592539,85.227158,CO,20,96,34
India,Bihar,Patna,"IGSC Planetarium Complex, Patna - BSPCB",18-02-2024 13:00:00,25.610369,85.132568,CO,16,19,17
India,Bihar,Patna,"Muradpur, Patna - BSPCB",18-02-2024 13:00:00,25.619651,85.147382,SO2,4,12,7
India,Bihar,Patna,"Muradpur, Patna - BSPCB",18-02-2024 13:00:00,25.619651,85.147382,OZONE,9,91,49
India,Bihar,Patna,"Samanpura, Patna - BSPCB",18-02-2024 13:00:00,25.596727,85.085624,PM10,NA,NA,NA
India,Bihar,Patna,"Samanpura, Patna - BSPCB",18-02-2024 13:00:00,25.596727,85.085624,NO2,28,63,43
India,Bihar,Patna,"Samanpura, Patna - BSPCB",18-02-2024 13:00:00,25.596727,85.085624,CO,8,116,83
India,Bihar,Purnia,"Mariam Nagar, Purnia - BSPCB",18-02-2024 13:00:00,25.366336,87.117468,PM2.5,68,308,172
India,Bihar,Purnia,"Mariam Nagar, Purnia - BSPCB",18-02-2024 13:00:00,25.366336,87.117468,PM10,111,177,135
India,Bihar,Purnia,"Mariam Nagar, Purnia - BSPCB",18-02-2024 13:00:00,25.366336,87.117468,SO2,17,20,19
India,Bihar,Purnia,"Mariam Nagar, Purnia - BSPCB",18-02-2024 13:00:00,25.366336,87.117468,OZONE,12,28,17
India,Bihar,Rajgir,"Dangi Tola, Rajgir - BSPCB",18-02-2024 13:00:00,25.03280,85.41948,NH3,1,3,1
India,Bihar,Samastipur,"DM Office_Kasipur, Samastipur - BSPCB",18-02-2024 13:00:00,25.859655,85.77944,PM2.5,72,270,179
India,Bihar,Samastipur,"DM Office_Kasipur, Samastipur - BSPCB",18-02-2024 13:00:00,25.859655,85.77944,NO2,2,12,6
India,Bihar,Samastipur,"DM Office_Kasipur, Samastipur - BSPCB",18-02-2024 13:00:00,25.859655,85.77944,SO2,5,14,10
India,Bihar,Sasaram,"Dada Peer, Sasaram - BSPCB",18-02-2024 13:00:00,24.952822,84.002396,NH3,8,12,10
India,Bihar,Siwan,"Chitragupta Nagar, Siwan - BSPCB",18-02-2024 13:00:00,26.2271665,84.3570427,PM10,31,159,78
India,Chandigarh,Chandigarh,"Sector-25, Chandigarh - CPCC",18-02-2024 13:00:00,30.751462,76.762879,PM2.5,185,304,253
India,Chandigarh,Chandigarh,"Sector-25, Chandigarh - CPCC",18-02-2024 13:00:00,30.751462,76.762879,NO2,15,34,22
India,Chandigarh,Chandigarh,"Sector-25, Chandigarh - CPCC",18-02-2024 13:00:00,30.751462,76.762879,SO2,5,16,10
India,Chandigarh,Chandigarh,"Sector-53, Chandigarh - CPCC",18-02-2024 13:00:00,30.719859,76.738637,CO,52,101,71
India,Chhattisgarh,Bhilai,"32Bungalows, Bhilai - CECB",18-02-2024 13:00:00,21.194815,81.314770,CO,22,54,47
India,Chhattisgarh,Bhilai,"Hathkhoj, Bhilai - CECB",18-02-2024 13:00:00,21.224231,81.408350,PM2.5,51,237,163
India,Chhattisgarh,Chhal,"Nawapara SECL Colony, Chhal - CECB",18-02-2024 13:00:00,22.118125,83.140608,NH3,2,2,2
India,Chhattisgarh,Chhal,"Nawapara SECL Colony, Chhal - CECB",18-02-2024 13:00:00,22.118125,83.140608,SO2,12,40,19
India,Chhattisgarh,Korba,"Rampur, Korba - CECB",18-02-2024 13:00:00,22.368195,82.746431,NO2,33,56,38
India,Chhattisgarh,Korba,"Rampur, Korba - CECB",18-02-2024 13:00:00,22.368195,82.746431,SO2,7,29,11
India,Chhattisgarh,Korba,"Urja Nagar, Korba - CECB",18-02-2024 13:00:00,22.348441,82.549611,CO,25,46,33
India,Chhattisgarh,Kunjemura,"OP Jindal School, Kunjemura - CECB",18-02-2024 13:00:00,22.126650,83.483212,SO2,6,12,9
India,Chhattisgarh,Kunjemura,"OP Jindal School, Kunjemura - CECB",18-02-2024 13:00:00,22.126650,83.483212,OZONE,4,65,19
India,Chhattisgarh,Milupara,"Govt. Higher Secondary School, Milupara - CECB",18-02-2024 13:00:00,22.1910172,83.5197009,OZONE,6,60,22
India,Chhattisgarh,Raipur,"AIIMS, Raipur - CECB",18-02-2024 13:00:00,21.258815,81.578979,PM2.5,38,68,54
India,Chhattisgarh,Raipur,"Bhatagaon New ISBT, Raipur - CECB",18-02-2024 13:00:00,21.219665,81.630094,PM2.5,36,61,51
India,Chhattisgarh,Raipur,"Bhatagaon New ISBT, Raipur - CECB",18-02-2024 13:00:00,21.219665,81.630094,NH3,1,2,2
India,Chhattisgarh,Raipur,"Krishak Nagar, Raipur - CECB",18-02-2024 13:00:00,21.237755,81.705301,CO,34,62,54
India,Chhattisgarh,Raipur,"Krishak Nagar, Raipur - CECB",18-02-2024 13:00:00,21.237755,81.705301,OZONE,3,8,4
India,Delhi,Delhi,"Anand Vihar, Delhi - DPCC",18-02-2024 13:00:00,28.647622,77.3158090,OZONE,16,23,19
India,Delhi,Delhi,"Burari Crossing, Delhi - IMD",18-02-2024 13:00:00,28.7256504,77.2011573,OZONE,24,91,33
India,Delhi,Delhi,"CRRI Mathura Road, Delhi - IMD",18-02-2024 13:00:00,28.5512005,77.2735737,PM2.5,85,369,259
India,Delhi,Delhi,"Dr. Karni Singh Shooting Range, Delhi - DPCC",18-02-2024 13:00:00,28.498571,77.264840,PM2.5,71,355,227
India,Delhi,Delhi,"Dr. Karni Singh Shooting Range, Delhi - DPCC",18-02-2024 13:00:00,28.498571,77.264840,NH3,6,9,7
India,Delhi,Delhi,"Dwarka-Sector 8, Delhi - DPCC ",18-02-2024 13:00:00,28.5710274,77.0719006,NH3,2,6,4
India,Delhi,Delhi,"Dwarka-Sector 8, Delhi - DPCC ",18-02-2024 13:00:00,28.5710274,77.0719006,SO2,8,15,11
India,Delhi,Delhi,"IGI Airport (T3), Delhi - IMD",18-02-2024 13:00:00,28.5627763,77.1180053,PM10,92,500,251
India,Delhi,Delhi,"IGI Airport (T3), Delhi - IMD",18-02-2024 13:00:00,28.5627763,77.1180053,OZONE,11,59,27
India,Delhi,Delhi,"ITO, Delhi - CPCB",18-02-2024 13:00:00,28.628624,77.241060,NH3,2,20,10
India,Delhi,Delhi,"ITO, Delhi - CPCB",18-02-2024 13:00:00,28.628624,77.241060,SO2,12,36,24
India,Delhi,Delhi,"ITO, Delhi - CPCB",18-02-2024 13:00:00,28.628624,77.241060,CO,14,150,86
India,Delhi,Delhi,"Jahangirpuri, Delhi - DPCC",18-02-2024 13:00:00,28.732820,77.170633,SO2,18,56,34
India,Delhi,Delhi,"Jahangirpuri, Delhi - DPCC",18-02-2024 13:00:00,28.732820,77.170633,OZONE,4,177,27
India,Delhi,Delhi,"Lodhi Road, Delhi - IITM",18-02-2024 13:00:00,28.588333,77.221667,PM10,NA,NA,NA
India,Delhi,Delhi,"Lodhi Road, Delhi - IITM",18-02-2024 13:00:00,28.588333,77.221667,SO2,NA,NA,NA
India,Delhi,Delhi,"Lodhi Road, Delhi - IMD",18-02-2024 13:00:00,28.5918245,77.2273074,NO2,6,31,17
India,Delhi,Delhi,"Lodhi Road, Delhi - IMD",18-02-2024 13:00:00,28.5918245,77.2273074,CO,10,81,41
India,Delhi,Delhi,"Major Dhyan Chand National Stadium, Delhi - DPCC",18-02-2024 13:00:00,28.611281,77.237738,CO,63,136,105
India,Delhi,Delhi,"Najafgarh, Delhi - DPCC",18-02-2024 13:00:00,28.570173,76.933762,SO2,9,21,12
India,Delhi,Delhi,"Narela, Delhi - DPCC",18-02-2024 13:00:00,28.822836,77.101981,SO2,4,22,15
India,Delhi,Delhi,"Narela, Delhi - DPCC",18-02-2024 13:00:00,28.822836,77.101981,CO,3,113,78
India,Delhi,Delhi,"New Moti Bagh, Delhi - MHUA",18-02-2024 13:00:00,28.57834,77.18400,NO2,1,11,5
India,Delhi,Delhi,"New Moti Bagh, Delhi - MHUA",18-02-2024 13:00:00,28.57834,77.18400,CO,20,135,81
India,Delhi,Delhi,"North Campus, DU, Delhi - IMD",18-02-2024 13:00:00,28.6573814,77.1585447,NO2,25,100,62
India,Delhi,Delhi,"Okhla Phase-2, Delhi - DPCC",18-02-2024 13:00:00,28.530785,77.271255,NO2,59,309,162
India,Delhi,Delhi,"Okhla Phase-2, Delhi - DPCC",18-02-2024 13:00:00,28.530785,77.271255,CO,48,136,95
India,Delhi,Delhi,"Patparganj, Delhi - DPCC",18-02-2024 13:00:00,28.623763,77.287209,NH3,7,14,11
India,Delhi,Delhi,"Punjabi Bagh, Delhi - DPCC",18-02-2024 13:00:00,28.674045,77.131023,SO2,36,50,42
India,Delhi,Delhi,"Pusa, Delhi - DPCC",18-02-2024 13:00:00,28.639652,77.146275,NH3,6,10,8
India,Delhi,Delhi,"Pusa, Delhi - DPCC",18-02-2024 13:00:00,28.639652,77.146275,SO2,6,21,13
India,Delhi,Delhi,"Pusa, Delhi - IMD",18-02-2024 13:00:00,28.636110,77.173332,CO,92,114,107
India,Delhi,Delhi,"R K Puram, Delhi - DPCC",18-02-2024 13:00:00,28.563262,77.186937,SO2,2,30,11
India,Delhi,Delhi,"Rohini, Delhi - DPCC",18-02-2024 13:00:00,28.732528,77.119920,NO2,14,113,60
India,Delhi,Delhi,"Shadipur, Delhi - CPCB",18-02-2024 13:00:00,28.6514781,77.1473105,PM10,142,428,260
India,Delhi,Delhi,"Shadipur, Delhi - CPCB",18-02-2024 13:00:00,28.6514781,77.1473105,NO2,47,59,54
India,Delhi,Delhi,"Shadipur, Delhi - CPCB",18-02-2024 13:00:00,28.6514781,77.1473105,CO,40,91,60
India,Delhi,Delhi,"Sirifort, Delhi - CPCB",18-02-2024 13:00:00,28.5504249,77.2159377,NO2,138,201,178
India,Delhi,Delhi,"Sri Aurobindo Marg, Delhi - DPCC",18-02-2024 13:00:00,28.531346,77.190156,NO2,23,98,46
India,Delhi,Delhi,"Sri Aurobindo Marg, Delhi - DPCC",18-02-2024 13:00:00,28.531346,77.190156,CO,13,98,41
India,Delhi,Delhi,"Vivek Vihar, Delhi - DPCC",18-02-2024 13:00:00,28.672342,77.315260,PM2.5,70,425,316
India,Delhi,Delhi,"Vivek Vihar, Delhi - DPCC",18-02-2024 13:00:00,28.672342,77.315260,NO2,30,121,75
India,Delhi,Delhi,"Vivek Vihar, Delhi - DPCC",18-02-2024 13:00:00,28.672342,77.315260,NH3,2,9,6
India,Delhi,Delhi,"Wazirpur, Delhi - DPCC",18-02-2024 13:00:00,28.699793,77.165453,NO2,NA,NA,NA
India,Delhi,Delhi,"Wazirpur, Delhi - DPCC",18-02-2024 13:00:00,28.699793,77.165453,OZONE,14,98,77
India,Gujarat,Ahmedabad,"Gyaspur, Ahmedabad - IITM",18-02-2024 13:00:00,22.977134,72.553024,PM10,108,500,200
India,Gujarat,Ahmedabad,"Gyaspur, Ahmedabad - IITM",18-02-2024 13:00:00,22.977134,72.553024,SO2,3,76,9
India,Gujarat,Ahmedabad,"Maninagar, Ahmedabad - GPCB",18-02-2024 13:00:00,23.002657,72.591912,CO,12,70,24
India,Gujarat,Ahmedabad,"Rakhial, Ahmedabad - IITM",18-02-2024 13:00:00,23.016834,72.625775,NO2,53,92,75
India,Gujarat,Ahmedabad,"Rakhial, Ahmedabad - IITM",18-02-2024 13:00:00,23.016834,72.625775,SO2,3,15,6
India,Gujarat,Ahmedabad,"Rakhial, Ahmedabad - IITM",18-02-2024 13:00:00,23.016834,72.625775,CO,9,75,23
India,Gujarat,Ahmedabad,"SAC ISRO Satellite, Ahmedabad - IITM",18-02-2024 13:00:00,23.023389,72.515201,NH3,3,3,3
India,Gujarat,Ahmedabad,"SAC ISRO Satellite, Ahmedabad - IITM",18-02-2024 13:00:00,23.023389,72.515201,OZONE,2,16,6
India,Gujarat,Ahmedabad,"SVPI Airport Hansol, Ahmedabad - IITM",18-02-2024 13:00:00,23.076793,72.627874,NO2,16,22,19
India,Gujarat,Ahmedabad,"SVPI Airport Hansol, Ahmedabad - IITM",18-02-2024 13:00:00,23.076793,72.627874,OZONE,1,37,11
India,Gujarat,Ahmedabad,"Sardar Vallabhbhai Patel Stadium, Ahmedabad - IITM",18-02-2024 13:00:00,23.043070,72.562968,PM2.5,75,349,187
India,Gujarat,Ankleshwar,"GIDC, Ankleshwar - GPCB",18-02-2024 13:00:00,21.613267,73.010555,PM2.5,61,210,139
India,Gujarat,Ankleshwar,"GIDC, Ankleshwar - GPCB",18-02-2024 13:00:00,21.613267,73.010555,NH3,6,7,6
India,Gujarat,Gandhinagar,"IIPHG Lekawada, Gandhinagar - IITM",18-02-2024 13:00:00,23.243639,72.68994,PM2.5,46,217,100
India,Gujarat,Gandhinagar,"IIPHG Lekawada, Gandhinagar - IITM",18-02-2024 13:00:00,23.243639,72.68994,NO2,32,33,32
India,Gujarat,Gandhinagar,"IIPHG Lekawada, Gandhinagar - IITM",18-02-2024 13:00:00,23.243639,72.68994,OZONE,3,45,33
India,Gujarat,Gandhinagar,"Sector-10, Gandhinagar - GPCB",18-02-2024 13:00:00,23.221714,72.654328,OZONE,2,47,17
India,Gujarat,Surat,"Science Center, Surat - SMC",18-02-2024 13:00:00,21.170046,72.795405,PM10,56,115,96
India,Gujarat,Vapi,"Phase-1 GIDC, Vapi - GPCB",18-02-2024 13:00:00,20.362421,72.918013,PM10,117,443,194
India,Gujarat,Vatva,"Phase-4 GIDC, Vatva - GPCB",18-02-2024 13:00:00,22.969611,72.643500,PM2.5,58,306,164
India,Gujarat,Vatva,"Phase-4 GIDC, Vatva - GPCB",18-02-2024 13:00:00,22.969611,72.643500,PM10,78,319,127
India,Haryana,Ambala,"Patti Mehar, Ambala - HSPCB",18-02-2024 13:00:00,30.379589,76.778328,OZONE,8,15,12
India,Haryana,Bahadurgarh,"Arya Nagar, Bahadurgarh - HSPCB",18-02-2024 13:00:00,28.6701,76.9254,PM10,87,420,193
India,Haryana,Ballabgarh,"Nathu Colony, Ballabgarh - HSPCB",18-02-2024 13:00:00,28.3419248,77.319699,OZONE,11,36,24
India,Haryana,Bhiwani,"H.B. Colony, Bhiwani - HSPCB",18-02-2024 13:00:00,28.806223,76.141105,PM2.5,80,296,174
India,Haryana,Bhiwani,"H.B. Colony, Bhiwani - HSPCB",18-02-2024 13:00:00,28.806223,76.141105,CO,7,57,41
India,Haryana,Dharuhera,"Municipal Corporation Office, Dharuhera -  HSPCB",18-02-2024 13:00:00,28.206800,76.799700,NO2,45,111,70
India,Haryana,Faridabad,"New Industrial Town, Faridabad - HSPCB",18-02-2024 13:00:00,28.39072,77.30059,PM2.5,100,500,347
India,Haryana,Faridabad,"New Industrial Town, Faridabad - HSPCB",18-02-2024 13:00:00,28.39072,77.30059,NH3,4,18,9
India,Haryana,Faridabad,"Sector 11, Faridabad - HSPCB",18-02-2024 13:00:00,28.376058,77.315741,PM2.5,79,321,204
India,Haryana,Faridabad,"Sector 30, Faridabad - HSPCB",18-02-2024 13:00:00,28.4417,77.3217,SO2,NA,NA,NA
India,Haryana,Faridabad,"Sector- 16A, Faridabad - HSPCB",18-02-2024 13:00:00,28.4088421,77.3099081,OZONE,14,14,14
India,Haryana,Fatehabad,"Huda Sector, Fatehabad - HSPCB",18-02-2024 13:00:00,29.503664,75.467934,PM10,80,128,110
India,Haryana,Fatehabad,"Huda Sector, Fatehabad - HSPCB",18-02-2024 13:00:00,29.503664,75.467934,NH3,4,12,9
India,Haryana,Fatehabad,"Huda Sector, Fatehabad - HSPCB",18-02-2024 13:00:00,29.503664,75.467934,OZONE,20,30,24
India,Haryana,Gurugram,"Teri Gram, Gurugram - HSPCB",18-02-2024 13:00:00,28.4275,77.1465,PM2.5,123,310,194
India,Haryana,Kaithal,"Rishi Nagar, Kaithal - HSPCB",18-02-2024 13:00:00,29.8006,76.4155,NO2,24,26,25
India,Haryana,Karnal,"Sector-12, Karnal - HSPCB",18-02-2024 13:00:00,29.695300,77.002700,PM10,NA,NA,NA
India,Haryana,Karnal,"Sector-12, Karnal - HSPCB",18-02-2024 13:00:00,29.695300,77.002700,NO2,7,12,10
India,Haryana,Kurukshetra,"Sector-7, Kurukshetra - HSPCB",18-02-2024 13:00:00,29.966942,76.875879,PM2.5,84,187,120
India,Haryana,Mandikhera,"General Hospital, Mandikhera - HSPCB",18-02-2024 13:00:00,27.9002,76.9938,SO2,31,38,34
India,Haryana,Manesar,"Sector-2 IMT, Manesar - HSPCB",18-02-2024 13:00:00,28.360699,76.936090,NO2,11,29,21
India,Haryana,Manesar,"Sector-2 IMT, Manesar - HSPCB",18-02-2024 13:00:00,28.360699,76.936090,CO,10,112,47
India,Haryana,Narnaul,"Shastri Nagar, Narnaul - HSPCB",18-02-2024 13:00:00,28.060249,76.113115,PM10,32,139,75
India,Haryana,Palwal,"Shyam Nagar, Palwal - HSPCB",18-02-2024 13:00:00,28.1485564,77.3320667,PM10,83,175,128
India,Haryana,Panchkula,"Sector-6, Panchkula - HSPCB ",18-02-2024 13:00:00,30.7057778,76.8531805555555,PM2.5,32,103,68
India,Haryana,Sirsa,"F-Block, Sirsa - HSPCB",18-02-2024 13:00:00,29.536400,75.015800,PM10,46,94,63
India,Haryana,Yamuna Nagar,"Gobind Pura, Yamuna Nagar - HSPCB",18-02-2024 13:00:00,30.1480566,77.2893471,SO2,2,54,9
India,Himachal Pradesh,Baddi,"HIMUDA Complex Phase-1, Baddi - HPPCB",18-02-2024 13:00:00,30.943887,76.801991,PM2.5,92,368,265
India,Himachal Pradesh,Baddi,"HIMUDA Complex Phase-1, Baddi - HPPCB",18-02-2024 13:00:00,30.943887,76.801991,SO2,18,100,43
India,Himachal Pradesh,Baddi,"HIMUDA Complex Phase-1, Baddi - HPPCB",18-02-2024 13:00:00,30.943887,76.801991,CO,22,60,35
India,Jammu_and_Kashmir,Srinagar,"Rajbagh, Srinagar - JKSPCB",18-02-2024 13:00:00,34.066206,74.819820,PM2.5,NA,NA,NA
India,Jammu_and_Kashmir,Srinagar,"Rajbagh, Srinagar - JKSPCB",18-02-2024 13:00:00,34.066206,74.819820,OZONE,12,15,13
India,Jharkhand,Dhanbad,"Kalakusuma, Dhanbad - DMC",18-02-2024 13:00:00,23.811548,86.481238,PM2.5,NA,NA,NA
India,Jharkhand,Pathardih,"Mohalbani Ghat, Pathardih - DMC",18-02-2024 13:00:00,23.669880,86.411725,NO2,NA,NA,NA
India,Jharkhand,Pathardih,"Mohalbani Ghat, Pathardih - DMC",18-02-2024 13:00:00,23.669880,86.411725,SO2,NA,NA,NA
India,Karnataka,Bagalkot,"Vidayagiri, Bagalkot - KSPCB",18-02-2024 13:00:00,16.172806,75.659694,SO2,NA,NA,NA
India,Karnataka,Bengaluru,"BTM Layout, Bengaluru - CPCB",18-02-2024 13:00:00,12.9135218,77.5950804,PM10,NA,NA,NA
India,Karnataka,Bengaluru,"BTM Layout, Bengaluru - CPCB",18-02-2024 13:00:00,12.9135218,77.5950804,OZONE,12,24,19
India,Karnataka,Bengaluru,"Bapuji Nagar, Bengaluru - KSPCB",18-02-2024 13:00:00,12.951913,77.539784,PM2.5,78,257,135
India,Karnataka,Bengaluru,"Hebbal, Bengaluru - KSPCB",18-02-2024 13:00:00,13.029152,77.585901,NH3,NA,NA,NA
India,Karnataka,Bengaluru,"Hombegowda Nagar, Bengaluru - KSPCB",18-02-2024 13:00:00,12.938539,77.590100,PM10,51,140,78
India,Karnataka,Bengaluru,"Jayanagar 5th Block, Bengaluru - KSPCB",18-02-2024 13:00:00,12.920984,77.584908,NO2,10,13,11
India,Karnataka,Bengaluru,"Jayanagar 5th Block, Bengaluru - KSPCB",18-02-2024 13:00:00,12.920984,77.584908,NH3,2,3,3
India,Karnataka,Bengaluru,"Kasturi Nagar, Bengaluru - KSPCB",18-02-2024 13:00:00,13.003872,77.664217,NO2,16,17,17
India,Karnataka,Bengaluru,"Sanegurava Halli, Bengaluru - KSPCB",18-02-2024 13:00:00,12.990328,77.5431385,SO2,3,3,3
India,Karnataka,Bengaluru,"Shivapura_Peenya, Bengaluru - KSPCB",18-02-2024 13:00:00,13.0246342,77.5080115,SO2,5,17,8
India,Karnataka,Bidar,"Naubad, Bidar - KSPCB",18-02-2024 13:00:00,17.930306,77.482194,SO2,14,28,17
India,Karnataka,Chamarajanagar,"Urban, Chamarajanagar - KSPCB",18-02-2024 13:00:00,11.55358,76.55521,PM2.5,21,46,31
India,Karnataka,Chikkaballapur,"Chikkaballapur Rural, Chikkaballapur - KSPCB",18-02-2024 13:00:00,13.428828,77.731418,NO2,2,12,5
India,Karnataka,Chikkaballapur,"Chikkaballapur Rural, Chikkaballapur - KSPCB",18-02-2024 13:00:00,13.428828,77.731418,SO2,19,30,23
India,Karnataka,Chikkamagaluru,"Kalyana Nagara, Chikkamagaluru - KSPCB",18-02-2024 13:00:00,13.328028,75.797056,PM2.5,18,52,31
India,Karnataka,Chikkamagaluru,"Kalyana Nagara, Chikkamagaluru - KSPCB",18-02-2024 13:00:00,13.328028,75.797056,NO2,18,28,22
India,Karnataka,Davanagere,"Devaraj Urs Badavane, Davanagere - KSPCB",18-02-2024 13:00:00,14.475800,75.905200,PM10,49,120,79
