country,state,city,station,last_update,latitude,longitude,pollutant_id,pollutant_min,pollutant_max,pollutant_avg
India,Andhra_Pradesh,Anantapur,"Gulzarpet, Anantapur - APPCB",20-01-2024 21:00:00,14.675886,77.593027,NO2,17,47,27
India,Andhra_Pradesh,Anantapur,"Gulzarpet, Anantapur - APPCB",20-01-2024 21:00:00,14.675886,77.593027,CO,14,54,35
India,Andhra_Pradesh,Chittoor,"Gangineni Cheruvu, Chittoor - APPCB",20-01-2024 21:00:00,13.204880,79.097889,PM10,32,74,49
India,Andhra_Pradesh,Chittoor,"Gangineni Cheruvu, Chittoor - APPCB",20-01-2024 21:00:00,13.204880,79.097889,NO2,6,33,14
India,Andhra_Pradesh,Kadapa,"Yerramukkapalli, Kadapa - APPCB",20-01-2024 21:00:00,14.465052,78.824187,PM2.5,18,95,43
India,Andhra_Pradesh,Kadapa,"Yerramukkapalli, Kadapa - APPCB",20-01-2024 21:00:00,14.465052,78.824187,NO2,9,10,9
India,Andhra_Pradesh,Rajamahendravaram,"Anand Kala Kshetram, Rajamahendravaram - APPCB",20-01-2024 21:00:00,16.9872867,81.7363176,NO2,14,43,23
India,Andhra_Pradesh,Tirupati,"Tirumala, Tirupati - APPCB",20-01-2024 21:00:00,13.67,79.35,NH3,1,2,1
India,Andhra_Pradesh,Tirupati,"Tirumala, Tirupati - APPCB",20-01-2024 21:00:00,13.67,79.35,CO,34,58,44
India,Andhra_Pradesh,Tirupati,"Vaikuntapuram, Tirupati - APPCB",20-01-2024 21:00:00,13.615387,79.409230,PM10,17,70,31
India,Andhra_Pradesh,Vijayawada,"Rajiv Gandhi Park, Vijayawada - APPCB",20-01-2024 21:00:00,16.509717,80.612222,CO,38,38,38
India,Andhra_Pradesh,Visakhapatnam,"GVM Corporation, Visakhapatnam - APPCB",20-01-2024 21:00:00,17.72,83.3,PM10,58,277,126
India,Andhra_Pradesh,Visakhapatnam,"GVM Corporation, Visakhapatnam - APPCB",20-01-2024 21:00:00,17.72,83.3,SO2,6,15,11
India,Assam,Byrnihat,"Central Academy for SFS, Byrnihat - PCBA",20-01-2024 21:00:00,26.071318,91.87488,SO2,13,24,16
India,Assam,Guwahati,"LGBI Airport, Guwahati - PCBA",20-01-2024 21:00:00,26.10887,91.589544,PM2.5,137,401,267
India,Assam,Guwahati,"LGBI Airport, Guwahati - PCBA",20-01-2024 21:00:00,26.10887,91.589544,CO,62,84,78
India,Assam,Guwahati,"Pan Bazaar, Guwahati - PCBA",20-01-2024 21:00:00,26.187500,91.744194,NH3,3,5,4
India,Assam,Guwahati,"Pan Bazaar, Guwahati - PCBA",20-01-2024 21:00:00,26.187500,91.744194,CO,29,114,55
India,Assam,Guwahati,"Pan Bazaar, Guwahati - PCBA",20-01-2024 21:00:00,26.187500,91.744194,OZONE,17,17,17
India,Assam,Guwahati,"Railway Colony, Guwahati - PCBA",20-01-2024 21:00:00,26.181742,91.78063,PM10,68,446,208
India,Assam,Nagaon,"Christianpatty, Nagaon - PCBA",20-01-2024 21:00:00,26.349082,92.68449,PM2.5,67,476,246
India,Assam,Nagaon,"Christianpatty, Nagaon - PCBA",20-01-2024 21:00:00,26.349082,92.68449,PM10,60,447,190
India,Assam,Nagaon,"Christianpatty, Nagaon - PCBA",20-01-2024 21:00:00,26.349082,92.68449,SO2,12,23,14
India,Assam,Nalbari,"Bata Chowk, Nalbari - PCBA",20-01-2024 21:00:00,26.446912,91.439057,PM2.5,35,500,213
India,Assam,Nalbari,"Bata Chowk, Nalbari - PCBA",20-01-2024 21:00:00,26.446912,91.439057,NO2,16,74,47
India,Assam,Silchar,"Tarapur, Silchar - PCBA",20-01-2024 21:00:00,24.82827,92.79525,PM2.5,23,54,39
India,Assam,Silchar,"Tarapur, Silchar - PCBA",20-01-2024 21:00:00,24.82827,92.79525,PM10,48,54,52
India,Assam,Sivasagar,"Girls College, Sivasagar - PCBA",20-01-2024 21:00:00,26.987634,94.636574,NH3,3,3,3
India,Assam,Sivasagar,"Girls College, Sivasagar - PCBA",20-01-2024 21:00:00,26.987634,94.636574,SO2,1,5,3
India,Bihar,Arrah,"New DM Office, Arrah - BSPCB",20-01-2024 21:00:00,25.5626095,84.663264,PM2.5,293,404,319
India,Bihar,Arrah,"New DM Office, Arrah - BSPCB",20-01-2024 21:00:00,25.5626095,84.663264,NH3,5,8,5
India,Bihar,Arrah,"New DM Office, Arrah - BSPCB",20-01-2024 21:00:00,25.5626095,84.663264,SO2,16,21,19
India,Bihar,Bhagalpur,"DM Office_Kachari Chowk, Bhagalpur - BSPCB",20-01-2024 21:00:00,25.251013,86.989001,CO,36,74,46
India,Bihar,Bhagalpur,"Mayaganj, Bhagalpur - BSPCB",20-01-2024 21:00:00,25.265194,87.012947,NH3,8,10,9
India,Bihar,Bihar Sharif,"D M Colony, Bihar Sharif - BSPCB",20-01-2024 21:00:00,25.204762,85.514960,PM2.5,32,68,41
India,Bihar,Bihar Sharif,"D M Colony, Bihar Sharif - BSPCB",20-01-2024 21:00:00,25.204762,85.514960,SO2,2,10,6
India,Bihar,Bihar Sharif,"D M Colony, Bihar Sharif - BSPCB",20-01-2024 21:00:00,25.204762,85.514960,OZONE,5,29,22
India,Bihar,Chhapra,"Darshan Nagar, Chhapra - BSPCB",20-01-2024 21:00:00,25.7808257,84.7446768,PM2.5,197,375,295
India,Bihar,Chhapra,"Darshan Nagar, Chhapra - BSPCB",20-01-2024 21:00:00,25.7808257,84.7446768,NO2,14,32,21
India,Bihar,Chhapra,"Darshan Nagar, Chhapra - BSPCB",20-01-2024 21:00:00,25.7808257,84.7446768,CO,22,46,38
India,Bihar,Gaya,"Collectorate, Gaya - BSPCB",20-01-2024 21:00:00,24.7955,84.9994,PM2.5,298,400,325
India,Bihar,Gaya,"Kareemganj, Gaya - BSPCB",20-01-2024 21:00:00,24.792403,84.992416,SO2,7,10,9
India,Bihar,Gaya,"SFTI Kusdihra, Gaya - BSPCB",20-01-2024 21:00:00,24.762518,84.982348,CO,76,109,83
India,Bihar,Hajipur,"Industrial Area, Hajipur - BSPCB",20-01-2024 21:00:00,25.697189,85.245900,CO,NA,NA,NA
India,Bihar,Katihar,"Mirchaibari, Katihar - BSPCB",20-01-2024 21:00:00,25.560083,87.553265,PM2.5,73,332,183
India,Bihar,Katihar,"Mirchaibari, Katihar - BSPCB",20-01-2024 21:00:00,25.560083,87.553265,PM10,76,274,156
India,Bihar,Katihar,"Mirchaibari, Katihar - BSPCB",20-01-2024 21:00:00,25.560083,87.553265,NO2,17,32,22
India,Bihar,Katihar,"Mirchaibari, Katihar - BSPCB",20-01-2024 21:00:00,25.560083,87.553265,NH3,1,4,2
India,Bihar,Kishanganj,"SDM Office_Khagra, Kishanganj - BSPCB",20-01-2024 21:00:00,26.0881305,87.93840336,PM2.5,10,223,54
India,Bihar,Kishanganj,"SDM Office_Khagra, Kishanganj - BSPCB",20-01-2024 21:00:00,26.0881305,87.93840336,OZONE,12,34,26
India,Bihar,Manguraha,"Forest Rest House, Manguraha - BSPCB",20-01-2024 21:00:00,27.308328,84.531742,SO2,NA,NA,NA
India,Bihar,Manguraha,"Forest Rest House, Manguraha - BSPCB",20-01-2024 21:00:00,27.308328,84.531742,CO,6,39,19
India,Bihar,Munger,"Town Hall, Munger - BSPCB",20-01-2024 21:00:00,25.376776,86.471523,PM10,44,139,98
India,Bihar,Munger,"Town Hall, Munger - BSPCB",20-01-2024 21:00:00,25.376776,86.471523,NO2,8,10,9
India,Bihar,Munger,"Town Hall, Munger - BSPCB",20-01-2024 21:00:00,25.376776,86.471523,NH3,1,2,2
India,Bihar,Muzaffarpur,"Buddha Colony, Muzaffarpur - BSPCB",20-01-2024 21:00:00,26.11442,85.39813,PM10,166,432,260
India,Bihar,Muzaffarpur,"Muzaffarpur Collectorate, Muzaffarpur - BSPCB",20-01-2024 21:00:00,26.1209,85.3647,SO2,5,8,8
India,Bihar,Patna,"DRM Office Danapur, Patna - BSPCB",20-01-2024 21:00:00,25.586562,85.043586,PM2.5,316,406,350
India,Bihar,Patna,"DRM Office Danapur, Patna - BSPCB",20-01-2024 21:00:00,25.586562,85.043586,SO2,8,10,9
India,Bihar,Patna,"Govt. High School Shikarpur, Patna - BSPCB",20-01-2024 21:00:00,25.592539,85.227158,NO2,10,22,17
India,Bihar,Patna,"Govt. High School Shikarpur, Patna - BSPCB",20-01-2024 21:00:00,25.592539,85.227158,OZONE,10,43,30
India,Bihar,Patna,"Muradpur, Patna - BSPCB",20-01-2024 21:00:00,25.619651,85.147382,PM2.5,218,351,284
India,Bihar,Patna,"Muradpur, Patna - BSPCB",20-01-2024 21:00:00,25.619651,85.147382,NO2,2,12,6
India,Bihar,Patna,"Muradpur, Patna - BSPCB",20-01-2024 21:00:00,25.619651,85.147382,CO,47,124,71
India,Bihar,Patna,"Rajbansi Nagar, Patna - BSPCB",20-01-2024 21:00:00,25.599486,85.113666,NO2,52,76,62
India,Bihar,Patna,"Samanpura, Patna - BSPCB",20-01-2024 21:00:00,25.596727,85.085624,NO2,14,22,16
India,Bihar,Patna,"Samanpura, Patna - BSPCB",20-01-2024 21:00:00,25.596727,85.085624,NH3,3,3,3
India,Bihar,Purnia,"Mariam Nagar, Purnia - BSPCB",20-01-2024 21:00:00,25.366336,87.117468,SO2,18,23,19
India,Bihar,Rajgir,"Dangi Tola, Rajgir - BSPCB",20-01-2024 21:00:00,25.03280,85.41948,CO,10,102,15
India,Bihar,Saharsa,"Police Line, Saharsa - BSPCB",20-01-2024 21:00:00,25.892357,86.590325,PM10,167,243,200
India,Bihar,Saharsa,"Police Line, Saharsa - BSPCB",20-01-2024 21:00:00,25.892357,86.590325,SO2,26,29,28
India,Bihar,Samastipur,"DM Office_Kasipur, Samastipur - BSPCB",20-01-2024 21:00:00,25.859655,85.77944,CO,14,34,24
India,Bihar,Siwan,"Chitragupta Nagar, Siwan - BSPCB",20-01-2024 21:00:00,26.2271665,84.3570427,NH3,2,6,3
India,Chandigarh,Chandigarh,"Sector 22, Chandigarh - CPCC",20-01-2024 21:00:00,30.735567,76.775714,CO,68,90,70
India,Chandigarh,Chandigarh,"Sector 22, Chandigarh - CPCC",20-01-2024 21:00:00,30.735567,76.775714,OZONE,2,72,42
India,Chhattisgarh,Bhilai,"32Bungalows, Bhilai - CECB",20-01-2024 21:00:00,21.194815,81.314770,NO2,21,31,25
India,Chhattisgarh,Bhilai,"Civic Center, Bhilai - Bhilai Steel Plant",20-01-2024 21:00:00,21.185571,81.343175,PM10,73,102,87
India,Chhattisgarh,Bhilai,"Civic Center, Bhilai - Bhilai Steel Plant",20-01-2024 21:00:00,21.185571,81.343175,NH3,2,3,2
India,Chhattisgarh,Bhilai,"Hathkhoj, Bhilai - CECB",20-01-2024 21:00:00,21.224231,81.408350,NH3,7,8,8
India,Chhattisgarh,Chhal,"Nawapara SECL Colony, Chhal - CECB",20-01-2024 21:00:00,22.118125,83.140608,OZONE,6,34,28
India,Chhattisgarh,Korba,"Rampur, Korba - CECB",20-01-2024 21:00:00,22.368195,82.746431,PM10,45,105,78
India,Chhattisgarh,Korba,"Urja Nagar, Korba - CECB",20-01-2024 21:00:00,22.348441,82.549611,PM2.5,NA,NA,NA
India,Chhattisgarh,Korba,"Urja Nagar, Korba - CECB",20-01-2024 21:00:00,22.348441,82.549611,CO,48,49,48
India,Chhattisgarh,Kunjemura,"OP Jindal School, Kunjemura - CECB",20-01-2024 21:00:00,22.126650,83.483212,PM10,41,86,58
India,Chhattisgarh,Kunjemura,"OP Jindal School, Kunjemura - CECB",20-01-2024 21:00:00,22.126650,83.483212,OZONE,3,44,33
India,Chhattisgarh,Milupara,"Govt. Higher Secondary School, Milupara - CECB",20-01-2024 21:00:00,22.1910172,83.5197009,OZONE,4,45,32
India,Chhattisgarh,Raipur,"AIIMS, Raipur - CECB",20-01-2024 21:00:00,21.258815,81.578979,NO2,45,63,54
India,Chhattisgarh,Raipur,"AIIMS, Raipur - CECB",20-01-2024 21:00:00,21.258815,81.578979,NH3,4,4,4
India,Chhattisgarh,Raipur,"Bhatagaon New ISBT, Raipur - CECB",20-01-2024 21:00:00,21.219665,81.630094,NO2,61,88,71
India,Chhattisgarh,Raipur,"Krishak Nagar, Raipur - CECB",20-01-2024 21:00:00,21.237755,81.705301,CO,51,61,55
India,Delhi,Delhi,"Alipur, Delhi - DPCC",20-01-2024 21:00:00,28.815329,77.153010,NO2,23,78,41
India,Delhi,Delhi,"Alipur, Delhi - DPCC",20-01-2024 21:00:00,28.815329,77.153010,CO,44,76,60
India,Delhi,Delhi,"Anand Vihar, Delhi - DPCC",20-01-2024 21:00:00,28.647622,77.3158090,PM2.5,306,418,342
India,Delhi,Delhi,"Anand Vihar, Delhi - DPCC",20-01-2024 21:00:00,28.647622,77.3158090,NH3,6,8,7
India,Delhi,Delhi,"Anand Vihar, Delhi - DPCC",20-01-2024 21:00:00,28.647622,77.3158090,SO2,12,26,17
India,Delhi,Delhi,"Burari Crossing, Delhi - IMD",20-01-2024 21:00:00,28.7256504,77.2011573,CO,103,107,105
India,Delhi,Delhi,"Burari Crossing, Delhi - IMD",20-01-2024 21:00:00,28.7256504,77.2011573,OZONE,24,66,45
India,Delhi,Delhi,"CRRI Mathura Road, Delhi - IMD",20-01-2024 21:00:00,28.5512005,77.2735737,NO2,16,413,50
India,Delhi,Delhi,"DTU, Delhi - CPCB",20-01-2024 21:00:00,28.7500499,77.1112615,PM10,155,433,264
India,Delhi,Delhi,"Dr. Karni Singh Shooting Range, Delhi - DPCC",20-01-2024 21:00:00,28.498571,77.264840,PM2.5,308,382,342
India,Delhi,Delhi,"Dr. Karni Singh Shooting Range, Delhi - DPCC",20-01-2024 21:00:00,28.498571,77.264840,PM10,156,307,216
India,Delhi,Delhi,"Dr. Karni Singh Shooting Range, Delhi - DPCC",20-01-2024 21:00:00,28.498571,77.264840,NO2,31,68,48
India,Delhi,Delhi,"Dr. Karni Singh Shooting Range, Delhi - DPCC",20-01-2024 21:00:00,28.498571,77.264840,NH3,7,12,8
India,Delhi,Delhi,"Dwarka-Sector 8, Delhi - DPCC ",20-01-2024 21:00:00,28.5710274,77.0719006,CO,36,97,72
India,Delhi,Delhi,"IGI Airport (T3), Delhi - IMD",20-01-2024 21:00:00,28.5627763,77.1180053,NO2,17,37,23
India,Delhi,Delhi,"IHBAS, Dilshad Garden, Delhi - CPCB",20-01-2024 21:00:00,28.6811736,77.3025234,PM2.5,127,328,228
India,Delhi,Delhi,"IHBAS, Dilshad Garden, Delhi - CPCB",20-01-2024 21:00:00,28.6811736,77.3025234,CO,8,100,69
India,Delhi,Delhi,"ITO, Delhi - CPCB",20-01-2024 21:00:00,28.628624,77.241060,SO2,3,137,25
India,Delhi,Delhi,"Jahangirpuri, Delhi - DPCC",20-01-2024 21:00:00,28.732820,77.170633,NH3,7,13,9
India,Delhi,Delhi,"Jawaharlal Nehru Stadium, Delhi - DPCC",20-01-2024 21:00:00,28.580280,77.233829,PM2.5,300,387,332
India,Delhi,Delhi,"Lodhi Road, Delhi - IITM",20-01-2024 21:00:00,28.588333,77.221667,PM2.5,NA,NA,NA
India,Delhi,Delhi,"Lodhi Road, Delhi - IMD",20-01-2024 21:00:00,28.5918245,77.2273074,PM2.5,245,366,306
India,Delhi,Delhi,"Lodhi Road, Delhi - IMD",20-01-2024 21:00:00,28.5918245,77.2273074,NO2,5,6,5
India,Delhi,Delhi,"Major Dhyan Chand National Stadium, Delhi - DPCC",20-01-2024 21:00:00,28.611281,77.237738,OZONE,3,3,3
India,Delhi,Delhi,"Mandir Marg, Delhi - DPCC",20-01-2024 21:00:00,28.636429,77.201067,PM10,141,350,211
India,Delhi,Delhi,"Mandir Marg, Delhi - DPCC",20-01-2024 21:00:00,28.636429,77.201067,CO,10,73,48
India,Delhi,Delhi,"Mandir Marg, Delhi - DPCC",20-01-2024 21:00:00,28.636429,77.201067,OZONE,1,32,15
India,Delhi,Delhi,"Mundka, Delhi - DPCC",20-01-2024 21:00:00,28.684678,77.076574,PM2.5,327,500,375
India,Delhi,Delhi,"Mundka, Delhi - DPCC",20-01-2024 21:00:00,28.684678,77.076574,PM10,177,499,280
India,Delhi,Delhi,"NSIT Dwarka, Delhi - CPCB",20-01-2024 21:00:00,28.60909,77.0325413,PM10,226,414,278
India,Delhi,Delhi,"NSIT Dwarka, Delhi - CPCB",20-01-2024 21:00:00,28.60909,77.0325413,NO2,35,57,43
India,Delhi,Delhi,"NSIT Dwarka, Delhi - CPCB",20-01-2024 21:00:00,28.60909,77.0325413,OZONE,11,83,49
India,Delhi,Delhi,"Nehru Nagar, Delhi - DPCC",20-01-2024 21:00:00,28.567890,77.250515,SO2,1,12,9
India,Delhi,Delhi,"Nehru Nagar, Delhi - DPCC",20-01-2024 21:00:00,28.567890,77.250515,OZONE,2,93,52
India,Delhi,Delhi,"North Campus, DU, Delhi - IMD",20-01-2024 21:00:00,28.6573814,77.1585447,PM10,137,397,219
India,Delhi,Delhi,"Okhla Phase-2, Delhi - DPCC",20-01-2024 21:00:00,28.530785,77.271255,PM2.5,306,427,348
India,Delhi,Delhi,"Patparganj, Delhi - DPCC",20-01-2024 21:00:00,28.623763,77.287209,PM2.5,293,411,334
India,Delhi,Delhi,"Patparganj, Delhi - DPCC",20-01-2024 21:00:00,28.623763,77.287209,PM10,144,409,222
India,Delhi,Delhi,"Patparganj, Delhi - DPCC",20-01-2024 21:00:00,28.623763,77.287209,SO2,9,12,10
India,Delhi,Delhi,"Pusa, Delhi - DPCC",20-01-2024 21:00:00,28.639652,77.146275,PM2.5,308,415,339
India,Delhi,Delhi,"Pusa, Delhi - DPCC",20-01-2024 21:00:00,28.639652,77.146275,PM10,166,439,248
India,Delhi,Delhi,"Pusa, Delhi - IMD",20-01-2024 21:00:00,28.636110,77.173332,PM10,117,288,160
India,Delhi,Delhi,"R K Puram, Delhi - DPCC",20-01-2024 21:00:00,28.563262,77.186937,SO2,13,36,24
India,Delhi,Delhi,"Rohini, Delhi - DPCC",20-01-2024 21:00:00,28.732528,77.119920,SO2,9,16,12
India,Delhi,Delhi,"Shadipur, Delhi - CPCB",20-01-2024 21:00:00,28.6514781,77.1473105,CO,31,103,79
India,Delhi,Delhi,"Sirifort, Delhi - CPCB",20-01-2024 21:00:00,28.5504249,77.2159377,PM2.5,307,401,348
India,Delhi,Delhi,"Sirifort, Delhi - CPCB",20-01-2024 21:00:00,28.5504249,77.2159377,CO,22,88,51
India,Delhi,Delhi,"Sonia Vihar, Delhi - DPCC",20-01-2024 21:00:00,28.710508,77.249485,SO2,NA,NA,NA
India,Delhi,Delhi,"Sri Aurobindo Marg, Delhi - DPCC",20-01-2024 21:00:00,28.531346,77.190156,PM2.5,318,417,355
India,Delhi,Delhi,"Vivek Vihar, Delhi - DPCC",20-01-2024 21:00:00,28.672342,77.315260,PM10,140,411,242
India,Delhi,Delhi,"Vivek Vihar, Delhi - DPCC",20-01-2024 21:00:00,28.672342,77.315260,NO2,38,104,59
India,Delhi,Delhi,"Vivek Vihar, Delhi - DPCC",20-01-2024 21:00:00,28.672342,77.315260,OZONE,2,23,17
India,Delhi,Delhi,"Wazirpur, Delhi - DPCC",20-01-2024 21:00:00,28.699793,77.165453,PM10,159,480,288
India,Delhi,Delhi,"Wazirpur, Delhi - DPCC",20-01-2024 21:00:00,28.699793,77.165453,NO2,95,338,162
India,Delhi,Delhi,"Wazirpur, Delhi - DPCC",20-01-2024 21:00:00,28.699793,77.165453,NH3,4,7,5
India,Gujarat,Ahmedabad,"Chandkheda, Ahmedabad - IITM",20-01-2024 21:00:00,23.107969,72.574648,NH3,3,4,4
India,Gujarat,Ahmedabad,"Gyaspur, Ahmedabad - IITM",20-01-2024 21:00:00,22.977134,72.553024,PM2.5,64,152,99
India,Gujarat,Ahmedabad,"Maninagar, Ahmedabad - GPCB",20-01-2024 21:00:00,23.002657,72.591912,PM10,69,172,111
India,Gujarat,Ahmedabad,"Maninagar, Ahmedabad - GPCB",20-01-2024 21:00:00,23.002657,72.591912,OZONE,4,54,37
India,Gujarat,Ahmedabad,"Raikhad, Ahmedabad - IITM",20-01-2024 21:00:00,23.020509,72.579261,PM2.5,24,205,91
India,Gujarat,Ahmedabad,"Rakhial, Ahmedabad - IITM",20-01-2024 21:00:00,23.016834,72.625775,SO2,2,12,5
India,Gujarat,Ahmedabad,"SAC ISRO Bopal, Ahmedabad - IITM",20-01-2024 21:00:00,23.041137,72.456691,PM2.5,54,293,105
India,Gujarat,Ahmedabad,"SAC ISRO Bopal, Ahmedabad - IITM",20-01-2024 21:00:00,23.041137,72.456691,OZONE,9,19,10
India,Gujarat,Ahmedabad,"SAC ISRO Satellite, Ahmedabad - IITM",20-01-2024 21:00:00,23.023389,72.515201,PM2.5,87,129,109
India,Gujarat,Ahmedabad,"SAC ISRO Satellite, Ahmedabad - IITM",20-01-2024 21:00:00,23.023389,72.515201,NH3,2,4,3
India,Gujarat,Ahmedabad,"SVPI Airport Hansol, Ahmedabad - IITM",20-01-2024 21:00:00,23.076793,72.627874,NO2,14,15,14
India,Gujarat,Ahmedabad,"SVPI Airport Hansol, Ahmedabad - IITM",20-01-2024 21:00:00,23.076793,72.627874,NH3,3,3,3
India,Gujarat,Ahmedabad,"Sardar Vallabhbhai Patel Stadium, Ahmedabad - IITM",20-01-2024 21:00:00,23.043070,72.562968,PM2.5,60,282,106
India,Gujarat,Ahmedabad,"Sardar Vallabhbhai Patel Stadium, Ahmedabad - IITM",20-01-2024 21:00:00,23.043070,72.562968,CO,1,114,19
India,Gujarat,Ankleshwar,"GIDC, Ankleshwar - GPCB",20-01-2024 21:00:00,21.613267,73.010555,NO2,34,34,34
India,Gujarat,Ankleshwar,"GIDC, Ankleshwar - GPCB",20-01-2024 21:00:00,21.613267,73.010555,OZONE,21,29,28
India,Gujarat,Gandhinagar,"GIFT City, Gandhinagar - IITM",20-01-2024 21:00:00,23.163798,72.677768,PM2.5,42,117,66
India,Gujarat,Gandhinagar,"IIPHG Lekawada, Gandhinagar - IITM",20-01-2024 21:00:00,23.243639,72.68994,PM10,62,166,109
India,Gujarat,Gandhinagar,"IIPHG Lekawada, Gandhinagar - IITM",20-01-2024 21:00:00,23.243639,72.68994,SO2,5,6,6
India,Gujarat,Gandhinagar,"Sector-10, Gandhinagar - GPCB",20-01-2024 21:00:00,23.221714,72.654328,PM2.5,NA,NA,NA
India,Gujarat,Gandhinagar,"Sector-10, Gandhinagar - GPCB",20-01-2024 21:00:00,23.221714,72.654328,OZONE,1,46,30
India,Gujarat,Surat,"Science Center, Surat - SMC",20-01-2024 21:00:00,21.170046,72.795405,PM10,16,98,51
India,Gujarat,Surat,"Science Center, Surat - SMC",20-01-2024 21:00:00,21.170046,72.795405,CO,38,70,56
India,Gujarat,Vatva,"Phase-4 GIDC, Vatva - GPCB",20-01-2024 21:00:00,22.969611,72.643500,PM2.5,31,133,62
India,Gujarat,Vatva,"Phase-4 GIDC, Vatva - GPCB",20-01-2024 21:00:00,22.969611,72.643500,PM10,49,116,76
India,Haryana,Ambala,"Patti Mehar, Ambala - HSPCB",20-01-2024 21:00:00,30.379589,76.778328,PM10,95,127,107
India,Haryana,Bahadurgarh,"Arya Nagar, Bahadurgarh - HSPCB",20-01-2024 21:00:00,28.6701,76.9254,SO2,8,9,8
India,Haryana,Ballabgarh,"Nathu Colony, Ballabgarh - HSPCB",20-01-2024 21:00:00,28.3419248,77.319699,PM10,103,195,146
India,Haryana,Ballabgarh,"Nathu Colony, Ballabgarh - HSPCB",20-01-2024 21:00:00,28.3419248,77.319699,NO2,12,15,12
India,Haryana,Ballabgarh,"Nathu Colony, Ballabgarh - HSPCB",20-01-2024 21:00:00,28.3419248,77.319699,OZONE,3,17,12
India,Haryana,Bhiwani,"H.B. Colony, Bhiwani - HSPCB",20-01-2024 21:00:00,28.806223,76.141105,PM10,105,165,119
India,Haryana,Bhiwani,"H.B. Colony, Bhiwani - HSPCB",20-01-2024 21:00:00,28.806223,76.141105,NO2,5,10,9
India,Haryana,Bhiwani,"H.B. Colony, Bhiwani - HSPCB",20-01-2024 21:00:00,28.806223,76.141105,SO2,4,12,9
India,Haryana,Charkhi Dadri,"Mini Secretariat, Charkhi Dadri - HSPCB",20-01-2024 21:00:00,28.593883,76.270653,PM2.5,161,396,218
India,Haryana,Dharuhera,"Municipal Corporation Office, Dharuhera -  HSPCB",20-01-2024 21:00:00,28.206800,76.799700,PM2.5,82,312,151
India,Haryana,Dharuhera,"Municipal Corporation Office, Dharuhera -  HSPCB",20-01-2024 21:00:00,28.206800,76.799700,OZONE,4,43,21
India,Haryana,Faridabad,"New Industrial Town, Faridabad - HSPCB",20-01-2024 21:00:00,28.39072,77.30059,PM2.5,NA,NA,NA
India,Haryana,Faridabad,"New Industrial Town, Faridabad - HSPCB",20-01-2024 21:00:00,28.39072,77.30059,CO,33,66,39
India,Haryana,Faridabad,"Sector 11, Faridabad - HSPCB",20-01-2024 21:00:00,28.376058,77.315741,NH3,6,6,6
India,Haryana,Faridabad,"Sector 30, Faridabad - HSPCB",20-01-2024 21:00:00,28.4417,77.3217,PM2.5,148,187,162
India,Haryana,Faridabad,"Sector 30, Faridabad - HSPCB",20-01-2024 21:00:00,28.4417,77.3217,PM10,127,142,132
India,Haryana,Faridabad,"Sector 30, Faridabad - HSPCB",20-01-2024 21:00:00,28.4417,77.3217,CO,79,125,100
India,Haryana,Faridabad,"Sector- 16A, Faridabad - HSPCB",20-01-2024 21:00:00,28.4088421,77.3099081,CO,14,81,61
India,Haryana,Fatehabad,"Huda Sector, Fatehabad - HSPCB",20-01-2024 21:00:00,29.503664,75.467934,NH3,9,10,10
India,Haryana,Fatehabad,"Huda Sector, Fatehabad - HSPCB",20-01-2024 21:00:00,29.503664,75.467934,CO,6,24,7
India,Haryana,Gurugram,"Sector-51, Gurugram - HSPCB",20-01-2024 21:00:00,28.4227,77.0667,PM2.5,315,425,348
India,Haryana,Gurugram,"Sector-51, Gurugram - HSPCB",20-01-2024 21:00:00,28.4227,77.0667,NH3,5,14,8
India,Haryana,Gurugram,"Sector-51, Gurugram - HSPCB",20-01-2024 21:00:00,28.4227,77.0667,CO,42,104,71
India,Haryana,Hisar,"Urban Estate-II, Hisar - HSPCB",20-01-2024 21:00:00,29.140560,75.744941,SO2,NA,NA,NA
India,Haryana,Jind,"Police Lines, Jind - HSPCB",20-01-2024 21:00:00,29.307814,76.337619,PM10,110,177,142
India,Haryana,Kaithal,"Rishi Nagar, Kaithal - HSPCB",20-01-2024 21:00:00,29.8006,76.4155,NO2,24,26,25
India,Haryana,Kaithal,"Rishi Nagar, Kaithal - HSPCB",20-01-2024 21:00:00,29.8006,76.4155,SO2,9,113,33
India,Haryana,Kaithal,"Rishi Nagar, Kaithal - HSPCB",20-01-2024 21:00:00,29.8006,76.4155,CO,4,73,50
India,Haryana,Karnal,"Sector-12, Karnal - HSPCB",20-01-2024 21:00:00,29.695300,77.002700,PM10,102,126,111
India,Haryana,Karnal,"Sector-12, Karnal - HSPCB",20-01-2024 21:00:00,29.695300,77.002700,NO2,7,12,10
India,Haryana,Karnal,"Sector-12, Karnal - HSPCB",20-01-2024 21:00:00,29.695300,77.002700,CO,26,71,53
India,Haryana,Kurukshetra,"Sector-7, Kurukshetra - HSPCB",20-01-2024 21:00:00,29.966942,76.875879,PM2.5,259,318,298
India,Haryana,Kurukshetra,"Sector-7, Kurukshetra - HSPCB",20-01-2024 21:00:00,29.966942,76.875879,OZONE,3,58,42
India,Haryana,Mandikhera,"General Hospital, Mandikhera - HSPCB",20-01-2024 21:00:00,27.9002,76.9938,SO2,28,37,34
India,Haryana,Mandikhera,"General Hospital, Mandikhera - HSPCB",20-01-2024 21:00:00,27.9002,76.9938,CO,21,106,57
India,Haryana,Narnaul,"Shastri Nagar, Narnaul - HSPCB",20-01-2024 21:00:00,28.060249,76.113115,PM2.5,64,93,75
India,Haryana,Narnaul,"Shastri Nagar, Narnaul - HSPCB",20-01-2024 21:00:00,28.060249,76.113115,OZONE,17,84,46
India,Haryana,Panipat,"Sector-18, Panipat - HSPCB",20-01-2024 21:00:00,29.497973,76.993331,PM2.5,76,123,109
India,Haryana,Panipat,"Sector-18, Panipat - HSPCB",20-01-2024 21:00:00,29.497973,76.993331,NO2,9,32,28
India,Haryana,Rohtak,"MD University, Rohtak - HSPCB",20-01-2024 21:00:00,28.52123,76.37138,CO,14,93,44
India,Haryana,Sirsa,"F-Block, Sirsa - HSPCB",20-01-2024 21:00:00,29.536400,75.015800,OZONE,25,71,51
India,Haryana,Sonipat,"Murthal, Sonipat - HSPCB",20-01-2024 21:00:00,29.027200,77.062100,PM10,164,164,164
India,Haryana,Sonipat,"Murthal, Sonipat - HSPCB",20-01-2024 21:00:00,29.027200,77.062100,SO2,12,29,20
India,Haryana,Yamuna Nagar,"Gobind Pura, Yamuna Nagar - HSPCB",20-01-2024 21:00:00,30.1480566,77.2893471,PM10,109,489,162
India,Haryana,Yamuna Nagar,"Gobind Pura, Yamuna Nagar - HSPCB",20-01-2024 21:00:00,30.1480566,77.2893471,CO,46,105,61
India,Haryana,Yamuna Nagar,"Gobind Pura, Yamuna Nagar - HSPCB",20-01-2024 21:00:00,30.1480566,77.2893471,OZONE,6,15,11
India,Himachal Pradesh,Baddi,"HIMUDA Complex Phase-1, Baddi - HPPCB",20-01-2024 21:00:00,30.943887,76.801991,CO,56,100,66
India,Jharkhand,Dhanbad,"Kalakusuma, Dhanbad - DMC",20-01-2024 21:00:00,23.811548,86.481238,PM2.5,NA,NA,NA
India,Jharkhand,Dhanbad,"Kalakusuma, Dhanbad - DMC",20-01-2024 21:00:00,23.811548,86.481238,PM10,123,387,180
India,Jharkhand,Dhanbad,"Sardar Patel Nagar, Dhanbad - JSPCB",20-01-2024 21:00:00,23.80569,86.44268,PM2.5,NA,NA,NA
India,Jharkhand,Dhanbad,"Sardar Patel Nagar, Dhanbad - JSPCB",20-01-2024 21:00:00,23.80569,86.44268,NO2,NA,NA,NA
India,Karnataka,Bagalkot,"Vidayagiri, Bagalkot - KSPCB",20-01-2024 21:00:00,16.172806,75.659694,NH3,1,2,1
India,Karnataka,Belgaum,"Ramteerth Nagar, Belgaum - KSPCB",20-01-2024 21:00:00,15.888653,74.541751,NO2,26,30,28
India,Karnataka,Belgaum,"Ramteerth Nagar, Belgaum - KSPCB",20-01-2024 21:00:00,15.888653,74.541751,SO2,8,9,8
India,Karnataka,Bengaluru,"BTM Layout, Bengaluru - CPCB",20-01-2024 21:00:00,12.9135218,77.5950804,PM2.5,15,64,27
India,Karnataka,Bengaluru,"Bapuji Nagar, Bengaluru - KSPCB",20-01-2024 21:00:00,12.951913,77.539784,PM2.5,65,122,89
India,Karnataka,Bengaluru,"Bapuji Nagar, Bengaluru - KSPCB",20-01-2024 21:00:00,12.951913,77.539784,PM10,80,114,99
India,Karnataka,Bengaluru,"City Railway Station, Bengaluru - KSPCB",20-01-2024 21:00:00,12.9756843,77.5660749,CO,51,117,61
India,Karnataka,Bengaluru,"Hombegowda Nagar, Bengaluru - KSPCB",20-01-2024 21:00:00,12.938539,77.590100,NO2,35,44,38
India,Karnataka,Bengaluru,"Hombegowda Nagar, Bengaluru - KSPCB",20-01-2024 21:00:00,12.938539,77.590100,OZONE,4,5,4
India,Karnataka,Bengaluru,"Jayanagar 5th Block, Bengaluru - KSPCB",20-01-2024 21:00:00,12.920984,77.584908,SO2,12,30,22
India,Karnataka,Bengaluru,"Jigani, Bengaluru - KSPCB",20-01-2024 21:00:00,12.7816279,77.6299145,NH3,3,3,3
India,Karnataka,Bengaluru,"Jigani, Bengaluru - KSPCB",20-01-2024 21:00:00,12.7816279,77.6299145,CO,43,76,53
India,Karnataka,Bengaluru,"Kasturi Nagar, Bengaluru - KSPCB",20-01-2024 21:00:00,13.003872,77.664217,NO2,16,17,17
India,Karnataka,Bengaluru,"Peenya, Bengaluru - CPCB",20-01-2024 21:00:00,13.0270199,77.494094,SO2,9,21,16
India,Karnataka,Bengaluru,"RVCE-Mailasandra, Bengaluru - KSPCB",20-01-2024 21:00:00,12.921418,77.502466,PM2.5,59,138,82
India,Karnataka,Bengaluru,"Silk Board, Bengaluru - KSPCB",20-01-2024 21:00:00,12.917348,77.622813,OZONE,27,31,30
India,Karnataka,Bidar,"Naubad, Bidar - KSPCB",20-01-2024 21:00:00,17.930306,77.482194,PM2.5,53,161,93
India,Karnataka,Bidar,"Naubad, Bidar - KSPCB",20-01-2024 21:00:00,17.930306,77.482194,NH3,3,3,3
India,Karnataka,Chamarajanagar,"Urban, Chamarajanagar - KSPCB",20-01-2024 21:00:00,11.55358,76.55521,PM10,34,56,43
India,Karnataka,Chamarajanagar,"Urban, Chamarajanagar - KSPCB",20-01-2024 21:00:00,11.55358,76.55521,NH3,1,2,1
India,Karnataka,Chikkaballapur,"Chikkaballapur Rural, Chikkaballapur - KSPCB",20-01-2024 21:00:00,13.428828,77.731418,SO2,16,21,19
India,Karnataka,Chikkamagaluru,"Kalyana Nagara, Chikkamagaluru - KSPCB",20-01-2024 21:00:00,13.328028,75.797056,OZONE,15,79,59
India,Karnataka,Dharwad,"Kalabhavan, Dharwad - KSPCB",20-01-2024 21:00:00,15.459706,75.008381,NH3,3,3,3
India,Karnataka,Dharwad,"Kalabhavan, Dharwad - KSPCB",20-01-2024 21:00:00,15.459706,75.008381,OZONE,2,49,32
India,Karnataka,Gadag,"Panchal Nagar, Gadag - KSPCB",20-01-2024 21:00:00,15.411456,75.638133,SO2,9,13,10
India,Karnataka,Gadag,"Panchal Nagar, Gadag - KSPCB",20-01-2024 21:00:00,15.411456,75.638133,OZONE,23,57,50
India,Karnataka,Haveri,"Ashwini Nagar, Haveri - KSPCB",20-01-2024 21:00:00,14.791800,75.389600,PM10,55,78,59
India,Karnataka,Haveri,"Ashwini Nagar, Haveri - KSPCB",20-01-2024 21:00:00,14.791800,75.389600,NH3,1,4,3
India,Karnataka,Hubballi,"Lingaraj Nagar, Hubballi - KSPCB",20-01-2024 21:00:00,15.3714823,75.1160168,NH3,2,2,2
India,Karnataka,Kalaburagi,"Lal Bahadur Shastri Nagar, Kalaburagi - KSPCB",20-01-2024 21:00:00,17.321993,76.822628,NH3,2,3,2
India,Karnataka,Kalaburagi,"Lal Bahadur Shastri Nagar, Kalaburagi - KSPCB",20-01-2024 21:00:00,17.321993,76.822628,OZONE,2,69,49
India,Karnataka,Kalaburagi,"Mahatma Basaveswar Colony, Kalaburgi - KSPCB",20-01-2024 21:00:00,17.336318,76.847397,PM10,35,99,54
India,Karnataka,Karwar,"KHB Colony, Karwar - KSPCB",20-01-2024 21:00:00,14.816666,74.141003,SO2,18,18,18
India,Karnataka,Kolar,"Tamaka Ind. Area, Kolar - KSPCB",20-01-2024 21:00:00,13.1276288,78.1570122,NO2,3,24,8
India,Karnataka,Madikeri,"Stuart Hill, Madikeri - KSPCB",20-01-2024 21:00:00,12.415911,75.735050,NO2,5,11,7
India,Karnataka,Madikeri,"Stuart Hill, Madikeri - KSPCB",20-01-2024 21:00:00,12.415911,75.735050,NH3,1,1,1
India,Karnataka,Madikeri,"Stuart Hill, Madikeri - KSPCB",20-01-2024 21:00:00,12.415911,75.735050,SO2,4,4,4
India,Karnataka,Ramanagara,"Vijay Nagar, Ramanagara - KSPCB",20-01-2024 21:00:00,12.733409,77.298051,NH3,1,1,1
India,Karnataka,Shivamogga,"Vinoba Nagara, Shivamogga - KSPCB",20-01-2024 21:00:00,13.940000,75.555917,SO2,2,17,7
India,Karnataka,Udupi,"Brahmagiri, Udupi - KSPCB",20-01-2024 21:00:00,13.34194444,74.74694444,PM10,21,64,41
India,Karnataka,Vijayapura,"Ibrahimpur, Vijayapura - KSPCB",20-01-2024 21:00:00,16.802639,75.722694,NH3,2,2,2
India,Karnataka,Vijayapura,"Ibrahimpur, Vijayapura - KSPCB",20-01-2024 21:00:00,16.802639,75.722694,OZONE,13,16,15
India,Karnataka,Yadgir,"Collector Office, Yadgir - KSPCB",20-01-2024 21:00:00,16.7602,77.1428,PM10,52,92,69
India,Karnataka,Yadgir,"Collector Office, Yadgir - KSPCB",20-01-2024 21:00:00,16.7602,77.1428,SO2,2,30,14
India,Karnataka,Yadgir,"Collector Office, Yadgir - KSPCB",20-01-2024 21:00:00,16.7602,77.1428,OZONE,18,20,19
India,Kerala,Eloor,"Udyogamandal, Eloor - Kerala PCB",20-01-2024 21:00:00,10.073232,76.302765,PM2.5,42,71,56
India,Kerala,Eloor,"Udyogamandal, Eloor - Kerala PCB",20-01-2024 21:00:00,10.073232,76.302765,NO2,4,4,4
India,Kerala,Kannur,"Thavakkara, Kannur - Kerala PCB",20-01-2024 21:00:00,11.875000,75.373200,PM10,57,67,62
India,Kerala,Kannur,"Thavakkara, Kannur - Kerala PCB",20-01-2024 21:00:00,11.875000,75.373200,NO2,6,7,6
India,Kerala,Kannur,"Thavakkara, Kannur - Kerala PCB",20-01-2024 21:00:00,11.875000,75.373200,NH3,1,1,1
India,Kerala,Kochi,"Vyttila, Kochi - Kerala PCB",20-01-2024 21:00:00,9.969447,76.321186,PM2.5,48,48,48
India,Kerala,Kollam,"Polayathode, Kollam - Kerala PCB",20-01-2024 21:00:00,8.8787,76.6073,NH3,1,1,1
India,Kerala,Thiruvananthapuram,"Kariavattom, Thiruvananthapuram - Kerala PCB",20-01-2024 21:00:00,8.563700,76.886500,NH3,1,1,1
India,Kerala,Thiruvananthapuram,"Plammoodu, Thiruvananthapuram - Kerala PCB",20-01-2024 21:00:00,8.5149093,76.9435879,PM2.5,18,64,41
India,Kerala,Thiruvananthapuram,"Plammoodu, Thiruvananthapuram - Kerala PCB",20-01-2024 21:00:00,8.5149093,76.9435879,CO,28,99,46
India,Kerala,Thrissur,"Corporation Ground, Thrissur - Kerala PCB",20-01-2024 21:00:00,10.532400,76.215900,PM2.5,48,54,51
India,Madhya Pradesh,Bhopal,"Idgah Hills, Bhopal - MPPCB",20-01-2024 21:00:00,23.264759,77.381568,PM2.5,65,347,221
India,Madhya Pradesh,Bhopal,"Idgah Hills, Bhopal - MPPCB",20-01-2024 21:00:00,23.264759,77.381568,OZONE,20,88,74
India,Madhya Pradesh,Bhopal,"T T Nagar, Bhopal - MPPCB",20-01-2024 21:00:00,23.233584,77.400574,PM2.5,110,324,260
India,Madhya Pradesh,Gwalior,"City Center, Gwalior - MPPCB",20-01-2024 21:00:00,26.203442,78.193251,SO2,9,38,31
India,Madhya Pradesh,Gwalior,"Deen Dayal Nagar, Gwalior - MPPCB",20-01-2024 21:00:00,26.259242,78.216432,CO,18,54,42
India,Madhya Pradesh,Gwalior,"Phool Bagh, Gwalior - Mondelez Ind. Food",20-01-2024 21:00:00,26.210536,78.171,PM10,11,88,66
India,Madhya Pradesh,Gwalior,"Phool Bagh, Gwalior - Mondelez Ind. Food",20-01-2024 21:00:00,26.210536,78.171,NO2,3,5,4
India,Madhya Pradesh,Gwalior,"Phool Bagh, Gwalior - Mondelez Ind. Food",20-01-2024 21:00:00,26.210536,78.171,SO2,9,11,10
India,Madhya Pradesh,Indore,"Maguda Nagar, Indore - IMC",20-01-2024 21:00:00,22.7524,75.8872,SO2,21,26,23
India,Madhya Pradesh,Indore,"Maguda Nagar, Indore - IMC",20-01-2024 21:00:00,22.7524,75.8872,OZONE,37,43,41
India,Madhya Pradesh,Indore,"Regional Park, Indore - IMC",20-01-2024 21:00:00,22.6780,75.8559,CO,19,34,28
India,Madhya Pradesh,Indore,"Residency Area, Indore - IMC",20-01-2024 21:00:00,22.7084,75.8815,OZONE,10,17,15
India,Madhya Pradesh,Jabalpur,"Govindh Bhavan Colony, Jabalpur - JMC",20-01-2024 21:00:00,23.163174,79.973061,PM2.5,97,324,216
India,Madhya Pradesh,Jabalpur,"Govindh Bhavan Colony, Jabalpur - JMC",20-01-2024 21:00:00,23.163174,79.973061,PM10,79,179,130
India,Madhya Pradesh,Jabalpur,"Govindh Bhavan Colony, Jabalpur - JMC",20-01-2024 21:00:00,23.163174,79.973061,SO2,12,28,16
India,Madhya Pradesh,Jabalpur,"Gupteshwar, Jabalpur - JMC",20-01-2024 21:00:00,23.142888,79.916147,NO2,16,57,35
India,Madhya Pradesh,Jabalpur,"Gupteshwar, Jabalpur - JMC",20-01-2024 21:00:00,23.142888,79.916147,NH3,2,4,3
India,Madhya Pradesh,Jabalpur,"Gupteshwar, Jabalpur - JMC",20-01-2024 21:00:00,23.142888,79.916147,CO,46,106,100
India,Madhya Pradesh,Jabalpur,"Gupteshwar, Jabalpur - JMC",20-01-2024 21:00:00,23.142888,79.916147,OZONE,4,54,13
India,Madhya Pradesh,Jabalpur,"Marhatal, Jabalpur - MPPCB",20-01-2024 21:00:00,23.168606,79.932247,PM2.5,274,401,342
India,Madhya Pradesh,Jabalpur,"Marhatal, Jabalpur - MPPCB",20-01-2024 21:00:00,23.168606,79.932247,PM10,146,303,215
India,Madhya Pradesh,Jabalpur,"Marhatal, Jabalpur - MPPCB",20-01-2024 21:00:00,23.168606,79.932247,CO,26,103,84
India,Madhya Pradesh,Jabalpur,"Suhagi, Jabalpur - JMC",20-01-2024 21:00:00,23.218135,79.957770,PM2.5,160,352,277
India,Madhya Pradesh,Jabalpur,"Suhagi, Jabalpur - JMC",20-01-2024 21:00:00,23.218135,79.957770,NO2,39,42,40
India,Madhya Pradesh,Jabalpur,"Suhagi, Jabalpur - JMC",20-01-2024 21:00:00,23.218135,79.957770,SO2,8,29,15
India,Madhya Pradesh,Katni,"Gole Bazar, Katni - MPPCB",20-01-2024 21:00:00,23.50016,80.23284,PM2.5,105,205,158
India,Madhya Pradesh,Katni,"Gole Bazar, Katni - MPPCB",20-01-2024 21:00:00,23.50016,80.23284,SO2,8,38,16
India,Madhya Pradesh,Maihar,"Sahilara, Maihar - KJS Cements",20-01-2024 21:00:00,24.2613009,80.7231783,SO2,13,14,14
India,Madhya Pradesh,Mandideep,"Sector-D Industrial Area, Mandideep - MPPCB",20-01-2024 21:00:00,23.108440,77.511428,NH3,6,9,7
India,Madhya Pradesh,Pithampur,"Sector-2 Industrial Area, Pithampur - MPPCB",20-01-2024 21:00:00,22.624758,75.675238,PM10,121,223,156
India,Madhya Pradesh,Pithampur,"Sector-2 Industrial Area, Pithampur - MPPCB",20-01-2024 21:00:00,22.624758,75.675238,SO2,9,16,13
India,Madhya Pradesh,Ratlam,"Shasthri Nagar, Ratlam - IPCA Lab",20-01-2024 21:00:00,23.331731,75.045981,PM10,65,153,106
India,Madhya Pradesh,Sagar,"Civil Lines, Sagar - MPPCB",20-01-2024 21:00:00,23.838586,78.759431,NO2,10,18,14
India,Madhya Pradesh,Sagar,"Civil Lines, Sagar - MPPCB",20-01-2024 21:00:00,23.838586,78.759431,NH3,4,6,5
India,Madhya Pradesh,Satna,"Bandhavgar Colony, Satna - Birla Cement",20-01-2024 21:00:00,24.58434363,80.8549414,PM2.5,2,9,6
India,Madhya Pradesh,Satna,"Bandhavgar Colony, Satna - Birla Cement",20-01-2024 21:00:00,24.58434363,80.8549414,CO,34,68,40
India,Madhya Pradesh,Singrauli,"Suryakiran Bhawan NCL, Singrauli - MPPCB",20-01-2024 21:00:00,24.108970,82.645580,NH3,1,2,2
India,Madhya Pradesh,Singrauli,"Suryakiran Bhawan NCL, Singrauli - MPPCB",20-01-2024 21:00:00,24.108970,82.645580,OZONE,18,23,20
India,Madhya Pradesh,Ujjain,"Mahakaleshwar Temple, Ujjain - MPPCB",20-01-2024 21:00:00,23.182719 ,75.768218 ,PM10,51,117,84
India,Madhya Pradesh,Ujjain,"Mahakaleshwar Temple, Ujjain - MPPCB",20-01-2024 21:00:00,23.182719 ,75.768218 ,CO,34,90,61
India,Maharashtra,Akola,"Ramdaspeth, Akola - MPCB",20-01-2024 21:00:00,20.719516,77.000253,NO2,10,36,18
India,Maharashtra,Akola,"Ramdaspeth, Akola - MPCB",20-01-2024 21:00:00,20.719516,77.000253,OZONE,37,67,59
India,Maharashtra,Amravati,"Shri Shivaji Science College, Amaravati - MPCB",20-01-2024 21:00:00,20.939198,77.765701,PM10,102,194,134
India,Maharashtra,Aurangabad,"MIDC Chilkalthana, Aurangabad - MPCB",20-01-2024 21:00:00,19.875620,75.387310,OZONE,9,47,36
India,Maharashtra,Aurangabad,"Rachnakar Colony, Aurangabad - MPCB",20-01-2024 21:00:00,19.863756,75.321188,NO2,20,109,61
India,Maharashtra,Aurangabad,"Rachnakar Colony, Aurangabad - MPCB",20-01-2024 21:00:00,19.863756,75.321188,NH3,1,1,1
India,Maharashtra,Aurangabad,"Rachnakar Colony, Aurangabad - MPCB",20-01-2024 21:00:00,19.863756,75.321188,OZONE,22,85,54
India,Maharashtra,Belapur,"CBD Belapur, Belapur - MPCB",20-01-2024 21:00:00,19.0243902,73.0406721,PM10,NA,NA,NA
India,Maharashtra,Bhiwandi,"Gokul Nagar, Bhiwandi - MPCB",20-01-2024 21:00:00,19.309073,73.057223,PM2.5,92,320,238
India,Maharashtra,Boisar,"Khaira, Boisar - MPCB",20-01-2024 21:00:00,19.786089,72.757971,CO,NA,NA,NA
India,Maharashtra,Boisar,"Khaira, Boisar - MPCB",20-01-2024 21:00:00,19.786089,72.757971,OZONE,NA,NA,NA
India,Maharashtra,Chandrapur,"Chauhan Colony, Chandrapur - MPCB",20-01-2024 21:00:00,19.962900,79.298714,NH3,2,2,2
India,Maharashtra,Chandrapur,"MIDC Khutala, Chandrapur - MPCB",20-01-2024 21:00:00,19.9775302,79.2337086,OZONE,1,1,1
India,Maharashtra,Dhule,"Deopur, Dhule - MPCB",20-01-2024 21:00:00,20.918946,74.776388,PM10,100,260,134
India,Maharashtra,Jalgaon,"Prabhat Colony, Jalgaon - MPCB",20-01-2024 21:00:00,21.001264,75.565602,PM10,NA,NA,NA
India,Maharashtra,Jalgaon,"Prabhat Colony, Jalgaon - MPCB",20-01-2024 21:00:00,21.001264,75.565602,NH3,NA,NA,NA
India,Maharashtra,Jalna,"Old MIDC, Jalna - MPCB",20-01-2024 21:00:00,19.854616,75.905894,PM10,76,268,136
India,Maharashtra,Kalyan,"Khadakpada, Kalyan - MPCB",20-01-2024 21:00:00,19.25292,73.142019,SO2,19,104,38
India,Maharashtra,Kolhapur,"Shivaji University, Kolhapur - MPCB",20-01-2024 21:00:00,16.6870449,74.2505872,NO2,NA,NA,NA
India,Maharashtra,Kolhapur,"Shivaji University, Kolhapur - MPCB",20-01-2024 21:00:00,16.6870449,74.2505872,SO2,1,2,2
India,Maharashtra,Kolhapur,"Sinchan Bhavan, Kolhapur - MPCB",20-01-2024 21:00:00,16.7143745,74.2426398,SO2,1,2,1
India,Maharashtra,Mahad,"Kamble Tarf Birwadi, Mahad - MPCB",20-01-2024 21:00:00,18.1023399,73.4783687,NH3,4,5,5
India,Maharashtra,Malegaon,"Mahesh Nagar, Malegaon - MPCB",20-01-2024 21:00:00,20.555712,74.529236,PM10,67,190,122
India,Maharashtra,Mira-Bhayandar,"Bhayandar West, Mira-Bhayandar - MPCB",20-01-2024 21:00:00,19.296481,72.840923,NH3,NA,NA,NA
India,Maharashtra,Mumbai,"Borivali East, Mumbai - IITM",20-01-2024 21:00:00,19.23241,72.86895,NO2,42,135,66
India,Maharashtra,Mumbai,"Borivali East, Mumbai - MPCB",20-01-2024 21:00:00,19.2243333,72.8658113,CO,2,105,38
India,Maharashtra,Mumbai,"Byculla, Mumbai - BMC",20-01-2024 21:00:00,18.9767,72.8380,PM10,73,164,120
India,Maharashtra,Mumbai,"Byculla, Mumbai - BMC",20-01-2024 21:00:00,18.9767,72.8380,OZONE,1,152,99
India,Maharashtra,Mumbai,"Chhatrapati Shivaji Intl. Airport (T2), Mumbai - MPCB",20-01-2024 21:00:00,19.10078,72.87462,NH3,5,9,7
India,Maharashtra,Mumbai,"Colaba, Mumbai - MPCB",20-01-2024 21:00:00,18.910000,72.820000,NH3,1,1,1
India,Maharashtra,Mumbai,"Ghatkopar, Mumbai - BMC",20-01-2024 21:00:00,19.083694,72.920967,NH3,1,1,1
India,Maharashtra,Mumbai,"Kherwadi_Bandra East, Mumbai - MPCB",20-01-2024 21:00:00,19.0632143,72.8456324,NH3,4,9,6
India,Maharashtra,Mumbai,"Khindipada-Bhandup West, Mumbai - IITM",20-01-2024 21:00:00,19.1653323,72.922099,PM2.5,78,199,143
India,Maharashtra,Mumbai,"Khindipada-Bhandup West, Mumbai - IITM",20-01-2024 21:00:00,19.1653323,72.922099,CO,9,101,65
India,Maharashtra,Mumbai,"Malad West, Mumbai - IITM",20-01-2024 21:00:00,19.19709,72.82204,PM10,NA,NA,NA
India,Maharashtra,Mumbai,"Malad West, Mumbai - IITM",20-01-2024 21:00:00,19.19709,72.82204,NO2,NA,NA,NA
India,Maharashtra,Mumbai,"Malad West, Mumbai - IITM",20-01-2024 21:00:00,19.19709,72.82204,CO,2,5,2
India,Maharashtra,Mumbai,"Mazgaon, Mumbai - IITM",20-01-2024 21:00:00,18.96702,72.84214,NH3,NA,NA,NA
India,Maharashtra,Mumbai,"Mindspace-Malad West, Mumbai - MPCB",20-01-2024 21:00:00,19.1878657,72.8304069,NH3,8,9,9
India,Maharashtra,Mumbai,"Mindspace-Malad West, Mumbai - MPCB",20-01-2024 21:00:00,19.1878657,72.8304069,OZONE,1,85,69
India,Maharashtra,Mumbai,"Mulund West, Mumbai - MPCB",20-01-2024 21:00:00,19.1750,72.9419,NO2,23,27,24
India,Maharashtra,Mumbai,"Mulund West, Mumbai - MPCB",20-01-2024 21:00:00,19.1750,72.9419,CO,18,19,19
India,Maharashtra,Mumbai,"Navy Nagar-Colaba, Mumbai - IITM",20-01-2024 21:00:00,18.897756,72.813320,NH3,8,23,18
India,Maharashtra,Mumbai,"Powai, Mumbai - MPCB",20-01-2024 21:00:00,19.137500,72.915056,PM10,85,197,129
India,Maharashtra,Mumbai,"Sewri, Mumbai - BMC",20-01-2024 21:00:00,19.000084,72.856730,SO2,4,61,18
India,Maharashtra,Mumbai,"Shivaji Nagar, Mumbai - BMC",20-01-2024 21:00:00,19.060498,72.923356,NO2,65,153,109
India,Maharashtra,Mumbai,"Shivaji Nagar, Mumbai - BMC",20-01-2024 21:00:00,19.060498,72.923356,SO2,9,40,22
India,Maharashtra,Mumbai,"Siddharth Nagar-Worli, Mumbai - IITM",20-01-2024 21:00:00,19.000083,72.813993,NH3,NA,NA,NA
India,Maharashtra,Mumbai,"Siddharth Nagar-Worli, Mumbai - IITM",20-01-2024 21:00:00,19.000083,72.813993,CO,NA,NA,NA
India,Maharashtra,Mumbai,"Sion, Mumbai - MPCB",20-01-2024 21:00:00,19.047000,72.874600,PM2.5,52,219,131
India,Maharashtra,Mumbai,"Sion, Mumbai - MPCB",20-01-2024 21:00:00,19.047000,72.874600,NO2,33,121,85
India,Maharashtra,Mumbai,"Vasai West, Mumbai - MPCB",20-01-2024 21:00:00,19.383200,72.820400,NH3,4,4,4
India,Maharashtra,Nagpur,"Ambazari, Nagpur - MPCB",20-01-2024 21:00:00,21.121801,79.04952,PM2.5,118,298,156
India,Maharashtra,Nagpur,"Mahal, Nagpur - MPCB",20-01-2024 21:00:00,21.14472,79.107595,OZONE,1,72,54
India,Maharashtra,Nagpur,"Opp GPO Civil Lines, Nagpur - MPCB",20-01-2024 21:00:00,21.152875,79.0517531,PM10,67,138,107
India,Maharashtra,Nagpur,"Opp GPO Civil Lines, Nagpur - MPCB",20-01-2024 21:00:00,21.152875,79.0517531,NO2,7,64,20
India,Maharashtra,Nagpur,"Opp GPO Civil Lines, Nagpur - MPCB",20-01-2024 21:00:00,21.152875,79.0517531,SO2,13,91,35
India,Maharashtra,Nagpur,"Ram Nagar, Nagpur - MPCB",20-01-2024 21:00:00,21.143383,79.048912,NO2,18,92,33
India,Maharashtra,Nagpur,"Ram Nagar, Nagpur - MPCB",20-01-2024 21:00:00,21.143383,79.048912,SO2,11,68,32
India,Maharashtra,Nanded,"Sneh Nagar, Nanded - MPCB",20-01-2024 21:00:00,19.173852,77.296291,CO,35,44,39
India,Maharashtra,Nanded,"Sneh Nagar, Nanded - MPCB",20-01-2024 21:00:00,19.173852,77.296291,OZONE,29,97,79
India,Maharashtra,Nashik,"Gangapur Road, Nashik - MPCB",20-01-2024 21:00:00,20.0073285,73.7762427,CO,18,18,18
India,Maharashtra,Nashik,"Hirawadi, Nashik - MPCB",20-01-2024 21:00:00,20.021503,73.813844,NH3,1,2,2
India,Maharashtra,Nashik,"Hirawadi, Nashik - MPCB",20-01-2024 21:00:00,20.021503,73.813844,CO,13,74,24
India,Maharashtra,Nashik,"MIDC Ambad, Nashik - MPCB",20-01-2024 21:00:00,19.950220,73.731480,CO,17,92,22
India,Maharashtra,Nashik,"Pandav Nagari, Nashik - MPCB",20-01-2024 21:00:00,19.9591346,73.7788008,SO2,NA,NA,NA
India,Maharashtra,Navi Mumbai,"Kopripada-Vashi, Navi Mumbai - MPCB",20-01-2024 21:00:00,19.090337,73.014232,NO2,33,136,95
India,Maharashtra,Navi Mumbai,"Kopripada-Vashi, Navi Mumbai - MPCB",20-01-2024 21:00:00,19.090337,73.014232,CO,18,86,32
India,Maharashtra,Navi Mumbai,"Mahape, Navi Mumbai - MPCB",20-01-2024 21:00:00,19.1135051,73.008978,NH3,3,3,3
India,Maharashtra,Navi Mumbai,"Mahape, Navi Mumbai - MPCB",20-01-2024 21:00:00,19.1135051,73.008978,OZONE,21,48,26
India,Maharashtra,Navi Mumbai,"Nerul, Navi Mumbai - MPCB",20-01-2024 21:00:00,19.008751,73.016620,PM2.5,63,302,143
India,Maharashtra,Navi Mumbai,"Nerul, Navi Mumbai - MPCB",20-01-2024 21:00:00,19.008751,73.016620,PM10,89,240,151
India,Maharashtra,Navi Mumbai,"Nerul, Navi Mumbai - MPCB",20-01-2024 21:00:00,19.008751,73.016620,NO2,26,48,37
India,Maharashtra,Navi Mumbai,"Nerul, Navi Mumbai - MPCB",20-01-2024 21:00:00,19.008751,73.016620,NH3,4,7,6
India,Maharashtra,Navi Mumbai,"Nerul, Navi Mumbai - MPCB",20-01-2024 21:00:00,19.008751,73.016620,OZONE,38,57,44
India,Maharashtra,Navi Mumbai,"Sanpada, Navi Mumbai - MPCB",20-01-2024 21:00:00,19.0575752,73.0151367,PM2.5,63,332,189
India,Maharashtra,Navi Mumbai,"Sanpada, Navi Mumbai - MPCB",20-01-2024 21:00:00,19.0575752,73.0151367,SO2,10,57,24
India,Maharashtra,Navi Mumbai,"Sanpada, Navi Mumbai - MPCB",20-01-2024 21:00:00,19.0575752,73.0151367,OZONE,1,138,87
India,Maharashtra,Navi Mumbai,"Sector-19A Nerul, Navi Mumbai - IITM",20-01-2024 21:00:00,19.044,73.0325,PM10,139,341,227
India,Maharashtra,Navi Mumbai,"Sector-19A Nerul, Navi Mumbai - IITM",20-01-2024 21:00:00,19.044,73.0325,NH3,7,26,15
India,Maharashtra,Navi Mumbai,"Sector-19A Nerul, Navi Mumbai - IITM",20-01-2024 21:00:00,19.044,73.0325,CO,46,109,65
India,Maharashtra,Navi Mumbai,"Sector-2E Kalamboli, Navi Mumbai - MPCB",20-01-2024 21:00:00,19.02579,73.10297,PM2.5,53,326,203
India,Maharashtra,Navi Mumbai,"Sector-2E Kalamboli, Navi Mumbai - MPCB",20-01-2024 21:00:00,19.02579,73.10297,NO2,86,89,88
India,Maharashtra,Navi Mumbai,"Sector-2E Kalamboli, Navi Mumbai - MPCB",20-01-2024 21:00:00,19.02579,73.10297,CO,13,100,33
India,Maharashtra,Pimpri-Chinchwad,"Thergaon, Pimpri Chinchwad - MPCB",20-01-2024 21:00:00,18.616318,73.765797,PM2.5,112,310,193
India,Maharashtra,Pimpri-Chinchwad,"Thergaon, Pimpri Chinchwad - MPCB",20-01-2024 21:00:00,18.616318,73.765797,CO,30,81,34
India,Maharashtra,Pune,"Bhosari, Pune - IITM",20-01-2024 21:00:00,18.640051,73.848956,PM10,47,125,100
India,Maharashtra,Pune,"Karve Road, Pune - MPCB",20-01-2024 21:00:00,18.5011743,73.8165527,PM2.5,80,83,80
India,Maharashtra,Pune,"Karve Road, Pune - MPCB",20-01-2024 21:00:00,18.5011743,73.8165527,NO2,2,2,2
India,Maharashtra,Pune,"Karve Road, Pune - MPCB",20-01-2024 21:00:00,18.5011743,73.8165527,SO2,22,23,22
India,Maharashtra,Pune,"Katraj Dairy, Pune - MPCB",20-01-2024 21:00:00,18.454450,73.854155,PM10,50,89,72
India,Maharashtra,Pune,"Katraj Dairy, Pune - MPCB",20-01-2024 21:00:00,18.454450,73.854155,NO2,29,44,36
India,Maharashtra,Pune,"Katraj Dairy, Pune - MPCB",20-01-2024 21:00:00,18.454450,73.854155,OZONE,1,21,16
India,Maharashtra,Pune,"Mhada Colony, Pune - IITM",20-01-2024 21:00:00,18.573040,73.927715,PM10,51,116,92
India,Maharashtra,Pune,"Revenue Colony-Shivajinagar, Pune - IITM",20-01-2024 21:00:00,18.530085,73.849598,PM10,38,112,72
India,Maharashtra,Pune,"Revenue Colony-Shivajinagar, Pune - IITM",20-01-2024 21:00:00,18.530085,73.849598,SO2,67,133,114
India,Maharashtra,Pune,"Savitribai Phule Pune University, Pune - MPCB",20-01-2024 21:00:00,18.547056,73.826908,PM10,45,145,94
India,Maharashtra,Sangli,"Vijay Nagar, Sangli - MPCB",20-01-2024 21:00:00, 16.5038,74.3623,PM2.5,64,245,131
India,Maharashtra,Sangli,"Vijay Nagar, Sangli - MPCB",20-01-2024 21:00:00, 16.5038,74.3623,NH3,1,3,2
India,Maharashtra,Solapur,"Dnyaneshwar Nagar, Solapur - MPCB",20-01-2024 21:00:00,17.6336264,75.9132495,PM10,81,197,118
India,Maharashtra,Solapur,"Dnyaneshwar Nagar, Solapur - MPCB",20-01-2024 21:00:00,17.6336264,75.9132495,OZONE,4,114,81
India,Maharashtra,Solapur,"Ratandeep Housing Society, Solapur - MPCB",20-01-2024 21:00:00,17.65439,75.90649,CO,20,173,154
India,Maharashtra,Solapur,"Solapur, Solapur - MPCB",20-01-2024 21:00:00,17.6599188,75.9063906,SO2,30,42,35
India,Maharashtra,Solapur,"Solapur, Solapur - MPCB",20-01-2024 21:00:00,17.6599188,75.9063906,OZONE,32,72,54
India,Maharashtra,Thane,"Kasarvadavali, Thane - MPCB",20-01-2024 21:00:00,19.26777,72.97182,NH3,NA,NA,NA
India,Maharashtra,Thane,"Upvan Fort, Thane - MPCB",20-01-2024 21:00:00,19.222279,72.957979,PM2.5,75,226,151
India,Maharashtra,Thane,"Upvan Fort, Thane - MPCB",20-01-2024 21:00:00,19.222279,72.957979,SO2,21,53,32
India,Maharashtra,Thane,"Upvan Fort, Thane - MPCB",20-01-2024 21:00:00,19.222279,72.957979,CO,14,41,20
India,Maharashtra,Ulhasnagar,"Sidhi Vinayak Nagar, Ulhasnagar - MPCB",20-01-2024 21:00:00,19.235581,73.159121,PM2.5,157,342,260
India,Maharashtra,Virar,"Bolinj, Virar - MPCB",20-01-2024 21:00:00,19.4458210,72.7988231,NO2,14,87,43
India,Maharashtra,Virar,"Bolinj, Virar - MPCB",20-01-2024 21:00:00,19.4458210,72.7988231,SO2,2,23,11
India,Maharashtra,Virar,"Bolinj, Virar - MPCB",20-01-2024 21:00:00,19.4458210,72.7988231,OZONE,1,106,91
India,Manipur,Imphal,"DM College of Science, Imphal - Manipur PCB",20-01-2024 21:00:00,24.8207389,93.9423085,PM10,24,141,44
India,Manipur,Imphal,"DM College of Science, Imphal - Manipur PCB",20-01-2024 21:00:00,24.8207389,93.9423085,NO2,7,8,8
India,Manipur,Imphal,"Manipur University, Imphal - Manipur PCB",20-01-2024 21:00:00,24.7524239,93.9286218,NO2,6,37,14
India,Manipur,Imphal,"Manipur University, Imphal - Manipur PCB",20-01-2024 21:00:00,24.7524239,93.9286218,NH3,NA,NA,NA
India,Manipur,Imphal,"Manipur University, Imphal - Manipur PCB",20-01-2024 21:00:00,24.7524239,93.9286218,OZONE,1,29,26
India,Mizoram,Aizawl,"Sikulpuikawn, Aizawl - Mizoram PCB",20-01-2024 21:00:00,23.7176342,92.7192841,PM10,42,75,59
India,Mizoram,Aizawl,"Sikulpuikawn, Aizawl - Mizoram PCB",20-01-2024 21:00:00,23.7176342,92.7192841,NH3,NA,NA,NA
India,Nagaland,Kohima,"PWD Juction, Kohima - NPCB",20-01-2024 21:00:00,25.6635413,94.0989878,CO,8,38,21
India,Odisha,Angul,"Hakimapada, Angul - OSPCB",20-01-2024 21:00:00,20.832874,85.104082,OZONE,29,95,81
India,Odisha,Barbil,"Forest Office, Barbil - OSPCB",20-01-2024 21:00:00,22.1166054,85.3945546,PM2.5,147,290,192
India,Odisha,Baripada,"Meher Colony, Baripada - OSPCB",20-01-2024 21:00:00,21.941841,86.728318,PM2.5,169,289,224
India,Odisha,Baripada,"Meher Colony, Baripada - OSPCB",20-01-2024 21:00:00,21.941841,86.728318,SO2,5,7,6
India,Odisha,Bhubaneswar,"Lingraj Mandir, Bhubaneswar - OSPCB",20-01-2024 21:00:00,20.240790,85.836784,SO2,2,12,6
India,Odisha,Bhubaneswar,"Lingraj Mandir, Bhubaneswar - OSPCB",20-01-2024 21:00:00,20.240790,85.836784,CO,52,100,59
India,Odisha,Bhubaneswar,"Patia, Bhubaneswar - OSPCB",20-01-2024 21:00:00,20.34652,85.81630,PM2.5,197,304,269
India,Odisha,Bhubaneswar,"Patia, Bhubaneswar - OSPCB",20-01-2024 21:00:00,20.34652,85.81630,SO2,2,23,9
India,Odisha,Bileipada,"Tata Township, Bileipada - OSPCB",20-01-2024 21:00:00,22.06156703,85.47409613,SO2,13,37,20
India,Odisha,Cuttack,"CDA Area, Cuttack - OSPCB",20-01-2024 21:00:00,20.48891     ,85.84768     ,PM2.5,243,326,301
India,Odisha,Cuttack,"CDA Area, Cuttack - OSPCB",20-01-2024 21:00:00,20.48891     ,85.84768     ,NH3,2,3,2
India,Odisha,Cuttack,"CDA Area, Cuttack - OSPCB",20-01-2024 21:00:00,20.48891     ,85.84768     ,CO,49,68,56
India,Odisha,Cuttack,"CDA Area, Cuttack - OSPCB",20-01-2024 21:00:00,20.48891     ,85.84768     ,OZONE,33,93,80
India,Odisha,Nayagarh,"Dabuna, Nayagarh - OSPCB",20-01-2024 21:00:00,21.847279,85.416905,PM2.5,117,239,152
India,Odisha,Nayagarh,"Dabuna, Nayagarh - OSPCB",20-01-2024 21:00:00,21.847279,85.416905,PM10,97,142,110
India,Odisha,Nayagarh,"Dabuna, Nayagarh - OSPCB",20-01-2024 21:00:00,21.847279,85.416905,CO,28,36,30
India,Odisha,Rairangpur,"Divisional Forest Office, Rairangpur - OSPCB",20-01-2024 21:00:00,22.265816,86.174829,PM2.5,70,167,115
India,Odisha,Rairangpur,"Divisional Forest Office, Rairangpur - OSPCB",20-01-2024 21:00:00,22.265816,86.174829,PM10,87,128,112
India,Odisha,Rairangpur,"Divisional Forest Office, Rairangpur - OSPCB",20-01-2024 21:00:00,22.265816,86.174829,CO,38,56,45
India,Odisha,Rourkela,"Fertilizer Township, Rourkela - OSPCB",20-01-2024 21:00:00,22.18972222,84.86277778,SO2,12,15,13
India,Odisha,Rourkela,"Sector-2, Rourkela - OSPCB",20-01-2024 21:00:00,22.24500000,84.88111111,NO2,33,34,33
India,Odisha,Talcher,"Talcher Coalfields,Talcher - OSPCB",20-01-2024 21:00:00,20.9360711,85.1707021,PM2.5,40,330,137
India,Odisha,Tensa,"Barsua Iron Ore Mines, Tensa - OSPCB",20-01-2024 21:00:00,21.869985,85.167016,NH3,8,12,10
India,Puducherry,Puducherry,"Jawahar Nagar, Puducherry - PPCC",20-01-2024 21:00:00,11.9309,79.8027,PM2.5,29,72,44
India,Puducherry,Puducherry,"Jawahar Nagar, Puducherry - PPCC",20-01-2024 21:00:00,11.9309,79.8027,CO,40,64,52
India,Puducherry,Puducherry,"Jawahar Nagar, Puducherry - PPCC",20-01-2024 21:00:00,11.9309,79.8027,OZONE,4,40,33
India,Punjab,Bathinda,"Hardev Nagar, Bathinda - PPCB",20-01-2024 21:00:00,30.233011,74.907758,NO2,32,40,33
India,Punjab,Bathinda,"Hardev Nagar, Bathinda - PPCB",20-01-2024 21:00:00,30.233011,74.907758,CO,2,113,49
India,Punjab,Jalandhar,"Civil Line, Jalandhar - PPCB",20-01-2024 21:00:00,31.321907,75.578914,NO2,17,18,18
India,Punjab,Khanna,"Kalal Majra, Khanna - PPCB",20-01-2024 21:00:00,30.736056 ,76.209694,PM10,83,135,106
India,Punjab,Ludhiana,"Punjab Agricultural University, Ludhiana - PPCB",20-01-2024 21:00:00,30.9028,75.8086,NH3,8,9,8
India,Punjab,Mandi Gobindgarh,"RIMT University, Mandi Gobindgarh - PPCB",20-01-2024 21:00:00,30.649961,76.331442,PM2.5,155,362,280
India,Punjab,Mandi Gobindgarh,"RIMT University, Mandi Gobindgarh - PPCB",20-01-2024 21:00:00,30.649961,76.331442,CO,11,71,44
India,Punjab,Patiala,"Model Town, Patiala - PPCB",20-01-2024 21:00:00,30.349388,76.366642,PM10,104,167,123
India,Rajasthan,Ajmer,"Civil Lines,  Ajmer - RSPCB",20-01-2024 21:00:00,26.470859,74.646594,CO,2,78,35
India,Rajasthan,Alwar,"Moti Doongri, Alwar - RSPCB",20-01-2024 21:00:00,27.554793,76.611536,OZONE,9,23,18
India,Rajasthan,Banswara,"Rati Talai, Banswara - RSPCB",20-01-2024 21:00:00,23.555190,74.440010,NO2,NA,NA,NA
India,Rajasthan,Banswara,"Rati Talai, Banswara - RSPCB",20-01-2024 21:00:00,23.555190,74.440010,NH3,NA,NA,NA
India,Rajasthan,Banswara,"Rati Talai, Banswara - RSPCB",20-01-2024 21:00:00,23.555190,74.440010,CO,42,88,52
India,Rajasthan,Baran,"Bamboliya, Baran - RSPCB",20-01-2024 21:00:00,25.106006,76.469948,NO2,20,79,26
India,Rajasthan,Barmer,"Railway Colony, Barmer - RSPCB",20-01-2024 21:00:00,25.747299,71.393989,PM2.5,15,187,86
India,Rajasthan,Barmer,"Railway Colony, Barmer - RSPCB",20-01-2024 21:00:00,25.747299,71.393989,NH3,4,13,7
India,Rajasthan,Bharatpur,"Krishna Nagar, Bharatpur - RSPCB",20-01-2024 21:00:00,27.215415,77.50873,SO2,3,16,8
India,Rajasthan,Bhilwara,"Pratap Nagar, Bhilwara - RSPCB",20-01-2024 21:00:00,25.339605,74.618883,PM10,55,199,127
India,Rajasthan,Bhilwara,"Pratap Nagar, Bhilwara - RSPCB",20-01-2024 21:00:00,25.339605,74.618883,NO2,22,105,32
India,Rajasthan,Bhiwadi,"RIICO Ind. Area III, Bhiwadi - RSPCB",20-01-2024 21:00:00,28.194909,76.862296,NO2,9,18,14
India,Rajasthan,Bhiwadi,"RIICO Ind. Area III, Bhiwadi - RSPCB",20-01-2024 21:00:00,28.194909,76.862296,CO,6,115,75
India,Rajasthan,Bikaner,"MM Ground, Bikaner - RSPCB",20-01-2024 21:00:00,28.018792,73.292658,SO2,2,10,5
India,Rajasthan,Bikaner,"MM Ground, Bikaner - RSPCB",20-01-2024 21:00:00,28.018792,73.292658,CO,46,104,67
India,Rajasthan,Bikaner,"MM Ground, Bikaner - RSPCB",20-01-2024 21:00:00,28.018792,73.292658,OZONE,4,82,58
India,Rajasthan,Bundi,"New Colony, Bundi - RSPCB",20-01-2024 21:00:00,25.435774,75.644272,PM10,45,325,101
India,Rajasthan,Bundi,"New Colony, Bundi - RSPCB",20-01-2024 21:00:00,25.435774,75.644272,NO2,12,63,23
India,Rajasthan,Bundi,"New Colony, Bundi - RSPCB",20-01-2024 21:00:00,25.435774,75.644272,OZONE,3,67,47
India,Rajasthan,Chittorgarh,"Shastri Nagar, Chittorgarh - RSPCB",20-01-2024 21:00:00,24.892047,74.623527,PM2.5,19,305,153
India,Rajasthan,Chittorgarh,"Shastri Nagar, Chittorgarh - RSPCB",20-01-2024 21:00:00,24.892047,74.623527,PM10,92,195,142
India,Rajasthan,Chittorgarh,"Shastri Nagar, Chittorgarh - RSPCB",20-01-2024 21:00:00,24.892047,74.623527,NO2,34,120,60
India,Rajasthan,Chittorgarh,"Shastri Nagar, Chittorgarh - RSPCB",20-01-2024 21:00:00,24.892047,74.623527,NH3,5,22,9
India,Rajasthan,Churu,"Subash Chowk, Churu - RSPCB",20-01-2024 21:00:00,28.296139,74.961696,NH3,9,17,12
India,Rajasthan,Churu,"Subash Chowk, Churu - RSPCB",20-01-2024 21:00:00,28.296139,74.961696,SO2,6,9,7
India,Rajasthan,Churu,"Subash Chowk, Churu - RSPCB",20-01-2024 21:00:00,28.296139,74.961696,CO,50,79,57
India,Rajasthan,Dausa,"Khatikan Mohalla, Dausa - RSPCB",20-01-2024 21:00:00,26.895552,76.334753,NO2,20,45,23
India,Rajasthan,Dholpur,"Raja Ganj, Dholpur - RSPCB",20-01-2024 21:00:00,26.699557,77.898881,NH3,6,10,9
India,Rajasthan,Hanumangarh,"Housing Board, Hanumangarh - RSPCB",20-01-2024 21:00:00,29.610750,74.283608,NH3,14,18,15
India,Rajasthan,Hanumangarh,"Housing Board, Hanumangarh - RSPCB",20-01-2024 21:00:00,29.610750,74.283608,SO2,2,6,4
India,Rajasthan,Jaipur,"Adarsh Nagar, Jaipur - RSPCB",20-01-2024 21:00:00,26.902909,75.836858,PM2.5,90,327,182
India,Rajasthan,Jaipur,"Adarsh Nagar, Jaipur - RSPCB",20-01-2024 21:00:00,26.902909,75.836858,NH3,7,17,9
India,Rajasthan,Jaipur,"Mansarovar Sector-12, Jaipur - RSPCB",20-01-2024 21:00:00,26.843698,75.766894,PM2.5,103,382,208
India,Rajasthan,Jaipur,"Mansarovar Sector-12, Jaipur - RSPCB",20-01-2024 21:00:00,26.843698,75.766894,OZONE,2,224,129
India,Rajasthan,Jaipur,"Police Commissionerate, Jaipur - RSPCB",20-01-2024 21:00:00,26.9164092,75.7994901,NO2,18,88,38
India,Rajasthan,Jaipur,"RIICO Sitapura, Jaipur - RSPCB",20-01-2024 21:00:00,26.786682,75.827928,CO,32,144,59
India,Rajasthan,Jaipur,"Shastri Nagar, Jaipur - RSPCB",20-01-2024 21:00:00,26.9502929,75.730943,PM10,92,254,137
India,Rajasthan,Jaipur,"Shastri Nagar, Jaipur - RSPCB",20-01-2024 21:00:00,26.9502929,75.730943,CO,30,126,79
India,Rajasthan,Jaisalmer,"Sadar Bazar, Jaisalmer - RSPCB",20-01-2024 21:00:00,26.912329,70.909168,PM2.5,42,334,140
India,Rajasthan,Jaisalmer,"Sadar Bazar, Jaisalmer - RSPCB",20-01-2024 21:00:00,26.912329,70.909168,SO2,6,38,9
India,Rajasthan,Jalore,"Mudtra Sili, Jalore - RSPCB",20-01-2024 21:00:00,25.344694,72.626208,PM2.5,36,304,153
India,Rajasthan,Jodhpur,"Jhalamand, Jodhpur - RSPCB",20-01-2024 21:00:00,26.215415,73.070156,PM2.5,17,160,88
India,Rajasthan,Jodhpur,"Jhalamand, Jodhpur - RSPCB",20-01-2024 21:00:00,26.215415,73.070156,PM10,41,235,122
India,Rajasthan,Jodhpur,"Jhalamand, Jodhpur - RSPCB",20-01-2024 21:00:00,26.215415,73.070156,SO2,4,12,7
India,Rajasthan,Jodhpur,"Samrat Ashok Udhyan, Jodhpur - RSPCB",20-01-2024 21:00:00,26.253384,72.976571,SO2,4,10,6
India,Rajasthan,Karauli,"Satyawati Vihar, Karauli - RSPCB",20-01-2024 21:00:00,26.506177,77.025989,SO2,11,19,15
India,Rajasthan,Karauli,"Satyawati Vihar, Karauli - RSPCB",20-01-2024 21:00:00,26.506177,77.025989,CO,9,62,29
India,Rajasthan,Kota,"Dhanmandi, Kota - RSPCB",20-01-2024 21:00:00,25.164090,75.858137,NH3,3,13,5
India,Rajasthan,Kota,"Dhanmandi, Kota - RSPCB",20-01-2024 21:00:00,25.164090,75.858137,CO,36,179,179
India,Rajasthan,Kota,"Shrinath Puram, Kota - RSPCB",20-01-2024 21:00:00,25.14389,75.821256,NO2,27,171,76
India,Rajasthan,Kota,"Shrinath Puram, Kota - RSPCB",20-01-2024 21:00:00,25.14389,75.821256,SO2,5,103,28
India,Rajasthan,Kota,"Shrinath Puram, Kota - RSPCB",20-01-2024 21:00:00,25.14389,75.821256,CO,2,34,20
India,Rajasthan,Nagaur,"Karni Colony, Nagaur - RSPCB",20-01-2024 21:00:00,27.213494,73.734444,PM2.5,87,254,139
India,Rajasthan,Nagaur,"Karni Colony, Nagaur - RSPCB",20-01-2024 21:00:00,27.213494,73.734444,PM10,104,333,145
India,Rajasthan,Nagaur,"Karni Colony, Nagaur - RSPCB",20-01-2024 21:00:00,27.213494,73.734444,NO2,28,62,38
India,Rajasthan,Nagaur,"Karni Colony, Nagaur - RSPCB",20-01-2024 21:00:00,27.213494,73.734444,NH3,9,13,11
India,Rajasthan,Nagaur,"Karni Colony, Nagaur - RSPCB",20-01-2024 21:00:00,27.213494,73.734444,OZONE,34,71,61
India,Rajasthan,Pali,"Indira Colony Vistar, Pali - RSPCB",20-01-2024 21:00:00,25.771061, 73.340227,SO2,8,19,13
India,Rajasthan,Pratapgarh,"Pragati Nagar, Pratapgarh - RSPCB",20-01-2024 21:00:00,24.041198,74.780702,PM10,58,167,94
India,Rajasthan,Pratapgarh,"Pragati Nagar, Pratapgarh - RSPCB",20-01-2024 21:00:00,24.041198,74.780702,OZONE,28,109,89
India,Rajasthan,Rajsamand,"Dhoinda, Rajsamand - RSPCB",20-01-2024 21:00:00,25.036360,73.883502,NO2,14,36,21
India,Rajasthan,Rajsamand,"Dhoinda, Rajsamand - RSPCB",20-01-2024 21:00:00,25.036360,73.883502,SO2,4,12,7
India,Rajasthan,Rajsamand,"Dhoinda, Rajsamand - RSPCB",20-01-2024 21:00:00,25.036360,73.883502,CO,26,51,35
India,Rajasthan,Sawai Madhopur,"Sahu Nagar, Sawai Madhopur - RSPCB",20-01-2024 21:00:00,26.031443,76.359327,CO,24,87,37
India,Rajasthan,Sikar,"Radhakishan Pura, Sikar - RSPCB",20-01-2024 21:00:00,27.608912,75.153302,PM10,127,229,147
India,Rajasthan,Sikar,"Radhakishan Pura, Sikar - RSPCB",20-01-2024 21:00:00,27.608912,75.153302,SO2,4,7,6
India,Rajasthan,Sirohi,"Vedhaynath Colony, Sirohi - RSPCB",20-01-2024 21:00:00,24.885261,72.857549,SO2,4,14,8
India,Rajasthan,Sri Ganganagar,"Old City, Sri Ganganagar - RSPCB",20-01-2024 21:00:00,29.931624,73.864511,PM10,115,431,224
India,Rajasthan,Tonk,"Shastri Nagar, Tonk - RSPCB",20-01-2024 21:00:00,26.159933,75.780517,PM10,105,325,139
India,Rajasthan,Tonk,"Shastri Nagar, Tonk - RSPCB",20-01-2024 21:00:00,26.159933,75.780517,SO2,2,7,4
India,Rajasthan,Tonk,"Shastri Nagar, Tonk - RSPCB",20-01-2024 21:00:00,26.159933,75.780517,CO,24,99,58
India,Sikkim,Gangtok,"Zero Point GICI, Gangtok - SSPCB",20-01-2024 21:00:00,27.338530,88.614099,PM2.5,17,35,24
India,Sikkim,Gangtok,"Zero Point GICI, Gangtok - SSPCB",20-01-2024 21:00:00,27.338530,88.614099,NH3,1,1,1
India,TamilNadu,Chengalpattu,"Crescent University, Chengalpattu - TNPCB",20-01-2024 21:00:00,12.8777316,80.0834807,OZONE,NA,NA,NA
India,TamilNadu,Chennai,"Kodungaiyur, Chennai - TNPCB",20-01-2024 21:00:00,13.1278,80.2642,PM2.5,13,65,29
India,TamilNadu,Chennai,"Manali, Chennai - CPCB",20-01-2024 21:00:00,13.164544,80.26285,NO2,10,22,12
India,TamilNadu,Chennai,"Manali, Chennai - CPCB",20-01-2024 21:00:00,13.164544,80.26285,OZONE,7,13,12
India,TamilNadu,Chennai,"Royapuram, Chennai - TNPCB",20-01-2024 21:00:00,13.1036,80.2909,NO2,15,30,22
India,TamilNadu,Chennai,"Velachery Res. Area, Chennai - CPCB",20-01-2024 21:00:00,13.0052189,80.2398125,SO2,10,11,11
India,TamilNadu,Chennai,"Velachery Res. Area, Chennai - CPCB",20-01-2024 21:00:00,13.0052189,80.2398125,CO,14,107,68
India,TamilNadu,Coimbatore,"PSG College of Arts and Science, Coimbatore - TNPCB",20-01-2024 21:00:00,11.0328,77.0349,PM2.5,NA,NA,NA
India,TamilNadu,Coimbatore,"PSG College of Arts and Science, Coimbatore - TNPCB",20-01-2024 21:00:00,11.0328,77.0349,NO2,NA,NA,NA
India,TamilNadu,Cuddalore,"Semmandalam, Cuddalore - TNPCB",20-01-2024 21:00:00,11.7637683,79.7499835,PM2.5,NA,NA,NA
India,TamilNadu,Gummidipoondi,"Anthoni Pillai Nagar, Gummidipoondi - TNPCB",20-01-2024 21:00:00,13.4127,80.1081,PM10,49,417,119
India,TamilNadu,Gummidipoondi,"Anthoni Pillai Nagar, Gummidipoondi - TNPCB",20-01-2024 21:00:00,13.4127,80.1081,NO2,10,14,11
India,TamilNadu,Gummidipoondi,"Anthoni Pillai Nagar, Gummidipoondi - TNPCB",20-01-2024 21:00:00,13.4127,80.1081,NH3,2,2,2
India,TamilNadu,Ooty,"Bombay Castel, Ooty - TNPCB",20-01-2024 21:00:00,11.4068288,76.7138973,PM2.5,NA,NA,NA
India,TamilNadu,Ooty,"Bombay Castel, Ooty - TNPCB",20-01-2024 21:00:00,11.4068288,76.7138973,NO2,NA,NA,NA
India,TamilNadu,Ooty,"Bombay Castel, Ooty - TNPCB",20-01-2024 21:00:00,11.4068288,76.7138973,OZONE,NA,NA,NA
India,TamilNadu,Palkalaiperur,"Bharathidasan University, Palkalaiperur - TNPCB",20-01-2024 21:00:00,10.681158,78.741746,SO2,NA,NA,NA
India,TamilNadu,Palkalaiperur,"Bharathidasan University, Palkalaiperur - TNPCB",20-01-2024 21:00:00,10.681158,78.741746,CO,4,22,17
India,TamilNadu,Ramanathapuram,"Chalai Bazaar, Ramanathapuram - TNPCB",20-01-2024 21:00:00,9.36399,78.831977,PM2.5,12,92,28
India,TamilNadu,Ramanathapuram,"Chalai Bazaar, Ramanathapuram - TNPCB",20-01-2024 21:00:00,9.36399,78.831977,PM10,13,100,45
India,TamilNadu,Ramanathapuram,"Chalai Bazaar, Ramanathapuram - TNPCB",20-01-2024 21:00:00,9.36399,78.831977,NH3,1,1,1
India,TamilNadu,Ramanathapuram,"Chalai Bazaar, Ramanathapuram - TNPCB",20-01-2024 21:00:00,9.36399,78.831977,OZONE,13,14,14
India,TamilNadu,Salem,"Sona College of Technology, Salem - TNPCB",20-01-2024 21:00:00,11.679111,78.125052,NH3,NA,NA,NA
India,TamilNadu,Salem,"Sona College of Technology, Salem - TNPCB",20-01-2024 21:00:00,11.679111,78.125052,SO2,NA,NA,NA
India,TamilNadu,Tirupur,"Kumaran College, Tirupur - TNPCB",20-01-2024 21:00:00,11.0973603,77.3228673,NO2,5,63,20
India,TamilNadu,Tirupur,"Kumaran College, Tirupur - TNPCB",20-01-2024 21:00:00,11.0973603,77.3228673,CO,16,105,60
India,TamilNadu,Virudhunagar,"Collectorate Office, Virudhunagar - TNPCB",20-01-2024 21:00:00,9.559382,77.948828,PM10,27,66,39
India,TamilNadu,Virudhunagar,"Collectorate Office, Virudhunagar - TNPCB",20-01-2024 21:00:00,9.559382,77.948828,NO2,11,27,21
India,TamilNadu,Virudhunagar,"Collectorate Office, Virudhunagar - TNPCB",20-01-2024 21:00:00,9.559382,77.948828,NH3,2,2,2
India,TamilNadu,Virudhunagar,"Collectorate Office, Virudhunagar - TNPCB",20-01-2024 21:00:00,9.559382,77.948828,SO2,17,17,17
India,Telangana,Hyderabad,"Central University, Hyderabad - TSPCB",20-01-2024 21:00:00,17.460103,78.334361,PM2.5,24,40,32
India,Telangana,Hyderabad,"ECIL Kapra, Hyderabad - TSPCB",20-01-2024 21:00:00,17.470431,78.566959,SO2,1,14,6
India,Telangana,Hyderabad,"IITH Kandi, Hyderabad - TSPCB",20-01-2024 21:00:00,17.585705,78.126199,CO,3,53,22
India,Telangana,Hyderabad,"Kompally Municipal Office, Hyderabad - TSPCB",20-01-2024 21:00:00,17.544899,78.486949,CO,12,29,21
India,Telangana,Hyderabad,"Nacharam_TSIIC IALA, Hyderabad - TSPCB",20-01-2024 21:00:00,17.429398,78.569354,PM10,49,88,70
India,Telangana,Hyderabad,"Nacharam_TSIIC IALA, Hyderabad - TSPCB",20-01-2024 21:00:00,17.429398,78.569354,NO2,6,9,7
India,Telangana,Hyderabad,"Nacharam_TSIIC IALA, Hyderabad - TSPCB",20-01-2024 21:00:00,17.429398,78.569354,OZONE,26,51,44
India,Telangana,Hyderabad,"Sanathnagar, Hyderabad - TSPCB",20-01-2024 21:00:00,17.4559458,78.4332152,OZONE,3,207,19
India,Tripura,Agartala,"Bardowali, Agartala - Tripura SPCB",20-01-2024 21:00:00,23.8175497,91.2726974,PM2.5,303,374,326
India,Tripura,Agartala,"Bardowali, Agartala - Tripura SPCB",20-01-2024 21:00:00,23.8175497,91.2726974,NH3,2,3,2
India,Uttar_Pradesh,Agra,"Manoharpur, Agra - UPPCB",20-01-2024 21:00:00,27.23711,78.01936,CO,14,24,17
India,Uttar_Pradesh,Agra,"Rohta, Agra - UPPCB",20-01-2024 21:00:00,27.106972,78.000111,NH3,1,1,1
India,Uttar_Pradesh,Agra,"Rohta, Agra - UPPCB",20-01-2024 21:00:00,27.106972,78.000111,CO,12,31,15
India,Uttar_Pradesh,Agra,"Sector-3B Avas Vikas Colony, Agra - UPPCB",20-01-2024 21:00:00,27.19412,77.96237,CO,8,30,14
India,Uttar_Pradesh,Agra,"Shahjahan Garden, Agra - UPPCB",20-01-2024 21:00:00,27.169338,78.03582,NH3,4,7,4
India,Uttar_Pradesh,Agra,"Shastripuram, Agra - UPPCB",20-01-2024 21:00:00,27.19862,77.92066,CO,2,14,4
India,Uttar_Pradesh,Agra,"Shastripuram, Agra - UPPCB",20-01-2024 21:00:00,27.19862,77.92066,OZONE,4,46,23
India,Uttar_Pradesh,Baghpat,"Sardar Patel Inter College, Baghpat - UPPCB",20-01-2024 21:00:00,28.964949,77.278761,PM2.5,128,295,228
India,Uttar_Pradesh,Baghpat,"Sardar Patel Inter College, Baghpat - UPPCB",20-01-2024 21:00:00,28.964949,77.278761,NO2,28,71,45
India,Uttar_Pradesh,Bareilly,"Rajendra Nagar, Bareilly - UPPCB",20-01-2024 21:00:00,28.38910936,79.42963708,NO2,23,83,34
India,Uttar_Pradesh,Bareilly,"Rajendra Nagar, Bareilly - UPPCB",20-01-2024 21:00:00,28.38910936,79.42963708,OZONE,8,14,12
India,Uttar_Pradesh,Bulandshahr,"Yamunapuram, Bulandshahr - UPPCB",20-01-2024 21:00:00,28.406963,77.849831,CO,14,103,61
India,Uttar_Pradesh,Firozabad,"Nagla Bhau, Firozabad - UPPCB",20-01-2024 21:00:00,27.168897,78.376960,PM10,63,126,86
India,Uttar_Pradesh,Ghaziabad,"Indirapuram, Ghaziabad - UPPCB",20-01-2024 21:00:00,28.646233,77.358075,PM2.5,98,337,191
India,Uttar_Pradesh,Ghaziabad,"Indirapuram, Ghaziabad - UPPCB",20-01-2024 21:00:00,28.646233,77.358075,PM10,120,382,194
India,Uttar_Pradesh,Ghaziabad,"Indirapuram, Ghaziabad - UPPCB",20-01-2024 21:00:00,28.646233,77.358075,CO,14,48,24
India,Uttar_Pradesh,Ghaziabad,"Loni, Ghaziabad - UPPCB",20-01-2024 21:00:00,28.757294,77.278792,PM10,128,361,185
India,Uttar_Pradesh,Ghaziabad,"Sanjay Nagar, Ghaziabad - UPPCB",20-01-2024 21:00:00,28.685382,77.453839,NO2,64,104,77
India,Uttar_Pradesh,Ghaziabad,"Sanjay Nagar, Ghaziabad - UPPCB",20-01-2024 21:00:00,28.685382,77.453839,SO2,8,38,14
India,Uttar_Pradesh,Ghaziabad,"Vasundhara, Ghaziabad - UPPCB",20-01-2024 21:00:00,28.6603346,77.3572563,OZONE,3,52,33
India,Uttar_Pradesh,Hapur,"Anand Vihar, Hapur - UPPCB",20-01-2024 21:00:00,28.725645,77.749675,NO2,6,102,20
India,Uttar_Pradesh,Hapur,"Anand Vihar, Hapur - UPPCB",20-01-2024 21:00:00,28.725645,77.749675,SO2,28,63,37
India,Uttar_Pradesh,Hapur,"Anand Vihar, Hapur - UPPCB",20-01-2024 21:00:00,28.725645,77.749675,CO,46,120,79
India,Uttar_Pradesh,Kanpur,"FTI Kidwai Nagar, Kanpur - UPPCB",20-01-2024 21:00:00,26.428282,80.327067,NO2,14,14,14
India,Uttar_Pradesh,Kanpur,"FTI Kidwai Nagar, Kanpur - UPPCB",20-01-2024 21:00:00,26.428282,80.327067,SO2,21,22,21
India,Uttar_Pradesh,Kanpur,"FTI Kidwai Nagar, Kanpur - UPPCB",20-01-2024 21:00:00,26.428282,80.327067,CO,36,50,48
India,Uttar_Pradesh,Kanpur,"NSI Kalyanpur, Kanpur - UPPCB",20-01-2024 21:00:00,26.509954,80.249612,NH3,3,4,3
India,Uttar_Pradesh,Kanpur,"NSI Kalyanpur, Kanpur - UPPCB",20-01-2024 21:00:00,26.509954,80.249612,CO,34,48,41
India,Uttar_Pradesh,Kanpur,"Nehru Nagar, Kanpur - UPPCB",20-01-2024 21:00:00,26.4703136,80.3229863,PM10,72,138,104
India,Uttar_Pradesh,Khurja,"Kalindi Kunj, Khurja - UPPCB",20-01-2024 21:00:00,28.2348927,77.8683002,PM2.5,9,137,47
India,Uttar_Pradesh,Lucknow,"B R Ambedkar University, Lucknow - UPPCB",20-01-2024 21:00:00,26.766433,80.927299,PM10,58,125,87
India,Uttar_Pradesh,Lucknow,"Gomti Nagar, Lucknow - UPPCB",20-01-2024 21:00:00,26.868120,81.005119,PM10,50,102,75
India,Uttar_Pradesh,Lucknow,"Kendriya Vidyalaya, Lucknow - CPCB",20-01-2024 21:00:00,26.906111,80.948222,NH3,3,20,14
India,Uttar_Pradesh,Lucknow,"Kendriya Vidyalaya, Lucknow - CPCB",20-01-2024 21:00:00,26.906111,80.948222,SO2,7,22,10
India,Uttar_Pradesh,Lucknow,"Kukrail Picnic Spot-1, Lucknow - UPPCB",20-01-2024 21:00:00,26.90723,80.98579,NO2,8,9,8
India,Uttar_Pradesh,Lucknow,"Lalbagh, Lucknow - CPCB",20-01-2024 21:00:00,26.8458805,80.9365541,PM2.5,104,330,220
India,Uttar_Pradesh,Lucknow,"Lalbagh, Lucknow - CPCB",20-01-2024 21:00:00,26.8458805,80.9365541,PM10,135,225,170
India,Uttar_Pradesh,Lucknow,"Lalbagh, Lucknow - CPCB",20-01-2024 21:00:00,26.8458805,80.9365541,OZONE,2,13,7
India,Uttar_Pradesh,Meerut,"Jai Bhim Nagar, Meerut - UPPCB",20-01-2024 21:00:00,28.9535882,77.7622941,PM2.5,84,412,144
India,Uttar_Pradesh,Meerut,"Pallavpuram Phase 2, Meerut - UPPCB",20-01-2024 21:00:00,29.063510,77.709723,NH3,NA,NA,NA
India,Uttar_Pradesh,Moradabad,"Buddhi Vihar, Moradabad - UPPCB",20-01-2024 21:00:00,28.83526,78.74460,CO,37,60,43
India,Uttar_Pradesh,Moradabad,"Employment Office, Moradabad - UPPCB",20-01-2024 21:00:00,28.88528,78.73880,OZONE,13,18,16
India,Uttar_Pradesh,Moradabad,"Jigar Colony, Moradabad - UPPCB",20-01-2024 21:00:00,28.856664,78.772638,NO2,22,24,23
India,Uttar_Pradesh,Moradabad,"Jigar Colony, Moradabad - UPPCB",20-01-2024 21:00:00,28.856664,78.772638,OZONE,6,11,9
India,Uttar_Pradesh,Moradabad,"Kashiram Nagar, Moradabad - UPPCB",20-01-2024 21:00:00,28.849399,78.742362,PM10,62,168,90
India,Uttar_Pradesh,Moradabad,"Kashiram Nagar, Moradabad - UPPCB",20-01-2024 21:00:00,28.849399,78.742362,OZONE,14,29,20
India,Uttar_Pradesh,Moradabad,"Transport Nagar, Moradabad - UPPCB",20-01-2024 21:00:00,28.802625,78.753728,PM2.5,59,257,93
India,Uttar_Pradesh,Moradabad,"Transport Nagar, Moradabad - UPPCB",20-01-2024 21:00:00,28.802625,78.753728,SO2,37,42,40
India,Uttar_Pradesh,Muzaffarnagar,"New Mandi, Muzaffarnagar - UPPCB",20-01-2024 21:00:00,29.4723508,77.7194031,NO2,29,103,43
India,Uttar_Pradesh,Noida,"Sector - 62, Noida - IMD",20-01-2024 21:00:00,28.6245479,77.3577104,PM2.5,172,357,260
India,Uttar_Pradesh,Noida,"Sector - 62, Noida - IMD",20-01-2024 21:00:00,28.6245479,77.3577104,OZONE,24,55,44
India,Uttar_Pradesh,Noida,"Sector-1, Noida - UPPCB",20-01-2024 21:00:00,28.5898,77.3101,PM2.5,91,500,180
India,Uttar_Pradesh,Noida,"Sector-1, Noida - UPPCB",20-01-2024 21:00:00,28.5898,77.3101,CO,25,102,68
India,Uttar_Pradesh,Noida,"Sector-116, Noida - UPPCB",20-01-2024 21:00:00,28.569230,77.393848,PM10,98,246,138
India,Uttar_Pradesh,Prayagraj,"Jhunsi, Prayagraj - UPPCB",20-01-2024 21:00:00,25.425602,81.917152,SO2,30,32,31
India,Uttar_Pradesh,Prayagraj,"Motilal Nehru NIT, Prayagraj - UPPCB",20-01-2024 21:00:00,25.494,81.863,PM10,96,174,112
India,Uttar_Pradesh,Prayagraj,"Motilal Nehru NIT, Prayagraj - UPPCB",20-01-2024 21:00:00,25.494,81.863,CO,2,84,17
India,Uttar_Pradesh,Prayagraj,"Nagar Nigam, Prayagraj - UPPCB",20-01-2024 21:00:00,25.44919916 ,81.82735986 ,SO2,12,38,25
India,Uttar_Pradesh,Varanasi,"Bhelupur, Varanasi - UPPCB",20-01-2024 21:00:00,25.301778,82.996789,PM2.5,26,49,34
India,Uttar_Pradesh,Varanasi,"Bhelupur, Varanasi - UPPCB",20-01-2024 21:00:00,25.301778,82.996789,NO2,21,48,31
India,Uttar_Pradesh,Varanasi,"IESD Banaras Hindu University, Varanasi - UPPCB",20-01-2024 21:00:00,25.262326,82.995408,PM10,43,86,55
India,Uttar_Pradesh,Varanasi,"Maldahiya, Varanasi - UPPCB",20-01-2024 21:00:00,25.32393,82.99687,SO2,34,35,34
India,Uttar_Pradesh,Vrindavan,"Omex Eternity, Vrindavan - UPPCB",20-01-2024 21:00:00,27.5714090,77.6557570,PM2.5,38,64,48
India,Uttarakhand,Dehradun,"Doon University, Dehradun - UKPCB",20-01-2024 21:00:00,30.269444,78.044167,OZONE,4,11,8
India,Uttarakhand,Kashipur,"Govt. Girls Inter College, Kashipur - UKPCB",20-01-2024 21:00:00,29.2124114,78.9611753,PM10,66,141,85
India,Uttarakhand,Kashipur,"Govt. Girls Inter College, Kashipur - UKPCB",20-01-2024 21:00:00,29.2124114,78.9611753,NO2,18,94,34
India,Uttarakhand,Rishikesh,"Shivaji Nagar, Rishikesh - UKPCB",20-01-2024 21:00:00,30.075911,78.2859547,PM10,42,78,60
India,Uttarakhand,Rishikesh,"Shivaji Nagar, Rishikesh - UKPCB",20-01-2024 21:00:00,30.075911,78.2859547,NH3,4,4,4
India,Uttarakhand,Rishikesh,"Shivaji Nagar, Rishikesh - UKPCB",20-01-2024 21:00:00,30.075911,78.2859547,SO2,4,5,4
India,West_Bengal,Barrackpore,"SVSPA Campus, Barrackpore - WBPCB",20-01-2024 21:00:00,22.7605581,88.3617589,NO2,NA,NA,NA
India,West_Bengal,Barrackpore,"SVSPA Campus, Barrackpore - WBPCB",20-01-2024 21:00:00,22.7605581,88.3617589,OZONE,8,57,41
India,West_Bengal,Haldia,"Priyambada Housing Estate, Haldia - WBPCB",20-01-2024 21:00:00,22.06047,88.109737,CO,49,72,54
India,West_Bengal,Howrah,"Belur Math, Howrah - WBPCB",20-01-2024 21:00:00,22.629801,88.352017,PM10,132,174,146
India,West_Bengal,Howrah,"Ghusuri, Howrah - WBPCB",20-01-2024 21:00:00,22.611968,88.347422,OZONE,9,18,14
India,West_Bengal,Howrah,"Padmapukur, Howrah - WBPCB",20-01-2024 21:00:00,22.5687319,88.2797276,NO2,28,67,41
India,West_Bengal,Kolkata,"Ballygunge, Kolkata - WBPCB",20-01-2024 21:00:00,22.5367507,88.3638022,NO2,32,170,70
India,West_Bengal,Kolkata,"Bidhannagar, Kolkata - WBPCB",20-01-2024 21:00:00,22.58157048,88.41002457,PM2.5,165,309,211
India,West_Bengal,Kolkata,"Bidhannagar, Kolkata - WBPCB",20-01-2024 21:00:00,22.58157048,88.41002457,PM10,152,233,171
India,West_Bengal,Kolkata,"Bidhannagar, Kolkata - WBPCB",20-01-2024 21:00:00,22.58157048,88.41002457,SO2,2,14,8
India,West_Bengal,Kolkata,"Fort William, Kolkata - WBPCB",20-01-2024 21:00:00,22.556640,88.342674,NH3,10,13,10
India,West_Bengal,Kolkata,"Fort William, Kolkata - WBPCB",20-01-2024 21:00:00,22.556640,88.342674,CO,26,88,45
India,West_Bengal,Kolkata,"Jadavpur, Kolkata - WBPCB",20-01-2024 21:00:00,22.49929,88.36917,PM10,152,202,167
India,West_Bengal,Kolkata,"Jadavpur, Kolkata - WBPCB",20-01-2024 21:00:00,22.49929,88.36917,NO2,4,10,7
India,West_Bengal,Kolkata,"Jadavpur, Kolkata - WBPCB",20-01-2024 21:00:00,22.49929,88.36917,OZONE,9,70,37
India,West_Bengal,Kolkata,"Rabindra Bharati University, Kolkata - WBPCB",20-01-2024 21:00:00,22.627847,88.380669,PM10,119,153,132
India,West_Bengal,Kolkata,"Rabindra Bharati University, Kolkata - WBPCB",20-01-2024 21:00:00,22.627847,88.380669,SO2,10,33,16
India,West_Bengal,Kolkata,"Rabindra Sarobar, Kolkata - WBPCB",20-01-2024 21:00:00,22.51106,88.35142,NO2,34,216,79
India,West_Bengal,Kolkata,"Rabindra Sarobar, Kolkata - WBPCB",20-01-2024 21:00:00,22.51106,88.35142,OZONE,3,90,59
India,West_Bengal,Siliguri,"Ward-32 Bapupara, Siliguri - WBPCB",20-01-2024 21:00:00,26.6879226,88.4152495,PM2.5,71,223,138
India,West_Bengal,Siliguri,"Ward-32 Bapupara, Siliguri - WBPCB",20-01-2024 21:00:00,26.6879226,88.4152495,NO2,23,58,35
India,West_Bengal,Siliguri,"Ward-32 Bapupara, Siliguri - WBPCB",20-01-2024 21:00:00,26.6879226,88.4152495,CO,30,72,43
India,West_Bengal,Siliguri,"Ward-32 Bapupara, Siliguri - WBPCB",20-01-2024 21:00:00,26.6879226,88.4152495,OZONE,7,62,43
India,Andhra_Pradesh,Anantapur,"Gulzarpet, Anantapur - APPCB",20-01-2024 21:00:00,14.675886,77.593027,NH3,2,3,3
India,Andhra_Pradesh,Anantapur,"Gulzarpet, Anantapur - APPCB",20-01-2024 21:00:00,14.675886,77.593027,OZONE,6,55,46
India,Andhra_Pradesh,Chittoor,"Gangineni Cheruvu, Chittoor - APPCB",20-01-2024 21:00:00,13.204880,79.097889,PM2.5,33,80,52
India,Andhra_Pradesh,Kadapa,"Yerramukkapalli, Kadapa - APPCB",20-01-2024 21:00:00,14.465052,78.824187,SO2,1,2,2
India,Andhra_Pradesh,Kadapa,"Yerramukkapalli, Kadapa - APPCB",20-01-2024 21:00:00,14.465052,78.824187,CO,12,18,15
India,Andhra_Pradesh,Kadapa,"Yerramukkapalli, Kadapa - APPCB",20-01-2024 21:00:00,14.465052,78.824187,OZONE,17,51,44
India,Andhra_Pradesh,Tirupati,"Tirumala, Tirupati - APPCB",20-01-2024 21:00:00,13.67,79.35,PM10,36,74,55
India,Andhra_Pradesh,Tirupati,"Tirumala, Tirupati - APPCB",20-01-2024 21:00:00,13.67,79.35,NO2,28,48,33
India,Andhra_Pradesh,Vijayawada,"Rajiv Gandhi Park, Vijayawada - APPCB",20-01-2024 21:00:00,16.509717,80.612222,SO2,NA,NA,NA
India,Andhra_Pradesh,Visakhapatnam,"GVM Corporation, Visakhapatnam - APPCB",20-01-2024 21:00:00,17.72,83.3,PM2.5,52,213,96
India,Arunachal_Pradesh,Naharlagun,"Naharlagun, Naharlagun - APSPCB",20-01-2024 21:00:00,27.103358,93.679645,PM10,NA,NA,NA
India,Assam,Byrnihat,"Central Academy for SFS, Byrnihat - PCBA",20-01-2024 21:00:00,26.071318,91.87488,OZONE,6,6,6
India,Assam,Guwahati,"IITG, Guwahati - PCBA",20-01-2024 21:00:00,26.2028636,91.70046436,NO2,1,21,8
India,Assam,Guwahati,"IITG, Guwahati - PCBA",20-01-2024 21:00:00,26.2028636,91.70046436,CO,13,57,15
India,Assam,Guwahati,"LGBI Airport, Guwahati - PCBA",20-01-2024 21:00:00,26.10887,91.589544,OZONE,2,80,57
India,Assam,Guwahati,"Pan Bazaar, Guwahati - PCBA",20-01-2024 21:00:00,26.187500,91.744194,PM2.5,79,381,279
India,Assam,Guwahati,"Pan Bazaar, Guwahati - PCBA",20-01-2024 21:00:00,26.187500,91.744194,SO2,57,101,71
India,Assam,Nagaon,"Christianpatty, Nagaon - PCBA",20-01-2024 21:00:00,26.349082,92.68449,NH3,1,7,4
India,Assam,Nagaon,"Christianpatty, Nagaon - PCBA",20-01-2024 21:00:00,26.349082,92.68449,OZONE,3,80,60
India,Assam,Silchar,"Tarapur, Silchar - PCBA",20-01-2024 21:00:00,24.82827,92.79525,NH3,1,1,1
India,Assam,Silchar,"Tarapur, Silchar - PCBA",20-01-2024 21:00:00,24.82827,92.79525,OZONE,2,8,5
India,Bihar,Araria,"Kharahiya Basti, Araria - BSPCB",20-01-2024 21:00:00,26.146529,87.454184,PM2.5,154,453,302
India,Bihar,Araria,"Kharahiya Basti, Araria - BSPCB",20-01-2024 21:00:00,26.146529,87.454184,NO2,6,7,7
India,Bihar,Aurangabad,"Gurdeo Nagar, Aurangabad - BSPCB",20-01-2024 21:00:00,24.75746,84.366208,NH3,4,10,7
India,Bihar,Bettiah,"Kamalnath Nagar, Bettiah - BSPCB",20-01-2024 21:00:00,26.80365,84.51954,NH3,NA,NA,NA
India,Bihar,Bettiah,"Kamalnath Nagar, Bettiah - BSPCB",20-01-2024 21:00:00,26.80365,84.51954,OZONE,94,102,96
India,Bihar,Bhagalpur,"DM Office_Kachari Chowk, Bhagalpur - BSPCB",20-01-2024 21:00:00,25.251013,86.989001,PM2.5,303,401,329
India,Bihar,Bhagalpur,"DM Office_Kachari Chowk, Bhagalpur - BSPCB",20-01-2024 21:00:00,25.251013,86.989001,NO2,20,106,43
India,Bihar,Bhagalpur,"DM Office_Kachari Chowk, Bhagalpur - BSPCB",20-01-2024 21:00:00,25.251013,86.989001,OZONE,24,48,26
India,Bihar,Bhagalpur,"Mayaganj, Bhagalpur - BSPCB",20-01-2024 21:00:00,25.265194,87.012947,NO2,5,34,10
India,Bihar,Bhagalpur,"Mayaganj, Bhagalpur - BSPCB",20-01-2024 21:00:00,25.265194,87.012947,OZONE,27,60,52
India,Bihar,Bihar Sharif,"D M Colony, Bihar Sharif - BSPCB",20-01-2024 21:00:00,25.204762,85.514960,CO,9,42,22
India,Bihar,Gaya,"Kareemganj, Gaya - BSPCB",20-01-2024 21:00:00,24.792403,84.992416,NO2,30,31,30
India,Bihar,Gaya,"Kareemganj, Gaya - BSPCB",20-01-2024 21:00:00,24.792403,84.992416,CO,14,96,51
India,Bihar,Hajipur,"Industrial Area, Hajipur - BSPCB",20-01-2024 21:00:00,25.697189,85.245900,PM2.5,NA,NA,NA
India,Bihar,Hajipur,"Industrial Area, Hajipur - BSPCB",20-01-2024 21:00:00,25.697189,85.245900,NO2,NA,NA,NA
India,Bihar,Hajipur,"Industrial Area, Hajipur - BSPCB",20-01-2024 21:00:00,25.697189,85.245900,OZONE,NA,NA,NA
India,Bihar,Kishanganj,"SDM Office_Khagra, Kishanganj - BSPCB",20-01-2024 21:00:00,26.0881305,87.93840336,PM10,128,416,232
India,Bihar,Kishanganj,"SDM Office_Khagra, Kishanganj - BSPCB",20-01-2024 21:00:00,26.0881305,87.93840336,NO2,28,35,31
India,Bihar,Kishanganj,"SDM Office_Khagra, Kishanganj - BSPCB",20-01-2024 21:00:00,26.0881305,87.93840336,NH3,7,12,10
India,Bihar,Manguraha,"Forest Rest House, Manguraha - BSPCB",20-01-2024 21:00:00,27.308328,84.531742,NH3,2,3,2
India,Bihar,Manguraha,"Forest Rest House, Manguraha - BSPCB",20-01-2024 21:00:00,27.308328,84.531742,OZONE,10,49,30
India,Bihar,Motihari,"Gandak Colony, Motihari - BSPCB",20-01-2024 21:00:00,26.63086,84.90051,PM2.5,73,306,162
India,Bihar,Motihari,"Gandak Colony, Motihari - BSPCB",20-01-2024 21:00:00,26.63086,84.90051,NH3,7,14,11
India,Bihar,Motihari,"Gandak Colony, Motihari - BSPCB",20-01-2024 21:00:00,26.63086,84.90051,SO2,1,11,4
India,Bihar,Motihari,"Gandak Colony, Motihari - BSPCB",20-01-2024 21:00:00,26.63086,84.90051,OZONE,23,73,60
India,Bihar,Munger,"Town Hall, Munger - BSPCB",20-01-2024 21:00:00,25.376776,86.471523,PM2.5,37,163,88
India,Bihar,Muzaffarpur,"Buddha Colony, Muzaffarpur - BSPCB",20-01-2024 21:00:00,26.11442,85.39813,PM2.5,227,401,312
India,Bihar,Muzaffarpur,"Buddha Colony, Muzaffarpur - BSPCB",20-01-2024 21:00:00,26.11442,85.39813,NH3,15,25,20
India,Bihar,Muzaffarpur,"MIT-Daudpur Kothi, Muzaffarpur - BSPCB",20-01-2024 21:00:00,26.1403345,85.3650192,SO2,10,21,11
India,Bihar,Muzaffarpur,"MIT-Daudpur Kothi, Muzaffarpur - BSPCB",20-01-2024 21:00:00,26.1403345,85.3650192,CO,60,119,97
India,Bihar,Muzaffarpur,"MIT-Daudpur Kothi, Muzaffarpur - BSPCB",20-01-2024 21:00:00,26.1403345,85.3650192,OZONE,6,65,42
India,Bihar,Muzaffarpur,"Muzaffarpur Collectorate, Muzaffarpur - BSPCB",20-01-2024 21:00:00,26.1209,85.3647,NO2,3,25,7
India,Bihar,Patna,"DRM Office Danapur, Patna - BSPCB",20-01-2024 21:00:00,25.586562,85.043586,PM10,274,500,352
India,Bihar,Patna,"IGSC Planetarium Complex, Patna - BSPCB",20-01-2024 21:00:00,25.610369,85.132568,PM2.5,86,319,171
India,Bihar,Patna,"IGSC Planetarium Complex, Patna - BSPCB",20-01-2024 21:00:00,25.610369,85.132568,SO2,6,71,18
India,Bihar,Patna,"Muradpur, Patna - BSPCB",20-01-2024 21:00:00,25.619651,85.147382,SO2,3,6,4
India,Bihar,Patna,"Rajbansi Nagar, Patna - BSPCB",20-01-2024 21:00:00,25.599486,85.113666,NH3,6,7,6
India,Bihar,Patna,"Samanpura, Patna - BSPCB",20-01-2024 21:00:00,25.596727,85.085624,CO,79,158,97
India,Bihar,Purnia,"Mariam Nagar, Purnia - BSPCB",20-01-2024 21:00:00,25.366336,87.117468,PM2.5,83,387,189
India,Bihar,Purnia,"Mariam Nagar, Purnia - BSPCB",20-01-2024 21:00:00,25.366336,87.117468,NO2,11,15,13
India,Bihar,Purnia,"Mariam Nagar, Purnia - BSPCB",20-01-2024 21:00:00,25.366336,87.117468,OZONE,10,49,22
India,Bihar,Rajgir,"Dangi Tola, Rajgir - BSPCB",20-01-2024 21:00:00,25.03280,85.41948,NO2,17,48,25
India,Bihar,Samastipur,"DM Office_Kasipur, Samastipur - BSPCB",20-01-2024 21:00:00,25.859655,85.77944,NO2,3,9,5
India,Bihar,Samastipur,"DM Office_Kasipur, Samastipur - BSPCB",20-01-2024 21:00:00,25.859655,85.77944,NH3,5,5,5
India,Bihar,Sasaram,"Dada Peer, Sasaram - BSPCB",20-01-2024 21:00:00,24.952822,84.002396,PM2.5,121,316,214
India,Bihar,Sasaram,"Dada Peer, Sasaram - BSPCB",20-01-2024 21:00:00,24.952822,84.002396,OZONE,4,4,4
India,Chandigarh,Chandigarh,"Sector 22, Chandigarh - CPCC",20-01-2024 21:00:00,30.735567,76.775714,PM2.5,363,448,397
India,Chandigarh,Chandigarh,"Sector 22, Chandigarh - CPCC",20-01-2024 21:00:00,30.735567,76.775714,NO2,12,37,22
India,Chandigarh,Chandigarh,"Sector-25, Chandigarh - CPCC",20-01-2024 21:00:00,30.751462,76.762879,NH3,12,20,15
India,Chandigarh,Chandigarh,"Sector-25, Chandigarh - CPCC",20-01-2024 21:00:00,30.751462,76.762879,SO2,7,15,10
India,Chandigarh,Chandigarh,"Sector-25, Chandigarh - CPCC",20-01-2024 21:00:00,30.751462,76.762879,OZONE,1,21,10
India,Chandigarh,Chandigarh,"Sector-53, Chandigarh - CPCC",20-01-2024 21:00:00,30.719859,76.738637,CO,70,105,84
India,Chhattisgarh,Bhilai,"32Bungalows, Bhilai - CECB",20-01-2024 21:00:00,21.194815,81.314770,PM10,101,130,111
India,Chhattisgarh,Bhilai,"Civic Center, Bhilai - Bhilai Steel Plant",20-01-2024 21:00:00,21.185571,81.343175,SO2,9,12,10
India,Chhattisgarh,Bhilai,"Hathkhoj, Bhilai - CECB",20-01-2024 21:00:00,21.224231,81.408350,SO2,18,73,40
India,Chhattisgarh,Chhal,"Nawapara SECL Colony, Chhal - CECB",20-01-2024 21:00:00,22.118125,83.140608,NH3,2,2,2
India,Chhattisgarh,Korba,"Rampur, Korba - CECB",20-01-2024 21:00:00,22.368195,82.746431,NO2,42,54,47
India,Chhattisgarh,Korba,"Rampur, Korba - CECB",20-01-2024 21:00:00,22.368195,82.746431,NH3,5,5,5
India,Chhattisgarh,Korba,"Rampur, Korba - CECB",20-01-2024 21:00:00,22.368195,82.746431,CO,32,52,36
India,Chhattisgarh,Korba,"Urja Nagar, Korba - CECB",20-01-2024 21:00:00,22.348441,82.549611,NO2,NA,NA,NA
India,Chhattisgarh,Korba,"Urja Nagar, Korba - CECB",20-01-2024 21:00:00,22.348441,82.549611,SO2,NA,NA,NA
India,Chhattisgarh,Kunjemura,"OP Jindal School, Kunjemura - CECB",20-01-2024 21:00:00,22.126650,83.483212,CO,48,70,58
India,Chhattisgarh,Raipur,"AIIMS, Raipur - CECB",20-01-2024 21:00:00,21.258815,81.578979,SO2,8,15,10
India,Chhattisgarh,Raipur,"AIIMS, Raipur - CECB",20-01-2024 21:00:00,21.258815,81.578979,OZONE,1,1,1
India,Chhattisgarh,Raipur,"Bhatagaon New ISBT, Raipur - CECB",20-01-2024 21:00:00,21.219665,81.630094,SO2,NA,NA,NA
India,Chhattisgarh,Raipur,"Bhatagaon New ISBT, Raipur - CECB",20-01-2024 21:00:00,21.219665,81.630094,CO,38,65,60
India,Chhattisgarh,Raipur,"Siltara Phase-II, Raipur - CECB",20-01-2024 21:00:00,21.371751,81.664929,PM2.5,40,54,47
India,Chhattisgarh,Raipur,"Siltara Phase-II, Raipur - CECB",20-01-2024 21:00:00,21.371751,81.664929,PM10,86,144,114
India,Chhattisgarh,Raipur,"Siltara Phase-II, Raipur - CECB",20-01-2024 21:00:00,21.371751,81.664929,NH3,NA,NA,NA
India,Chhattisgarh,Raipur,"Siltara Phase-II, Raipur - CECB",20-01-2024 21:00:00,21.371751,81.664929,OZONE,3,3,3
India,Chhattisgarh,Tumidih,"OP Jindal Industrial Park, Tumidih - CECB",20-01-2024 21:00:00,22.06631475,83.33820077,NH3,1,3,2
India,Chhattisgarh,Tumidih,"OP Jindal Industrial Park, Tumidih - CECB",20-01-2024 21:00:00,22.06631475,83.33820077,SO2,5,10,6
India,Chhattisgarh,Tumidih,"OP Jindal Industrial Park, Tumidih - CECB",20-01-2024 21:00:00,22.06631475,83.33820077,CO,42,62,47
India,Delhi,Delhi,"Alipur, Delhi - DPCC",20-01-2024 21:00:00,28.815329,77.153010,PM2.5,278,374,325
India,Delhi,Delhi,"Alipur, Delhi - DPCC",20-01-2024 21:00:00,28.815329,77.153010,NH3,10,14,12
India,Delhi,Delhi,"Ashok Vihar, Delhi - DPCC",20-01-2024 21:00:00,28.695381,77.181665,PM10,NA,NA,NA
India,Delhi,Delhi,"Ashok Vihar, Delhi - DPCC",20-01-2024 21:00:00,28.695381,77.181665,NH3,NA,NA,NA
India,Delhi,Delhi,"Aya Nagar, Delhi - IMD",20-01-2024 21:00:00,28.4706914,77.1099364,PM10,137,299,204
India,Delhi,Delhi,"Bawana, Delhi - DPCC",20-01-2024 21:00:00,28.776200,77.051074,NO2,31,80,45
India,Delhi,Delhi,"Burari Crossing, Delhi - IMD",20-01-2024 21:00:00,28.7256504,77.2011573,NO2,8,14,11
India,Delhi,Delhi,"CRRI Mathura Road, Delhi - IMD",20-01-2024 21:00:00,28.5512005,77.2735737,PM2.5,184,387,284
India,Delhi,Delhi,"CRRI Mathura Road, Delhi - IMD",20-01-2024 21:00:00,28.5512005,77.2735737,PM10,112,284,158
India,Delhi,Delhi,"Dr. Karni Singh Shooting Range, Delhi - DPCC",20-01-2024 21:00:00,28.498571,77.264840,OZONE,5,95,58
India,Delhi,Delhi,"Dwarka-Sector 8, Delhi - DPCC ",20-01-2024 21:00:00,28.5710274,77.0719006,PM2.5,329,403,357
India,Delhi,Delhi,"IGI Airport (T3), Delhi - IMD",20-01-2024 21:00:00,28.5627763,77.1180053,CO,49,92,77
India,Delhi,Delhi,"IGI Airport (T3), Delhi - IMD",20-01-2024 21:00:00,28.5627763,77.1180053,OZONE,11,41,29
India,Delhi,Delhi,"IHBAS, Dilshad Garden, Delhi - CPCB",20-01-2024 21:00:00,28.6811736,77.3025234,PM10,111,240,159
India,Delhi,Delhi,"IHBAS, Dilshad Garden, Delhi - CPCB",20-01-2024 21:00:00,28.6811736,77.3025234,NO2,18,54,32
India,Delhi,Delhi,"IHBAS, Dilshad Garden, Delhi - CPCB",20-01-2024 21:00:00,28.6811736,77.3025234,SO2,5,47,26
India,Delhi,Delhi,"ITO, Delhi - CPCB",20-01-2024 21:00:00,28.628624,77.241060,CO,36,111,85
India,Delhi,Delhi,"Jahangirpuri, Delhi - DPCC",20-01-2024 21:00:00,28.732820,77.170633,SO2,13,17,15
India,Delhi,Delhi,"Jawaharlal Nehru Stadium, Delhi - DPCC",20-01-2024 21:00:00,28.580280,77.233829,PM10,146,413,213
India,Delhi,Delhi,"Jawaharlal Nehru Stadium, Delhi - DPCC",20-01-2024 21:00:00,28.580280,77.233829,NH3,9,12,11
India,Delhi,Delhi,"Lodhi Road, Delhi - IITM",20-01-2024 21:00:00,28.588333,77.221667,SO2,NA,NA,NA
India,Delhi,Delhi,"Lodhi Road, Delhi - IMD",20-01-2024 21:00:00,28.5918245,77.2273074,PM10,134,272,191
India,Delhi,Delhi,"Lodhi Road, Delhi - IMD",20-01-2024 21:00:00,28.5918245,77.2273074,CO,78,104,92
India,Delhi,Delhi,"Lodhi Road, Delhi - IMD",20-01-2024 21:00:00,28.5918245,77.2273074,OZONE,15,66,42
India,Delhi,Delhi,"Major Dhyan Chand National Stadium, Delhi - DPCC",20-01-2024 21:00:00,28.611281,77.237738,PM10,130,301,189
India,Delhi,Delhi,"Mandir Marg, Delhi - DPCC",20-01-2024 21:00:00,28.636429,77.201067,PM2.5,301,386,333
India,Delhi,Delhi,"Mandir Marg, Delhi - DPCC",20-01-2024 21:00:00,28.636429,77.201067,SO2,6,10,8
India,Delhi,Delhi,"Mundka, Delhi - DPCC",20-01-2024 21:00:00,28.684678,77.076574,OZONE,1,15,10
India,Delhi,Delhi,"NSIT Dwarka, Delhi - CPCB",20-01-2024 21:00:00,28.60909,77.0325413,SO2,11,15,13
India,Delhi,Delhi,"NSIT Dwarka, Delhi - CPCB",20-01-2024 21:00:00,28.60909,77.0325413,CO,36,112,56
India,Delhi,Delhi,"Najafgarh, Delhi - DPCC",20-01-2024 21:00:00,28.570173,76.933762,NO2,18,52,32
India,Delhi,Delhi,"Najafgarh, Delhi - DPCC",20-01-2024 21:00:00,28.570173,76.933762,NH3,6,8,6
India,Delhi,Delhi,"Narela, Delhi - DPCC",20-01-2024 21:00:00,28.822836,77.101981,NH3,9,14,11
India,Delhi,Delhi,"Narela, Delhi - DPCC",20-01-2024 21:00:00,28.822836,77.101981,OZONE,6,132,81
India,Delhi,Delhi,"Nehru Nagar, Delhi - DPCC",20-01-2024 21:00:00,28.567890,77.250515,NO2,35,75,46
India,Delhi,Delhi,"North Campus, DU, Delhi - IMD",20-01-2024 21:00:00,28.6573814,77.1585447,PM2.5,258,413,333
India,Delhi,Delhi,"North Campus, DU, Delhi - IMD",20-01-2024 21:00:00,28.6573814,77.1585447,NO2,7,94,33
India,Delhi,Delhi,"North Campus, DU, Delhi - IMD",20-01-2024 21:00:00,28.6573814,77.1585447,CO,38,88,58
India,Delhi,Delhi,"Okhla Phase-2, Delhi - DPCC",20-01-2024 21:00:00,28.530785,77.271255,PM10,145,405,241
India,Delhi,Delhi,"Patparganj, Delhi - DPCC",20-01-2024 21:00:00,28.623763,77.287209,NH3,7,12,10
India,Delhi,Delhi,"Punjabi Bagh, Delhi - DPCC",20-01-2024 21:00:00,28.674045,77.131023,PM10,147,431,238
India,Delhi,Delhi,"Punjabi Bagh, Delhi - DPCC",20-01-2024 21:00:00,28.674045,77.131023,NO2,82,105,89
India,Delhi,Delhi,"Punjabi Bagh, Delhi - DPCC",20-01-2024 21:00:00,28.674045,77.131023,OZONE,10,60,21
India,Delhi,Delhi,"Pusa, Delhi - DPCC",20-01-2024 21:00:00,28.639652,77.146275,CO,5,110,60
India,Delhi,Delhi,"Pusa, Delhi - IMD",20-01-2024 21:00:00,28.636110,77.173332,PM2.5,144,370,266
India,Delhi,Delhi,"Pusa, Delhi - IMD",20-01-2024 21:00:00,28.636110,77.173332,NO2,22,76,34
India,Delhi,Delhi,"Pusa, Delhi - IMD",20-01-2024 21:00:00,28.636110,77.173332,CO,80,108,101
India,Delhi,Delhi,"R K Puram, Delhi - DPCC",20-01-2024 21:00:00,28.563262,77.186937,PM2.5,308,410,355
India,Delhi,Delhi,"R K Puram, Delhi - DPCC",20-01-2024 21:00:00,28.563262,77.186937,PM10,157,365,234
India,Delhi,Delhi,"R K Puram, Delhi - DPCC",20-01-2024 21:00:00,28.563262,77.186937,OZONE,9,83,52
India,Delhi,Delhi,"Rohini, Delhi - DPCC",20-01-2024 21:00:00,28.732528,77.119920,CO,31,101,74
India,Delhi,Delhi,"Shadipur, Delhi - CPCB",20-01-2024 21:00:00,28.6514781,77.1473105,NH3,7,28,14
India,Delhi,Delhi,"Shadipur, Delhi - CPCB",20-01-2024 21:00:00,28.6514781,77.1473105,OZONE,15,97,22
India,Delhi,Delhi,"Sirifort, Delhi - CPCB",20-01-2024 21:00:00,28.5504249,77.2159377,PM10,168,437,256
India,Delhi,Delhi,"Sri Aurobindo Marg, Delhi - DPCC",20-01-2024 21:00:00,28.531346,77.190156,NO2,32,98,57
India,Delhi,Delhi,"Sri Aurobindo Marg, Delhi - DPCC",20-01-2024 21:00:00,28.531346,77.190156,NH3,8,10,9
India,Delhi,Delhi,"Sri Aurobindo Marg, Delhi - DPCC",20-01-2024 21:00:00,28.531346,77.190156,SO2,8,17,11
India,Delhi,Delhi,"Vivek Vihar, Delhi - DPCC",20-01-2024 21:00:00,28.672342,77.315260,CO,26,107,80
India,Delhi,Delhi,"Wazirpur, Delhi - DPCC",20-01-2024 21:00:00,28.699793,77.165453,SO2,12,38,21
India,Gujarat,Ahmedabad,"Chandkheda, Ahmedabad - IITM",20-01-2024 21:00:00,23.107969,72.574648,PM10,53,120,93
India,Gujarat,Ahmedabad,"Gyaspur, Ahmedabad - IITM",20-01-2024 21:00:00,22.977134,72.553024,PM10,70,128,102
India,Gujarat,Ahmedabad,"Gyaspur, Ahmedabad - IITM",20-01-2024 21:00:00,22.977134,72.553024,NH3,2,4,3
India,Gujarat,Ahmedabad,"Gyaspur, Ahmedabad - IITM",20-01-2024 21:00:00,22.977134,72.553024,OZONE,8,15,9
India,Gujarat,Ahmedabad,"Maninagar, Ahmedabad - GPCB",20-01-2024 21:00:00,23.002657,72.591912,NO2,14,116,49
India,Gujarat,Ahmedabad,"Raikhad, Ahmedabad - IITM",20-01-2024 21:00:00,23.020509,72.579261,PM10,22,132,76
India,Gujarat,Ahmedabad,"Raikhad, Ahmedabad - IITM",20-01-2024 21:00:00,23.020509,72.579261,SO2,5,12,6
India,Gujarat,Ahmedabad,"Raikhad, Ahmedabad - IITM",20-01-2024 21:00:00,23.020509,72.579261,OZONE,12,20,12
India,Gujarat,Ahmedabad,"SAC ISRO Bopal, Ahmedabad - IITM",20-01-2024 21:00:00,23.041137,72.456691,PM10,54,151,86
India,Gujarat,Ahmedabad,"SAC ISRO Bopal, Ahmedabad - IITM",20-01-2024 21:00:00,23.041137,72.456691,NH3,2,4,3
India,Gujarat,Ahmedabad,"SAC ISRO Bopal, Ahmedabad - IITM",20-01-2024 21:00:00,23.041137,72.456691,SO2,3,7,4
India,Gujarat,Ahmedabad,"SVPI Airport Hansol, Ahmedabad - IITM",20-01-2024 21:00:00,23.076793,72.627874,SO2,1,8,5
India,Gujarat,Ahmedabad,"Sardar Vallabhbhai Patel Stadium, Ahmedabad - IITM",20-01-2024 21:00:00,23.043070,72.562968,PM10,73,175,108
India,Gujarat,Ahmedabad,"Sardar Vallabhbhai Patel Stadium, Ahmedabad - IITM",20-01-2024 21:00:00,23.043070,72.562968,NO2,12,14,13
India,Gujarat,Gandhinagar,"GIFT City, Gandhinagar - IITM",20-01-2024 21:00:00,23.163798,72.677768,NO2,8,11,10
India,Gujarat,Gandhinagar,"GIFT City, Gandhinagar - IITM",20-01-2024 21:00:00,23.163798,72.677768,NH3,2,3,2
India,Gujarat,Gandhinagar,"GIFT City, Gandhinagar - IITM",20-01-2024 21:00:00,23.163798,72.677768,SO2,5,8,6
India,Gujarat,Gandhinagar,"IIPHG Lekawada, Gandhinagar - IITM",20-01-2024 21:00:00,23.243639,72.68994,CO,38,72,46
India,Gujarat,Gandhinagar,"IIPHG Lekawada, Gandhinagar - IITM",20-01-2024 21:00:00,23.243639,72.68994,OZONE,16,25,17
India,Gujarat,Surat,"Science Center, Surat - SMC",20-01-2024 21:00:00,21.170046,72.795405,NO2,7,31,12
India,Gujarat,Vapi,"Phase-1 GIDC, Vapi - GPCB",20-01-2024 21:00:00,20.362421,72.918013,CO,1,193,181
India,Haryana,Ambala,"Patti Mehar, Ambala - HSPCB",20-01-2024 21:00:00,30.379589,76.778328,CO,30,60,41
India,Haryana,Ballabgarh,"Nathu Colony, Ballabgarh - HSPCB",20-01-2024 21:00:00,28.3419248,77.319699,CO,18,101,49
India,Haryana,Bhiwani,"H.B. Colony, Bhiwani - HSPCB",20-01-2024 21:00:00,28.806223,76.141105,CO,11,74,26
India,Haryana,Dharuhera,"Municipal Corporation Office, Dharuhera -  HSPCB",20-01-2024 21:00:00,28.206800,76.799700,NO2,44,111,69
India,Haryana,Faridabad,"Sector 11, Faridabad - HSPCB",20-01-2024 21:00:00,28.376058,77.315741,PM2.5,146,335,216
India,Haryana,Faridabad,"Sector 11, Faridabad - HSPCB",20-01-2024 21:00:00,28.376058,77.315741,CO,14,82,54
India,Haryana,Faridabad,"Sector 30, Faridabad - HSPCB",20-01-2024 21:00:00,28.4417,77.3217,NO2,30,32,31
India,Haryana,Faridabad,"Sector 30, Faridabad - HSPCB",20-01-2024 21:00:00,28.4417,77.3217,NH3,14,14,14
India,Haryana,Faridabad,"Sector- 16A, Faridabad - HSPCB",20-01-2024 21:00:00,28.4088421,77.3099081,NO2,5,70,22
India,Haryana,Gurugram,"Teri Gram, Gurugram - HSPCB",20-01-2024 21:00:00,28.4275,77.1465,NO2,30,52,37
India,Haryana,Gurugram,"Teri Gram, Gurugram - HSPCB",20-01-2024 21:00:00,28.4275,77.1465,SO2,3,7,6
India,Haryana,Gurugram,"Teri Gram, Gurugram - HSPCB",20-01-2024 21:00:00,28.4275,77.1465,OZONE,10,14,11
India,Haryana,Gurugram,"Vikas Sadan, Gurugram - HSPCB",20-01-2024 21:00:00,28.4501238,77.0263051,SO2,13,31,24
India,Haryana,Gurugram,"Vikas Sadan, Gurugram - HSPCB",20-01-2024 21:00:00,28.4501238,77.0263051,CO,54,138,101
India,Haryana,Hisar,"Urban Estate-II, Hisar - HSPCB",20-01-2024 21:00:00,29.140560,75.744941,PM2.5,149,303,258
India,Haryana,Jind,"Police Lines, Jind - HSPCB",20-01-2024 21:00:00,29.307814,76.337619,PM2.5,188,309,245
India,Haryana,Mandikhera,"General Hospital, Mandikhera - HSPCB",20-01-2024 21:00:00,27.9002,76.9938,NH3,18,21,19
India,Haryana,Manesar,"Sector-2 IMT, Manesar - HSPCB",20-01-2024 21:00:00,28.360699,76.936090,NO2,16,27,20
India,Haryana,Manesar,"Sector-2 IMT, Manesar - HSPCB",20-01-2024 21:00:00,28.360699,76.936090,CO,19,62,28
India,Haryana,Narnaul,"Shastri Nagar, Narnaul - HSPCB",20-01-2024 21:00:00,28.060249,76.113115,PM10,77,108,89
India,Haryana,Narnaul,"Shastri Nagar, Narnaul - HSPCB",20-01-2024 21:00:00,28.060249,76.113115,NH3,5,15,10
India,Haryana,Panchkula,"Sector-6, Panchkula - HSPCB ",20-01-2024 21:00:00,30.7057778,76.8531805555555,PM2.5,169,351,272
India,Haryana,Panipat,"Sector-18, Panipat - HSPCB",20-01-2024 21:00:00,29.497973,76.993331,PM10,55,110,101
India,Haryana,Rohtak,"MD University, Rohtak - HSPCB",20-01-2024 21:00:00,28.52123,76.37138,PM2.5,203,381,272
India,Haryana,Rohtak,"MD University, Rohtak - HSPCB",20-01-2024 21:00:00,28.52123,76.37138,SO2,1,25,9
India,Haryana,Sirsa,"F-Block, Sirsa - HSPCB",20-01-2024 21:00:00,29.536400,75.015800,SO2,9,22,17
India,Haryana,Sonipat,"Murthal, Sonipat - HSPCB",20-01-2024 21:00:00,29.027200,77.062100,NH3,3,10,9
India,Haryana,Yamuna Nagar,"Gobind Pura, Yamuna Nagar - HSPCB",20-01-2024 21:00:00,30.1480566,77.2893471,NO2,11,30,18
India,Haryana,Yamuna Nagar,"Gobind Pura, Yamuna Nagar - HSPCB",20-01-2024 21:00:00,30.1480566,77.2893471,NH3,1,6,4
India,Himachal Pradesh,Baddi,"HIMUDA Complex Phase-1, Baddi - HPPCB",20-01-2024 21:00:00,30.943887,76.801991,PM2.5,302,408,358
India,Himachal Pradesh,Baddi,"HIMUDA Complex Phase-1, Baddi - HPPCB",20-01-2024 21:00:00,30.943887,76.801991,NO2,29,78,41
India,Jharkhand,Dhanbad,"Kalakusuma, Dhanbad - DMC",20-01-2024 21:00:00,23.811548,86.481238,NO2,32,34,33
India,Jharkhand,Dhanbad,"Sardar Patel Nagar, Dhanbad - JSPCB",20-01-2024 21:00:00,23.80569,86.44268,PM10,NA,NA,NA
India,Jharkhand,Dhanbad,"Sardar Patel Nagar, Dhanbad - JSPCB",20-01-2024 21:00:00,23.80569,86.44268,SO2,NA,NA,NA
India,Jharkhand,Dhanbad,"Sardar Patel Nagar, Dhanbad - JSPCB",20-01-2024 21:00:00,23.80569,86.44268,CO,186,190,150
India,Jharkhand,Pathardih,"Mohalbani Ghat, Pathardih - DMC",20-01-2024 21:00:00,23.669880,86.411725,PM2.5,NA,NA,NA
India,Jharkhand,Pathardih,"Mohalbani Ghat, Pathardih - DMC",20-01-2024 21:00:00,23.669880,86.411725,SO2,NA,NA,NA
India,Jharkhand,Pathardih,"Mohalbani Ghat, Pathardih - DMC",20-01-2024 21:00:00,23.669880,86.411725,CO,102,136,112
India,Karnataka,Bagalkot,"Vidayagiri, Bagalkot - KSPCB",20-01-2024 21:00:00,16.172806,75.659694,NO2,10,11,10
India,Karnataka,Bagalkot,"Vidayagiri, Bagalkot - KSPCB",20-01-2024 21:00:00,16.172806,75.659694,OZONE,5,44,37
India,Karnataka,Belgaum,"Ramteerth Nagar, Belgaum - KSPCB",20-01-2024 21:00:00,15.888653,74.541751,OZONE,19,20,19
India,Karnataka,Bengaluru,"BTM Layout, Bengaluru - CPCB",20-01-2024 21:00:00,12.9135218,77.5950804,NH3,4,4,4
India,Karnataka,Bengaluru,"BTM Layout, Bengaluru - CPCB",20-01-2024 21:00:00,12.9135218,77.5950804,CO,12,29,26
India,Karnataka,Bengaluru,"Bapuji Nagar, Bengaluru - KSPCB",20-01-2024 21:00:00,12.951913,77.539784,SO2,4,6,5
India,Karnataka,Bengaluru,"City Railway Station, Bengaluru - KSPCB",20-01-2024 21:00:00,12.9756843,77.5660749,NO2,20,28,25
India,Karnataka,Bengaluru,"Hombegowda Nagar, Bengaluru - KSPCB",20-01-2024 21:00:00,12.938539,77.590100,CO,14,23,19
India,Karnataka,Bengaluru,"Jayanagar 5th Block, Bengaluru - KSPCB",20-01-2024 21:00:00,12.920984,77.584908,NO2,10,12,11
India,Karnataka,Bengaluru,"Jigani, Bengaluru - KSPCB",20-01-2024 21:00:00,12.7816279,77.6299145,OZONE,14,82,70
India,Karnataka,Bengaluru,"Kasturi Nagar, Bengaluru - KSPCB",20-01-2024 21:00:00,13.003872,77.664217,PM2.5,41,157,106
India,Karnataka,Bengaluru,"Kasturi Nagar, Bengaluru - KSPCB",20-01-2024 21:00:00,13.003872,77.664217,SO2,9,10,10
India,Karnataka,Bengaluru,"Peenya, Bengaluru - CPCB",20-01-2024 21:00:00,13.0270199,77.494094,PM10,32,32,32
India,Karnataka,Bengaluru,"RVCE-Mailasandra, Bengaluru - KSPCB",20-01-2024 21:00:00,12.921418,77.502466,NH3,4,4,4
