country,state,city,station,last_update,latitude,longitude,pollutant_id,pollutant_min,pollutant_max,pollutant_avg
India,Andhra_Pradesh,Amaravati,"Secretariat, Amaravati - APPCB",26-03-2024 06:00:00,16.5150833,80.5181667,CO,5,81,28
India,Andhra_Pradesh,Chittoor,"Gangineni Cheruvu, Chittoor - APPCB",26-03-2024 06:00:00,13.204880,79.097889,NO2,1,10,5
India,Andhra_Pradesh,Chittoor,"Gangineni Cheruvu, Chittoor - APPCB",26-03-2024 06:00:00,13.204880,79.097889,OZONE,8,176,35
India,Andhra_Pradesh,Tirupati,"Tirumala, Tirupati - APPCB",26-03-2024 06:00:00,13.67,79.35,SO2,4,13,8
India,Andhra_Pradesh,Tirupati,"Tirumala, Tirupati - APPCB",26-03-2024 06:00:00,13.67,79.35,CO,12,48,23
India,Andhra_Pradesh,Tirupati,"Vaikuntapuram, Tirupati - APPCB",26-03-2024 06:00:00,13.615387,79.409230,PM2.5,NA,NA,NA
India,Andhra_Pradesh,Vijayawada,"Rajiv Gandhi Park, Vijayawada - APPCB",26-03-2024 06:00:00,16.509717,80.612222,PM10,35,65,53
India,Andhra_Pradesh,Vijayawada,"Rajiv Nagar, Vijayawada - APPCB",26-03-2024 06:00:00,16.554731,80.649110,SO2,15,22,17
India,Andhra_Pradesh,Vijayawada,"Rajiv Nagar, Vijayawada - APPCB",26-03-2024 06:00:00,16.554731,80.649110,OZONE,7,36,11
India,Andhra_Pradesh,Visakhapatnam,"GVM Corporation, Visakhapatnam - APPCB",26-03-2024 06:00:00,17.72,83.3,PM10,72,262,109
India,Assam,Byrnihat,"Central Academy for SFS, Byrnihat - PCBA",26-03-2024 06:00:00,26.071318,91.87488,NO2,38,120,71
India,Assam,Byrnihat,"Central Academy for SFS, Byrnihat - PCBA",26-03-2024 06:00:00,26.071318,91.87488,SO2,8,12,10
India,Assam,Nalbari,"Bata Chowk, Nalbari - PCBA",26-03-2024 06:00:00,26.446912,91.439057,NO2,5,27,9
India,Assam,Nalbari,"Bata Chowk, Nalbari - PCBA",26-03-2024 06:00:00,26.446912,91.439057,NH3,1,4,2
India,Assam,Silchar,"Tarapur, Silchar - PCBA",26-03-2024 06:00:00,24.82827,92.79525,PM2.5,24,41,32
India,Assam,Silchar,"Tarapur, Silchar - PCBA",26-03-2024 06:00:00,24.82827,92.79525,PM10,37,63,46
India,Assam,Silchar,"Tarapur, Silchar - PCBA",26-03-2024 06:00:00,24.82827,92.79525,NO2,18,18,18
India,Assam,Sivasagar,"Girls College, Sivasagar - PCBA",26-03-2024 06:00:00,26.987634,94.636574,PM2.5,31,53,39
India,Assam,Sivasagar,"Girls College, Sivasagar - PCBA",26-03-2024 06:00:00,26.987634,94.636574,OZONE,1,8,1
India,Bihar,Araria,"Kharahiya Basti, Araria - BSPCB",26-03-2024 06:00:00,26.146529,87.454184,CO,26,33,27
India,Bihar,Arrah,"New DM Office, Arrah - BSPCB",26-03-2024 06:00:00,25.5626095,84.663264,PM10,NA,NA,NA
India,Bihar,Arrah,"New DM Office, Arrah - BSPCB",26-03-2024 06:00:00,25.5626095,84.663264,NO2,NA,NA,NA
India,Bihar,Arrah,"New DM Office, Arrah - BSPCB",26-03-2024 06:00:00,25.5626095,84.663264,SO2,NA,NA,NA
India,Bihar,Aurangabad,"Gurdeo Nagar, Aurangabad - BSPCB",26-03-2024 06:00:00,24.75746,84.366208,PM2.5,NA,NA,NA
India,Bihar,Bettiah,"Kamalnath Nagar, Bettiah - BSPCB",26-03-2024 06:00:00,26.80365,84.51954,NO2,8,8,8
India,Bihar,Bhagalpur,"DM Office_Kachari Chowk, Bhagalpur - BSPCB",26-03-2024 06:00:00,25.251013,86.989001,PM2.5,75,203,138
India,Bihar,Bhagalpur,"DM Office_Kachari Chowk, Bhagalpur - BSPCB",26-03-2024 06:00:00,25.251013,86.989001,PM10,86,132,114
India,Bihar,Bhagalpur,"DM Office_Kachari Chowk, Bhagalpur - BSPCB",26-03-2024 06:00:00,25.251013,86.989001,CO,16,56,51
India,Bihar,Bhagalpur,"DM Office_Kachari Chowk, Bhagalpur - BSPCB",26-03-2024 06:00:00,25.251013,86.989001,OZONE,38,63,46
India,Bihar,Bhagalpur,"Mayaganj, Bhagalpur - BSPCB",26-03-2024 06:00:00,25.265194,87.012947,PM2.5,187,350,292
India,Bihar,Bihar Sharif,"D M Colony, Bihar Sharif - BSPCB",26-03-2024 06:00:00,25.204762,85.514960,OZONE,NA,NA,NA
India,Bihar,Buxar,"Charitra Van, Buxar - BSPCB (Formerly known as Central Jail)",26-03-2024 06:00:00,25.567520,83.966379,PM2.5,98,313,207
India,Bihar,Buxar,"Charitra Van, Buxar - BSPCB (Formerly known as Central Jail)",26-03-2024 06:00:00,25.567520,83.966379,PM10,104,172,130
India,Bihar,Chhapra,"Darshan Nagar, Chhapra - BSPCB",26-03-2024 06:00:00,25.7808257,84.7446768,NO2,14,22,18
India,Bihar,Gaya,"Collectorate, Gaya - BSPCB",26-03-2024 06:00:00,24.7955,84.9994,SO2,8,17,11
India,Bihar,Gaya,"Kareemganj, Gaya - BSPCB",26-03-2024 06:00:00,24.792403,84.992416,SO2,6,10,8
India,Bihar,Gaya,"SFTI Kusdihra, Gaya - BSPCB",26-03-2024 06:00:00,24.762518,84.982348,PM10,80,113,99
India,Bihar,Gaya,"SFTI Kusdihra, Gaya - BSPCB",26-03-2024 06:00:00,24.762518,84.982348,CO,29,64,40
India,Bihar,Hajipur,"Industrial Area, Hajipur - BSPCB",26-03-2024 06:00:00,25.697189,85.245900,PM10,100,148,121
India,Bihar,Hajipur,"Industrial Area, Hajipur - BSPCB",26-03-2024 06:00:00,25.697189,85.245900,NH3,6,7,6
India,Bihar,Katihar,"Mirchaibari, Katihar - BSPCB",26-03-2024 06:00:00,25.560083,87.553265,PM10,38,148,101
India,Bihar,Kishanganj,"SDM Office_Khagra, Kishanganj - BSPCB",26-03-2024 06:00:00,26.0881305,87.93840336,NO2,28,41,38
India,Bihar,Manguraha,"Forest Rest House, Manguraha - BSPCB",26-03-2024 06:00:00,27.308328,84.531742,PM2.5,NA,NA,NA
India,Bihar,Manguraha,"Forest Rest House, Manguraha - BSPCB",26-03-2024 06:00:00,27.308328,84.531742,NH3,2,3,2
India,Bihar,Motihari,"Gandak Colony, Motihari - BSPCB",26-03-2024 06:00:00,26.63086,84.90051,NO2,NA,NA,NA
India,Bihar,Munger,"Town Hall, Munger - BSPCB",26-03-2024 06:00:00,25.376776,86.471523,NH3,1,2,2
India,Bihar,Muzaffarpur,"Buddha Colony, Muzaffarpur - BSPCB",26-03-2024 06:00:00,26.11442,85.39813,NH3,15,33,18
India,Bihar,Muzaffarpur,"Buddha Colony, Muzaffarpur - BSPCB",26-03-2024 06:00:00,26.11442,85.39813,SO2,9,28,13
India,Bihar,Muzaffarpur,"MIT-Daudpur Kothi, Muzaffarpur - BSPCB",26-03-2024 06:00:00,26.1403345,85.3650192,SO2,8,12,10
India,Bihar,Muzaffarpur,"Muzaffarpur Collectorate, Muzaffarpur - BSPCB",26-03-2024 06:00:00,26.1209,85.3647,OZONE,14,59,16
India,Bihar,Patna,"Govt. High School Shikarpur, Patna - BSPCB",26-03-2024 06:00:00,25.592539,85.227158,SO2,9,12,11
India,Bihar,Patna,"Govt. High School Shikarpur, Patna - BSPCB",26-03-2024 06:00:00,25.592539,85.227158,OZONE,1,59,2
India,Bihar,Patna,"IGSC Planetarium Complex, Patna - BSPCB",26-03-2024 06:00:00,25.610369,85.132568,NO2,14,14,14
India,Bihar,Patna,"IGSC Planetarium Complex, Patna - BSPCB",26-03-2024 06:00:00,25.610369,85.132568,SO2,5,6,5
India,Bihar,Patna,"IGSC Planetarium Complex, Patna - BSPCB",26-03-2024 06:00:00,25.610369,85.132568,OZONE,57,196,137
India,Bihar,Patna,"Muradpur, Patna - BSPCB",26-03-2024 06:00:00,25.619651,85.147382,PM2.5,28,489,279
India,Bihar,Patna,"Muradpur, Patna - BSPCB",26-03-2024 06:00:00,25.619651,85.147382,SO2,8,19,12
India,Bihar,Patna,"Rajbansi Nagar, Patna - BSPCB",26-03-2024 06:00:00,25.599486,85.113666,PM2.5,117,320,196
India,Bihar,Patna,"Samanpura, Patna - BSPCB",26-03-2024 06:00:00,25.596727,85.085624,NH3,8,11,9
India,Bihar,Purnia,"Mariam Nagar, Purnia - BSPCB",26-03-2024 06:00:00,25.366336,87.117468,NO2,5,6,5
India,Bihar,Purnia,"Mariam Nagar, Purnia - BSPCB",26-03-2024 06:00:00,25.366336,87.117468,SO2,5,13,10
India,Bihar,Rajgir,"Dangi Tola, Rajgir - BSPCB",26-03-2024 06:00:00,25.03280,85.41948,PM10,84,414,277
India,Bihar,Saharsa,"Police Line, Saharsa - BSPCB",26-03-2024 06:00:00,25.892357,86.590325,PM10,53,148,79
India,Bihar,Samastipur,"DM Office_Kasipur, Samastipur - BSPCB",26-03-2024 06:00:00,25.859655,85.77944,CO,20,32,27
India,Bihar,Siwan,"Chitragupta Nagar, Siwan - BSPCB",26-03-2024 06:00:00,26.2271665,84.3570427,CO,31,73,37
India,Chandigarh,Chandigarh,"Sector 22, Chandigarh - CPCC",26-03-2024 06:00:00,30.735567,76.775714,PM2.5,30,103,59
India,Chandigarh,Chandigarh,"Sector 22, Chandigarh - CPCC",26-03-2024 06:00:00,30.735567,76.775714,PM10,55,102,74
India,Chandigarh,Chandigarh,"Sector-25, Chandigarh - CPCC",26-03-2024 06:00:00,30.751462,76.762879,CO,12,30,19
India,Chandigarh,Chandigarh,"Sector-53, Chandigarh - CPCC",26-03-2024 06:00:00,30.719859,76.738637,PM2.5,35,210,80
India,Chandigarh,Chandigarh,"Sector-53, Chandigarh - CPCC",26-03-2024 06:00:00,30.719859,76.738637,NO2,8,38,18
India,Chandigarh,Chandigarh,"Sector-53, Chandigarh - CPCC",26-03-2024 06:00:00,30.719859,76.738637,NH3,4,7,5
India,Chhattisgarh,Bhilai,"32Bungalows, Bhilai - CECB",26-03-2024 06:00:00,21.194815,81.314770,PM10,40,81,56
India,Chhattisgarh,Bhilai,"32Bungalows, Bhilai - CECB",26-03-2024 06:00:00,21.194815,81.314770,NH3,6,6,6
India,Chhattisgarh,Bhilai,"Hathkhoj, Bhilai - CECB",26-03-2024 06:00:00,21.224231,81.408350,PM2.5,25,196,63
India,Chhattisgarh,Chhal,"Nawapara SECL Colony, Chhal - CECB",26-03-2024 06:00:00,22.118125,83.140608,CO,NA,NA,NA
India,Chhattisgarh,Korba,"Rampur, Korba - CECB",26-03-2024 06:00:00,22.368195,82.746431,PM2.5,13,94,31
India,Chhattisgarh,Korba,"Rampur, Korba - CECB",26-03-2024 06:00:00,22.368195,82.746431,PM10,21,94,60
India,Chhattisgarh,Korba,"Urja Nagar, Korba - CECB",26-03-2024 06:00:00,22.348441,82.549611,PM10,24,86,49
India,Chhattisgarh,Korba,"Urja Nagar, Korba - CECB",26-03-2024 06:00:00,22.348441,82.549611,SO2,1,7,3
India,Chhattisgarh,Kunjemura,"OP Jindal School, Kunjemura - CECB",26-03-2024 06:00:00,22.126650,83.483212,SO2,4,13,8
India,Chhattisgarh,Milupara,"Govt. Higher Secondary School, Milupara - CECB",26-03-2024 06:00:00,22.1910172,83.5197009,PM2.5,NA,NA,NA
India,Chhattisgarh,Milupara,"Govt. Higher Secondary School, Milupara - CECB",26-03-2024 06:00:00,22.1910172,83.5197009,NH3,NA,NA,NA
India,Chhattisgarh,Raipur,"AIIMS, Raipur - CECB",26-03-2024 06:00:00,21.258815,81.578979,OZONE,1,17,3
India,Chhattisgarh,Raipur,"Bhatagaon New ISBT, Raipur - CECB",26-03-2024 06:00:00,21.219665,81.630094,NH3,2,3,2
India,Chhattisgarh,Raipur,"Bhatagaon New ISBT, Raipur - CECB",26-03-2024 06:00:00,21.219665,81.630094,OZONE,3,10,4
India,Chhattisgarh,Raipur,"Krishak Nagar, Raipur - CECB",26-03-2024 06:00:00,21.237755,81.705301,CO,NA,NA,NA
India,Chhattisgarh,Raipur,"Siltara Phase-II, Raipur - CECB",26-03-2024 06:00:00,21.371751,81.664929,SO2,12,41,19
India,Chhattisgarh,Raipur,"Siltara Phase-II, Raipur - CECB",26-03-2024 06:00:00,21.371751,81.664929,CO,22,92,35
India,Delhi,Delhi,"Alipur, Delhi - DPCC",26-03-2024 06:00:00,28.815329,77.153010,PM2.5,25,279,99
India,Delhi,Delhi,"Alipur, Delhi - DPCC",26-03-2024 06:00:00,28.815329,77.153010,SO2,11,30,20
India,Delhi,Delhi,"Alipur, Delhi - DPCC",26-03-2024 06:00:00,28.815329,77.153010,CO,32,50,44
India,Delhi,Delhi,"Alipur, Delhi - DPCC",26-03-2024 06:00:00,28.815329,77.153010,OZONE,6,79,39
India,Delhi,Delhi,"Chandni Chowk, Delhi - IITM",26-03-2024 06:00:00,28.656756,77.227234,PM2.5,NA,NA,NA
India,Delhi,Delhi,"Chandni Chowk, Delhi - IITM",26-03-2024 06:00:00,28.656756,77.227234,SO2,NA,NA,NA
India,Delhi,Delhi,"DTU, Delhi - CPCB",26-03-2024 06:00:00,28.7500499,77.1112615,NO2,15,31,23
India,Delhi,Delhi,"DTU, Delhi - CPCB",26-03-2024 06:00:00,28.7500499,77.1112615,CO,15,55,29
India,Delhi,Delhi,"IGI Airport (T3), Delhi - IMD",26-03-2024 06:00:00,28.5627763,77.1180053,OZONE,2,26,4
India,Delhi,Delhi,"IHBAS, Dilshad Garden, Delhi - CPCB",26-03-2024 06:00:00,28.6811736,77.3025234,PM10,33,105,74
India,Delhi,Delhi,"IHBAS, Dilshad Garden, Delhi - CPCB",26-03-2024 06:00:00,28.6811736,77.3025234,SO2,5,39,27
India,Delhi,Delhi,"ITO, Delhi - CPCB",26-03-2024 06:00:00,28.628624,77.241060,PM2.5,26,334,154
India,Delhi,Delhi,"ITO, Delhi - CPCB",26-03-2024 06:00:00,28.628624,77.241060,PM10,5,175,92
India,Delhi,Delhi,"ITO, Delhi - CPCB",26-03-2024 06:00:00,28.628624,77.241060,NO2,6,111,48
India,Delhi,Delhi,"ITO, Delhi - CPCB",26-03-2024 06:00:00,28.628624,77.241060,CO,19,54,37
India,Delhi,Delhi,"Jahangirpuri, Delhi - DPCC",26-03-2024 06:00:00,28.732820,77.170633,PM2.5,34,338,152
India,Delhi,Delhi,"Jahangirpuri, Delhi - DPCC",26-03-2024 06:00:00,28.732820,77.170633,NO2,16,68,39
India,Delhi,Delhi,"Jahangirpuri, Delhi - DPCC",26-03-2024 06:00:00,28.732820,77.170633,OZONE,3,36,14
India,Delhi,Delhi,"Lodhi Road, Delhi - IMD",26-03-2024 06:00:00,28.5918245,77.2273074,PM2.5,37,263,76
India,Delhi,Delhi,"Mundka, Delhi - DPCC",26-03-2024 06:00:00,28.684678,77.076574,PM10,61,334,138
India,Delhi,Delhi,"Mundka, Delhi - DPCC",26-03-2024 06:00:00,28.684678,77.076574,CO,28,78,51
India,Delhi,Delhi,"NSIT Dwarka, Delhi - CPCB",26-03-2024 06:00:00,28.60909,77.0325413,PM10,48,177,104
India,Delhi,Delhi,"Nehru Nagar, Delhi - DPCC",26-03-2024 06:00:00,28.567890,77.250515,PM10,57,250,112
India,Delhi,Delhi,"Nehru Nagar, Delhi - DPCC",26-03-2024 06:00:00,28.567890,77.250515,OZONE,4,84,24
India,Delhi,Delhi,"New Moti Bagh, Delhi - MHUA",26-03-2024 06:00:00,28.57834,77.18400,PM2.5,23,352,162
India,Delhi,Delhi,"New Moti Bagh, Delhi - MHUA",26-03-2024 06:00:00,28.57834,77.18400,NO2,NA,NA,NA
India,Delhi,Delhi,"North Campus, DU, Delhi - IMD",26-03-2024 06:00:00,28.6573814,77.1585447,NO2,9,23,15
India,Delhi,Delhi,"Patparganj, Delhi - DPCC",26-03-2024 06:00:00,28.623763,77.287209,NO2,20,35,27
India,Delhi,Delhi,"Punjabi Bagh, Delhi - DPCC",26-03-2024 06:00:00,28.674045,77.131023,OZONE,15,42,21
India,Delhi,Delhi,"R K Puram, Delhi - DPCC",26-03-2024 06:00:00,28.563262,77.186937,PM10,59,248,120
India,Delhi,Delhi,"Sirifort, Delhi - CPCB",26-03-2024 06:00:00,28.5504249,77.2159377,PM10,54,268,135
India,Delhi,Delhi,"Sirifort, Delhi - CPCB",26-03-2024 06:00:00,28.5504249,77.2159377,CO,4,60,22
India,Delhi,Delhi,"Sonia Vihar, Delhi - DPCC",26-03-2024 06:00:00,28.710508,77.249485,PM2.5,25,339,122
India,Delhi,Delhi,"Sonia Vihar, Delhi - DPCC",26-03-2024 06:00:00,28.710508,77.249485,OZONE,15,43,23
India,Delhi,Delhi,"Sri Aurobindo Marg, Delhi - DPCC",26-03-2024 06:00:00,28.531346,77.190156,CO,1,58,30
India,Delhi,Delhi,"Vivek Vihar, Delhi - DPCC",26-03-2024 06:00:00,28.672342,77.315260,PM10,62,166,106
India,Delhi,Delhi,"Vivek Vihar, Delhi - DPCC",26-03-2024 06:00:00,28.672342,77.315260,OZONE,11,53,18
India,Delhi,Delhi,"Wazirpur, Delhi - DPCC",26-03-2024 06:00:00,28.699793,77.165453,PM2.5,35,325,143
India,Delhi,Delhi,"Wazirpur, Delhi - DPCC",26-03-2024 06:00:00,28.699793,77.165453,SO2,6,54,28
India,Delhi,Delhi,"Wazirpur, Delhi - DPCC",26-03-2024 06:00:00,28.699793,77.165453,OZONE,9,36,17
India,Gujarat,Ahmedabad,"Chandkheda, Ahmedabad - IITM",26-03-2024 06:00:00,23.107969,72.574648,PM2.5,60,271,102
India,Gujarat,Ahmedabad,"Chandkheda, Ahmedabad - IITM",26-03-2024 06:00:00,23.107969,72.574648,SO2,3,21,10
India,Gujarat,Ahmedabad,"Chandkheda, Ahmedabad - IITM",26-03-2024 06:00:00,23.107969,72.574648,OZONE,2,34,3
India,Gujarat,Ahmedabad,"Gyaspur, Ahmedabad - IITM",26-03-2024 06:00:00,22.977134,72.553024,OZONE,7,39,10
India,Gujarat,Ahmedabad,"Maninagar, Ahmedabad - GPCB",26-03-2024 06:00:00,23.002657,72.591912,PM10,17,90,45
India,Gujarat,Ahmedabad,"Raikhad, Ahmedabad - IITM",26-03-2024 06:00:00,23.020509,72.579261,SO2,4,14,7
India,Gujarat,Ahmedabad,"Rakhial, Ahmedabad - IITM",26-03-2024 06:00:00,23.016834,72.625775,NH3,14,29,24
India,Gujarat,Ahmedabad,"Rakhial, Ahmedabad - IITM",26-03-2024 06:00:00,23.016834,72.625775,OZONE,8,60,9
India,Gujarat,Ahmedabad,"Sardar Vallabhbhai Patel Stadium, Ahmedabad - IITM",26-03-2024 06:00:00,23.043070,72.562968,PM10,74,120,91
India,Gujarat,Ahmedabad,"Sardar Vallabhbhai Patel Stadium, Ahmedabad - IITM",26-03-2024 06:00:00,23.043070,72.562968,NH3,2,2,2
India,Gujarat,Ankleshwar,"GIDC, Ankleshwar - GPCB",26-03-2024 06:00:00,21.613267,73.010555,PM10,NA,NA,NA
India,Gujarat,Ankleshwar,"GIDC, Ankleshwar - GPCB",26-03-2024 06:00:00,21.613267,73.010555,OZONE,NA,NA,NA
India,Gujarat,Gandhinagar,"GIFT City, Gandhinagar - IITM",26-03-2024 06:00:00,23.163798,72.677768,PM10,NA,NA,NA
India,Gujarat,Gandhinagar,"IIPHG Lekawada, Gandhinagar - IITM",26-03-2024 06:00:00,23.243639,72.68994,PM2.5,65,160,108
India,Gujarat,Gandhinagar,"IIPHG Lekawada, Gandhinagar - IITM",26-03-2024 06:00:00,23.243639,72.68994,PM10,52,99,77
India,Gujarat,Gandhinagar,"Sector-10, Gandhinagar - GPCB",26-03-2024 06:00:00,23.221714,72.654328,SO2,4,11,6
India,Gujarat,Gandhinagar,"Sector-10, Gandhinagar - GPCB",26-03-2024 06:00:00,23.221714,72.654328,OZONE,2,18,2
India,Gujarat,Surat,"Science Center, Surat - SMC",26-03-2024 06:00:00,21.170046,72.795405,PM2.5,2,56,28
India,Gujarat,Vapi,"Phase-1 GIDC, Vapi - GPCB",26-03-2024 06:00:00,20.362421,72.918013,PM2.5,29,122,67
India,Gujarat,Vapi,"Phase-1 GIDC, Vapi - GPCB",26-03-2024 06:00:00,20.362421,72.918013,NH3,2,2,2
India,Gujarat,Vatva,"Phase-4 GIDC, Vatva - GPCB",26-03-2024 06:00:00,22.969611,72.643500,PM10,55,126,78
India,Gujarat,Vatva,"Phase-4 GIDC, Vatva - GPCB",26-03-2024 06:00:00,22.969611,72.643500,OZONE,5,59,12
India,Haryana,Ambala,"Patti Mehar, Ambala - HSPCB",26-03-2024 06:00:00,30.379589,76.778328,PM2.5,22,85,44
India,Haryana,Bahadurgarh,"Arya Nagar, Bahadurgarh - HSPCB",26-03-2024 06:00:00,28.6701,76.9254,CO,33,67,46
India,Haryana,Ballabgarh,"Nathu Colony, Ballabgarh - HSPCB",26-03-2024 06:00:00,28.3419248,77.319699,PM10,65,194,113
India,Haryana,Ballabgarh,"Nathu Colony, Ballabgarh - HSPCB",26-03-2024 06:00:00,28.3419248,77.319699,NH3,1,2,2
India,Haryana,Charkhi Dadri,"Mini Secretariat, Charkhi Dadri - HSPCB",26-03-2024 06:00:00,28.593883,76.270653,PM2.5,61,217,119
India,Haryana,Dharuhera,"Municipal Corporation Office, Dharuhera -  HSPCB",26-03-2024 06:00:00,28.206800,76.799700,PM2.5,22,138,64
India,Haryana,Dharuhera,"Municipal Corporation Office, Dharuhera -  HSPCB",26-03-2024 06:00:00,28.206800,76.799700,CO,78,105,100
India,Haryana,Faridabad,"Sector 11, Faridabad - HSPCB",26-03-2024 06:00:00,28.376058,77.315741,PM2.5,48,365,133
India,Haryana,Faridabad,"Sector 30, Faridabad - HSPCB",26-03-2024 06:00:00,28.4417,77.3217,SO2,2,7,4
India,Haryana,Faridabad,"Sector- 16A, Faridabad - HSPCB",26-03-2024 06:00:00,28.4088421,77.3099081,SO2,22,26,24
India,Haryana,Fatehabad,"Huda Sector, Fatehabad - HSPCB",26-03-2024 06:00:00,29.503664,75.467934,PM2.5,28,67,48
India,Haryana,Gurugram,"Teri Gram, Gurugram - HSPCB",26-03-2024 06:00:00,28.4275,77.1465,PM10,100,405,171
India,Haryana,Gurugram,"Teri Gram, Gurugram - HSPCB",26-03-2024 06:00:00,28.4275,77.1465,CO,12,42,20
India,Haryana,Gurugram,"Vikas Sadan, Gurugram - HSPCB",26-03-2024 06:00:00,28.4501238,77.0263051,PM2.5,72,186,97
India,Haryana,Hisar,"Urban Estate-II, Hisar - HSPCB",26-03-2024 06:00:00,29.140560,75.744941,CO,40,42,41
India,Haryana,Kaithal,"Rishi Nagar, Kaithal - HSPCB",26-03-2024 06:00:00,29.8006,76.4155,SO2,5,33,15
India,Haryana,Karnal,"Sector-12, Karnal - HSPCB",26-03-2024 06:00:00,29.695300,77.002700,CO,23,29,27
India,Haryana,Kurukshetra,"Sector-7, Kurukshetra - HSPCB",26-03-2024 06:00:00,29.966942,76.875879,NO2,10,10,10
India,Haryana,Narnaul,"Shastri Nagar, Narnaul - HSPCB",26-03-2024 06:00:00,28.060249,76.113115,NO2,12,75,39
India,Haryana,Palwal,"Shyam Nagar, Palwal - HSPCB",26-03-2024 06:00:00,28.1485564,77.3320667,CO,16,33,25
India,Haryana,Panipat,"Sector-18, Panipat - HSPCB",26-03-2024 06:00:00,29.497973,76.993331,PM10,73,76,75
India,Haryana,Rohtak,"MD University, Rohtak - HSPCB",26-03-2024 06:00:00,28.52123,76.37138,PM2.5,NA,NA,NA
India,Haryana,Sirsa,"F-Block, Sirsa - HSPCB",26-03-2024 06:00:00,29.536400,75.015800,NH3,12,13,13
India,Haryana,Sirsa,"F-Block, Sirsa - HSPCB",26-03-2024 06:00:00,29.536400,75.015800,SO2,1,17,10
India,Haryana,Sonipat,"Murthal, Sonipat - HSPCB",26-03-2024 06:00:00,29.027200,77.062100,PM10,6,33,14
India,Haryana,Yamuna Nagar,"Gobind Pura, Yamuna Nagar - HSPCB",26-03-2024 06:00:00,30.1480566,77.2893471,PM2.5,NA,NA,NA
India,Haryana,Yamuna Nagar,"Gobind Pura, Yamuna Nagar - HSPCB",26-03-2024 06:00:00,30.1480566,77.2893471,PM10,NA,NA,NA
India,Haryana,Yamuna Nagar,"Gobind Pura, Yamuna Nagar - HSPCB",26-03-2024 06:00:00,30.1480566,77.2893471,NH3,NA,NA,NA
India,Himachal Pradesh,Baddi,"HIMUDA Complex Phase-1, Baddi - HPPCB",26-03-2024 06:00:00,30.943887,76.801991,SO2,8,41,16
India,Jharkhand,Dhanbad,"Sardar Patel Nagar, Dhanbad - JSPCB",26-03-2024 06:00:00,23.80569,86.44268,PM2.5,NA,NA,NA
India,Jharkhand,Dhanbad,"Sardar Patel Nagar, Dhanbad - JSPCB",26-03-2024 06:00:00,23.80569,86.44268,NO2,NA,NA,NA
India,Jharkhand,Dhanbad,"Sardar Patel Nagar, Dhanbad - JSPCB",26-03-2024 06:00:00,23.80569,86.44268,CO,NA,NA,NA
India,Karnataka,Bagalkot,"Vidayagiri, Bagalkot - KSPCB",26-03-2024 06:00:00,16.172806,75.659694,PM2.5,25,37,36
India,Karnataka,Bagalkot,"Vidayagiri, Bagalkot - KSPCB",26-03-2024 06:00:00,16.172806,75.659694,NH3,1,2,1
India,Karnataka,Bagalkot,"Vidayagiri, Bagalkot - KSPCB",26-03-2024 06:00:00,16.172806,75.659694,CO,21,48,36
India,Karnataka,Bengaluru,"BTM Layout, Bengaluru - CPCB",26-03-2024 06:00:00,12.9135218,77.5950804,PM10,49,68,60
India,Karnataka,Bengaluru,"BTM Layout, Bengaluru - CPCB",26-03-2024 06:00:00,12.9135218,77.5950804,CO,39,44,44
India,Karnataka,Bengaluru,"Bapuji Nagar, Bengaluru - KSPCB",26-03-2024 06:00:00,12.951913,77.539784,SO2,4,7,5
India,Karnataka,Bengaluru,"Jayanagar 5th Block, Bengaluru - KSPCB",26-03-2024 06:00:00,12.920984,77.584908,SO2,11,19,16
India,Karnataka,Bengaluru,"Kasturi Nagar, Bengaluru - KSPCB",26-03-2024 06:00:00,13.003872,77.664217,NH3,3,4,4
India,Karnataka,Bengaluru,"Kasturi Nagar, Bengaluru - KSPCB",26-03-2024 06:00:00,13.003872,77.664217,OZONE,11,128,58
India,Karnataka,Bengaluru,"Peenya, Bengaluru - CPCB",26-03-2024 06:00:00,13.0270199,77.494094,SO2,3,8,6
India,Karnataka,Bengaluru,"RVCE-Mailasandra, Bengaluru - KSPCB",26-03-2024 06:00:00,12.921418,77.502466,NO2,16,17,17
India,Karnataka,Bengaluru,"Shivapura_Peenya, Bengaluru - KSPCB",26-03-2024 06:00:00,13.0246342,77.5080115,SO2,1,16,8
India,Karnataka,Bengaluru,"Silk Board, Bengaluru - KSPCB",26-03-2024 06:00:00,12.917348,77.622813,NH3,6,8,7
India,Karnataka,Chamarajanagar,"Urban, Chamarajanagar - KSPCB",26-03-2024 06:00:00,11.55358,76.55521,OZONE,15,51,16
India,Karnataka,Chikkaballapur,"Chikkaballapur Rural, Chikkaballapur - KSPCB",26-03-2024 06:00:00,13.428828,77.731418,NO2,8,14,10
India,Karnataka,Chikkamagaluru,"Kalyana Nagara, Chikkamagaluru - KSPCB",26-03-2024 06:00:00,13.328028,75.797056,PM10,21,500,88
India,Karnataka,Dharwad,"Kalabhavan, Dharwad - KSPCB",26-03-2024 06:00:00,15.459706,75.008381,NO2,10,36,20
India,Karnataka,Dharwad,"Kalabhavan, Dharwad - KSPCB",26-03-2024 06:00:00,15.459706,75.008381,SO2,3,8,4
India,Karnataka,Dharwad,"Kalabhavan, Dharwad - KSPCB",26-03-2024 06:00:00,15.459706,75.008381,CO,NA,NA,NA
India,Karnataka,Dharwad,"Kalabhavan, Dharwad - KSPCB",26-03-2024 06:00:00,15.459706,75.008381,OZONE,2,34,8
India,Karnataka,Gadag,"Panchal Nagar, Gadag - KSPCB",26-03-2024 06:00:00,15.411456,75.638133,NO2,3,19,13
India,Karnataka,Gadag,"Panchal Nagar, Gadag - KSPCB",26-03-2024 06:00:00,15.411456,75.638133,SO2,5,20,14
India,Karnataka,Haveri,"Ashwini Nagar, Haveri - KSPCB",26-03-2024 06:00:00,14.791800,75.389600,PM2.5,48,73,62
India,Karnataka,Haveri,"Ashwini Nagar, Haveri - KSPCB",26-03-2024 06:00:00,14.791800,75.389600,PM10,NA,NA,NA
India,Karnataka,Haveri,"Ashwini Nagar, Haveri - KSPCB",26-03-2024 06:00:00,14.791800,75.389600,SO2,14,14,14
India,Karnataka,Haveri,"Ashwini Nagar, Haveri - KSPCB",26-03-2024 06:00:00,14.791800,75.389600,CO,36,38,37
India,Karnataka,Haveri,"Ashwini Nagar, Haveri - KSPCB",26-03-2024 06:00:00,14.791800,75.389600,OZONE,19,26,19
India,Karnataka,Hubballi,"Deshpande Nagar, Hubballi - KSPCB",26-03-2024 06:00:00,15.351773,75.140726,SO2,NA,NA,NA
India,Karnataka,Hubballi,"Lingaraj Nagar, Hubballi - KSPCB",26-03-2024 06:00:00,15.3714823,75.1160168,OZONE,11,104,27
India,Karnataka,Kalaburagi,"Lal Bahadur Shastri Nagar, Kalaburagi - KSPCB",26-03-2024 06:00:00,17.321993,76.822628,NO2,11,12,11
India,Karnataka,Kalaburagi,"Lal Bahadur Shastri Nagar, Kalaburagi - KSPCB",26-03-2024 06:00:00,17.321993,76.822628,CO,42,47,43
India,Karnataka,Kalaburagi,"Lal Bahadur Shastri Nagar, Kalaburagi - KSPCB",26-03-2024 06:00:00,17.321993,76.822628,OZONE,24,98,50
India,Karnataka,Kalaburagi,"Mahatma Basaveswar Colony, Kalaburgi - KSPCB",26-03-2024 06:00:00,17.336318,76.847397,PM10,24,94,46
India,Karnataka,Karwar,"KHB Colony, Karwar - KSPCB",26-03-2024 06:00:00,14.816666,74.141003,NO2,3,19,9
India,Karnataka,Kolar,"Tamaka Ind. Area, Kolar - KSPCB",26-03-2024 06:00:00,13.1276288,78.1570122,CO,36,44,40
India,Karnataka,Koppal,"Diwator Nagar, Koppal - KSPCB",26-03-2024 06:00:00,15.347630,76.181767,CO,NA,NA,NA
India,Karnataka,Madikeri,"Stuart Hill, Madikeri - KSPCB",26-03-2024 06:00:00,12.415911,75.735050,OZONE,30,53,38
India,Karnataka,Raichur,"Haji Colony, Raichur - KSPCB",26-03-2024 06:00:00,16.208139,77.348417,PM10,64,131,90
India,Karnataka,Ramanagara,"Vijay Nagar, Ramanagara - KSPCB",26-03-2024 06:00:00,12.733409,77.298051,NO2,2,19,5
India,Karnataka,Ramanagara,"Vijay Nagar, Ramanagara - KSPCB",26-03-2024 06:00:00,12.733409,77.298051,NH3,1,2,1
India,Karnataka,Ramanagara,"Vijay Nagar, Ramanagara - KSPCB",26-03-2024 06:00:00,12.733409,77.298051,SO2,14,29,22
India,Karnataka,Shivamogga,"Vinoba Nagara, Shivamogga - KSPCB",26-03-2024 06:00:00,13.940000,75.555917,PM10,37,73,57
India,Karnataka,Tumakuru,"Thimmalapura, Tumakuru - KSPCB",26-03-2024 06:00:00,13.377516,77.099072,CO,29,34,33
India,Karnataka,Tumakuru,"Thimmalapura, Tumakuru - KSPCB",26-03-2024 06:00:00,13.377516,77.099072,OZONE,14,62,31
India,Karnataka,Vijayapura,"Ibrahimpur, Vijayapura - KSPCB",26-03-2024 06:00:00,16.802639,75.722694,CO,18,18,18
India,Karnataka,Yadgir,"Collector Office, Yadgir - KSPCB",26-03-2024 06:00:00,16.7602,77.1428,NO2,5,6,5
India,Karnataka,Yadgir,"Collector Office, Yadgir - KSPCB",26-03-2024 06:00:00,16.7602,77.1428,SO2,7,25,17
India,Karnataka,Yadgir,"Collector Office, Yadgir - KSPCB",26-03-2024 06:00:00,16.7602,77.1428,CO,10,24,14
India,Karnataka,Yadgir,"Collector Office, Yadgir - KSPCB",26-03-2024 06:00:00,16.7602,77.1428,OZONE,19,20,19
India,Kerala,Eloor,"Udyogamandal, Eloor - Kerala PCB",26-03-2024 06:00:00,10.073232,76.302765,PM2.5,34,63,43
India,Kerala,Eloor,"Udyogamandal, Eloor - Kerala PCB",26-03-2024 06:00:00,10.073232,76.302765,NO2,4,4,4
India,Kerala,Kannur,"Thavakkara, Kannur - Kerala PCB",26-03-2024 06:00:00,11.875000,75.373200,PM2.5,NA,NA,NA
India,Kerala,Kannur,"Thavakkara, Kannur - Kerala PCB",26-03-2024 06:00:00,11.875000,75.373200,CO,30,35,32
India,Kerala,Kollam,"Polayathode, Kollam - Kerala PCB",26-03-2024 06:00:00,8.8787,76.6073,NH3,1,1,1
India,Kerala,Kollam,"Polayathode, Kollam - Kerala PCB",26-03-2024 06:00:00,8.8787,76.6073,CO,12,25,15
India,Kerala,Thiruvananthapuram,"Kariavattom, Thiruvananthapuram - Kerala PCB",26-03-2024 06:00:00,8.563700,76.886500,PM10,93,104,100
India,Kerala,Thiruvananthapuram,"Kariavattom, Thiruvananthapuram - Kerala PCB",26-03-2024 06:00:00,8.563700,76.886500,NH3,1,1,1
India,Kerala,Thiruvananthapuram,"Kariavattom, Thiruvananthapuram - Kerala PCB",26-03-2024 06:00:00,8.563700,76.886500,CO,18,54,23
India,Kerala,Thiruvananthapuram,"Kariavattom, Thiruvananthapuram - Kerala PCB",26-03-2024 06:00:00,8.563700,76.886500,OZONE,28,32,30
India,Kerala,Thiruvananthapuram,"Plammoodu, Thiruvananthapuram - Kerala PCB",26-03-2024 06:00:00,8.5149093,76.9435879,PM2.5,30,79,47
India,Kerala,Thiruvananthapuram,"Plammoodu, Thiruvananthapuram - Kerala PCB",26-03-2024 06:00:00,8.5149093,76.9435879,NO2,8,10,9
India,Kerala,Thiruvananthapuram,"Plammoodu, Thiruvananthapuram - Kerala PCB",26-03-2024 06:00:00,8.5149093,76.9435879,NH3,2,2,2
India,Kerala,Thiruvananthapuram,"Plammoodu, Thiruvananthapuram - Kerala PCB",26-03-2024 06:00:00,8.5149093,76.9435879,SO2,6,14,8
India,Kerala,Thrissur,"Corporation Ground, Thrissur - Kerala PCB",26-03-2024 06:00:00,10.532400,76.215900,SO2,1,20,7
India,Madhya Pradesh,Bhopal,"Idgah Hills, Bhopal - MPPCB",26-03-2024 06:00:00,23.264759,77.381568,PM10,66,173,110
India,Madhya Pradesh,Bhopal,"Idgah Hills, Bhopal - MPPCB",26-03-2024 06:00:00,23.264759,77.381568,SO2,19,21,20
India,Madhya Pradesh,Bhopal,"T T Nagar, Bhopal - MPPCB",26-03-2024 06:00:00,23.233584,77.400574,NH3,3,6,5
India,Madhya Pradesh,Bhopal,"T T Nagar, Bhopal - MPPCB",26-03-2024 06:00:00,23.233584,77.400574,SO2,19,38,31
India,Madhya Pradesh,Bhopal,"T T Nagar, Bhopal - MPPCB",26-03-2024 06:00:00,23.233584,77.400574,OZONE,15,100,56
India,Madhya Pradesh,Gwalior,"City Center, Gwalior - MPPCB",26-03-2024 06:00:00,26.203442,78.193251,PM2.5,32,306,157
India,Madhya Pradesh,Gwalior,"City Center, Gwalior - MPPCB",26-03-2024 06:00:00,26.203442,78.193251,PM10,60,218,132
India,Madhya Pradesh,Gwalior,"Deen Dayal Nagar, Gwalior - MPPCB",26-03-2024 06:00:00,26.259242,78.216432,SO2,NA,NA,NA
India,Madhya Pradesh,Gwalior,"Deen Dayal Nagar, Gwalior - MPPCB",26-03-2024 06:00:00,26.259242,78.216432,CO,NA,NA,NA
India,Madhya Pradesh,Gwalior,"Maharaj Bada, Gwalior - MPPCB",26-03-2024 06:00:00,26.200388,78.147714,PM2.5,30,259,118
India,Madhya Pradesh,Indore,"Chhoti Gwaltoli, Indore - MPPCB",26-03-2024 06:00:00,22.4310,75.5213,NO2,58,133,87
India,Madhya Pradesh,Indore,"Chhoti Gwaltoli, Indore - MPPCB",26-03-2024 06:00:00,22.4310,75.5213,SO2,13,35,19
India,Madhya Pradesh,Indore,"Maguda Nagar, Indore - IMC",26-03-2024 06:00:00,22.7524,75.8872,NO2,NA,NA,NA
India,Madhya Pradesh,Indore,"Residency Area, Indore - IMC",26-03-2024 06:00:00,22.7084,75.8815,CO,14,22,20
India,Madhya Pradesh,Indore,"Residency Area, Indore - IMC",26-03-2024 06:00:00,22.7084,75.8815,OZONE,10,16,10
India,Madhya Pradesh,Jabalpur,"Govindh Bhavan Colony, Jabalpur - JMC",26-03-2024 06:00:00,23.163174,79.973061,PM2.5,35,187,69
India,Madhya Pradesh,Jabalpur,"Govindh Bhavan Colony, Jabalpur - JMC",26-03-2024 06:00:00,23.163174,79.973061,OZONE,10,88,31
India,Madhya Pradesh,Jabalpur,"Gupteshwar, Jabalpur - JMC",26-03-2024 06:00:00,23.142888,79.916147,PM2.5,62,355,134
India,Madhya Pradesh,Jabalpur,"Gupteshwar, Jabalpur - JMC",26-03-2024 06:00:00,23.142888,79.916147,SO2,3,10,5
India,Madhya Pradesh,Jabalpur,"Marhatal, Jabalpur - MPPCB",26-03-2024 06:00:00,23.168606,79.932247,PM2.5,44,145,71
India,Madhya Pradesh,Mandideep,"Sector-D Industrial Area, Mandideep - MPPCB",26-03-2024 06:00:00,23.108440,77.511428,NO2,22,74,44
India,Madhya Pradesh,Mandideep,"Sector-D Industrial Area, Mandideep - MPPCB",26-03-2024 06:00:00,23.108440,77.511428,NH3,2,4,4
India,Madhya Pradesh,Mandideep,"Sector-D Industrial Area, Mandideep - MPPCB",26-03-2024 06:00:00,23.108440,77.511428,SO2,18,131,86
India,Madhya Pradesh,Ratlam,"Shasthri Nagar, Ratlam - IPCA Lab",26-03-2024 06:00:00,23.331731,75.045981,PM10,103,209,142
India,Madhya Pradesh,Ratlam,"Shasthri Nagar, Ratlam - IPCA Lab",26-03-2024 06:00:00,23.331731,75.045981,NO2,16,122,49
India,Madhya Pradesh,Sagar,"Civil Lines, Sagar - MPPCB",26-03-2024 06:00:00,23.838586,78.759431,PM10,69,129,92
India,Madhya Pradesh,Sagar,"Civil Lines, Sagar - MPPCB",26-03-2024 06:00:00,23.838586,78.759431,NH3,3,5,4
India,Madhya Pradesh,Sagar,"Civil Lines, Sagar - MPPCB",26-03-2024 06:00:00,23.838586,78.759431,CO,12,30,15
India,Madhya Pradesh,Sagar,"Deen Dayal Nagar, Sagar - MPPCB",26-03-2024 06:00:00,23.8640158,78.80289321,PM2.5,12,30,20
India,Madhya Pradesh,Satna,"Bandhavgar Colony, Satna - Birla Cement",26-03-2024 06:00:00,24.58434363,80.8549414,NO2,26,60,36
India,Madhya Pradesh,Satna,"Bandhavgar Colony, Satna - Birla Cement",26-03-2024 06:00:00,24.58434363,80.8549414,SO2,2,6,3
India,Madhya Pradesh,Singrauli,"Suryakiran Bhawan NCL, Singrauli - MPPCB",26-03-2024 06:00:00,24.108970,82.645580,SO2,33,132,55
India,Madhya Pradesh,Ujjain,"Mahakaleshwar Temple, Ujjain - MPPCB",26-03-2024 06:00:00,23.182719 ,75.768218 ,NO2,NA,NA,NA
India,Madhya Pradesh,Ujjain,"Mahakaleshwar Temple, Ujjain - MPPCB",26-03-2024 06:00:00,23.182719 ,75.768218 ,SO2,NA,NA,NA
India,Maharashtra,Ahmednagar,"Tarakpur, Ahmednagar - MPCB",26-03-2024 06:00:00,19.10122,74.73339,PM10,56,162,108
India,Maharashtra,Akola,"Ramdaspeth, Akola - MPCB",26-03-2024 06:00:00,20.719516,77.000253,PM10,63,129,92
India,Maharashtra,Akola,"Ramdaspeth, Akola - MPCB",26-03-2024 06:00:00,20.719516,77.000253,OZONE,1,103,18
India,Maharashtra,Amravati,"Shivneri Colony, Amravati - MPCB",26-03-2024 06:00:00,20.9402359,77.7895248,PM2.5,77,214,120
India,Maharashtra,Amravati,"Shivneri Colony, Amravati - MPCB",26-03-2024 06:00:00,20.9402359,77.7895248,NO2,8,44,21
India,Maharashtra,Amravati,"Shivneri Colony, Amravati - MPCB",26-03-2024 06:00:00,20.9402359,77.7895248,NH3,1,3,1
India,Maharashtra,Amravati,"Shivneri Colony, Amravati - MPCB",26-03-2024 06:00:00,20.9402359,77.7895248,SO2,22,23,22
India,Maharashtra,Amravati,"Shri Shivaji Science College, Amaravati - MPCB",26-03-2024 06:00:00,20.939198,77.765701,NO2,4,48,13
India,Maharashtra,Amravati,"Shri Shivaji Science College, Amaravati - MPCB",26-03-2024 06:00:00,20.939198,77.765701,NH3,5,13,7
India,Maharashtra,Aurangabad,"More Chowk Waluj, Aurangabad - MPCB",26-03-2024 06:00:00,19.8389439,75.244448,PM10,52,127,89
India,Maharashtra,Badlapur,"Katrap, Badlapur - MPCB",26-03-2024 06:00:00,19.16485,73.23409,PM10,54,116,76
India,Maharashtra,Belapur,"CBD Belapur, Belapur - MPCB",26-03-2024 06:00:00,19.0243902,73.0406721,PM10,51,129,95
India,Maharashtra,Belapur,"CBD Belapur, Belapur - MPCB",26-03-2024 06:00:00,19.0243902,73.0406721,SO2,1,7,2
India,Maharashtra,Bhiwandi,"Gokul Nagar, Bhiwandi - MPCB",26-03-2024 06:00:00,19.309073,73.057223,NO2,9,33,15
India,Maharashtra,Bhiwandi,"Gokul Nagar, Bhiwandi - MPCB",26-03-2024 06:00:00,19.309073,73.057223,CO,12,44,25
India,Maharashtra,Bhiwandi,"Gokul Nagar, Bhiwandi - MPCB",26-03-2024 06:00:00,19.309073,73.057223,OZONE,7,125,38
India,Maharashtra,Boisar,"Khaira, Boisar - MPCB",26-03-2024 06:00:00,19.786089,72.757971,CO,NA,NA,NA
India,Maharashtra,Chandrapur,"Chauhan Colony, Chandrapur - MPCB",26-03-2024 06:00:00,19.962900,79.298714,PM10,48,99,73
India,Maharashtra,Chandrapur,"MIDC Khutala, Chandrapur - MPCB",26-03-2024 06:00:00,19.9775302,79.2337086,NH3,NA,NA,NA
India,Maharashtra,Chandrapur,"MIDC Khutala, Chandrapur - MPCB",26-03-2024 06:00:00,19.9775302,79.2337086,CO,3,68,47
India,Maharashtra,Chandrapur,"MIDC Khutala, Chandrapur - MPCB",26-03-2024 06:00:00,19.9775302,79.2337086,OZONE,1,85,13
India,Maharashtra,Jalna,"Old MIDC, Jalna - MPCB",26-03-2024 06:00:00,19.854616,75.905894,PM2.5,182,304,235
India,Maharashtra,Kalyan,"Khadakpada, Kalyan - MPCB",26-03-2024 06:00:00,19.25292,73.142019,PM10,53,132,90
India,Maharashtra,Kolhapur,"Shivaji University, Kolhapur - MPCB",26-03-2024 06:00:00,16.6870449,74.2505872,NO2,10,31,20
India,Maharashtra,Kolhapur,"Shivaji University, Kolhapur - MPCB",26-03-2024 06:00:00,16.6870449,74.2505872,SO2,3,13,8
India,Maharashtra,Latur,"Sawe Wadi, Latur - MPCB",26-03-2024 06:00:00,18.39963,76.57452,NH3,7,12,10
India,Maharashtra,Latur,"Sawe Wadi, Latur - MPCB",26-03-2024 06:00:00,18.39963,76.57452,CO,16,113,38
India,Maharashtra,Mahad,"Kamble Tarf Birwadi, Mahad - MPCB",26-03-2024 06:00:00,18.1023399,73.4783687,NH3,10,10,10
India,Maharashtra,Mira-Bhayandar,"Bhayandar West, Mira-Bhayandar - MPCB",26-03-2024 06:00:00,19.296481,72.840923,PM2.5,40,181,71
India,Maharashtra,Mira-Bhayandar,"Bhayandar West, Mira-Bhayandar - MPCB",26-03-2024 06:00:00,19.296481,72.840923,NO2,7,23,10
India,Maharashtra,Mira-Bhayandar,"Bhayandar West, Mira-Bhayandar - MPCB",26-03-2024 06:00:00,19.296481,72.840923,CO,10,46,10
India,Maharashtra,Mira-Bhayandar,"Bhayandar West, Mira-Bhayandar - MPCB",26-03-2024 06:00:00,19.296481,72.840923,OZONE,2,94,30
India,Maharashtra,Mumbai,"Bandra Kurla Complex, Mumbai - MPCB",26-03-2024 06:00:00,19.065931,72.862131,NO2,3,12,6
India,Maharashtra,Mumbai,"Bandra Kurla Complex, Mumbai - MPCB",26-03-2024 06:00:00,19.065931,72.862131,OZONE,5,79,34
India,Maharashtra,Mumbai,"Byculla, Mumbai - BMC",26-03-2024 06:00:00,18.9767,72.8380,NO2,4,17,11
India,Maharashtra,Mumbai,"Chakala-Andheri East, Mumbai - IITM",26-03-2024 06:00:00,19.11074,72.86084,PM2.5,25,84,49
India,Maharashtra,Mumbai,"Chakala-Andheri East, Mumbai - IITM",26-03-2024 06:00:00,19.11074,72.86084,PM10,32,150,73
India,Maharashtra,Mumbai,"Chakala-Andheri East, Mumbai - IITM",26-03-2024 06:00:00,19.11074,72.86084,CO,4,62,32
India,Maharashtra,Mumbai,"Chembur, Mumbai - MPCB",26-03-2024 06:00:00,19.0364585,72.8954371,NO2,17,38,26
India,Maharashtra,Mumbai,"Chembur, Mumbai - MPCB",26-03-2024 06:00:00,19.0364585,72.8954371,NH3,2,3,2
India,Maharashtra,Mumbai,"Chhatrapati Shivaji Intl. Airport (T2), Mumbai - MPCB",26-03-2024 06:00:00,19.10078,72.87462,PM2.5,13,31,19
India,Maharashtra,Mumbai,"Chhatrapati Shivaji Intl. Airport (T2), Mumbai - MPCB",26-03-2024 06:00:00,19.10078,72.87462,PM10,34,72,50
India,Maharashtra,Mumbai,"Colaba, Mumbai - MPCB",26-03-2024 06:00:00,18.910000,72.820000,CO,12,16,13
India,Maharashtra,Mumbai,"Ghatkopar, Mumbai - BMC",26-03-2024 06:00:00,19.083694,72.920967,PM2.5,NA,NA,NA
India,Maharashtra,Mumbai,"Ghatkopar, Mumbai - BMC",26-03-2024 06:00:00,19.083694,72.920967,PM10,41,79,65
India,Maharashtra,Mumbai,"Kandivali East, Mumbai - MPCB",26-03-2024 06:00:00,19.205800,72.868200,SO2,4,105,87
India,Maharashtra,Mumbai,"Kandivali East, Mumbai - MPCB",26-03-2024 06:00:00,19.205800,72.868200,CO,101,109,102
India,Maharashtra,Mumbai,"Kandivali West, Mumbai - BMC",26-03-2024 06:00:00,19.215859,72.831718,NO2,9,20,13
India,Maharashtra,Mumbai,"Kherwadi_Bandra East, Mumbai - MPCB",26-03-2024 06:00:00,19.0632143,72.8456324,PM2.5,25,88,52
India,Maharashtra,Mumbai,"Kherwadi_Bandra East, Mumbai - MPCB",26-03-2024 06:00:00,19.0632143,72.8456324,SO2,5,8,6
India,Maharashtra,Mumbai,"Kherwadi_Bandra East, Mumbai - MPCB",26-03-2024 06:00:00,19.0632143,72.8456324,CO,10,35,17
India,Maharashtra,Mumbai,"Kurla, Mumbai - MPCB",26-03-2024 06:00:00,19.0863,72.8888,NO2,13,35,22
India,Maharashtra,Mumbai,"Navy Nagar-Colaba, Mumbai - IITM",26-03-2024 06:00:00,18.897756,72.813320,PM2.5,37,69,52
India,Maharashtra,Mumbai,"Powai, Mumbai - MPCB",26-03-2024 06:00:00,19.137500,72.915056,SO2,32,44,36
India,Maharashtra,Mumbai,"Sewri, Mumbai - BMC",26-03-2024 06:00:00,19.000084,72.856730,PM10,27,73,50
India,Maharashtra,Mumbai,"Sewri, Mumbai - BMC",26-03-2024 06:00:00,19.000084,72.856730,NO2,17,48,26
India,Maharashtra,Mumbai,"Shivaji Nagar, Mumbai - BMC",26-03-2024 06:00:00,19.060498,72.923356,NO2,22,88,52
India,Maharashtra,Mumbai,"Shivaji Nagar, Mumbai - BMC",26-03-2024 06:00:00,19.060498,72.923356,CO,1,88,29
India,Maharashtra,Mumbai,"Sion, Mumbai - MPCB",26-03-2024 06:00:00,19.047000,72.874600,PM2.5,27,71,44
India,Maharashtra,Mumbai,"Sion, Mumbai - MPCB",26-03-2024 06:00:00,19.047000,72.874600,NO2,11,72,26
India,Maharashtra,Mumbai,"Sion, Mumbai - MPCB",26-03-2024 06:00:00,19.047000,72.874600,CO,8,51,14
India,Maharashtra,Mumbai,"Vile Parle West, Mumbai - MPCB",26-03-2024 06:00:00,19.10861,72.83622,NH3,NA,NA,NA
India,Maharashtra,Mumbai,"Vile Parle West, Mumbai - MPCB",26-03-2024 06:00:00,19.10861,72.83622,CO,NA,NA,NA
India,Maharashtra,Mumbai,"Worli, Mumbai - MPCB",26-03-2024 06:00:00,18.9936162,72.8128113,OZONE,7,12,10
India,Maharashtra,Nagpur,"Mahal, Nagpur - MPCB",26-03-2024 06:00:00,21.14472,79.107595,NO2,7,21,11
India,Maharashtra,Nagpur,"Mahal, Nagpur - MPCB",26-03-2024 06:00:00,21.14472,79.107595,SO2,33,89,51
India,Maharashtra,Nagpur,"Opp GPO Civil Lines, Nagpur - MPCB",26-03-2024 06:00:00,21.152875,79.0517531,PM10,58,106,80
India,Maharashtra,Nagpur,"Opp GPO Civil Lines, Nagpur - MPCB",26-03-2024 06:00:00,21.152875,79.0517531,OZONE,15,95,39
India,Maharashtra,Nagpur,"Ram Nagar, Nagpur - MPCB",26-03-2024 06:00:00,21.143383,79.048912,CO,16,46,20
India,Maharashtra,Nanded,"Sneh Nagar, Nanded - MPCB",26-03-2024 06:00:00,19.173852,77.296291,CO,33,40,37
India,Maharashtra,Nashik,"Gangapur Road, Nashik - MPCB",26-03-2024 06:00:00,20.0073285,73.7762427,PM10,33,106,69
India,Maharashtra,Nashik,"Gangapur Road, Nashik - MPCB",26-03-2024 06:00:00,20.0073285,73.7762427,NO2,9,25,12
India,Maharashtra,Nashik,"Gangapur Road, Nashik - MPCB",26-03-2024 06:00:00,20.0073285,73.7762427,OZONE,8,66,25
India,Maharashtra,Nashik,"Hirawadi, Nashik - MPCB",26-03-2024 06:00:00,20.021503,73.813844,PM10,56,88,71
India,Maharashtra,Nashik,"Pandav Nagari, Nashik - MPCB",26-03-2024 06:00:00,19.9591346,73.7788008,SO2,6,100,17
India,Maharashtra,Nashik,"Pandav Nagari, Nashik - MPCB",26-03-2024 06:00:00,19.9591346,73.7788008,CO,12,38,23
India,Maharashtra,Navi Mumbai,"Mahape, Navi Mumbai - MPCB",26-03-2024 06:00:00,19.1135051,73.008978,PM10,50,89,67
India,Maharashtra,Navi Mumbai,"Nerul, Navi Mumbai - MPCB",26-03-2024 06:00:00,19.008751,73.016620,CO,32,78,36
India,Maharashtra,Navi Mumbai,"Sanpada, Navi Mumbai - MPCB",26-03-2024 06:00:00,19.0575752,73.0151367,PM2.5,30,71,54
India,Maharashtra,Navi Mumbai,"Sanpada, Navi Mumbai - MPCB",26-03-2024 06:00:00,19.0575752,73.0151367,NO2,5,18,10
India,Maharashtra,Navi Mumbai,"Sanpada, Navi Mumbai - MPCB",26-03-2024 06:00:00,19.0575752,73.0151367,CO,1,19,6
India,Maharashtra,Navi Mumbai,"Sector-19A Nerul, Navi Mumbai - IITM",26-03-2024 06:00:00,19.044,73.0325,PM2.5,36,110,68
India,Maharashtra,Navi Mumbai,"Sector-19A Nerul, Navi Mumbai - IITM",26-03-2024 06:00:00,19.044,73.0325,NH3,8,18,13
India,Maharashtra,Navi Mumbai,"Sector-2E Kalamboli, Navi Mumbai - MPCB",26-03-2024 06:00:00,19.02579,73.10297,PM10,52,93,70
India,Maharashtra,Navi Mumbai,"Sector-2E Kalamboli, Navi Mumbai - MPCB",26-03-2024 06:00:00,19.02579,73.10297,NO2,17,55,36
India,Maharashtra,Navi Mumbai,"Tondare-Taloja, Navi Mumbai - MPCB",26-03-2024 06:00:00,19.0630,73.1209,NO2,12,50,33
India,Maharashtra,Navi Mumbai,"Tondare-Taloja, Navi Mumbai - MPCB",26-03-2024 06:00:00,19.0630,73.1209,CO,7,68,20
India,Maharashtra,Pimpri-Chinchwad,"Gavalinagar, Pimpri Chinchwad - MPCB",26-03-2024 06:00:00,18.63673,73.82487,NH3,1,5,2
India,Maharashtra,Pimpri-Chinchwad,"Gavalinagar, Pimpri Chinchwad - MPCB",26-03-2024 06:00:00,18.63673,73.82487,CO,15,38,26
India,Maharashtra,Pimpri-Chinchwad,"Park Street Wakad, Pimpri Chinchwad - MPCB",26-03-2024 06:00:00,18.59051,73.77946,PM10,81,118,104
India,Maharashtra,Pimpri-Chinchwad,"Park Street Wakad, Pimpri Chinchwad - MPCB",26-03-2024 06:00:00,18.59051,73.77946,NH3,6,13,8
India,Maharashtra,Pimpri-Chinchwad,"Park Street Wakad, Pimpri Chinchwad - MPCB",26-03-2024 06:00:00,18.59051,73.77946,OZONE,2,73,21
India,Maharashtra,Pimpri-Chinchwad,"Thergaon, Pimpri Chinchwad - MPCB",26-03-2024 06:00:00,18.616318,73.765797,PM10,80,110,94
India,Maharashtra,Pimpri-Chinchwad,"Thergaon, Pimpri Chinchwad - MPCB",26-03-2024 06:00:00,18.616318,73.765797,SO2,3,6,4
India,Maharashtra,Pune,"Mhada Colony, Pune - IITM",26-03-2024 06:00:00,18.573040,73.927715,PM10,39,113,69
India,Maharashtra,Pune,"Revenue Colony-Shivajinagar, Pune - IITM",26-03-2024 06:00:00,18.530085,73.849598,PM10,49,112,75
India,Maharashtra,Pune,"Transport Nagar-Nigdi, Pune - IITM",26-03-2024 06:00:00,18.664282,73.763966,NO2,11,38,17
India,Maharashtra,Solapur,"Ratandeep Housing Society, Solapur - MPCB",26-03-2024 06:00:00,17.65439,75.90649,CO,20,88,27
India,Maharashtra,Thane,"Upvan Fort, Thane - MPCB",26-03-2024 06:00:00,19.222279,72.957979,PM10,NA,NA,NA
India,Maharashtra,Virar,"Bolinj, Virar - MPCB",26-03-2024 06:00:00,19.4458210,72.7988231,NO2,5,33,12
India,Manipur,Imphal,"DM College of Science, Imphal - Manipur PCB",26-03-2024 06:00:00,24.8207389,93.9423085,PM2.5,17,83,32
India,Manipur,Imphal,"Manipur University, Imphal - Manipur PCB",26-03-2024 06:00:00,24.7524239,93.9286218,NO2,7,24,12
India,Manipur,Imphal,"Manipur University, Imphal - Manipur PCB",26-03-2024 06:00:00,24.7524239,93.9286218,NH3,1,1,1
India,Manipur,Imphal,"Manipur University, Imphal - Manipur PCB",26-03-2024 06:00:00,24.7524239,93.9286218,OZONE,1,40,6
India,Meghalaya,Shillong,"Lumpyngngad, Shillong - Meghalaya PCB",26-03-2024 06:00:00,25.5586,91.8985,NO2,1,2,1
India,Mizoram,Aizawl,"Sikulpuikawn, Aizawl - Mizoram PCB",26-03-2024 06:00:00,23.7176342,92.7192841,OZONE,1,30,15
India,Nagaland,Kohima,"PWD Juction, Kohima - NPCB",26-03-2024 06:00:00,25.6635413,94.0989878,PM2.5,55,278,104
India,Nagaland,Kohima,"PWD Juction, Kohima - NPCB",26-03-2024 06:00:00,25.6635413,94.0989878,NH3,1,1,1
India,Odisha,Angul,"Hakimapada, Angul - OSPCB",26-03-2024 06:00:00,20.832874,85.104082,PM10,66,285,135
India,Odisha,Angul,"Hakimapada, Angul - OSPCB",26-03-2024 06:00:00,20.832874,85.104082,NH3,NA,NA,NA
India,Odisha,Angul,"Hakimapada, Angul - OSPCB",26-03-2024 06:00:00,20.832874,85.104082,SO2,8,121,35
India,Odisha,Angul,"Hakimapada, Angul - OSPCB",26-03-2024 06:00:00,20.832874,85.104082,CO,6,102,33
India,Odisha,Balasore,"Kalidaspur, Balasore - OSPCB",26-03-2024 06:00:00,21.51161,86.89088,SO2,15,24,18
India,Odisha,Balasore,"Kalidaspur, Balasore - OSPCB",26-03-2024 06:00:00,21.51161,86.89088,CO,21,107,63
India,Odisha,Barbil,"Forest Office, Barbil - OSPCB",26-03-2024 06:00:00,22.1166054,85.3945546,NH3,4,5,4
India,Odisha,Barbil,"Forest Office, Barbil - OSPCB",26-03-2024 06:00:00,22.1166054,85.3945546,SO2,1,32,9
India,Odisha,Baripada,"Meher Colony, Baripada - OSPCB",26-03-2024 06:00:00,21.941841,86.728318,PM2.5,34,178,104
India,Odisha,Baripada,"Meher Colony, Baripada - OSPCB",26-03-2024 06:00:00,21.941841,86.728318,NO2,1,3,1
India,Odisha,Bhubaneswar,"Lingraj Mandir, Bhubaneswar - OSPCB",26-03-2024 06:00:00,20.240790,85.836784,PM2.5,20,167,61
India,Odisha,Bhubaneswar,"Lingraj Mandir, Bhubaneswar - OSPCB",26-03-2024 06:00:00,20.240790,85.836784,PM10,NA,NA,NA
India,Odisha,Bileipada,"Tata Township, Bileipada - OSPCB",26-03-2024 06:00:00,22.06156703,85.47409613,PM10,117,300,159
India,Odisha,Brajrajnagar,"GM Office, Brajrajnagar - OSPCB",26-03-2024 06:00:00,21.8004996,83.8396977,PM2.5,13,109,47
India,Odisha,Brajrajnagar,"GM Office, Brajrajnagar - OSPCB",26-03-2024 06:00:00,21.8004996,83.8396977,PM10,18,131,65
India,Odisha,Byasanagar,"Ferro Chrome Colony, Byasanagar - OSPCB",26-03-2024 06:00:00,20.94185,86.11510,NO2,6,14,9
India,Odisha,Cuttack,"CDA Area, Cuttack - OSPCB",26-03-2024 06:00:00,20.48891     ,85.84768     ,OZONE,17,92,60
India,Odisha,Keonjhar,"Jagamohanpur, Keonjhar - OSPCB",26-03-2024 06:00:00,21.643900,85.599355,SO2,3,7,4
India,Odisha,Nayagarh,"Dabuna, Nayagarh - OSPCB",26-03-2024 06:00:00,21.847279,85.416905,NO2,NA,NA,NA
India,Odisha,Nayagarh,"Dabuna, Nayagarh - OSPCB",26-03-2024 06:00:00,21.847279,85.416905,NH3,NA,NA,NA
India,Odisha,Nayagarh,"Dabuna, Nayagarh - OSPCB",26-03-2024 06:00:00,21.847279,85.416905,CO,NA,NA,NA
India,Odisha,Rairangpur,"Divisional Forest Office, Rairangpur - OSPCB",26-03-2024 06:00:00,22.265816,86.174829,OZONE,2,45,17
India,Odisha,Rourkela,"Raghunathpali, Rourkela - OSPCB",26-03-2024 06:00:00,22.220833,84.809444,PM2.5,33,131,69
India,Odisha,Rourkela,"Raghunathpali, Rourkela - OSPCB",26-03-2024 06:00:00,22.220833,84.809444,PM10,62,162,102
India,Odisha,Rourkela,"Raghunathpali, Rourkela - OSPCB",26-03-2024 06:00:00,22.220833,84.809444,NO2,16,94,42
India,Odisha,Rourkela,"Raghunathpali, Rourkela - OSPCB",26-03-2024 06:00:00,22.220833,84.809444,NH3,1,3,3
India,Odisha,Rourkela,"Sector-2, Rourkela - OSPCB",26-03-2024 06:00:00,22.24500000,84.88111111,PM10,55,177,101
India,Odisha,Suakati,"OMC Colony, Suakati - OSPCB",26-03-2024 06:00:00,21.606865,85.510538,NO2,NA,NA,NA
India,Odisha,Suakati,"OMC Colony, Suakati - OSPCB",26-03-2024 06:00:00,21.606865,85.510538,CO,18,32,26
India,Odisha,Suakati,"OMC Colony, Suakati - OSPCB",26-03-2024 06:00:00,21.606865,85.510538,OZONE,NA,NA,NA
India,Odisha,Talcher,"Talcher Coalfields,Talcher - OSPCB",26-03-2024 06:00:00,20.9360711,85.1707021,PM2.5,7,379,100
India,Odisha,Talcher,"Talcher Coalfields,Talcher - OSPCB",26-03-2024 06:00:00,20.9360711,85.1707021,CO,6,103,23
India,Odisha,Talcher,"Talcher Coalfields,Talcher - OSPCB",26-03-2024 06:00:00,20.9360711,85.1707021,OZONE,1,9,2
India,Odisha,Tensa,"Barsua Iron Ore Mines, Tensa - OSPCB",26-03-2024 06:00:00,21.869985,85.167016,PM2.5,NA,NA,NA
India,Odisha,Tensa,"Barsua Iron Ore Mines, Tensa - OSPCB",26-03-2024 06:00:00,21.869985,85.167016,NH3,NA,NA,NA
India,Odisha,Tensa,"Barsua Iron Ore Mines, Tensa - OSPCB",26-03-2024 06:00:00,21.869985,85.167016,SO2,13,25,19
India,Odisha,Tensa,"Barsua Iron Ore Mines, Tensa - OSPCB",26-03-2024 06:00:00,21.869985,85.167016,OZONE,22,72,31
India,Puducherry,Puducherry,"Jawahar Nagar, Puducherry - PPCC",26-03-2024 06:00:00,11.9309,79.8027,PM2.5,12,43,23
India,Punjab,Amritsar,"Golden Temple, Amritsar - PPCB",26-03-2024 06:00:00,31.620000,74.876512,OZONE,48,62,57
India,Punjab,Bathinda,"Hardev Nagar, Bathinda - PPCB",26-03-2024 06:00:00,30.233011,74.907758,PM10,NA,NA,NA
India,Punjab,Bathinda,"Hardev Nagar, Bathinda - PPCB",26-03-2024 06:00:00,30.233011,74.907758,SO2,NA,NA,NA
India,Punjab,Jalandhar,"Civil Line, Jalandhar - PPCB",26-03-2024 06:00:00,31.321907,75.578914,OZONE,6,88,27
India,Punjab,Khanna,"Kalal Majra, Khanna - PPCB",26-03-2024 06:00:00,30.736056 ,76.209694,NO2,24,25,25
India,Punjab,Ludhiana,"Punjab Agricultural University, Ludhiana - PPCB",26-03-2024 06:00:00,30.9028,75.8086,PM2.5,33,77,55
India,Punjab,Ludhiana,"Punjab Agricultural University, Ludhiana - PPCB",26-03-2024 06:00:00,30.9028,75.8086,SO2,10,14,12
India,Punjab,Mandi Gobindgarh,"RIMT University, Mandi Gobindgarh - PPCB",26-03-2024 06:00:00,30.649961,76.331442,PM10,57,186,100
India,Punjab,Mandi Gobindgarh,"RIMT University, Mandi Gobindgarh - PPCB",26-03-2024 06:00:00,30.649961,76.331442,SO2,8,33,15
India,Punjab,Patiala,"Model Town, Patiala - PPCB",26-03-2024 06:00:00,30.349388,76.366642,PM2.5,42,96,60
India,Punjab,Patiala,"Model Town, Patiala - PPCB",26-03-2024 06:00:00,30.349388,76.366642,SO2,2,31,9
India,Punjab,Rupnagar,"Ratanpura, Rupnagar - Ambuja Cements",26-03-2024 06:00:00,31.0325454,76.5623046,PM10,81,379,194
India,Punjab,Rupnagar,"Ratanpura, Rupnagar - Ambuja Cements",26-03-2024 06:00:00,31.0325454,76.5623046,CO,28,62,36
India,Rajasthan,Ajmer,"Civil Lines,  Ajmer - RSPCB",26-03-2024 06:00:00,26.470859,74.646594,OZONE,14,90,21
India,Rajasthan,Alwar,"Moti Doongri, Alwar - RSPCB",26-03-2024 06:00:00,27.554793,76.611536,NH3,4,9,7
India,Rajasthan,Alwar,"Moti Doongri, Alwar - RSPCB",26-03-2024 06:00:00,27.554793,76.611536,OZONE,7,18,11
India,Rajasthan,Baran,"Bamboliya, Baran - RSPCB",26-03-2024 06:00:00,25.106006,76.469948,PM2.5,41,93,61
India,Rajasthan,Bharatpur,"Krishna Nagar, Bharatpur - RSPCB",26-03-2024 06:00:00,27.215415,77.50873,CO,42,101,80
India,Rajasthan,Bharatpur,"Krishna Nagar, Bharatpur - RSPCB",26-03-2024 06:00:00,27.215415,77.50873,OZONE,11,119,46
India,Rajasthan,Bhilwara,"Pratap Nagar, Bhilwara - RSPCB",26-03-2024 06:00:00,25.339605,74.618883,OZONE,NA,NA,NA
India,Rajasthan,Bhiwadi,"Vasundhara Nagar_UIT, Bhiwadi - RSPCB",26-03-2024 06:00:00,28.207266,76.829265,PM2.5,12,149,41
India,Rajasthan,Bikaner,"MM Ground, Bikaner - RSPCB",26-03-2024 06:00:00,28.018792,73.292658,NO2,16,75,40
India,Rajasthan,Bikaner,"MM Ground, Bikaner - RSPCB",26-03-2024 06:00:00,28.018792,73.292658,NH3,9,15,11
India,Rajasthan,Bikaner,"MM Ground, Bikaner - RSPCB",26-03-2024 06:00:00,28.018792,73.292658,SO2,1,6,4
India,Rajasthan,Bundi,"New Colony, Bundi - RSPCB",26-03-2024 06:00:00,25.435774,75.644272,NH3,2,3,3
India,Rajasthan,Bundi,"New Colony, Bundi - RSPCB",26-03-2024 06:00:00,25.435774,75.644272,OZONE,12,142,55
India,Rajasthan,Chittorgarh,"Shastri Nagar, Chittorgarh - RSPCB",26-03-2024 06:00:00,24.892047,74.623527,NH3,11,16,13
India,Rajasthan,Churu,"Subash Chowk, Churu - RSPCB",26-03-2024 06:00:00,28.296139,74.961696,PM2.5,18,143,47
India,Rajasthan,Dausa,"Khatikan Mohalla, Dausa - RSPCB",26-03-2024 06:00:00,26.895552,76.334753,SO2,NA,NA,NA
India,Rajasthan,Dausa,"Khatikan Mohalla, Dausa - RSPCB",26-03-2024 06:00:00,26.895552,76.334753,OZONE,9,95,30
India,Rajasthan,Dholpur,"Raja Ganj, Dholpur - RSPCB",26-03-2024 06:00:00,26.699557,77.898881,PM2.5,32,337,112
India,Rajasthan,Dholpur,"Raja Ganj, Dholpur - RSPCB",26-03-2024 06:00:00,26.699557,77.898881,OZONE,37,126,53
India,Rajasthan,Dungarpur,"Bhoiwada, Dungarpur - RSPCB",26-03-2024 06:00:00,23.837789,73.714926,NO2,7,29,15
India,Rajasthan,Hanumangarh,"Housing Board, Hanumangarh - RSPCB",26-03-2024 06:00:00,29.610750,74.283608,PM2.5,33,305,110
India,Rajasthan,Hanumangarh,"Housing Board, Hanumangarh - RSPCB",26-03-2024 06:00:00,29.610750,74.283608,NO2,9,59,25
India,Rajasthan,Jaipur,"Mansarovar Sector-12, Jaipur - RSPCB",26-03-2024 06:00:00,26.843698,75.766894,PM2.5,30,154,69
India,Rajasthan,Jaipur,"RIICO Sitapura, Jaipur - RSPCB",26-03-2024 06:00:00,26.786682,75.827928,NH3,1,10,4
India,Rajasthan,Jaipur,"RIICO Sitapura, Jaipur - RSPCB",26-03-2024 06:00:00,26.786682,75.827928,SO2,12,27,17
India,Rajasthan,Jaipur,"Sector-2 Murlipura, Jaipur - RSPCB",26-03-2024 06:00:00,26.960669,75.771817,PM2.5,36,76,53
India,Rajasthan,Jaipur,"Sector-2 Murlipura, Jaipur - RSPCB",26-03-2024 06:00:00,26.960669,75.771817,OZONE,NA,NA,NA
India,Rajasthan,Jaipur,"Shastri Nagar, Jaipur - RSPCB",26-03-2024 06:00:00,26.9502929,75.730943,PM2.5,44,107,71
India,Rajasthan,Jaipur,"Shastri Nagar, Jaipur - RSPCB",26-03-2024 06:00:00,26.9502929,75.730943,NO2,4,45,19
India,Rajasthan,Jaisalmer,"Sadar Bazar, Jaisalmer - RSPCB",26-03-2024 06:00:00,26.912329,70.909168,SO2,3,8,6
India,Rajasthan,Jalore,"Mudtra Sili, Jalore - RSPCB",26-03-2024 06:00:00,25.344694,72.626208,SO2,3,6,4
India,Rajasthan,Jhalawar,"Rajlaxmi Nagar, Jhalawar - RSPCB",26-03-2024 06:00:00,24.588397,76.172782,PM2.5,23,84,47
India,Rajasthan,Jodhpur,"Digari Kalan, Jodhpur - RSPCB",26-03-2024 06:00:00,26.295810,73.082283,NO2,5,47,23
India,Rajasthan,Jodhpur,"Jhalamand, Jodhpur - RSPCB",26-03-2024 06:00:00,26.215415,73.070156,PM10,75,408,154
India,Rajasthan,Jodhpur,"Mandor, Jodhpur - RSPCB",26-03-2024 06:00:00,26.358805,73.047444,NH3,4,10,7
India,Rajasthan,Jodhpur,"Mandor, Jodhpur - RSPCB",26-03-2024 06:00:00,26.358805,73.047444,CO,12,22,18
India,Rajasthan,Jodhpur,"Samrat Ashok Udhyan, Jodhpur - RSPCB",26-03-2024 06:00:00,26.253384,72.976571,NH3,4,8,6
India,Rajasthan,Kota,"Dhanmandi, Kota - RSPCB",26-03-2024 06:00:00,25.164090,75.858137,NO2,7,119,43
India,Rajasthan,Kota,"Nayapura, Kota - RSPCB",26-03-2024 06:00:00,25.196024,75.855668,PM2.5,36,226,81
India,Rajasthan,Kota,"Shrinath Puram, Kota - RSPCB",26-03-2024 06:00:00,25.14389,75.821256,NO2,5,100,28
India,Rajasthan,Kota,"Shrinath Puram, Kota - RSPCB",26-03-2024 06:00:00,25.14389,75.821256,OZONE,7,89,18
India,Rajasthan,Pratapgarh,"Pragati Nagar, Pratapgarh - RSPCB",26-03-2024 06:00:00,24.041198,74.780702,OZONE,46,91,59
India,Rajasthan,Sawai Madhopur,"Sahu Nagar, Sawai Madhopur - RSPCB",26-03-2024 06:00:00,26.031443,76.359327,PM10,53,277,99
India,Rajasthan,Sikar,"Radhakishan Pura, Sikar - RSPCB",26-03-2024 06:00:00,27.608912,75.153302,PM10,57,188,90
India,Rajasthan,Sikar,"Radhakishan Pura, Sikar - RSPCB",26-03-2024 06:00:00,27.608912,75.153302,SO2,1,5,2
India,Rajasthan,Sri Ganganagar,"Old City, Sri Ganganagar - RSPCB",26-03-2024 06:00:00,29.931624,73.864511,PM10,101,475,228
India,Rajasthan,Sri Ganganagar,"Old City, Sri Ganganagar - RSPCB",26-03-2024 06:00:00,29.931624,73.864511,NH3,5,33,13
India,Rajasthan,Sri Ganganagar,"Old City, Sri Ganganagar - RSPCB",26-03-2024 06:00:00,29.931624,73.864511,CO,89,125,111
India,Rajasthan,Sri Ganganagar,"Old City, Sri Ganganagar - RSPCB",26-03-2024 06:00:00,29.931624,73.864511,OZONE,4,65,7
India,Rajasthan,Tonk,"Shastri Nagar, Tonk - RSPCB",26-03-2024 06:00:00,26.159933,75.780517,NH3,3,27,8
India,TamilNadu,Ariyalur,"Keelapalur, Ariyalur - TNPCB",26-03-2024 06:00:00,11.06825,79.07033,SO2,35,44,36
India,TamilNadu,Chennai,"Alandur Bus Depot, Chennai - CPCB",26-03-2024 06:00:00,12.9099161,80.1076538,NO2,NA,NA,NA
India,TamilNadu,Chennai,"Alandur Bus Depot, Chennai - CPCB",26-03-2024 06:00:00,12.9099161,80.1076538,SO2,3,9,5
India,TamilNadu,Chennai,"Alandur Bus Depot, Chennai - CPCB",26-03-2024 06:00:00,12.9099161,80.1076538,CO,55,105,94
India,TamilNadu,Chennai,"Kodungaiyur, Chennai - TNPCB",26-03-2024 06:00:00,13.1278,80.2642,PM2.5,10,38,18
India,TamilNadu,Chennai,"Kodungaiyur, Chennai - TNPCB",26-03-2024 06:00:00,13.1278,80.2642,PM10,22,100,44
India,TamilNadu,Chennai,"Kodungaiyur, Chennai - TNPCB",26-03-2024 06:00:00,13.1278,80.2642,NO2,7,19,10
India,TamilNadu,Chennai,"Manali, Chennai - CPCB",26-03-2024 06:00:00,13.164544,80.26285,NO2,5,11,8
India,TamilNadu,Chennai,"Manali, Chennai - CPCB",26-03-2024 06:00:00,13.164544,80.26285,CO,77,110,90
India,TamilNadu,Chennai,"Perungudi, Chennai - TNPCB",26-03-2024 06:00:00,12.9533,80.2357,PM10,32,115,50
India,TamilNadu,Chennai,"Royapuram, Chennai - TNPCB",26-03-2024 06:00:00,13.1036,80.2909,SO2,NA,NA,NA
India,TamilNadu,Chennai,"Royapuram, Chennai - TNPCB",26-03-2024 06:00:00,13.1036,80.2909,CO,19,28,23
India,TamilNadu,Chennai,"Velachery Res. Area, Chennai - CPCB",26-03-2024 06:00:00,13.0052189,80.2398125,PM2.5,46,68,56
India,TamilNadu,Chennai,"Velachery Res. Area, Chennai - CPCB",26-03-2024 06:00:00,13.0052189,80.2398125,CO,10,85,32
India,TamilNadu,Chennai,"Velachery Res. Area, Chennai - CPCB",26-03-2024 06:00:00,13.0052189,80.2398125,OZONE,2,11,5
India,TamilNadu,Coimbatore,"PSG College of Arts and Science, Coimbatore - TNPCB",26-03-2024 06:00:00,11.0328,77.0349,PM2.5,NA,NA,NA
India,TamilNadu,Coimbatore,"PSG College of Arts and Science, Coimbatore - TNPCB",26-03-2024 06:00:00,11.0328,77.0349,OZONE,NA,NA,NA
India,TamilNadu,Cuddalore,"Semmandalam, Cuddalore - TNPCB",26-03-2024 06:00:00,11.7637683,79.7499835,OZONE,1,2,2
India,TamilNadu,Gummidipoondi,"Anthoni Pillai Nagar, Gummidipoondi - TNPCB",26-03-2024 06:00:00,13.4127,80.1081,PM10,32,116,64
India,TamilNadu,Ooty,"Bombay Castel, Ooty - TNPCB",26-03-2024 06:00:00,11.4068288,76.7138973,PM2.5,22,89,59
India,TamilNadu,Ooty,"Bombay Castel, Ooty - TNPCB",26-03-2024 06:00:00,11.4068288,76.7138973,NO2,1,62,13
India,TamilNadu,Ooty,"Bombay Castel, Ooty - TNPCB",26-03-2024 06:00:00,11.4068288,76.7138973,OZONE,4,6,5
India,TamilNadu,Palkalaiperur,"Bharathidasan University, Palkalaiperur - TNPCB",26-03-2024 06:00:00,10.681158,78.741746,PM2.5,22,42,30
India,TamilNadu,Palkalaiperur,"Bharathidasan University, Palkalaiperur - TNPCB",26-03-2024 06:00:00,10.681158,78.741746,SO2,27,35,28
India,TamilNadu,Ramanathapuram,"Chalai Bazaar, Ramanathapuram - TNPCB",26-03-2024 06:00:00,9.36399,78.831977,PM2.5,17,50,35
India,TamilNadu,Salem,"Sona College of Technology, Salem - TNPCB",26-03-2024 06:00:00,11.679111,78.125052,NO2,NA,NA,NA
India,TamilNadu,Thoothukudi,"Meelavittan, Thoothukudi - TNPCB",26-03-2024 06:00:00,8.816428 ,78.099039,NO2,13,21,17
India,TamilNadu,Vellore,"Vasanthapuram, Vellore - TNPCB",26-03-2024 06:00:00,12.909494,79.131861,NH3,1,1,1
India,Telangana,Hyderabad,"Central University, Hyderabad - TSPCB",26-03-2024 06:00:00,17.460103,78.334361,NO2,13,40,28
India,Telangana,Hyderabad,"Central University, Hyderabad - TSPCB",26-03-2024 06:00:00,17.460103,78.334361,CO,7,43,20
India,Telangana,Hyderabad,"ECIL Kapra, Hyderabad - TSPCB",26-03-2024 06:00:00,17.470431,78.566959,PM10,68,82,74
India,Telangana,Hyderabad,"ECIL Kapra, Hyderabad - TSPCB",26-03-2024 06:00:00,17.470431,78.566959,NO2,8,12,9
India,Telangana,Hyderabad,"ECIL Kapra, Hyderabad - TSPCB",26-03-2024 06:00:00,17.470431,78.566959,CO,21,34,29
India,Telangana,Hyderabad,"ICRISAT Patancheru, Hyderabad - TSPCB",26-03-2024 06:00:00,17.518400,78.278777,PM10,38,102,60
India,Telangana,Hyderabad,"ICRISAT Patancheru, Hyderabad - TSPCB",26-03-2024 06:00:00,17.518400,78.278777,NO2,16,18,17
India,Telangana,Hyderabad,"ICRISAT Patancheru, Hyderabad - TSPCB",26-03-2024 06:00:00,17.518400,78.278777,CO,18,68,45
India,Telangana,Hyderabad,"IITH Kandi, Hyderabad - TSPCB",26-03-2024 06:00:00,17.585705,78.126199,OZONE,10,36,19
India,Telangana,Hyderabad,"Kokapet, Hyderabad - TSPCB",26-03-2024 06:00:00,17.393559,78.339194,NO2,7,10,10
India,Telangana,Hyderabad,"Kokapet, Hyderabad - TSPCB",26-03-2024 06:00:00,17.393559,78.339194,NH3,1,2,1
India,Telangana,Hyderabad,"Kokapet, Hyderabad - TSPCB",26-03-2024 06:00:00,17.393559,78.339194,SO2,10,13,13
India,Telangana,Hyderabad,"Kokapet, Hyderabad - TSPCB",26-03-2024 06:00:00,17.393559,78.339194,CO,22,31,22
India,Telangana,Hyderabad,"Kokapet, Hyderabad - TSPCB",26-03-2024 06:00:00,17.393559,78.339194,OZONE,3,40,5
India,Telangana,Hyderabad,"Kompally Municipal Office, Hyderabad - TSPCB",26-03-2024 06:00:00,17.544899,78.486949,PM2.5,32,50,39
India,Telangana,Hyderabad,"Nacharam_TSIIC IALA, Hyderabad - TSPCB",26-03-2024 06:00:00,17.429398,78.569354,SO2,NA,NA,NA
India,Telangana,Hyderabad,"Sanathnagar, Hyderabad - TSPCB",26-03-2024 06:00:00,17.4559458,78.4332152,PM2.5,44,89,61
India,Telangana,Hyderabad,"Somajiguda, Hyderabad - TSPCB",26-03-2024 06:00:00,17.417094,78.457437,PM2.5,NA,NA,NA
India,Telangana,Hyderabad,"Zoo Park, Hyderabad - TSPCB",26-03-2024 06:00:00,17.349694,78.451437,PM10,80,157,126
India,Telangana,Hyderabad,"Zoo Park, Hyderabad - TSPCB",26-03-2024 06:00:00,17.349694,78.451437,SO2,1,7,2
India,Telangana,Hyderabad,"Zoo Park, Hyderabad - TSPCB",26-03-2024 06:00:00,17.349694,78.451437,CO,29,82,59
India,Tripura,Agartala,"Bardowali, Agartala - Tripura SPCB",26-03-2024 06:00:00,23.8175497,91.2726974,PM2.5,72,133,98
India,Tripura,Agartala,"Bardowali, Agartala - Tripura SPCB",26-03-2024 06:00:00,23.8175497,91.2726974,NH3,3,5,4
India,Uttar_Pradesh,Agra,"Rohta, Agra - UPPCB",26-03-2024 06:00:00,27.106972,78.000111,CO,8,30,13
India,Uttar_Pradesh,Agra,"Sector-3B Avas Vikas Colony, Agra - UPPCB",26-03-2024 06:00:00,27.19412,77.96237,OZONE,2,7,4
India,Uttar_Pradesh,Agra,"Shahjahan Garden, Agra - UPPCB",26-03-2024 06:00:00,27.169338,78.03582,PM2.5,14,185,51
India,Uttar_Pradesh,Agra,"Shahjahan Garden, Agra - UPPCB",26-03-2024 06:00:00,27.169338,78.03582,SO2,36,68,60
India,Uttar_Pradesh,Agra,"Shastripuram, Agra - UPPCB",26-03-2024 06:00:00,27.19862,77.92066,PM10,10,158,82
India,Uttar_Pradesh,Agra,"Shastripuram, Agra - UPPCB",26-03-2024 06:00:00,27.19862,77.92066,SO2,13,14,13
India,Uttar_Pradesh,Agra,"Shastripuram, Agra - UPPCB",26-03-2024 06:00:00,27.19862,77.92066,CO,8,22,10
India,Uttar_Pradesh,Baghpat,"Sardar Patel Inter College, Baghpat - UPPCB",26-03-2024 06:00:00,28.964949,77.278761,PM10,41,120,65
India,Uttar_Pradesh,Baghpat,"Sardar Patel Inter College, Baghpat - UPPCB",26-03-2024 06:00:00,28.964949,77.278761,OZONE,7,62,29
India,Uttar_Pradesh,Bareilly,"Civil Lines, Bareilly - UPPCB",26-03-2024 06:00:00,28.359581,79.414455,NO2,NA,NA,NA
India,Uttar_Pradesh,Bareilly,"Civil Lines, Bareilly - UPPCB",26-03-2024 06:00:00,28.359581,79.414455,CO,NA,NA,NA
India,Uttar_Pradesh,Bareilly,"Rajendra Nagar, Bareilly - UPPCB",26-03-2024 06:00:00,28.38910936,79.42963708,PM10,35,110,55
India,Uttar_Pradesh,Bulandshahr,"Yamunapuram, Bulandshahr - UPPCB",26-03-2024 06:00:00,28.406963,77.849831,PM10,41,108,77
India,Uttar_Pradesh,Bulandshahr,"Yamunapuram, Bulandshahr - UPPCB",26-03-2024 06:00:00,28.406963,77.849831,CO,12,43,34
India,Uttar_Pradesh,Firozabad,"Nagla Bhau, Firozabad - UPPCB",26-03-2024 06:00:00,27.168897,78.376960,NO2,15,17,17
India,Uttar_Pradesh,Firozabad,"Nagla Bhau, Firozabad - UPPCB",26-03-2024 06:00:00,27.168897,78.376960,SO2,12,21,14
India,Uttar_Pradesh,Firozabad,"Vibhab Nagar, Firozabad - UPPCB",26-03-2024 06:00:00,27.1594,78.3953,NO2,14,14,14
India,Uttar_Pradesh,Firozabad,"Vibhab Nagar, Firozabad - UPPCB",26-03-2024 06:00:00,27.1594,78.3953,CO,16,54,21
India,Uttar_Pradesh,Ghaziabad,"Loni, Ghaziabad - UPPCB",26-03-2024 06:00:00,28.757294,77.278792,PM2.5,19,198,79
India,Uttar_Pradesh,Ghaziabad,"Loni, Ghaziabad - UPPCB",26-03-2024 06:00:00,28.757294,77.278792,PM10,64,132,89
India,Uttar_Pradesh,Ghaziabad,"Loni, Ghaziabad - UPPCB",26-03-2024 06:00:00,28.757294,77.278792,SO2,8,25,14
India,Uttar_Pradesh,Ghaziabad,"Loni, Ghaziabad - UPPCB",26-03-2024 06:00:00,28.757294,77.278792,OZONE,9,64,33
India,Uttar_Pradesh,Ghaziabad,"Vasundhara, Ghaziabad - UPPCB",26-03-2024 06:00:00,28.6603346,77.3572563,SO2,4,58,33
India,Uttar_Pradesh,Gorakhpur,"Madan Mohan Malaviya University of Technology, Gorakhpur - UPPCB",26-03-2024 06:00:00,26.730136,83.433859,PM2.5,100,298,208
India,Uttar_Pradesh,Gorakhpur,"Madan Mohan Malaviya University of Technology, Gorakhpur - UPPCB",26-03-2024 06:00:00,26.730136,83.433859,PM10,102,146,124
India,Uttar_Pradesh,Gorakhpur,"Madan Mohan Malaviya University of Technology, Gorakhpur - UPPCB",26-03-2024 06:00:00,26.730136,83.433859,CO,22,32,24
India,Uttar_Pradesh,Greater Noida,"Knowledge Park - III, Greater Noida - UPPCB",26-03-2024 06:00:00,28.47272,77.482000,NO2,10,52,29
India,Uttar_Pradesh,Greater Noida,"Knowledge Park - III, Greater Noida - UPPCB",26-03-2024 06:00:00,28.47272,77.482000,CO,38,101,74
India,Uttar_Pradesh,Greater Noida,"Knowledge Park - V, Greater Noida - UPPCB",26-03-2024 06:00:00,28.557054,77.453663,PM10,67,171,112
India,Uttar_Pradesh,Greater Noida,"Knowledge Park - V, Greater Noida - UPPCB",26-03-2024 06:00:00,28.557054,77.453663,NO2,37,48,43
India,Uttar_Pradesh,Greater Noida,"Knowledge Park - V, Greater Noida - UPPCB",26-03-2024 06:00:00,28.557054,77.453663,NH3,4,6,5
India,Uttar_Pradesh,Hapur,"Anand Vihar, Hapur - UPPCB",26-03-2024 06:00:00,28.725645,77.749675,SO2,24,100,48
India,Uttar_Pradesh,Jhansi,"Shivaji Nagar, Jhansi - UPPCB",26-03-2024 06:00:00,25.4547,78.6039,CO,10,47,32
India,Uttar_Pradesh,Jhansi,"Shivaji Nagar, Jhansi - UPPCB",26-03-2024 06:00:00,25.4547,78.6039,OZONE,5,17,7
India,Uttar_Pradesh,Kanpur,"NSI Kalyanpur, Kanpur - UPPCB",26-03-2024 06:00:00,26.509954,80.249612,PM10,67,149,99
India,Uttar_Pradesh,Kanpur,"NSI Kalyanpur, Kanpur - UPPCB",26-03-2024 06:00:00,26.509954,80.249612,NH3,1,1,1
India,Uttar_Pradesh,Kanpur,"NSI Kalyanpur, Kanpur - UPPCB",26-03-2024 06:00:00,26.509954,80.249612,CO,38,73,45
India,Uttar_Pradesh,Khurja,"Kalindi Kunj, Khurja - UPPCB",26-03-2024 06:00:00,28.2348927,77.8683002,PM10,31,109,71
India,Uttar_Pradesh,Lucknow,"Gomti Nagar, Lucknow - UPPCB",26-03-2024 06:00:00,26.868120,81.005119,NO2,20,25,24
India,Uttar_Pradesh,Lucknow,"Gomti Nagar, Lucknow - UPPCB",26-03-2024 06:00:00,26.868120,81.005119,SO2,4,15,10
India,Uttar_Pradesh,Lucknow,"Kendriya Vidyalaya, Lucknow - CPCB",26-03-2024 06:00:00,26.906111,80.948222,SO2,3,8,5
India,Uttar_Pradesh,Lucknow,"Kukrail Picnic Spot-1, Lucknow - UPPCB",26-03-2024 06:00:00,26.90723,80.98579,OZONE,4,76,31
India,Uttar_Pradesh,Lucknow,"Lalbagh, Lucknow - CPCB",26-03-2024 06:00:00,26.8458805,80.9365541,SO2,2,14,9
India,Uttar_Pradesh,Meerut,"Ganga Nagar, Meerut - UPPCB",26-03-2024 06:00:00,28.999264,77.7590354,NO2,13,42,22
India,Uttar_Pradesh,Meerut,"Pallavpuram Phase 2, Meerut - UPPCB",26-03-2024 06:00:00,29.063510,77.709723,OZONE,1,72,20
India,Uttar_Pradesh,Moradabad,"Eco Herbal Park, Moradabad - UPPCB",26-03-2024 06:00:00,28.840739,78.697531,PM10,33,112,58
India,Uttar_Pradesh,Moradabad,"Employment Office, Moradabad - UPPCB",26-03-2024 06:00:00,28.88528,78.73880,PM10,44,126,81
India,Uttar_Pradesh,Moradabad,"Employment Office, Moradabad - UPPCB",26-03-2024 06:00:00,28.88528,78.73880,NH3,3,4,4
India,Uttar_Pradesh,Moradabad,"Jigar Colony, Moradabad - UPPCB",26-03-2024 06:00:00,28.856664,78.772638,PM10,52,183,90
India,Uttar_Pradesh,Moradabad,"Kashiram Nagar, Moradabad - UPPCB",26-03-2024 06:00:00,28.849399,78.742362,NO2,1,1,1
India,Uttar_Pradesh,Moradabad,"Kashiram Nagar, Moradabad - UPPCB",26-03-2024 06:00:00,28.849399,78.742362,SO2,28,43,36
India,Uttar_Pradesh,Moradabad,"Kashiram Nagar, Moradabad - UPPCB",26-03-2024 06:00:00,28.849399,78.742362,CO,30,52,32
India,Uttar_Pradesh,Moradabad,"Transport Nagar, Moradabad - UPPCB",26-03-2024 06:00:00,28.802625,78.753728,NO2,8,20,13
India,Uttar_Pradesh,Moradabad,"Transport Nagar, Moradabad - UPPCB",26-03-2024 06:00:00,28.802625,78.753728,OZONE,15,33,19
India,Uttar_Pradesh,Muzaffarnagar,"New Mandi, Muzaffarnagar - UPPCB",26-03-2024 06:00:00,29.4723508,77.7194031,NH3,11,12,11
India,Uttar_Pradesh,Muzaffarnagar,"New Mandi, Muzaffarnagar - UPPCB",26-03-2024 06:00:00,29.4723508,77.7194031,OZONE,16,86,48
India,Uttar_Pradesh,Noida,"Sector - 125, Noida - UPPCB",26-03-2024 06:00:00,28.5447608,77.3231257,NH3,10,19,13
India,Uttar_Pradesh,Noida,"Sector - 62, Noida - IMD",26-03-2024 06:00:00,28.6245479,77.3577104,PM2.5,37,322,76
India,Uttar_Pradesh,Noida,"Sector - 62, Noida - IMD",26-03-2024 06:00:00,28.6245479,77.3577104,NO2,1,6,3
India,Uttar_Pradesh,Noida,"Sector - 62, Noida - IMD",26-03-2024 06:00:00,28.6245479,77.3577104,OZONE,12,29,16
India,Uttar_Pradesh,Noida,"Sector-1, Noida - UPPCB",26-03-2024 06:00:00,28.5898,77.3101,PM2.5,24,335,119
India,Uttar_Pradesh,Noida,"Sector-1, Noida - UPPCB",26-03-2024 06:00:00,28.5898,77.3101,PM10,68,206,120
India,Uttar_Pradesh,Noida,"Sector-1, Noida - UPPCB",26-03-2024 06:00:00,28.5898,77.3101,NH3,3,5,4
India,Uttar_Pradesh,Noida,"Sector-1, Noida - UPPCB",26-03-2024 06:00:00,28.5898,77.3101,CO,2,44,33
India,Uttar_Pradesh,Noida,"Sector-116, Noida - UPPCB",26-03-2024 06:00:00,28.569230,77.393848,NO2,12,42,26
India,Uttar_Pradesh,Prayagraj,"Jhunsi, Prayagraj - UPPCB",26-03-2024 06:00:00,25.425602,81.917152,PM2.5,7,198,58
India,Uttar_Pradesh,Prayagraj,"Jhunsi, Prayagraj - UPPCB",26-03-2024 06:00:00,25.425602,81.917152,NH3,5,5,5
India,Uttar_Pradesh,Prayagraj,"Jhunsi, Prayagraj - UPPCB",26-03-2024 06:00:00,25.425602,81.917152,OZONE,1,44,10
India,Uttar_Pradesh,Prayagraj,"Motilal Nehru NIT, Prayagraj - UPPCB",26-03-2024 06:00:00,25.494,81.863,PM2.5,28,305,81
India,Uttar_Pradesh,Prayagraj,"Motilal Nehru NIT, Prayagraj - UPPCB",26-03-2024 06:00:00,25.494,81.863,NO2,12,12,12
India,Uttar_Pradesh,Prayagraj,"Motilal Nehru NIT, Prayagraj - UPPCB",26-03-2024 06:00:00,25.494,81.863,NH3,6,7,7
India,Uttar_Pradesh,Prayagraj,"Nagar Nigam, Prayagraj - UPPCB",26-03-2024 06:00:00,25.44919916 ,81.82735986 ,PM2.5,37,317,95
India,Uttar_Pradesh,Prayagraj,"Nagar Nigam, Prayagraj - UPPCB",26-03-2024 06:00:00,25.44919916 ,81.82735986 ,NH3,4,10,6
India,Uttar_Pradesh,Varanasi,"Ardhali Bazar, Varanasi - UPPCB",26-03-2024 06:00:00,25.3505986,82.9083074,PM2.5,15,60,35
India,Uttar_Pradesh,Varanasi,"Ardhali Bazar, Varanasi - UPPCB",26-03-2024 06:00:00,25.3505986,82.9083074,CO,2,15,9
India,Uttar_Pradesh,Varanasi,"IESD Banaras Hindu University, Varanasi - UPPCB",26-03-2024 06:00:00,25.262326,82.995408,PM2.5,NA,NA,NA
India,Uttar_Pradesh,Varanasi,"IESD Banaras Hindu University, Varanasi - UPPCB",26-03-2024 06:00:00,25.262326,82.995408,CO,10,28,25
India,Uttar_Pradesh,Vrindavan,"Omex Eternity, Vrindavan - UPPCB",26-03-2024 06:00:00,27.5714090,77.6557570,SO2,39,42,40
India,Uttarakhand,Dehradun,"Doon University, Dehradun - UKPCB",26-03-2024 06:00:00,30.269444,78.044167,PM10,32,107,64
India,Uttarakhand,Kashipur,"Govt. Girls Inter College, Kashipur - UKPCB",26-03-2024 06:00:00,29.2124114,78.9611753,PM2.5,41,159,69
India,Uttarakhand,Kashipur,"Govt. Girls Inter College, Kashipur - UKPCB",26-03-2024 06:00:00,29.2124114,78.9611753,NO2,NA,NA,NA
India,Uttarakhand,Rishikesh,"Shivaji Nagar, Rishikesh - UKPCB",26-03-2024 06:00:00,30.075911,78.2859547,OZONE,10,90,32
India,West_Bengal,Barrackpore,"SVSPA Campus, Barrackpore - WBPCB",26-03-2024 06:00:00,22.7605581,88.3617589,PM2.5,16,96,54
India,West_Bengal,Barrackpore,"SVSPA Campus, Barrackpore - WBPCB",26-03-2024 06:00:00,22.7605581,88.3617589,PM10,27,116,70
India,West_Bengal,Durgapur,"Sidhu Kanhu Indoor Stadium, Durgapur - WBPCB",26-03-2024 06:00:00,23.5404352,87.2892225,NH3,3,4,3
India,West_Bengal,Haldia,"Priyambada Housing Estate, Haldia - WBPCB",26-03-2024 06:00:00,22.06047,88.109737,SO2,6,104,22
India,West_Bengal,Howrah,"Belur Math, Howrah - WBPCB",26-03-2024 06:00:00,22.629801,88.352017,NO2,7,21,11
India,West_Bengal,Howrah,"Belur Math, Howrah - WBPCB",26-03-2024 06:00:00,22.629801,88.352017,NH3,3,4,3
India,West_Bengal,Howrah,"Belur Math, Howrah - WBPCB",26-03-2024 06:00:00,22.629801,88.352017,OZONE,9,72,44
India,West_Bengal,Howrah,"Ghusuri, Howrah - WBPCB",26-03-2024 06:00:00,22.611968,88.347422,PM2.5,34,89,62
India,West_Bengal,Howrah,"Ghusuri, Howrah - WBPCB",26-03-2024 06:00:00,22.611968,88.347422,PM10,22,67,45
India,West_Bengal,Howrah,"Ghusuri, Howrah - WBPCB",26-03-2024 06:00:00,22.611968,88.347422,NO2,4,10,6
India,West_Bengal,Howrah,"Ghusuri, Howrah - WBPCB",26-03-2024 06:00:00,22.611968,88.347422,SO2,5,6,5
India,West_Bengal,Kolkata,"Ballygunge, Kolkata - WBPCB",26-03-2024 06:00:00,22.5367507,88.3638022,PM2.5,27,70,48
India,West_Bengal,Kolkata,"Ballygunge, Kolkata - WBPCB",26-03-2024 06:00:00,22.5367507,88.3638022,PM10,24,75,48
India,West_Bengal,Kolkata,"Ballygunge, Kolkata - WBPCB",26-03-2024 06:00:00,22.5367507,88.3638022,NH3,9,11,10
India,West_Bengal,Kolkata,"Ballygunge, Kolkata - WBPCB",26-03-2024 06:00:00,22.5367507,88.3638022,CO,12,26,15
India,West_Bengal,Kolkata,"Fort William, Kolkata - WBPCB",26-03-2024 06:00:00,22.556640,88.342674,PM2.5,15,62,39
India,West_Bengal,Kolkata,"Jadavpur, Kolkata - WBPCB",26-03-2024 06:00:00,22.49929,88.36917,SO2,5,19,9
India,West_Bengal,Kolkata,"Rabindra Bharati University, Kolkata - WBPCB",26-03-2024 06:00:00,22.627847,88.380669,PM10,20,74,47
India,West_Bengal,Kolkata,"Victoria, Kolkata - WBPCB",26-03-2024 06:00:00,22.5448082,88.3403691,PM10,36,93,62
India,West_Bengal,Kolkata,"Victoria, Kolkata - WBPCB",26-03-2024 06:00:00,22.5448082,88.3403691,CO,12,22,18
India,Andhra_Pradesh,Amaravati,"Secretariat, Amaravati - APPCB",26-03-2024 06:00:00,16.5150833,80.5181667,PM2.5,14,40,27
India,Andhra_Pradesh,Anantapur,"Gulzarpet, Anantapur - APPCB",26-03-2024 06:00:00,14.675886,77.593027,PM2.5,28,51,37
India,Andhra_Pradesh,Anantapur,"Gulzarpet, Anantapur - APPCB",26-03-2024 06:00:00,14.675886,77.593027,OZONE,14,70,40
India,Andhra_Pradesh,Chittoor,"Gangineni Cheruvu, Chittoor - APPCB",26-03-2024 06:00:00,13.204880,79.097889,PM2.5,28,404,114
India,Andhra_Pradesh,Rajamahendravaram,"Anand Kala Kshetram, Rajamahendravaram - APPCB",26-03-2024 06:00:00,16.9872867,81.7363176,CO,NA,NA,NA
India,Andhra_Pradesh,Tirupati,"Tirumala, Tirupati - APPCB",26-03-2024 06:00:00,13.67,79.35,PM2.5,28,87,60
India,Andhra_Pradesh,Tirupati,"Tirumala, Tirupati - APPCB",26-03-2024 06:00:00,13.67,79.35,OZONE,10,75,45
India,Andhra_Pradesh,Vijayawada,"HB Colony, Vijayawada - APPCB",26-03-2024 06:00:00,16.536107,80.594233,NH3,4,4,4
India,Andhra_Pradesh,Vijayawada,"HB Colony, Vijayawada - APPCB",26-03-2024 06:00:00,16.536107,80.594233,SO2,3,5,4
India,Andhra_Pradesh,Vijayawada,"HB Colony, Vijayawada - APPCB",26-03-2024 06:00:00,16.536107,80.594233,CO,30,47,31
India,Andhra_Pradesh,Vijayawada,"Kanuru, Vijayawada - APPCB",26-03-2024 06:00:00,16.486692,80.699436,OZONE,28,28,28
India,Andhra_Pradesh,Vijayawada,"Rajiv Gandhi Park, Vijayawada - APPCB",26-03-2024 06:00:00,16.509717,80.612222,PM2.5,37,63,53
India,Andhra_Pradesh,Vijayawada,"Rajiv Nagar, Vijayawada - APPCB",26-03-2024 06:00:00,16.554731,80.649110,PM2.5,43,46,45
India,Andhra_Pradesh,Vijayawada,"Rajiv Nagar, Vijayawada - APPCB",26-03-2024 06:00:00,16.554731,80.649110,PM10,60,64,63
India,Andhra_Pradesh,Vijayawada,"Rajiv Nagar, Vijayawada - APPCB",26-03-2024 06:00:00,16.554731,80.649110,NH3,NA,NA,NA
India,Andhra_Pradesh,Visakhapatnam,"GVM Corporation, Visakhapatnam - APPCB",26-03-2024 06:00:00,17.72,83.3,NH3,3,6,4
India,Andhra_Pradesh,Visakhapatnam,"GVM Corporation, Visakhapatnam - APPCB",26-03-2024 06:00:00,17.72,83.3,CO,14,87,26
India,Arunachal_Pradesh,Naharlagun,"Naharlagun, Naharlagun - APSPCB",26-03-2024 06:00:00,27.103358,93.679645,PM10,15,66,42
India,Assam,Guwahati,"IITG, Guwahati - PCBA",26-03-2024 06:00:00,26.2028636,91.70046436,CO,8,20,9
India,Assam,Guwahati,"LGBI Airport, Guwahati - PCBA",26-03-2024 06:00:00,26.10887,91.589544,PM10,28,115,51
India,Assam,Nagaon,"Christianpatty, Nagaon - PCBA",26-03-2024 06:00:00,26.349082,92.68449,PM10,4,20,12
India,Assam,Nagaon,"Christianpatty, Nagaon - PCBA",26-03-2024 06:00:00,26.349082,92.68449,CO,2,30,20
India,Assam,Nalbari,"Bata Chowk, Nalbari - PCBA",26-03-2024 06:00:00,26.446912,91.439057,SO2,11,14,12
India,Assam,Silchar,"Tarapur, Silchar - PCBA",26-03-2024 06:00:00,24.82827,92.79525,CO,26,44,36
India,Bihar,Araria,"Kharahiya Basti, Araria - BSPCB",26-03-2024 06:00:00,26.146529,87.454184,PM2.5,33,212,67
India,Bihar,Araria,"Kharahiya Basti, Araria - BSPCB",26-03-2024 06:00:00,26.146529,87.454184,SO2,14,19,17
India,Bihar,Araria,"Kharahiya Basti, Araria - BSPCB",26-03-2024 06:00:00,26.146529,87.454184,OZONE,9,11,9
India,Bihar,Arrah,"New DM Office, Arrah - BSPCB",26-03-2024 06:00:00,25.5626095,84.663264,OZONE,12,27,16
India,Bihar,Bettiah,"Kamalnath Nagar, Bettiah - BSPCB",26-03-2024 06:00:00,26.80365,84.51954,PM2.5,70,308,163
India,Bihar,Bettiah,"Kamalnath Nagar, Bettiah - BSPCB",26-03-2024 06:00:00,26.80365,84.51954,PM10,83,168,121
India,Bihar,Bettiah,"Kamalnath Nagar, Bettiah - BSPCB",26-03-2024 06:00:00,26.80365,84.51954,OZONE,2,12,5
India,Bihar,Bhagalpur,"DM Office_Kachari Chowk, Bhagalpur - BSPCB",26-03-2024 06:00:00,25.251013,86.989001,SO2,12,28,19
India,Bihar,Bhagalpur,"Mayaganj, Bhagalpur - BSPCB",26-03-2024 06:00:00,25.265194,87.012947,PM10,104,185,142
India,Bihar,Bihar Sharif,"D M Colony, Bihar Sharif - BSPCB",26-03-2024 06:00:00,25.204762,85.514960,NO2,8,10,9
India,Bihar,Bihar Sharif,"D M Colony, Bihar Sharif - BSPCB",26-03-2024 06:00:00,25.204762,85.514960,SO2,1,14,7
India,Bihar,Bihar Sharif,"D M Colony, Bihar Sharif - BSPCB",26-03-2024 06:00:00,25.204762,85.514960,CO,4,60,25
India,Bihar,Buxar,"Charitra Van, Buxar - BSPCB (Formerly known as Central Jail)",26-03-2024 06:00:00,25.567520,83.966379,SO2,12,18,18
India,Bihar,Buxar,"Charitra Van, Buxar - BSPCB (Formerly known as Central Jail)",26-03-2024 06:00:00,25.567520,83.966379,OZONE,6,168,75
India,Bihar,Chhapra,"Darshan Nagar, Chhapra - BSPCB",26-03-2024 06:00:00,25.7808257,84.7446768,PM10,116,174,145
India,Bihar,Chhapra,"Darshan Nagar, Chhapra - BSPCB",26-03-2024 06:00:00,25.7808257,84.7446768,CO,30,58,41
India,Bihar,Gaya,"Collectorate, Gaya - BSPCB",26-03-2024 06:00:00,24.7955,84.9994,PM2.5,111,319,222
India,Bihar,Gaya,"Collectorate, Gaya - BSPCB",26-03-2024 06:00:00,24.7955,84.9994,NO2,2,5,3
India,Bihar,Gaya,"Collectorate, Gaya - BSPCB",26-03-2024 06:00:00,24.7955,84.9994,CO,14,32,24
India,Bihar,Gaya,"SFTI Kusdihra, Gaya - BSPCB",26-03-2024 06:00:00,24.762518,84.982348,PM2.5,37,180,109
India,Bihar,Gaya,"SFTI Kusdihra, Gaya - BSPCB",26-03-2024 06:00:00,24.762518,84.982348,NO2,17,40,28
India,Bihar,Gaya,"SFTI Kusdihra, Gaya - BSPCB",26-03-2024 06:00:00,24.762518,84.982348,NH3,3,6,4
India,Bihar,Gaya,"SFTI Kusdihra, Gaya - BSPCB",26-03-2024 06:00:00,24.762518,84.982348,SO2,8,10,9
India,Bihar,Hajipur,"Industrial Area, Hajipur - BSPCB",26-03-2024 06:00:00,25.697189,85.245900,OZONE,6,39,14
India,Bihar,Katihar,"Mirchaibari, Katihar - BSPCB",26-03-2024 06:00:00,25.560083,87.553265,PM2.5,32,62,45
India,Bihar,Katihar,"Mirchaibari, Katihar - BSPCB",26-03-2024 06:00:00,25.560083,87.553265,OZONE,11,16,12
India,Bihar,Kishanganj,"SDM Office_Khagra, Kishanganj - BSPCB",26-03-2024 06:00:00,26.0881305,87.93840336,PM2.5,NA,NA,NA
India,Bihar,Kishanganj,"SDM Office_Khagra, Kishanganj - BSPCB",26-03-2024 06:00:00,26.0881305,87.93840336,PM10,NA,NA,NA
India,Bihar,Kishanganj,"SDM Office_Khagra, Kishanganj - BSPCB",26-03-2024 06:00:00,26.0881305,87.93840336,NH3,12,15,13
India,Bihar,Kishanganj,"SDM Office_Khagra, Kishanganj - BSPCB",26-03-2024 06:00:00,26.0881305,87.93840336,SO2,35,45,40
India,Bihar,Manguraha,"Forest Rest House, Manguraha - BSPCB",26-03-2024 06:00:00,27.308328,84.531742,SO2,6,6,6
India,Bihar,Munger,"Town Hall, Munger - BSPCB",26-03-2024 06:00:00,25.376776,86.471523,SO2,13,38,27
India,Bihar,Muzaffarpur,"Buddha Colony, Muzaffarpur - BSPCB",26-03-2024 06:00:00,26.11442,85.39813,PM2.5,97,224,146
India,Bihar,Muzaffarpur,"Buddha Colony, Muzaffarpur - BSPCB",26-03-2024 06:00:00,26.11442,85.39813,OZONE,39,67,50
India,Bihar,Muzaffarpur,"MIT-Daudpur Kothi, Muzaffarpur - BSPCB",26-03-2024 06:00:00,26.1403345,85.3650192,NO2,5,8,7
India,Bihar,Muzaffarpur,"MIT-Daudpur Kothi, Muzaffarpur - BSPCB",26-03-2024 06:00:00,26.1403345,85.3650192,OZONE,10,59,17
India,Bihar,Muzaffarpur,"Muzaffarpur Collectorate, Muzaffarpur - BSPCB",26-03-2024 06:00:00,26.1209,85.3647,PM2.5,89,240,152
India,Bihar,Muzaffarpur,"Muzaffarpur Collectorate, Muzaffarpur - BSPCB",26-03-2024 06:00:00,26.1209,85.3647,NO2,8,18,10
India,Bihar,Patna,"DRM Office Danapur, Patna - BSPCB",26-03-2024 06:00:00,25.586562,85.043586,NH3,3,3,3
India,Bihar,Patna,"DRM Office Danapur, Patna - BSPCB",26-03-2024 06:00:00,25.586562,85.043586,CO,16,101,51
India,Bihar,Patna,"Govt. High School Shikarpur, Patna - BSPCB",26-03-2024 06:00:00,25.592539,85.227158,PM2.5,171,303,240
India,Bihar,Patna,"Govt. High School Shikarpur, Patna - BSPCB",26-03-2024 06:00:00,25.592539,85.227158,PM10,141,198,159
India,Bihar,Patna,"Govt. High School Shikarpur, Patna - BSPCB",26-03-2024 06:00:00,25.592539,85.227158,NO2,20,24,21
India,Bihar,Patna,"Muradpur, Patna - BSPCB",26-03-2024 06:00:00,25.619651,85.147382,PM10,164,463,262
India,Bihar,Patna,"Muradpur, Patna - BSPCB",26-03-2024 06:00:00,25.619651,85.147382,CO,22,114,55
India,Bihar,Patna,"Rajbansi Nagar, Patna - BSPCB",26-03-2024 06:00:00,25.599486,85.113666,NH3,4,9,6
India,Bihar,Patna,"Samanpura, Patna - BSPCB",26-03-2024 06:00:00,25.596727,85.085624,PM10,180,413,263
India,Bihar,Patna,"Samanpura, Patna - BSPCB",26-03-2024 06:00:00,25.596727,85.085624,CO,70,118,95
India,Bihar,Patna,"Samanpura, Patna - BSPCB",26-03-2024 06:00:00,25.596727,85.085624,OZONE,23,49,30
India,Bihar,Rajgir,"Dangi Tola, Rajgir - BSPCB",26-03-2024 06:00:00,25.03280,85.41948,NH3,1,2,1
India,Bihar,Rajgir,"Dangi Tola, Rajgir - BSPCB",26-03-2024 06:00:00,25.03280,85.41948,CO,10,11,10
India,Bihar,Saharsa,"Police Line, Saharsa - BSPCB",26-03-2024 06:00:00,25.892357,86.590325,SO2,16,16,16
India,Bihar,Samastipur,"DM Office_Kasipur, Samastipur - BSPCB",26-03-2024 06:00:00,25.859655,85.77944,PM10,NA,NA,NA
India,Bihar,Samastipur,"DM Office_Kasipur, Samastipur - BSPCB",26-03-2024 06:00:00,25.859655,85.77944,NO2,34,44,39
India,Bihar,Samastipur,"DM Office_Kasipur, Samastipur - BSPCB",26-03-2024 06:00:00,25.859655,85.77944,SO2,9,14,11
India,Bihar,Siwan,"Chitragupta Nagar, Siwan - BSPCB",26-03-2024 06:00:00,26.2271665,84.3570427,PM2.5,NA,NA,NA
India,Bihar,Siwan,"Chitragupta Nagar, Siwan - BSPCB",26-03-2024 06:00:00,26.2271665,84.3570427,PM10,NA,NA,NA
India,Chhattisgarh,Bhilai,"32Bungalows, Bhilai - CECB",26-03-2024 06:00:00,21.194815,81.314770,OZONE,4,29,5
India,Chhattisgarh,Bhilai,"Civic Center, Bhilai - Bhilai Steel Plant",26-03-2024 06:00:00,21.185571,81.343175,NH3,4,5,5
India,Chhattisgarh,Bhilai,"Hathkhoj, Bhilai - CECB",26-03-2024 06:00:00,21.224231,81.408350,CO,17,80,33
India,Chhattisgarh,Korba,"Rampur, Korba - CECB",26-03-2024 06:00:00,22.368195,82.746431,NO2,28,37,33
India,Chhattisgarh,Kunjemura,"OP Jindal School, Kunjemura - CECB",26-03-2024 06:00:00,22.126650,83.483212,PM2.5,32,85,56
India,Chhattisgarh,Kunjemura,"OP Jindal School, Kunjemura - CECB",26-03-2024 06:00:00,22.126650,83.483212,NH3,1,4,2
India,Chhattisgarh,Milupara,"Govt. Higher Secondary School, Milupara - CECB",26-03-2024 06:00:00,22.1910172,83.5197009,NO2,NA,NA,NA
India,Chhattisgarh,Raipur,"Krishak Nagar, Raipur - CECB",26-03-2024 06:00:00,21.237755,81.705301,PM2.5,NA,NA,NA
India,Chhattisgarh,Raipur,"Krishak Nagar, Raipur - CECB",26-03-2024 06:00:00,21.237755,81.705301,PM10,NA,NA,NA
India,Chhattisgarh,Raipur,"Krishak Nagar, Raipur - CECB",26-03-2024 06:00:00,21.237755,81.705301,SO2,NA,NA,NA
India,Chhattisgarh,Raipur,"Krishak Nagar, Raipur - CECB",26-03-2024 06:00:00,21.237755,81.705301,OZONE,NA,NA,NA
India,Delhi,Delhi,"Anand Vihar, Delhi - DPCC",26-03-2024 06:00:00,28.647622,77.3158090,PM2.5,NA,NA,NA
India,Delhi,Delhi,"Anand Vihar, Delhi - DPCC",26-03-2024 06:00:00,28.647622,77.3158090,NO2,NA,NA,NA
India,Delhi,Delhi,"Anand Vihar, Delhi - DPCC",26-03-2024 06:00:00,28.647622,77.3158090,NH3,NA,NA,NA
India,Delhi,Delhi,"Ashok Vihar, Delhi - DPCC",26-03-2024 06:00:00,28.695381,77.181665,PM10,66,185,109
India,Delhi,Delhi,"Ashok Vihar, Delhi - DPCC",26-03-2024 06:00:00,28.695381,77.181665,NH3,14,15,15
India,Delhi,Delhi,"Bawana, Delhi - DPCC",26-03-2024 06:00:00,28.776200,77.051074,PM2.5,37,396,171
India,Delhi,Delhi,"Bawana, Delhi - DPCC",26-03-2024 06:00:00,28.776200,77.051074,PM10,64,278,130
India,Delhi,Delhi,"Bawana, Delhi - DPCC",26-03-2024 06:00:00,28.776200,77.051074,SO2,8,44,17
India,Delhi,Delhi,"Burari Crossing, Delhi - IMD",26-03-2024 06:00:00,28.7256504,77.2011573,PM10,61,153,102
India,Delhi,Delhi,"CRRI Mathura Road, Delhi - IMD",26-03-2024 06:00:00,28.5512005,77.2735737,CO,25,98,47
India,Delhi,Delhi,"CRRI Mathura Road, Delhi - IMD",26-03-2024 06:00:00,28.5512005,77.2735737,OZONE,2,37,3
India,Delhi,Delhi,"Chandni Chowk, Delhi - IITM",26-03-2024 06:00:00,28.656756,77.227234,PM10,NA,NA,NA
India,Delhi,Delhi,"Chandni Chowk, Delhi - IITM",26-03-2024 06:00:00,28.656756,77.227234,NO2,NA,NA,NA
India,Delhi,Delhi,"Chandni Chowk, Delhi - IITM",26-03-2024 06:00:00,28.656756,77.227234,OZONE,10,22,14
India,Delhi,Delhi,"DTU, Delhi - CPCB",26-03-2024 06:00:00,28.7500499,77.1112615,PM10,54,221,115
India,Delhi,Delhi,"Dr. Karni Singh Shooting Range, Delhi - DPCC",26-03-2024 06:00:00,28.498571,77.264840,PM10,58,267,113
India,Delhi,Delhi,"Dr. Karni Singh Shooting Range, Delhi - DPCC",26-03-2024 06:00:00,28.498571,77.264840,OZONE,3,142,41
India,Delhi,Delhi,"Dwarka-Sector 8, Delhi - DPCC ",26-03-2024 06:00:00,28.5710274,77.0719006,PM10,68,288,148
India,Delhi,Delhi,"Dwarka-Sector 8, Delhi - DPCC ",26-03-2024 06:00:00,28.5710274,77.0719006,NO2,3,44,18
India,Delhi,Delhi,"Dwarka-Sector 8, Delhi - DPCC ",26-03-2024 06:00:00,28.5710274,77.0719006,NH3,5,9,7
India,Delhi,Delhi,"Dwarka-Sector 8, Delhi - DPCC ",26-03-2024 06:00:00,28.5710274,77.0719006,CO,56,111,77
India,Delhi,Delhi,"Jahangirpuri, Delhi - DPCC",26-03-2024 06:00:00,28.732820,77.170633,NH3,10,14,12
India,Delhi,Delhi,"Jahangirpuri, Delhi - DPCC",26-03-2024 06:00:00,28.732820,77.170633,SO2,5,32,16
India,Delhi,Delhi,"Jawaharlal Nehru Stadium, Delhi - DPCC",26-03-2024 06:00:00,28.580280,77.233829,PM10,57,208,101
India,Delhi,Delhi,"Lodhi Road, Delhi - IITM",26-03-2024 06:00:00,28.588333,77.221667,NO2,68,108,87
India,Delhi,Delhi,"Lodhi Road, Delhi - IITM",26-03-2024 06:00:00,28.588333,77.221667,CO,61,70,68
India,Delhi,Delhi,"Lodhi Road, Delhi - IMD",26-03-2024 06:00:00,28.5918245,77.2273074,NO2,1,7,3
India,Delhi,Delhi,"Lodhi Road, Delhi - IMD",26-03-2024 06:00:00,28.5918245,77.2273074,OZONE,9,28,9
India,Delhi,Delhi,"Major Dhyan Chand National Stadium, Delhi - DPCC",26-03-2024 06:00:00,28.611281,77.237738,PM10,43,184,89
India,Delhi,Delhi,"Major Dhyan Chand National Stadium, Delhi - DPCC",26-03-2024 06:00:00,28.611281,77.237738,CO,25,78,48
India,Delhi,Delhi,"Mandir Marg, Delhi - DPCC",26-03-2024 06:00:00,28.636429,77.201067,PM2.5,29,284,90
India,Delhi,Delhi,"Mandir Marg, Delhi - DPCC",26-03-2024 06:00:00,28.636429,77.201067,OZONE,1,13,4
India,Delhi,Delhi,"NSIT Dwarka, Delhi - CPCB",26-03-2024 06:00:00,28.60909,77.0325413,SO2,2,27,12
India,Delhi,Delhi,"Najafgarh, Delhi - DPCC",26-03-2024 06:00:00,28.570173,76.933762,PM10,40,188,97
India,Delhi,Delhi,"Najafgarh, Delhi - DPCC",26-03-2024 06:00:00,28.570173,76.933762,NO2,3,14,6
India,Delhi,Delhi,"Najafgarh, Delhi - DPCC",26-03-2024 06:00:00,28.570173,76.933762,OZONE,21,105,36
India,Delhi,Delhi,"Narela, Delhi - DPCC",26-03-2024 06:00:00,28.822836,77.101981,NO2,6,24,14
India,Delhi,Delhi,"Narela, Delhi - DPCC",26-03-2024 06:00:00,28.822836,77.101981,CO,40,67,64
India,Delhi,Delhi,"North Campus, DU, Delhi - IMD",26-03-2024 06:00:00,28.6573814,77.1585447,OZONE,2,25,8
India,Delhi,Delhi,"Okhla Phase-2, Delhi - DPCC",26-03-2024 06:00:00,28.530785,77.271255,PM10,67,227,113
India,Delhi,Delhi,"Okhla Phase-2, Delhi - DPCC",26-03-2024 06:00:00,28.530785,77.271255,NH3,9,14,11
India,Delhi,Delhi,"Patparganj, Delhi - DPCC",26-03-2024 06:00:00,28.623763,77.287209,PM10,75,199,123
India,Delhi,Delhi,"Patparganj, Delhi - DPCC",26-03-2024 06:00:00,28.623763,77.287209,CO,20,44,33
India,Delhi,Delhi,"Punjabi Bagh, Delhi - DPCC",26-03-2024 06:00:00,28.674045,77.131023,NO2,27,47,36
India,Delhi,Delhi,"Punjabi Bagh, Delhi - DPCC",26-03-2024 06:00:00,28.674045,77.131023,SO2,15,27,21
India,Delhi,Delhi,"Pusa, Delhi - DPCC",26-03-2024 06:00:00,28.639652,77.146275,PM2.5,29,341,123
India,Delhi,Delhi,"Pusa, Delhi - DPCC",26-03-2024 06:00:00,28.639652,77.146275,NO2,28,111,60
India,Delhi,Delhi,"R K Puram, Delhi - DPCC",26-03-2024 06:00:00,28.563262,77.186937,SO2,13,46,21
India,Delhi,Delhi,"Rohini, Delhi - DPCC",26-03-2024 06:00:00,28.732528,77.119920,SO2,13,64,26
India,Delhi,Delhi,"Rohini, Delhi - DPCC",26-03-2024 06:00:00,28.732528,77.119920,CO,17,58,31
India,Delhi,Delhi,"Sirifort, Delhi - CPCB",26-03-2024 06:00:00,28.5504249,77.2159377,OZONE,4,40,7
India,Delhi,Delhi,"Sonia Vihar, Delhi - DPCC",26-03-2024 06:00:00,28.710508,77.249485,NH3,6,7,7
India,Delhi,Delhi,"Vivek Vihar, Delhi - DPCC",26-03-2024 06:00:00,28.672342,77.315260,NO2,16,53,31
India,Delhi,Delhi,"Wazirpur, Delhi - DPCC",26-03-2024 06:00:00,28.699793,77.165453,NO2,20,105,49
India,Delhi,Delhi,"Wazirpur, Delhi - DPCC",26-03-2024 06:00:00,28.699793,77.165453,CO,6,65,29
India,Gujarat,Ahmedabad,"Chandkheda, Ahmedabad - IITM",26-03-2024 06:00:00,23.107969,72.574648,PM10,64,156,92
India,Gujarat,Ahmedabad,"Chandkheda, Ahmedabad - IITM",26-03-2024 06:00:00,23.107969,72.574648,NH3,1,3,1
India,Gujarat,Ahmedabad,"Gyaspur, Ahmedabad - IITM",26-03-2024 06:00:00,22.977134,72.553024,PM2.5,65,306,114
India,Gujarat,Ahmedabad,"Gyaspur, Ahmedabad - IITM",26-03-2024 06:00:00,22.977134,72.553024,PM10,74,185,105
India,Gujarat,Ahmedabad,"Gyaspur, Ahmedabad - IITM",26-03-2024 06:00:00,22.977134,72.553024,NH3,10,11,10
India,Gujarat,Ahmedabad,"Maninagar, Ahmedabad - GPCB",26-03-2024 06:00:00,23.002657,72.591912,NO2,24,82,41
India,Gujarat,Ahmedabad,"Raikhad, Ahmedabad - IITM",26-03-2024 06:00:00,23.020509,72.579261,PM2.5,72,310,143
India,Gujarat,Ahmedabad,"Raikhad, Ahmedabad - IITM",26-03-2024 06:00:00,23.020509,72.579261,PM10,71,181,114
India,Gujarat,Ahmedabad,"Raikhad, Ahmedabad - IITM",26-03-2024 06:00:00,23.020509,72.579261,OZONE,6,44,9
India,Gujarat,Ahmedabad,"SAC ISRO Satellite, Ahmedabad - IITM",26-03-2024 06:00:00,23.023389,72.515201,CO,27,28,28
India,Gujarat,Ahmedabad,"SVPI Airport Hansol, Ahmedabad - IITM",26-03-2024 06:00:00,23.076793,72.627874,NO2,15,20,17
India,Gujarat,Ahmedabad,"SVPI Airport Hansol, Ahmedabad - IITM",26-03-2024 06:00:00,23.076793,72.627874,NH3,4,5,4
India,Gujarat,Ahmedabad,"SVPI Airport Hansol, Ahmedabad - IITM",26-03-2024 06:00:00,23.076793,72.627874,SO2,11,11,11
India,Gujarat,Ahmedabad,"SVPI Airport Hansol, Ahmedabad - IITM",26-03-2024 06:00:00,23.076793,72.627874,CO,33,105,67
India,Gujarat,Ankleshwar,"GIDC, Ankleshwar - GPCB",26-03-2024 06:00:00,21.613267,73.010555,SO2,NA,NA,NA
India,Gujarat,Gandhinagar,"GIFT City, Gandhinagar - IITM",26-03-2024 06:00:00,23.163798,72.677768,NO2,NA,NA,NA
India,Gujarat,Gandhinagar,"IIPHG Lekawada, Gandhinagar - IITM",26-03-2024 06:00:00,23.243639,72.68994,SO2,3,13,8
India,Gujarat,Gandhinagar,"IIPHG Lekawada, Gandhinagar - IITM",26-03-2024 06:00:00,23.243639,72.68994,OZONE,12,47,15
India,Gujarat,Gandhinagar,"Sector-10, Gandhinagar - GPCB",26-03-2024 06:00:00,23.221714,72.654328,PM10,51,104,66
India,Gujarat,Nandesari,"GIDC, Nandesari - Nandesari Ind. Association",26-03-2024 06:00:00,22.410802,73.097923,PM2.5,58,355,215
India,Gujarat,Nandesari,"GIDC, Nandesari - Nandesari Ind. Association",26-03-2024 06:00:00,22.410802,73.097923,SO2,4,15,10
India,Gujarat,Surat,"Science Center, Surat - SMC",26-03-2024 06:00:00,21.170046,72.795405,SO2,6,10,7
India,Gujarat,Surat,"Science Center, Surat - SMC",26-03-2024 06:00:00,21.170046,72.795405,CO,44,66,50
India,Gujarat,Vatva,"Phase-4 GIDC, Vatva - GPCB",26-03-2024 06:00:00,22.969611,72.643500,PM2.5,42,203,86
India,Gujarat,Vatva,"Phase-4 GIDC, Vatva - GPCB",26-03-2024 06:00:00,22.969611,72.643500,NH3,8,14,10
India,Haryana,Ambala,"Patti Mehar, Ambala - HSPCB",26-03-2024 06:00:00,30.379589,76.778328,PM10,26,73,41
India,Haryana,Ambala,"Patti Mehar, Ambala - HSPCB",26-03-2024 06:00:00,30.379589,76.778328,NH3,5,12,9
India,Haryana,Ambala,"Patti Mehar, Ambala - HSPCB",26-03-2024 06:00:00,30.379589,76.778328,OZONE,20,37,26
India,Haryana,Bahadurgarh,"Arya Nagar, Bahadurgarh - HSPCB",26-03-2024 06:00:00,28.6701,76.9254,PM2.5,20,111,59
India,Haryana,Bahadurgarh,"Arya Nagar, Bahadurgarh - HSPCB",26-03-2024 06:00:00,28.6701,76.9254,PM10,56,137,86
India,Haryana,Bahadurgarh,"Arya Nagar, Bahadurgarh - HSPCB",26-03-2024 06:00:00,28.6701,76.9254,OZONE,35,55,42
India,Haryana,Ballabgarh,"Nathu Colony, Ballabgarh - HSPCB",26-03-2024 06:00:00,28.3419248,77.319699,NO2,10,14,12
India,Haryana,Ballabgarh,"Nathu Colony, Ballabgarh - HSPCB",26-03-2024 06:00:00,28.3419248,77.319699,SO2,7,130,21
India,Haryana,Bhiwani,"H.B. Colony, Bhiwani - HSPCB",26-03-2024 06:00:00,28.806223,76.141105,NH3,6,6,6
India,Haryana,Bhiwani,"H.B. Colony, Bhiwani - HSPCB",26-03-2024 06:00:00,28.806223,76.141105,OZONE,14,24,18
India,Haryana,Charkhi Dadri,"Mini Secretariat, Charkhi Dadri - HSPCB",26-03-2024 06:00:00,28.593883,76.270653,OZONE,13,18,16
India,Haryana,Dharuhera,"Municipal Corporation Office, Dharuhera -  HSPCB",26-03-2024 06:00:00,28.206800,76.799700,PM10,66,176,108
India,Haryana,Faridabad,"New Industrial Town, Faridabad - HSPCB",26-03-2024 06:00:00,28.39072,77.30059,CO,6,23,16
India,Haryana,Faridabad,"Sector 11, Faridabad - HSPCB",26-03-2024 06:00:00,28.376058,77.315741,OZONE,4,26,25
India,Haryana,Faridabad,"Sector 30, Faridabad - HSPCB",26-03-2024 06:00:00,28.4417,77.3217,PM10,140,151,143
India,Haryana,Fatehabad,"Huda Sector, Fatehabad - HSPCB",26-03-2024 06:00:00,29.503664,75.467934,NO2,37,38,38
India,Haryana,Fatehabad,"Huda Sector, Fatehabad - HSPCB",26-03-2024 06:00:00,29.503664,75.467934,NH3,12,14,13
India,Haryana,Fatehabad,"Huda Sector, Fatehabad - HSPCB",26-03-2024 06:00:00,29.503664,75.467934,SO2,10,11,11
India,Haryana,Gurugram,"Sector-51, Gurugram - HSPCB",26-03-2024 06:00:00,28.4227,77.0667,NO2,13,29,23
India,Haryana,Gurugram,"Sector-51, Gurugram - HSPCB",26-03-2024 06:00:00,28.4227,77.0667,SO2,3,4,3
India,Haryana,Gurugram,"Teri Gram, Gurugram - HSPCB",26-03-2024 06:00:00,28.4275,77.1465,SO2,3,5,4
India,Haryana,Gurugram,"Teri Gram, Gurugram - HSPCB",26-03-2024 06:00:00,28.4275,77.1465,OZONE,13,18,15
India,Haryana,Gurugram,"Vikas Sadan, Gurugram - HSPCB",26-03-2024 06:00:00,28.4501238,77.0263051,NO2,5,26,14
India,Haryana,Gurugram,"Vikas Sadan, Gurugram - HSPCB",26-03-2024 06:00:00,28.4501238,77.0263051,SO2,9,54,40
India,Haryana,Hisar,"Urban Estate-II, Hisar - HSPCB",26-03-2024 06:00:00,29.140560,75.744941,NO2,29,40,34
India,Haryana,Hisar,"Urban Estate-II, Hisar - HSPCB",26-03-2024 06:00:00,29.140560,75.744941,NH3,11,16,14
India,Haryana,Hisar,"Urban Estate-II, Hisar - HSPCB",26-03-2024 06:00:00,29.140560,75.744941,OZONE,24,98,52
India,Haryana,Jind,"Police Lines, Jind - HSPCB",26-03-2024 06:00:00,29.307814,76.337619,SO2,4,37,16
India,Haryana,Jind,"Police Lines, Jind - HSPCB",26-03-2024 06:00:00,29.307814,76.337619,CO,1,82,17
India,Haryana,Kaithal,"Rishi Nagar, Kaithal - HSPCB",26-03-2024 06:00:00,29.8006,76.4155,PM10,49,65,56
India,Haryana,Kaithal,"Rishi Nagar, Kaithal - HSPCB",26-03-2024 06:00:00,29.8006,76.4155,OZONE,15,25,19
India,Haryana,Karnal,"Sector-12, Karnal - HSPCB",26-03-2024 06:00:00,29.695300,77.002700,PM10,34,62,46
India,Haryana,Karnal,"Sector-12, Karnal - HSPCB",26-03-2024 06:00:00,29.695300,77.002700,OZONE,19,22,21
India,Haryana,Kurukshetra,"Sector-7, Kurukshetra - HSPCB",26-03-2024 06:00:00,29.966942,76.875879,SO2,2,100,23
India,Haryana,Kurukshetra,"Sector-7, Kurukshetra - HSPCB",26-03-2024 06:00:00,29.966942,76.875879,OZONE,18,66,36
India,Haryana,Mandikhera,"General Hospital, Mandikhera - HSPCB",26-03-2024 06:00:00,27.9002,76.9938,PM2.5,7,24,13
India,Haryana,Mandikhera,"General Hospital, Mandikhera - HSPCB",26-03-2024 06:00:00,27.9002,76.9938,PM10,45,86,60
India,Haryana,Mandikhera,"General Hospital, Mandikhera - HSPCB",26-03-2024 06:00:00,27.9002,76.9938,CO,14,31,19
India,Haryana,Narnaul,"Shastri Nagar, Narnaul - HSPCB",26-03-2024 06:00:00,28.060249,76.113115,PM10,30,90,49
India,Haryana,Panipat,"Sector-18, Panipat - HSPCB",26-03-2024 06:00:00,29.497973,76.993331,NO2,31,32,31
India,Haryana,Panipat,"Sector-18, Panipat - HSPCB",26-03-2024 06:00:00,29.497973,76.993331,OZONE,29,30,30
India,Haryana,Rohtak,"MD University, Rohtak - HSPCB",26-03-2024 06:00:00,28.52123,76.37138,NO2,NA,NA,NA
India,Haryana,Yamuna Nagar,"Gobind Pura, Yamuna Nagar - HSPCB",26-03-2024 06:00:00,30.1480566,77.2893471,SO2,NA,NA,NA
India,Himachal Pradesh,Baddi,"HIMUDA Complex Phase-1, Baddi - HPPCB",26-03-2024 06:00:00,30.943887,76.801991,NH3,3,5,4
India,Jharkhand,Dhanbad,"Kalakusuma, Dhanbad - DMC",26-03-2024 06:00:00,23.811548,86.481238,PM10,138,235,176
India,Jharkhand,Dhanbad,"Kalakusuma, Dhanbad - DMC",26-03-2024 06:00:00,23.811548,86.481238,CO,129,135,132
India,Jharkhand,Dhanbad,"Sardar Patel Nagar, Dhanbad - JSPCB",26-03-2024 06:00:00,23.80569,86.44268,OZONE,NA,NA,NA
India,Karnataka,Bagalkot,"Vidayagiri, Bagalkot - KSPCB",26-03-2024 06:00:00,16.172806,75.659694,PM10,45,46,46
India,Karnataka,Bengaluru,"BTM Layout, Bengaluru - CPCB",26-03-2024 06:00:00,12.9135218,77.5950804,OZONE,40,105,85
India,Karnataka,Bengaluru,"Bapuji Nagar, Bengaluru - KSPCB",26-03-2024 06:00:00,12.951913,77.539784,NH3,NA,NA,NA
India,Karnataka,Bengaluru,"Bapuji Nagar, Bengaluru - KSPCB",26-03-2024 06:00:00,12.951913,77.539784,OZONE,27,28,27
India,Karnataka,Bengaluru,"Hebbal, Bengaluru - KSPCB",26-03-2024 06:00:00,13.029152,77.585901,PM2.5,NA,NA,NA
India,Karnataka,Bengaluru,"Hebbal, Bengaluru - KSPCB",26-03-2024 06:00:00,13.029152,77.585901,CO,15,36,16
India,Karnataka,Bengaluru,"Hombegowda Nagar, Bengaluru - KSPCB",26-03-2024 06:00:00,12.938539,77.590100,PM2.5,44,88,62
India,Karnataka,Bengaluru,"Hombegowda Nagar, Bengaluru - KSPCB",26-03-2024 06:00:00,12.938539,77.590100,NO2,11,23,16
India,Karnataka,Bengaluru,"Jayanagar 5th Block, Bengaluru - KSPCB",26-03-2024 06:00:00,12.920984,77.584908,NO2,7,14,9
India,Karnataka,Bengaluru,"Jigani, Bengaluru - KSPCB",26-03-2024 06:00:00,12.7816279,77.6299145,NH3,4,4,4
India,Karnataka,Bengaluru,"Jigani, Bengaluru - KSPCB",26-03-2024 06:00:00,12.7816279,77.6299145,SO2,16,16,16
India,Karnataka,Bengaluru,"Jigani, Bengaluru - KSPCB",26-03-2024 06:00:00,12.7816279,77.6299145,OZONE,5,90,36
India,Karnataka,Bengaluru,"Kasturi Nagar, Bengaluru - KSPCB",26-03-2024 06:00:00,13.003872,77.664217,NO2,16,17,17
India,Karnataka,Bengaluru,"Peenya, Bengaluru - CPCB",26-03-2024 06:00:00,13.0270199,77.494094,PM10,40,74,60
India,Karnataka,Bengaluru,"Peenya, Bengaluru - CPCB",26-03-2024 06:00:00,13.0270199,77.494094,NO2,9,26,15
India,Karnataka,Bengaluru,"Sanegurava Halli, Bengaluru - KSPCB",26-03-2024 06:00:00,12.990328,77.5431385,NO2,23,42,28
India,Karnataka,Bengaluru,"Shivapura_Peenya, Bengaluru - KSPCB",26-03-2024 06:00:00,13.0246342,77.5080115,PM2.5,6,120,66
India,Karnataka,Bengaluru,"Silk Board, Bengaluru - KSPCB",26-03-2024 06:00:00,12.917348,77.622813,PM2.5,37,78,52
India,Karnataka,Bidar,"Naubad, Bidar - KSPCB",26-03-2024 06:00:00,17.930306,77.482194,PM2.5,42,76,61
India,Karnataka,Chamarajanagar,"Urban, Chamarajanagar - KSPCB",26-03-2024 06:00:00,11.55358,76.55521,PM2.5,20,54,33
India,Karnataka,Chikkaballapur,"Chikkaballapur Rural, Chikkaballapur - KSPCB",26-03-2024 06:00:00,13.428828,77.731418,PM2.5,40,77,62
India,Karnataka,Chikkaballapur,"Chikkaballapur Rural, Chikkaballapur - KSPCB",26-03-2024 06:00:00,13.428828,77.731418,CO,12,37,13
India,Karnataka,Chikkaballapur,"Chikkaballapur Rural, Chikkaballapur - KSPCB",26-03-2024 06:00:00,13.428828,77.731418,OZONE,25,26,26
India,Karnataka,Chikkamagaluru,"Kalyana Nagara, Chikkamagaluru - KSPCB",26-03-2024 06:00:00,13.328028,75.797056,CO,11,149,52
India,Karnataka,Davanagere,"Devaraj Urs Badavane, Davanagere - KSPCB",26-03-2024 06:00:00,14.475800,75.905200,OZONE,22,29,23
India,Karnataka,Dharwad,"Kalabhavan, Dharwad - KSPCB",26-03-2024 06:00:00,15.459706,75.008381,PM2.5,33,48,37
India,Karnataka,Gadag,"Panchal Nagar, Gadag - KSPCB",26-03-2024 06:00:00,15.411456,75.638133,NH3,1,3,2
India,Karnataka,Gadag,"Panchal Nagar, Gadag - KSPCB",26-03-2024 06:00:00,15.411456,75.638133,OZONE,30,89,43
India,Karnataka,Hassan,"B.Katihalli, Hassan - KSPCB",26-03-2024 06:00:00,13.008556,76.125258,PM10,61,61,61
India,Karnataka,Hassan,"B.Katihalli, Hassan - KSPCB",26-03-2024 06:00:00,13.008556,76.125258,NO2,14,40,22
India,Karnataka,Hassan,"B.Katihalli, Hassan - KSPCB",26-03-2024 06:00:00,13.008556,76.125258,SO2,20,32,23
India,Karnataka,Hassan,"B.Katihalli, Hassan - KSPCB",26-03-2024 06:00:00,13.008556,76.125258,OZONE,5,33,24
India,Karnataka,Hubballi,"Deshpande Nagar, Hubballi - KSPCB",26-03-2024 06:00:00,15.351773,75.140726,PM10,NA,NA,NA
India,Karnataka,Hubballi,"Lingaraj Nagar, Hubballi - KSPCB",26-03-2024 06:00:00,15.3714823,75.1160168,PM2.5,36,66,46
India,Karnataka,Hubballi,"Lingaraj Nagar, Hubballi - KSPCB",26-03-2024 06:00:00,15.3714823,75.1160168,PM10,49,79,61
India,Karnataka,Hubballi,"Lingaraj Nagar, Hubballi - KSPCB",26-03-2024 06:00:00,15.3714823,75.1160168,SO2,1,5,2
India,Karnataka,Kalaburagi,"Mahatma Basaveswar Colony, Kalaburgi - KSPCB",26-03-2024 06:00:00,17.336318,76.847397,NO2,11,18,16
