country,state,city,station,last_update,latitude,longitude,pollutant_id,pollutant_min,pollutant_max,pollutant_avg
India,Andhra_Pradesh,Anantapur,"Gulzarpet, Anantapur - APPCB",04-07-2024 15:00:00,14.675886,77.593027,SO2,5,6,5
India,Andhra_Pradesh,Anantapur,"Gulzarpet, Anantapur - APPCB",04-07-2024 15:00:00,14.675886,77.593027,CO,14,30,23
India,Andhra_Pradesh,Chittoor,"Gangineni Cheruvu, Chittoor - APPCB",04-07-2024 15:00:00,13.204880,79.097889,PM2.5,27,105,62
India,Andhra_Pradesh,Chittoor,"Gangineni Cheruvu, Chittoor - APPCB",04-07-2024 15:00:00,13.204880,79.097889,CO,24,36,30
India,Andhra_Pradesh,Kadapa,"Yerramukkapalli, Kadapa - APPCB",04-07-2024 15:00:00,14.465052,78.824187,NO2,NA,NA,NA
India,Andhra_Pradesh,Rajamahendravaram,"Anand Kala Kshetram, Rajamahendravaram - APPCB",04-07-2024 15:00:00,16.9872867,81.7363176,OZONE,26,60,45
India,Andhra_Pradesh,Tirupati,"Tirumala, Tirupati - APPCB",04-07-2024 15:00:00,13.67,79.35,PM10,20,48,31
India,Andhra_Pradesh,Tirupati,"Tirumala, Tirupati - APPCB",04-07-2024 15:00:00,13.67,79.35,NO2,12,29,20
India,Andhra_Pradesh,Vijayawada,"HB Colony, Vijayawada - APPCB",04-07-2024 15:00:00,16.536107,80.594233,PM10,39,65,48
India,Andhra_Pradesh,Vijayawada,"Rajiv Gandhi Park, Vijayawada - APPCB",04-07-2024 15:00:00,16.509717,80.612222,PM2.5,39,68,57
India,Andhra_Pradesh,Vijayawada,"Rajiv Gandhi Park, Vijayawada - APPCB",04-07-2024 15:00:00,16.509717,80.612222,PM10,38,66,56
India,Andhra_Pradesh,Vijayawada,"Rajiv Gandhi Park, Vijayawada - APPCB",04-07-2024 15:00:00,16.509717,80.612222,NO2,30,41,34
India,Andhra_Pradesh,Vijayawada,"Rajiv Gandhi Park, Vijayawada - APPCB",04-07-2024 15:00:00,16.509717,80.612222,NH3,4,6,5
India,Andhra_Pradesh,Vijayawada,"Rajiv Gandhi Park, Vijayawada - APPCB",04-07-2024 15:00:00,16.509717,80.612222,OZONE,31,31,31
India,Andhra_Pradesh,Vijayawada,"Rajiv Nagar, Vijayawada - APPCB",04-07-2024 15:00:00,16.554731,80.649110,PM10,53,71,56
India,Andhra_Pradesh,Vijayawada,"Rajiv Nagar, Vijayawada - APPCB",04-07-2024 15:00:00,16.554731,80.649110,NO2,10,10,10
India,Andhra_Pradesh,Vijayawada,"Rajiv Nagar, Vijayawada - APPCB",04-07-2024 15:00:00,16.554731,80.649110,SO2,26,26,26
India,Andhra_Pradesh,Visakhapatnam,"GVM Corporation, Visakhapatnam - APPCB",04-07-2024 15:00:00,17.72,83.3,NO2,51,62,57
India,Andhra_Pradesh,Visakhapatnam,"GVM Corporation, Visakhapatnam - APPCB",04-07-2024 15:00:00,17.72,83.3,SO2,6,14,10
India,Andhra_Pradesh,Visakhapatnam,"GVM Corporation, Visakhapatnam - APPCB",04-07-2024 15:00:00,17.72,83.3,OZONE,7,19,11
India,Assam,Byrnihat,"Central Academy for SFS, Byrnihat - PCBA",04-07-2024 15:00:00,26.071318,91.87488,NO2,11,41,23
India,Assam,Guwahati,"IITG, Guwahati - PCBA",04-07-2024 15:00:00,26.2028636,91.70046436,CO,8,12,9
India,Assam,Guwahati,"LGBI Airport, Guwahati - PCBA",04-07-2024 15:00:00,26.10887,91.589544,PM2.5,8,119,23
India,Assam,Guwahati,"LGBI Airport, Guwahati - PCBA",04-07-2024 15:00:00,26.10887,91.589544,SO2,6,12,10
India,Assam,Guwahati,"LGBI Airport, Guwahati - PCBA",04-07-2024 15:00:00,26.10887,91.589544,OZONE,20,28,26
India,Assam,Guwahati,"Pan Bazaar, Guwahati - PCBA",04-07-2024 15:00:00,26.187500,91.744194,SO2,42,54,48
India,Assam,Guwahati,"Railway Colony, Guwahati - PCBA",04-07-2024 15:00:00,26.181742,91.78063,SO2,2,3,2
India,Assam,Guwahati,"Railway Colony, Guwahati - PCBA",04-07-2024 15:00:00,26.181742,91.78063,OZONE,8,27,15
India,Assam,Nalbari,"Bata Chowk, Nalbari - PCBA",04-07-2024 15:00:00,26.446912,91.439057,CO,5,40,26
India,Assam,Silchar,"Tarapur, Silchar - PCBA",04-07-2024 15:00:00,24.82827,92.79525,SO2,5,5,5
India,Assam,Sivasagar,"Girls College, Sivasagar - PCBA",04-07-2024 15:00:00,26.987634,94.636574,NO2,6,12,8
India,Assam,Sivasagar,"Girls College, Sivasagar - PCBA",04-07-2024 15:00:00,26.987634,94.636574,CO,4,10,5
India,Bihar,Arrah,"New DM Office, Arrah - BSPCB",04-07-2024 15:00:00,25.5626095,84.663264,PM2.5,NA,NA,NA
India,Bihar,Arrah,"New DM Office, Arrah - BSPCB",04-07-2024 15:00:00,25.5626095,84.663264,NO2,7,12,10
India,Bihar,Aurangabad,"Gurdeo Nagar, Aurangabad - BSPCB",04-07-2024 15:00:00,24.75746,84.366208,PM10,NA,NA,NA
India,Bihar,Aurangabad,"Gurdeo Nagar, Aurangabad - BSPCB",04-07-2024 15:00:00,24.75746,84.366208,SO2,18,26,23
India,Bihar,Bhagalpur,"DM Office_Kachari Chowk, Bhagalpur - BSPCB",04-07-2024 15:00:00,25.251013,86.989001,CO,35,82,67
India,Bihar,Bhagalpur,"Mayaganj, Bhagalpur - BSPCB",04-07-2024 15:00:00,25.265194,87.012947,PM2.5,25,500,214
India,Bihar,Bhagalpur,"Mayaganj, Bhagalpur - BSPCB",04-07-2024 15:00:00,25.265194,87.012947,PM10,NA,NA,NA
India,Bihar,Bhagalpur,"Mayaganj, Bhagalpur - BSPCB",04-07-2024 15:00:00,25.265194,87.012947,NO2,6,8,7
India,Bihar,Bihar Sharif,"D M Colony, Bihar Sharif - BSPCB",04-07-2024 15:00:00,25.204762,85.514960,PM10,NA,NA,NA
India,Bihar,Buxar,"Charitra Van, Buxar - BSPCB (Formerly known as Central Jail)",04-07-2024 15:00:00,25.567520,83.966379,CO,42,77,45
India,Bihar,Chhapra,"Darshan Nagar, Chhapra - BSPCB",04-07-2024 15:00:00,25.7808257,84.7446768,NH3,7,16,11
India,Bihar,Gaya,"Collectorate, Gaya - BSPCB",04-07-2024 15:00:00,24.7955,84.9994,CO,26,77,52
India,Bihar,Gaya,"Kareemganj, Gaya - BSPCB",04-07-2024 15:00:00,24.792403,84.992416,OZONE,25,89,62
India,Bihar,Gaya,"SFTI Kusdihra, Gaya - BSPCB",04-07-2024 15:00:00,24.762518,84.982348,SO2,6,10,8
India,Bihar,Munger,"Town Hall, Munger - BSPCB",04-07-2024 15:00:00,25.376776,86.471523,PM2.5,NA,NA,NA
India,Bihar,Muzaffarpur,"Buddha Colony, Muzaffarpur - BSPCB",04-07-2024 15:00:00,26.11442,85.39813,PM10,19,34,27
India,Bihar,Muzaffarpur,"Buddha Colony, Muzaffarpur - BSPCB",04-07-2024 15:00:00,26.11442,85.39813,CO,32,41,34
India,Bihar,Muzaffarpur,"Buddha Colony, Muzaffarpur - BSPCB",04-07-2024 15:00:00,26.11442,85.39813,OZONE,40,71,54
India,Bihar,Muzaffarpur,"Muzaffarpur Collectorate, Muzaffarpur - BSPCB",04-07-2024 15:00:00,26.1209,85.3647,PM2.5,20,62,36
India,Bihar,Muzaffarpur,"Muzaffarpur Collectorate, Muzaffarpur - BSPCB",04-07-2024 15:00:00,26.1209,85.3647,NO2,33,42,35
India,Bihar,Patna,"DRM Office Danapur, Patna - BSPCB",04-07-2024 15:00:00,25.586562,85.043586,PM10,28,64,41
India,Bihar,Patna,"DRM Office Danapur, Patna - BSPCB",04-07-2024 15:00:00,25.586562,85.043586,CO,13,40,24
India,Bihar,Patna,"Govt. High School Shikarpur, Patna - BSPCB",04-07-2024 15:00:00,25.592539,85.227158,NH3,4,5,5
India,Bihar,Patna,"Muradpur, Patna - BSPCB",04-07-2024 15:00:00,25.619651,85.147382,PM2.5,14,44,24
India,Bihar,Patna,"Muradpur, Patna - BSPCB",04-07-2024 15:00:00,25.619651,85.147382,PM10,26,55,36
India,Bihar,Patna,"Muradpur, Patna - BSPCB",04-07-2024 15:00:00,25.619651,85.147382,NH3,1,4,3
India,Bihar,Patna,"Muradpur, Patna - BSPCB",04-07-2024 15:00:00,25.619651,85.147382,CO,21,60,46
India,Bihar,Patna,"Rajbansi Nagar, Patna - BSPCB",04-07-2024 15:00:00,25.599486,85.113666,PM2.5,17,25,20
India,Bihar,Patna,"Rajbansi Nagar, Patna - BSPCB",04-07-2024 15:00:00,25.599486,85.113666,NH3,4,10,5
India,Bihar,Patna,"Rajbansi Nagar, Patna - BSPCB",04-07-2024 15:00:00,25.599486,85.113666,OZONE,10,34,24
India,Bihar,Patna,"Samanpura, Patna - BSPCB",04-07-2024 15:00:00,25.596727,85.085624,SO2,2,4,3
India,Bihar,Purnia,"Mariam Nagar, Purnia - BSPCB",04-07-2024 15:00:00,25.366336,87.117468,NO2,5,6,5
India,Bihar,Rajgir,"Dangi Tola, Rajgir - BSPCB",04-07-2024 15:00:00,25.03280,85.41948,NO2,14,15,15
India,Bihar,Rajgir,"Dangi Tola, Rajgir - BSPCB",04-07-2024 15:00:00,25.03280,85.41948,SO2,4,4,4
India,Bihar,Samastipur,"DM Office_Kasipur, Samastipur - BSPCB",04-07-2024 15:00:00,25.859655,85.77944,NH3,NA,NA,NA
India,Bihar,Sasaram,"Dada Peer, Sasaram - BSPCB",04-07-2024 15:00:00,24.952822,84.002396,SO2,10,13,11
India,Bihar,Sasaram,"Dada Peer, Sasaram - BSPCB",04-07-2024 15:00:00,24.952822,84.002396,OZONE,2,34,8
India,Bihar,Siwan,"Chitragupta Nagar, Siwan - BSPCB",04-07-2024 15:00:00,26.2271665,84.3570427,PM10,NA,NA,NA
India,Chandigarh,Chandigarh,"Sector 22, Chandigarh - CPCC",04-07-2024 15:00:00,30.735567,76.775714,PM2.5,8,75,24
India,Chandigarh,Chandigarh,"Sector 22, Chandigarh - CPCC",04-07-2024 15:00:00,30.735567,76.775714,PM10,13,111,38
India,Chandigarh,Chandigarh,"Sector-25, Chandigarh - CPCC",04-07-2024 15:00:00,30.751462,76.762879,PM10,38,92,56
India,Chandigarh,Chandigarh,"Sector-25, Chandigarh - CPCC",04-07-2024 15:00:00,30.751462,76.762879,NO2,6,20,12
India,Chandigarh,Chandigarh,"Sector-25, Chandigarh - CPCC",04-07-2024 15:00:00,30.751462,76.762879,CO,14,76,18
India,Chandigarh,Chandigarh,"Sector-53, Chandigarh - CPCC",04-07-2024 15:00:00,30.719859,76.738637,SO2,6,12,8
India,Chandigarh,Chandigarh,"Sector-53, Chandigarh - CPCC",04-07-2024 15:00:00,30.719859,76.738637,OZONE,11,43,22
India,Chhattisgarh,Bhilai,"32Bungalows, Bhilai - CECB",04-07-2024 15:00:00,21.194815,81.314770,SO2,8,11,9
India,Chhattisgarh,Bhilai,"Civic Center, Bhilai - Bhilai Steel Plant",04-07-2024 15:00:00,21.185571,81.343175,NO2,7,8,8
India,Chhattisgarh,Bhilai,"Civic Center, Bhilai - Bhilai Steel Plant",04-07-2024 15:00:00,21.185571,81.343175,OZONE,12,26,18
India,Chhattisgarh,Bilaspur,"Mangala, Bilaspur - NTPC",04-07-2024 15:00:00,22.08815,82.13737,SO2,15,19,17
India,Chhattisgarh,Chhal,"Nawapara SECL Colony, Chhal - CECB",04-07-2024 15:00:00,22.118125,83.140608,NH3,2,2,2
India,Chhattisgarh,Kunjemura,"OP Jindal School, Kunjemura - CECB",04-07-2024 15:00:00,22.126650,83.483212,NH3,2,3,3
India,Chhattisgarh,Kunjemura,"OP Jindal School, Kunjemura - CECB",04-07-2024 15:00:00,22.126650,83.483212,SO2,1,7,4
India,Chhattisgarh,Raipur,"AIIMS, Raipur - CECB",04-07-2024 15:00:00,21.258815,81.578979,CO,14,37,20
India,Chhattisgarh,Raipur,"Krishak Nagar, Raipur - CECB",04-07-2024 15:00:00,21.237755,81.705301,NO2,5,5,5
India,Chhattisgarh,Raipur,"Krishak Nagar, Raipur - CECB",04-07-2024 15:00:00,21.237755,81.705301,OZONE,4,13,4
India,Chhattisgarh,Raipur,"Siltara Phase-II, Raipur - CECB",04-07-2024 15:00:00,21.371751,81.664929,SO2,2,19,12
India,Chhattisgarh,Tumidih,"OP Jindal Industrial Park, Tumidih - CECB",04-07-2024 15:00:00,22.06631475,83.33820077,PM10,NA,NA,NA
India,Chhattisgarh,Tumidih,"OP Jindal Industrial Park, Tumidih - CECB",04-07-2024 15:00:00,22.06631475,83.33820077,OZONE,13,18,14
India,Delhi,Delhi,"Alipur, Delhi - DPCC",04-07-2024 15:00:00,28.815329,77.153010,SO2,10,24,12
India,Delhi,Delhi,"Alipur, Delhi - DPCC",04-07-2024 15:00:00,28.815329,77.153010,CO,24,50,35
India,Delhi,Delhi,"Anand Vihar, Delhi - DPCC",04-07-2024 15:00:00,28.647622,77.3158090,PM2.5,NA,NA,NA
India,Delhi,Delhi,"Anand Vihar, Delhi - DPCC",04-07-2024 15:00:00,28.647622,77.3158090,NH3,NA,NA,NA
India,Delhi,Delhi,"Anand Vihar, Delhi - DPCC",04-07-2024 15:00:00,28.647622,77.3158090,SO2,NA,NA,NA
India,Delhi,Delhi,"Anand Vihar, Delhi - DPCC",04-07-2024 15:00:00,28.647622,77.3158090,OZONE,27,84,78
India,Delhi,Delhi,"Ashok Vihar, Delhi - DPCC",04-07-2024 15:00:00,28.695381,77.181665,PM2.5,18,82,47
India,Delhi,Delhi,"Ashok Vihar, Delhi - DPCC",04-07-2024 15:00:00,28.695381,77.181665,OZONE,12,42,21
India,Delhi,Delhi,"Bawana, Delhi - DPCC",04-07-2024 15:00:00,28.776200,77.051074,PM2.5,15,78,44
India,Delhi,Delhi,"Bawana, Delhi - DPCC",04-07-2024 15:00:00,28.776200,77.051074,CO,39,62,43
India,Delhi,Delhi,"CRRI Mathura Road, Delhi - IMD",04-07-2024 15:00:00,28.5512005,77.2735737,PM10,9,76,33
India,Delhi,Delhi,"DTU, Delhi - CPCB",04-07-2024 15:00:00,28.7500499,77.1112615,NO2,58,64,60
India,Delhi,Delhi,"Dr. Karni Singh Shooting Range, Delhi - DPCC",04-07-2024 15:00:00,28.498571,77.264840,PM10,12,87,40
India,Delhi,Delhi,"Dr. Karni Singh Shooting Range, Delhi - DPCC",04-07-2024 15:00:00,28.498571,77.264840,NO2,12,46,22
India,Delhi,Delhi,"Dwarka-Sector 8, Delhi - DPCC ",04-07-2024 15:00:00,28.5710274,77.0719006,NH3,5,26,10
India,Delhi,Delhi,"Dwarka-Sector 8, Delhi - DPCC ",04-07-2024 15:00:00,28.5710274,77.0719006,CO,30,100,48
India,Delhi,Delhi,"IGI Airport (T3), Delhi - IMD",04-07-2024 15:00:00,28.5627763,77.1180053,PM2.5,5,62,32
India,Delhi,Delhi,"IGI Airport (T3), Delhi - IMD",04-07-2024 15:00:00,28.5627763,77.1180053,CO,31,52,41
India,Delhi,Delhi,"IHBAS, Dilshad Garden, Delhi - CPCB",04-07-2024 15:00:00,28.6811736,77.3025234,NO2,24,53,34
India,Delhi,Delhi,"ITO, Delhi - CPCB",04-07-2024 15:00:00,28.628624,77.241060,PM2.5,24,67,44
India,Delhi,Delhi,"ITO, Delhi - CPCB",04-07-2024 15:00:00,28.628624,77.241060,PM10,19,66,39
India,Delhi,Delhi,"ITO, Delhi - CPCB",04-07-2024 15:00:00,28.628624,77.241060,SO2,11,29,19
India,Delhi,Delhi,"ITO, Delhi - CPCB",04-07-2024 15:00:00,28.628624,77.241060,OZONE,NA,NA,NA
India,Delhi,Delhi,"Jahangirpuri, Delhi - DPCC",04-07-2024 15:00:00,28.732820,77.170633,OZONE,2,16,5
India,Delhi,Delhi,"Jawaharlal Nehru Stadium, Delhi - DPCC",04-07-2024 15:00:00,28.580280,77.233829,PM2.5,8,65,28
India,Delhi,Delhi,"Jawaharlal Nehru Stadium, Delhi - DPCC",04-07-2024 15:00:00,28.580280,77.233829,CO,35,74,44
India,Delhi,Delhi,"Mandir Marg, Delhi - DPCC",04-07-2024 15:00:00,28.636429,77.201067,CO,18,69,39
India,Delhi,Delhi,"Mandir Marg, Delhi - DPCC",04-07-2024 15:00:00,28.636429,77.201067,OZONE,14,44,20
India,Delhi,Delhi,"Mundka, Delhi - DPCC",04-07-2024 15:00:00,28.684678,77.076574,NO2,37,161,67
India,Delhi,Delhi,"Mundka, Delhi - DPCC",04-07-2024 15:00:00,28.684678,77.076574,NH3,5,64,22
India,Delhi,Delhi,"Mundka, Delhi - DPCC",04-07-2024 15:00:00,28.684678,77.076574,SO2,2,13,6
India,Delhi,Delhi,"Mundka, Delhi - DPCC",04-07-2024 15:00:00,28.684678,77.076574,CO,30,65,48
India,Delhi,Delhi,"NSIT Dwarka, Delhi - CPCB",04-07-2024 15:00:00,28.60909,77.0325413,NO2,22,34,28
India,Delhi,Delhi,"Nehru Nagar, Delhi - DPCC",04-07-2024 15:00:00,28.567890,77.250515,NH3,2,4,3
India,Delhi,Delhi,"Nehru Nagar, Delhi - DPCC",04-07-2024 15:00:00,28.567890,77.250515,SO2,1,7,4
India,Delhi,Delhi,"Nehru Nagar, Delhi - DPCC",04-07-2024 15:00:00,28.567890,77.250515,CO,55,80,66
India,Delhi,Delhi,"Okhla Phase-2, Delhi - DPCC",04-07-2024 15:00:00,28.530785,77.271255,PM10,24,112,50
India,Delhi,Delhi,"Patparganj, Delhi - DPCC",04-07-2024 15:00:00,28.623763,77.287209,PM2.5,15,58,36
India,Delhi,Delhi,"Patparganj, Delhi - DPCC",04-07-2024 15:00:00,28.623763,77.287209,NH3,5,14,9
India,Delhi,Delhi,"Patparganj, Delhi - DPCC",04-07-2024 15:00:00,28.623763,77.287209,CO,10,31,21
India,Delhi,Delhi,"Punjabi Bagh, Delhi - DPCC",04-07-2024 15:00:00,28.674045,77.131023,OZONE,6,32,17
India,Delhi,Delhi,"Pusa, Delhi - DPCC",04-07-2024 15:00:00,28.639652,77.146275,PM2.5,3,73,32
India,Delhi,Delhi,"R K Puram, Delhi - DPCC",04-07-2024 15:00:00,28.563262,77.186937,SO2,3,21,11
India,Delhi,Delhi,"Rohini, Delhi - DPCC",04-07-2024 15:00:00,28.732528,77.119920,CO,20,50,33
India,Delhi,Delhi,"Shadipur, Delhi - CPCB",04-07-2024 15:00:00,28.6514781,77.1473105,NO2,40,76,57
India,Delhi,Delhi,"Shadipur, Delhi - CPCB",04-07-2024 15:00:00,28.6514781,77.1473105,CO,31,77,46
India,Delhi,Delhi,"Sirifort, Delhi - CPCB",04-07-2024 15:00:00,28.5504249,77.2159377,SO2,42,57,47
India,Delhi,Delhi,"Sirifort, Delhi - CPCB",04-07-2024 15:00:00,28.5504249,77.2159377,OZONE,7,10,7
India,Delhi,Delhi,"Sri Aurobindo Marg, Delhi - DPCC",04-07-2024 15:00:00,28.531346,77.190156,SO2,8,14,11
India,Delhi,Delhi,"Sri Aurobindo Marg, Delhi - DPCC",04-07-2024 15:00:00,28.531346,77.190156,OZONE,3,54,20
India,Delhi,Delhi,"Vivek Vihar, Delhi - DPCC",04-07-2024 15:00:00,28.672342,77.315260,SO2,NA,NA,NA
India,Delhi,Delhi,"Wazirpur, Delhi - DPCC",04-07-2024 15:00:00,28.699793,77.165453,OZONE,15,34,24
India,Gujarat,Ahmedabad,"Chandkheda, Ahmedabad - IITM",04-07-2024 15:00:00,23.107969,72.574648,NO2,9,54,21
India,Gujarat,Ahmedabad,"Chandkheda, Ahmedabad - IITM",04-07-2024 15:00:00,23.107969,72.574648,CO,56,86,81
India,Gujarat,Ahmedabad,"Raikhad, Ahmedabad - IITM",04-07-2024 15:00:00,23.020509,72.579261,PM10,40,151,58
India,Gujarat,Ahmedabad,"Rakhial, Ahmedabad - IITM",04-07-2024 15:00:00,23.016834,72.625775,PM2.5,32,214,76
India,Gujarat,Ahmedabad,"Rakhial, Ahmedabad - IITM",04-07-2024 15:00:00,23.016834,72.625775,PM10,23,194,82
India,Gujarat,Ahmedabad,"Rakhial, Ahmedabad - IITM",04-07-2024 15:00:00,23.016834,72.625775,NH3,7,28,12
India,Gujarat,Ahmedabad,"Rakhial, Ahmedabad - IITM",04-07-2024 15:00:00,23.016834,72.625775,CO,4,64,54
India,Gujarat,Ahmedabad,"SVPI Airport Hansol, Ahmedabad - IITM",04-07-2024 15:00:00,23.076793,72.627874,NH3,7,11,9
India,Gujarat,Ahmedabad,"SVPI Airport Hansol, Ahmedabad - IITM",04-07-2024 15:00:00,23.076793,72.627874,CO,1,48,17
India,Gujarat,Ahmedabad,"SVPI Airport Hansol, Ahmedabad - IITM",04-07-2024 15:00:00,23.076793,72.627874,OZONE,5,28,16
India,Gujarat,Ahmedabad,"Sardar Vallabhbhai Patel Stadium, Ahmedabad - IITM",04-07-2024 15:00:00,23.043070,72.562968,OZONE,10,24,16
India,Gujarat,Gandhinagar,"GIFT City, Gandhinagar - IITM",04-07-2024 15:00:00,23.163798,72.677768,PM2.5,42,75,56
India,Gujarat,Nandesari,"GIDC, Nandesari - Nandesari Ind. Association",04-07-2024 15:00:00,22.410802,73.097923,PM2.5,NA,NA,NA
India,Gujarat,Nandesari,"GIDC, Nandesari - Nandesari Ind. Association",04-07-2024 15:00:00,22.410802,73.097923,NO2,NA,NA,NA
India,Gujarat,Nandesari,"GIDC, Nandesari - Nandesari Ind. Association",04-07-2024 15:00:00,22.410802,73.097923,SO2,NA,NA,NA
India,Gujarat,Surat,"Science Center, Surat - SMC",04-07-2024 15:00:00,21.170046,72.795405,PM2.5,17,417,53
India,Gujarat,Surat,"Science Center, Surat - SMC",04-07-2024 15:00:00,21.170046,72.795405,NO2,NA,NA,NA
India,Gujarat,Surat,"Science Center, Surat - SMC",04-07-2024 15:00:00,21.170046,72.795405,CO,44,72,61
India,Gujarat,Vapi,"Phase-1 GIDC, Vapi - GPCB",04-07-2024 15:00:00,20.362421,72.918013,PM10,26,68,38
India,Gujarat,Vapi,"Phase-1 GIDC, Vapi - GPCB",04-07-2024 15:00:00,20.362421,72.918013,NO2,2,13,11
India,Gujarat,Vatva,"Phase-4 GIDC, Vatva - GPCB",04-07-2024 15:00:00,22.969611,72.643500,PM10,NA,NA,NA
India,Gujarat,Vatva,"Phase-4 GIDC, Vatva - GPCB",04-07-2024 15:00:00,22.969611,72.643500,NO2,14,161,56
India,Gujarat,Vatva,"Phase-4 GIDC, Vatva - GPCB",04-07-2024 15:00:00,22.969611,72.643500,NH3,4,22,14
India,Gujarat,Vatva,"Phase-4 GIDC, Vatva - GPCB",04-07-2024 15:00:00,22.969611,72.643500,OZONE,30,48,39
India,Haryana,Ambala,"Patti Mehar, Ambala - HSPCB",04-07-2024 15:00:00,30.379589,76.778328,NO2,7,20,14
India,Haryana,Bahadurgarh,"Arya Nagar, Bahadurgarh - HSPCB",04-07-2024 15:00:00,28.6701,76.9254,SO2,11,13,12
India,Haryana,Ballabgarh,"Nathu Colony, Ballabgarh - HSPCB",04-07-2024 15:00:00,28.3419248,77.319699,PM2.5,19,34,32
India,Haryana,Ballabgarh,"Nathu Colony, Ballabgarh - HSPCB",04-07-2024 15:00:00,28.3419248,77.319699,OZONE,6,107,20
India,Haryana,Charkhi Dadri,"Mini Secretariat, Charkhi Dadri - HSPCB",04-07-2024 15:00:00,28.593883,76.270653,OZONE,14,19,16
India,Haryana,Dharuhera,"Municipal Corporation Office, Dharuhera -  HSPCB",04-07-2024 15:00:00,28.206800,76.799700,PM2.5,NA,NA,NA
India,Haryana,Dharuhera,"Municipal Corporation Office, Dharuhera -  HSPCB",04-07-2024 15:00:00,28.206800,76.799700,NH3,NA,NA,NA
India,Haryana,Dharuhera,"Municipal Corporation Office, Dharuhera -  HSPCB",04-07-2024 15:00:00,28.206800,76.799700,SO2,NA,NA,NA
India,Haryana,Dharuhera,"Municipal Corporation Office, Dharuhera -  HSPCB",04-07-2024 15:00:00,28.206800,76.799700,OZONE,45,171,88
India,Haryana,Faridabad,"New Industrial Town, Faridabad - HSPCB",04-07-2024 15:00:00,28.39072,77.30059,SO2,NA,NA,NA
India,Haryana,Faridabad,"Sector 30, Faridabad - HSPCB",04-07-2024 15:00:00,28.4417,77.3217,PM2.5,NA,NA,NA
India,Haryana,Faridabad,"Sector- 16A, Faridabad - HSPCB",04-07-2024 15:00:00,28.4088421,77.3099081,CO,30,108,30
India,Haryana,Fatehabad,"Huda Sector, Fatehabad - HSPCB",04-07-2024 15:00:00,29.503664,75.467934,PM10,18,122,57
India,Haryana,Fatehabad,"Huda Sector, Fatehabad - HSPCB",04-07-2024 15:00:00,29.503664,75.467934,NO2,28,31,30
India,Haryana,Gurugram,"NISE Gwal Pahari, Gurugram - IMD",04-07-2024 15:00:00,28.422681,77.148944,NO2,NA,NA,NA
India,Haryana,Gurugram,"Teri Gram, Gurugram - HSPCB",04-07-2024 15:00:00,28.4275,77.1465,NO2,4,17,11
India,Haryana,Gurugram,"Vikas Sadan, Gurugram - HSPCB",04-07-2024 15:00:00,28.4501238,77.0263051,CO,50,131,82
India,Haryana,Hisar,"Urban Estate-II, Hisar - HSPCB",04-07-2024 15:00:00,29.140560,75.744941,PM10,38,98,58
India,Haryana,Hisar,"Urban Estate-II, Hisar - HSPCB",04-07-2024 15:00:00,29.140560,75.744941,NH3,3,4,4
India,Haryana,Hisar,"Urban Estate-II, Hisar - HSPCB",04-07-2024 15:00:00,29.140560,75.744941,SO2,1,68,15
India,Haryana,Kaithal,"Rishi Nagar, Kaithal - HSPCB",04-07-2024 15:00:00,29.8006,76.4155,PM2.5,15,96,43
India,Haryana,Kaithal,"Rishi Nagar, Kaithal - HSPCB",04-07-2024 15:00:00,29.8006,76.4155,SO2,7,24,10
India,Haryana,Karnal,"Sector-12, Karnal - HSPCB",04-07-2024 15:00:00,29.695300,77.002700,PM2.5,6,28,20
India,Haryana,Kurukshetra,"Sector-7, Kurukshetra - HSPCB",04-07-2024 15:00:00,29.966942,76.875879,PM10,14,275,70
India,Haryana,Kurukshetra,"Sector-7, Kurukshetra - HSPCB",04-07-2024 15:00:00,29.966942,76.875879,NH3,6,6,6
India,Haryana,Palwal,"Shyam Nagar, Palwal - HSPCB",04-07-2024 15:00:00,28.1485564,77.3320667,PM10,23,107,45
India,Haryana,Palwal,"Shyam Nagar, Palwal - HSPCB",04-07-2024 15:00:00,28.1485564,77.3320667,NH3,8,9,9
India,Haryana,Palwal,"Shyam Nagar, Palwal - HSPCB",04-07-2024 15:00:00,28.1485564,77.3320667,OZONE,6,15,7
India,Haryana,Panchkula,"Sector-6, Panchkula - HSPCB ",04-07-2024 15:00:00,30.7057778,76.8531805555555,OZONE,27,35,33
India,Haryana,Panipat,"Sector-18, Panipat - HSPCB",04-07-2024 15:00:00,29.432304,76.972765,NH3,2,3,3
India,Haryana,Sirsa,"F-Block, Sirsa - HSPCB",04-07-2024 15:00:00,29.536400,75.015800,PM10,7,128,62
India,Haryana,Sirsa,"F-Block, Sirsa - HSPCB",04-07-2024 15:00:00,29.536400,75.015800,NO2,8,11,10
India,Haryana,Yamuna Nagar,"Gobind Pura, Yamuna Nagar - HSPCB",04-07-2024 15:00:00,30.1480566,77.2893471,SO2,2,11,4
India,Haryana,Yamuna Nagar,"Gobind Pura, Yamuna Nagar - HSPCB",04-07-2024 15:00:00,30.1480566,77.2893471,OZONE,57,159,66
India,Himachal Pradesh,Baddi,"HIMUDA Complex Phase-1, Baddi - HPPCB",04-07-2024 15:00:00,30.943887,76.801991,CO,17,28,22
India,Jammu_and_Kashmir,Srinagar,"Rajbagh, Srinagar - JKSPCB",04-07-2024 15:00:00,34.066206,74.819820,PM2.5,26,49,40
India,Jammu_and_Kashmir,Srinagar,"Rajbagh, Srinagar - JKSPCB",04-07-2024 15:00:00,34.066206,74.819820,PM10,40,78,63
India,Jammu_and_Kashmir,Srinagar,"Rajbagh, Srinagar - JKSPCB",04-07-2024 15:00:00,34.066206,74.819820,SO2,9,106,26
India,Jharkhand,Dhanbad,"Sardar Patel Nagar, Dhanbad - JSPCB",04-07-2024 15:00:00,23.80569,86.44268,NO2,NA,NA,NA
India,Karnataka,Belgaum,"Ramteerth Nagar, Belgaum - KSPCB",04-07-2024 15:00:00,15.888653,74.541751,PM10,13,51,30
India,Karnataka,Belgaum,"Ramteerth Nagar, Belgaum - KSPCB",04-07-2024 15:00:00,15.888653,74.541751,SO2,9,9,9
India,Karnataka,Belgaum,"Ramteerth Nagar, Belgaum - KSPCB",04-07-2024 15:00:00,15.888653,74.541751,CO,58,74,64
India,Karnataka,Belgaum,"Ramteerth Nagar, Belgaum - KSPCB",04-07-2024 15:00:00,15.888653,74.541751,OZONE,19,20,20
India,Karnataka,Bengaluru,"Bapuji Nagar, Bengaluru - KSPCB",04-07-2024 15:00:00,12.951913,77.539784,NO2,14,16,15
India,Karnataka,Bengaluru,"Bapuji Nagar, Bengaluru - KSPCB",04-07-2024 15:00:00,12.951913,77.539784,NH3,1,1,1
India,Karnataka,Bengaluru,"Bapuji Nagar, Bengaluru - KSPCB",04-07-2024 15:00:00,12.951913,77.539784,SO2,4,8,6
India,Karnataka,Bengaluru,"City Railway Station, Bengaluru - KSPCB",04-07-2024 15:00:00,12.9756843,77.5660749,CO,51,102,61
India,Karnataka,Bengaluru,"Hombegowda Nagar, Bengaluru - KSPCB",04-07-2024 15:00:00,12.938539,77.590100,PM2.5,7,27,16
India,Karnataka,Bengaluru,"Hombegowda Nagar, Bengaluru - KSPCB",04-07-2024 15:00:00,12.938539,77.590100,NO2,8,20,13
India,Karnataka,Bengaluru,"Hombegowda Nagar, Bengaluru - KSPCB",04-07-2024 15:00:00,12.938539,77.590100,CO,11,28,17
India,Karnataka,Bengaluru,"Jayanagar 5th Block, Bengaluru - KSPCB",04-07-2024 15:00:00,12.920984,77.584908,PM10,11,48,27
India,Karnataka,Bengaluru,"Jayanagar 5th Block, Bengaluru - KSPCB",04-07-2024 15:00:00,12.920984,77.584908,SO2,14,21,18
India,Karnataka,Bengaluru,"Jayanagar 5th Block, Bengaluru - KSPCB",04-07-2024 15:00:00,12.920984,77.584908,OZONE,12,13,13
India,Karnataka,Bengaluru,"Jigani, Bengaluru - KSPCB",04-07-2024 15:00:00,12.7816279,77.6299145,PM10,NA,NA,NA
India,Karnataka,Bengaluru,"Jigani, Bengaluru - KSPCB",04-07-2024 15:00:00,12.7816279,77.6299145,CO,27,42,40
India,Karnataka,Bengaluru,"Kasturi Nagar, Bengaluru - KSPCB",04-07-2024 15:00:00,13.003872,77.664217,SO2,9,10,10
India,Karnataka,Bengaluru,"Peenya, Bengaluru - CPCB",04-07-2024 15:00:00,13.0270199,77.494094,CO,75,100,79
India,Karnataka,Bengaluru,"Sanegurava Halli, Bengaluru - KSPCB",04-07-2024 15:00:00,12.990328,77.5431385,PM10,33,61,37
India,Karnataka,Bengaluru,"Shivapura_Peenya, Bengaluru - KSPCB",04-07-2024 15:00:00,13.0246342,77.5080115,NO2,15,16,15
India,Karnataka,Bengaluru,"Shivapura_Peenya, Bengaluru - KSPCB",04-07-2024 15:00:00,13.0246342,77.5080115,CO,20,33,22
India,Karnataka,Bengaluru,"Silk Board, Bengaluru - KSPCB",04-07-2024 15:00:00,12.917348,77.622813,SO2,8,12,10
India,Karnataka,Bidar,"Naubad, Bidar - KSPCB",04-07-2024 15:00:00,17.930306,77.482194,CO,50,82,63
India,Karnataka,Bidar,"Naubad, Bidar - KSPCB",04-07-2024 15:00:00,17.930306,77.482194,OZONE,5,14,8
India,Karnataka,Chikkaballapur,"Chikkaballapur Rural, Chikkaballapur - KSPCB",04-07-2024 15:00:00,13.428828,77.731418,NO2,4,9,6
India,Karnataka,Chikkaballapur,"Chikkaballapur Rural, Chikkaballapur - KSPCB",04-07-2024 15:00:00,13.428828,77.731418,OZONE,3,22,17
India,Karnataka,Gadag,"Panchal Nagar, Gadag - KSPCB",04-07-2024 15:00:00,15.411456,75.638133,OZONE,6,6,6
India,Karnataka,Hassan,"B.Katihalli, Hassan - KSPCB",04-07-2024 15:00:00,13.008556,76.125258,PM10,NA,NA,NA
India,Karnataka,Hassan,"B.Katihalli, Hassan - KSPCB",04-07-2024 15:00:00,13.008556,76.125258,NO2,NA,NA,NA
India,Karnataka,Hassan,"B.Katihalli, Hassan - KSPCB",04-07-2024 15:00:00,13.008556,76.125258,SO2,NA,NA,NA
India,Karnataka,Haveri,"Ashwini Nagar, Haveri - KSPCB",04-07-2024 15:00:00,14.791800,75.389600,NO2,NA,NA,NA
India,Karnataka,Kalaburagi,"Lal Bahadur Shastri Nagar, Kalaburagi - KSPCB",04-07-2024 15:00:00,17.321993,76.822628,PM2.5,6,53,21
India,Karnataka,Kalaburagi,"Lal Bahadur Shastri Nagar, Kalaburagi - KSPCB",04-07-2024 15:00:00,17.321993,76.822628,CO,32,34,32
India,Karnataka,Kalaburagi,"Lal Bahadur Shastri Nagar, Kalaburagi - KSPCB",04-07-2024 15:00:00,17.321993,76.822628,OZONE,3,9,5
India,Karnataka,Karwar,"KHB Colony, Karwar - KSPCB",04-07-2024 15:00:00,14.816666,74.141003,PM2.5,7,45,20
India,Karnataka,Karwar,"KHB Colony, Karwar - KSPCB",04-07-2024 15:00:00,14.816666,74.141003,CO,8,9,8
India,Karnataka,Kolar,"Tamaka Ind. Area, Kolar - KSPCB",04-07-2024 15:00:00,13.1276288,78.1570122,NH3,NA,NA,NA
India,Karnataka,Koppal,"Diwator Nagar, Koppal - KSPCB",04-07-2024 15:00:00,15.347630,76.181767,NH3,4,9,7
India,Karnataka,Mangalore,"Kadri, Mangalore - KSPCB",04-07-2024 15:00:00,12.889250,74.853000,SO2,15,16,16
India,Karnataka,Mysuru,"Hebbal 1st Stage, Mysuru - KSPCB",04-07-2024 15:00:00,12.21041,76.37376,CO,2,34,19
India,Karnataka,Raichur,"Haji Colony, Raichur - KSPCB",04-07-2024 15:00:00,16.208139,77.348417,PM2.5,2,88,14
India,Karnataka,Raichur,"Haji Colony, Raichur - KSPCB",04-07-2024 15:00:00,16.208139,77.348417,CO,73,104,101
India,Karnataka,Tumakuru,"Thimmalapura, Tumakuru - KSPCB",04-07-2024 15:00:00,13.377516,77.099072,PM2.5,16,48,26
India,Karnataka,Tumakuru,"Thimmalapura, Tumakuru - KSPCB",04-07-2024 15:00:00,13.377516,77.099072,CO,28,34,32
India,Karnataka,Tumakuru,"Thimmalapura, Tumakuru - KSPCB",04-07-2024 15:00:00,13.377516,77.099072,OZONE,6,10,7
India,Karnataka,Udupi,"Brahmagiri, Udupi - KSPCB",04-07-2024 15:00:00,13.34194444,74.74694444,NO2,19,25,24
India,Karnataka,Udupi,"Brahmagiri, Udupi - KSPCB",04-07-2024 15:00:00,13.34194444,74.74694444,OZONE,23,24,23
India,Karnataka,Yadgir,"Collector Office, Yadgir - KSPCB",04-07-2024 15:00:00,16.7602,77.1428,NO2,8,12,10
India,Karnataka,Yadgir,"Collector Office, Yadgir - KSPCB",04-07-2024 15:00:00,16.7602,77.1428,NH3,1,2,1
India,Karnataka,Yadgir,"Collector Office, Yadgir - KSPCB",04-07-2024 15:00:00,16.7602,77.1428,OZONE,17,23,20
India,Kerala,Eloor,"Udyogamandal, Eloor - Kerala PCB",04-07-2024 15:00:00,10.073232,76.302765,PM2.5,42,59,47
India,Kerala,Eloor,"Udyogamandal, Eloor - Kerala PCB",04-07-2024 15:00:00,10.073232,76.302765,NH3,1,1,1
India,Kerala,Kannur,"Thavakkara, Kannur - Kerala PCB",04-07-2024 15:00:00,11.875000,75.373200,PM10,39,45,42
India,Kerala,Thiruvananthapuram,"Kariavattom, Thiruvananthapuram - Kerala PCB",04-07-2024 15:00:00,8.563700,76.886500,PM10,50,58,55
India,Kerala,Thiruvananthapuram,"Kariavattom, Thiruvananthapuram - Kerala PCB",04-07-2024 15:00:00,8.563700,76.886500,SO2,2,12,5
India,Kerala,Thiruvananthapuram,"Plammoodu, Thiruvananthapuram - Kerala PCB",04-07-2024 15:00:00,8.5149093,76.9435879,NO2,8,11,9
India,Kerala,Thiruvananthapuram,"Plammoodu, Thiruvananthapuram - Kerala PCB",04-07-2024 15:00:00,8.5149093,76.9435879,SO2,6,14,9
India,Madhya Pradesh,Bhopal,"Idgah Hills, Bhopal - MPPCB",04-07-2024 15:00:00,23.264759,77.381568,NO2,6,30,14
India,Madhya Pradesh,Bhopal,"Idgah Hills, Bhopal - MPPCB",04-07-2024 15:00:00,23.264759,77.381568,OZONE,12,30,17
India,Madhya Pradesh,Damoh,"Shrivastav Colony, Damoh - MPPCB",04-07-2024 15:00:00,23.81748678,79.446246,PM10,10,53,28
India,Madhya Pradesh,Gwalior,"City Center, Gwalior - MPPCB",04-07-2024 15:00:00,26.203442,78.193251,PM10,16,37,26
India,Madhya Pradesh,Gwalior,"Deen Dayal Nagar, Gwalior - MPPCB",04-07-2024 15:00:00,26.259242,78.216432,OZONE,60,91,71
India,Madhya Pradesh,Gwalior,"Maharaj Bada, Gwalior - MPPCB",04-07-2024 15:00:00,26.200388,78.147714,CO,16,97,44
India,Madhya Pradesh,Gwalior,"Phool Bagh, Gwalior - Mondelez Ind. Food",04-07-2024 15:00:00,26.210536,78.171,PM2.5,NA,NA,NA
India,Madhya Pradesh,Gwalior,"Phool Bagh, Gwalior - Mondelez Ind. Food",04-07-2024 15:00:00,26.210536,78.171,CO,52,63,60
India,Madhya Pradesh,Indore,"Chhoti Gwaltoli, Indore - MPPCB",04-07-2024 15:00:00,22.4310,75.5213,SO2,10,12,11
India,Madhya Pradesh,Indore,"Maguda Nagar, Indore - IMC",04-07-2024 15:00:00,22.7524,75.8872,NO2,NA,NA,NA
India,Madhya Pradesh,Indore,"Maguda Nagar, Indore - IMC",04-07-2024 15:00:00,22.7524,75.8872,NH3,NA,NA,NA
India,Madhya Pradesh,Indore,"Maguda Nagar, Indore - IMC",04-07-2024 15:00:00,22.7524,75.8872,OZONE,NA,NA,NA
India,Madhya Pradesh,Indore,"Regional Park, Indore - IMC",04-07-2024 15:00:00,22.6780,75.8559,PM10,13,34,25
India,Madhya Pradesh,Jabalpur,"Marhatal, Jabalpur - MPPCB",04-07-2024 15:00:00,23.168606,79.932247,NO2,7,29,20
India,Madhya Pradesh,Jabalpur,"Marhatal, Jabalpur - MPPCB",04-07-2024 15:00:00,23.168606,79.932247,CO,3,38,23
India,Madhya Pradesh,Jabalpur,"Marhatal, Jabalpur - MPPCB",04-07-2024 15:00:00,23.168606,79.932247,OZONE,5,30,10
India,Madhya Pradesh,Katni,"Gole Bazar, Katni - MPPCB",04-07-2024 15:00:00,23.50016,80.23284,NO2,19,30,24
India,Madhya Pradesh,Katni,"Gole Bazar, Katni - MPPCB",04-07-2024 15:00:00,23.50016,80.23284,CO,17,45,34
India,Madhya Pradesh,Maihar,"Sahilara, Maihar - KJS Cements",04-07-2024 15:00:00,24.2613009,80.7231783,CO,46,50,48
India,Madhya Pradesh,Mandideep,"Sector-D Industrial Area, Mandideep - MPPCB",04-07-2024 15:00:00,23.108440,77.511428,SO2,2,66,11
India,Madhya Pradesh,Mandideep,"Sector-D Industrial Area, Mandideep - MPPCB",04-07-2024 15:00:00,23.108440,77.511428,OZONE,43,79,66
India,Madhya Pradesh,Pithampur,"Sector-2 Industrial Area, Pithampur - MPPCB",04-07-2024 15:00:00,22.624758,75.675238,PM2.5,27,55,40
India,Madhya Pradesh,Pithampur,"Sector-2 Industrial Area, Pithampur - MPPCB",04-07-2024 15:00:00,22.624758,75.675238,NH3,3,4,3
India,Madhya Pradesh,Pithampur,"Sector-2 Industrial Area, Pithampur - MPPCB",04-07-2024 15:00:00,22.624758,75.675238,OZONE,24,52,33
India,Madhya Pradesh,Ratlam,"Shasthri Nagar, Ratlam - IPCA Lab",04-07-2024 15:00:00,23.331731,75.045981,PM2.5,1,48,21
India,Madhya Pradesh,Ratlam,"Shasthri Nagar, Ratlam - IPCA Lab",04-07-2024 15:00:00,23.331731,75.045981,PM10,27,91,54
India,Madhya Pradesh,Ratlam,"Shasthri Nagar, Ratlam - IPCA Lab",04-07-2024 15:00:00,23.331731,75.045981,SO2,28,33,31
India,Madhya Pradesh,Singrauli,"Suryakiran Bhawan NCL, Singrauli - MPPCB",04-07-2024 15:00:00,24.108970,82.645580,NH3,NA,NA,NA
India,Madhya Pradesh,Singrauli,"Suryakiran Bhawan NCL, Singrauli - MPPCB",04-07-2024 15:00:00,24.108970,82.645580,CO,10,15,13
India,Madhya Pradesh,Ujjain,"Mahakaleshwar Temple, Ujjain - MPPCB",04-07-2024 15:00:00,23.182719 ,75.768218 ,PM10,NA,NA,NA
India,Madhya Pradesh,Ujjain,"Mahakaleshwar Temple, Ujjain - MPPCB",04-07-2024 15:00:00,23.182719 ,75.768218 ,SO2,NA,NA,NA
India,Madhya Pradesh,Ujjain,"Mahakaleshwar Temple, Ujjain - MPPCB",04-07-2024 15:00:00,23.182719 ,75.768218 ,CO,14,20,16
India,Maharashtra,Ahmednagar,"Tarakpur, Ahmednagar - MPCB",04-07-2024 15:00:00,19.10122,74.73339,PM2.5,43,97,66
India,Maharashtra,Ahmednagar,"Tarakpur, Ahmednagar - MPCB",04-07-2024 15:00:00,19.10122,74.73339,NH3,1,10,5
India,Maharashtra,Akola,"Ramdaspeth, Akola - MPCB",04-07-2024 15:00:00,20.719516,77.000253,CO,16,42,24
India,Maharashtra,Amravati,"Shivneri Colony, Amravati - MPCB",04-07-2024 15:00:00,20.9402359,77.7895248,CO,6,26,13
India,Maharashtra,Amravati,"Shri Shivaji Science College, Amaravati - MPCB",04-07-2024 15:00:00,20.939198,77.765701,SO2,3,5,5
India,Maharashtra,Amravati,"Shri Shivaji Science College, Amaravati - MPCB",04-07-2024 15:00:00,20.939198,77.765701,CO,15,42,18
India,Maharashtra,Aurangabad,"MIDC Chilkalthana, Aurangabad - MPCB",04-07-2024 15:00:00,19.875620,75.387310,SO2,1,2,1
India,Maharashtra,Aurangabad,"More Chowk Waluj, Aurangabad - MPCB",04-07-2024 15:00:00,19.8389439,75.244448,NO2,16,30,25
India,Maharashtra,Aurangabad,"More Chowk Waluj, Aurangabad - MPCB",04-07-2024 15:00:00,19.8389439,75.244448,CO,12,96,48
India,Maharashtra,Badlapur,"Katrap, Badlapur - MPCB",04-07-2024 15:00:00,19.16485,73.23409,NH3,2,4,3
India,Maharashtra,Belapur,"CBD Belapur, Belapur - MPCB",04-07-2024 15:00:00,19.0243902,73.0406721,NH3,1,3,2
India,Maharashtra,Belapur,"CBD Belapur, Belapur - MPCB",04-07-2024 15:00:00,19.0243902,73.0406721,CO,2,36,12
India,Maharashtra,Bhiwandi,"Gokul Nagar, Bhiwandi - MPCB",04-07-2024 15:00:00,19.309073,73.057223,PM2.5,30,56,40
India,Maharashtra,Boisar,"Khaira, Boisar - MPCB",04-07-2024 15:00:00,19.786089,72.757971,CO,6,36,19
India,Maharashtra,Jalgaon,"Prabhat Colony, Jalgaon - MPCB",04-07-2024 15:00:00,21.001264,75.565602,NO2,6,25,14
India,Maharashtra,Jalgaon,"Prabhat Colony, Jalgaon - MPCB",04-07-2024 15:00:00,21.001264,75.565602,SO2,5,11,7
India,Maharashtra,Jalgaon,"Prabhat Colony, Jalgaon - MPCB",04-07-2024 15:00:00,21.001264,75.565602,CO,14,28,18
India,Maharashtra,Jalgaon,"Prabhat Colony, Jalgaon - MPCB",04-07-2024 15:00:00,21.001264,75.565602,OZONE,10,37,20
India,Maharashtra,Jalna,"Old MIDC, Jalna - MPCB",04-07-2024 15:00:00,19.854616,75.905894,OZONE,15,47,24
India,Maharashtra,Kolhapur,"Shivaji University, Kolhapur - MPCB",04-07-2024 15:00:00,16.6870449,74.2505872,PM2.5,15,39,28
India,Maharashtra,Kolhapur,"Shivaji University, Kolhapur - MPCB",04-07-2024 15:00:00,16.6870449,74.2505872,NO2,9,19,13
India,Maharashtra,Kolhapur,"Shivaji University, Kolhapur - MPCB",04-07-2024 15:00:00,16.6870449,74.2505872,OZONE,1,10,3
India,Maharashtra,Kolhapur,"Sinchan Bhavan, Kolhapur - MPCB",04-07-2024 15:00:00,16.7143745,74.2426398,PM10,21,61,41
India,Maharashtra,Kolhapur,"Sinchan Bhavan, Kolhapur - MPCB",04-07-2024 15:00:00,16.7143745,74.2426398,SO2,1,3,1
India,Maharashtra,Kolhapur,"Sinchan Bhavan, Kolhapur - MPCB",04-07-2024 15:00:00,16.7143745,74.2426398,OZONE,17,28,22
India,Maharashtra,Malegaon,"Mahesh Nagar, Malegaon - MPCB",04-07-2024 15:00:00,20.555712,74.529236,SO2,1,6,4
India,Maharashtra,Mira-Bhayandar,"Bhayandar West, Mira-Bhayandar - MPCB",04-07-2024 15:00:00,19.296481,72.840923,PM10,34,46,41
India,Maharashtra,Mira-Bhayandar,"Bhayandar West, Mira-Bhayandar - MPCB",04-07-2024 15:00:00,19.296481,72.840923,NO2,2,3,2
India,Maharashtra,Mumbai,"Borivali East, Mumbai - IITM",04-07-2024 15:00:00,19.23241,72.86895,PM2.5,15,40,25
India,Maharashtra,Mumbai,"Borivali East, Mumbai - IITM",04-07-2024 15:00:00,19.23241,72.86895,PM10,47,67,59
India,Maharashtra,Mumbai,"Borivali East, Mumbai - IITM",04-07-2024 15:00:00,19.23241,72.86895,NO2,10,20,15
India,Maharashtra,Mumbai,"Borivali East, Mumbai - MPCB",04-07-2024 15:00:00,19.2243333,72.8658113,PM10,34,73,49
India,Maharashtra,Mumbai,"Borivali East, Mumbai - MPCB",04-07-2024 15:00:00,19.2243333,72.8658113,SO2,9,13,11
India,Maharashtra,Mumbai,"Borivali East, Mumbai - MPCB",04-07-2024 15:00:00,19.2243333,72.8658113,CO,20,22,21
India,Maharashtra,Mumbai,"Byculla, Mumbai - BMC",04-07-2024 15:00:00,18.9767,72.8380,NO2,14,29,21
India,Maharashtra,Mumbai,"Chakala-Andheri East, Mumbai - IITM",04-07-2024 15:00:00,19.11074,72.86084,SO2,1,44,15
India,Maharashtra,Mumbai,"Chakala-Andheri East, Mumbai - IITM",04-07-2024 15:00:00,19.11074,72.86084,CO,4,16,11
India,Maharashtra,Mumbai,"Chembur, Mumbai - MPCB",04-07-2024 15:00:00,19.0364585,72.8954371,NO2,11,20,15
India,Maharashtra,Mumbai,"Chhatrapati Shivaji Intl. Airport (T2), Mumbai - MPCB",04-07-2024 15:00:00,19.10078,72.87462,PM10,46,79,56
India,Maharashtra,Mumbai,"Colaba, Mumbai - MPCB",04-07-2024 15:00:00,18.910000,72.820000,PM2.5,12,24,18
India,Maharashtra,Mumbai,"Colaba, Mumbai - MPCB",04-07-2024 15:00:00,18.910000,72.820000,PM10,51,106,77
India,Maharashtra,Mumbai,"Colaba, Mumbai - MPCB",04-07-2024 15:00:00,18.910000,72.820000,CO,12,13,12
India,Maharashtra,Mumbai,"Deonar, Mumbai - IITM",04-07-2024 15:00:00,19.04946,72.9230,NO2,8,15,10
India,Maharashtra,Mumbai,"Ghatkopar, Mumbai - BMC",04-07-2024 15:00:00,19.083694,72.920967,CO,12,20,16
India,Maharashtra,Mumbai,"Ghatkopar, Mumbai - BMC",04-07-2024 15:00:00,19.083694,72.920967,OZONE,14,22,17
India,Maharashtra,Mumbai,"Kandivali East, Mumbai - MPCB",04-07-2024 15:00:00,19.205800,72.868200,PM10,33,133,84
India,Maharashtra,Mumbai,"Kandivali West, Mumbai - BMC",04-07-2024 15:00:00,19.215859,72.831718,SO2,1,4,2
India,Maharashtra,Mumbai,"Kherwadi_Bandra East, Mumbai - MPCB",04-07-2024 15:00:00,19.0632143,72.8456324,PM2.5,25,45,32
India,Maharashtra,Mumbai,"Khindipada-Bhandup West, Mumbai - IITM",04-07-2024 15:00:00,19.1653323,72.922099,NO2,3,5,4
India,Maharashtra,Mumbai,"Kurla, Mumbai - MPCB",04-07-2024 15:00:00,19.0863,72.8888,PM2.5,8,9,8
India,Maharashtra,Mumbai,"Malad West, Mumbai - IITM",04-07-2024 15:00:00,19.19709,72.82204,PM2.5,2,26,8
India,Maharashtra,Mumbai,"Malad West, Mumbai - IITM",04-07-2024 15:00:00,19.19709,72.82204,NH3,1,3,2
India,Maharashtra,Mumbai,"Malad West, Mumbai - IITM",04-07-2024 15:00:00,19.19709,72.82204,OZONE,5,13,9
India,Maharashtra,Mumbai,"Mindspace-Malad West, Mumbai - MPCB",04-07-2024 15:00:00,19.1878657,72.8304069,NH3,5,8,5
India,Maharashtra,Mumbai,"Mindspace-Malad West, Mumbai - MPCB",04-07-2024 15:00:00,19.1878657,72.8304069,OZONE,10,15,12
India,Maharashtra,Mumbai,"Sewri, Mumbai - BMC",04-07-2024 15:00:00,19.000084,72.856730,SO2,1,3,2
India,Maharashtra,Mumbai,"Shivaji Nagar, Mumbai - BMC",04-07-2024 15:00:00,19.060498,72.923356,PM2.5,15,46,28
India,Maharashtra,Mumbai,"Shivaji Nagar, Mumbai - BMC",04-07-2024 15:00:00,19.060498,72.923356,PM10,39,102,63
India,Maharashtra,Mumbai,"Shivaji Nagar, Mumbai - BMC",04-07-2024 15:00:00,19.060498,72.923356,NH3,1,4,2
India,Maharashtra,Mumbai,"Siddharth Nagar-Worli, Mumbai - IITM",04-07-2024 15:00:00,19.000083,72.813993,OZONE,15,26,23
India,Maharashtra,Mumbai,"Vasai West, Mumbai - MPCB",04-07-2024 15:00:00,19.383200,72.820400,PM2.5,10,62,26
India,Maharashtra,Mumbai,"Vasai West, Mumbai - MPCB",04-07-2024 15:00:00,19.383200,72.820400,NO2,25,28,27
India,Maharashtra,Mumbai,"Worli, Mumbai - MPCB",04-07-2024 15:00:00,18.9936162,72.8128113,CO,23,24,23
India,Maharashtra,Nagpur,"Ambazari, Nagpur - MPCB",04-07-2024 15:00:00,21.121801,79.04952,PM2.5,44,73,54
India,Maharashtra,Nagpur,"Mahal, Nagpur - MPCB",04-07-2024 15:00:00,21.14472,79.107595,NO2,NA,NA,NA
India,Maharashtra,Nagpur,"Mahal, Nagpur - MPCB",04-07-2024 15:00:00,21.14472,79.107595,SO2,NA,NA,NA
India,Maharashtra,Nagpur,"Opp GPO Civil Lines, Nagpur - MPCB",04-07-2024 15:00:00,21.152875,79.0517531,NO2,10,50,24
India,Maharashtra,Nagpur,"Opp GPO Civil Lines, Nagpur - MPCB",04-07-2024 15:00:00,21.152875,79.0517531,SO2,2,9,6
India,Maharashtra,Nagpur,"Ram Nagar, Nagpur - MPCB",04-07-2024 15:00:00,21.143383,79.048912,NO2,3,23,9
India,Maharashtra,Nanded,"Sneh Nagar, Nanded - MPCB",04-07-2024 15:00:00,19.173852,77.296291,PM10,NA,NA,NA
India,Maharashtra,Nanded,"Sneh Nagar, Nanded - MPCB",04-07-2024 15:00:00,19.173852,77.296291,NH3,NA,NA,NA
India,Maharashtra,Nashik,"Hirawadi, Nashik - MPCB",04-07-2024 15:00:00,20.021503,73.813844,NO2,1,8,4
India,Maharashtra,Nashik,"Hirawadi, Nashik - MPCB",04-07-2024 15:00:00,20.021503,73.813844,OZONE,14,38,24
India,Maharashtra,Nashik,"MIDC Ambad, Nashik - MPCB",04-07-2024 15:00:00,19.950220,73.731480,SO2,7,11,10
India,Maharashtra,Nashik,"MIDC Ambad, Nashik - MPCB",04-07-2024 15:00:00,19.950220,73.731480,CO,20,55,48
India,Maharashtra,Nashik,"Pandav Nagari, Nashik - MPCB",04-07-2024 15:00:00,19.9591346,73.7788008,NO2,8,37,22
India,Maharashtra,Navi Mumbai,"Kopripada-Vashi, Navi Mumbai - MPCB",04-07-2024 15:00:00,19.090337,73.014232,NO2,NA,NA,NA
India,Maharashtra,Navi Mumbai,"Kopripada-Vashi, Navi Mumbai - MPCB",04-07-2024 15:00:00,19.090337,73.014232,SO2,7,8,8
India,Maharashtra,Navi Mumbai,"Mahape, Navi Mumbai - MPCB",04-07-2024 15:00:00,19.1135051,73.008978,PM10,42,132,68
India,Maharashtra,Navi Mumbai,"Nerul, Navi Mumbai - MPCB",04-07-2024 15:00:00,19.008751,73.016620,NO2,20,28,22
India,Maharashtra,Navi Mumbai,"Nerul, Navi Mumbai - MPCB",04-07-2024 15:00:00,19.008751,73.016620,OZONE,19,26,21
India,Maharashtra,Navi Mumbai,"Sanpada, Navi Mumbai - MPCB",04-07-2024 15:00:00,19.0575752,73.0151367,CO,5,12,8
India,Maharashtra,Navi Mumbai,"Sector-19A Nerul, Navi Mumbai - IITM",04-07-2024 15:00:00,19.044,73.0325,CO,4,26,18
India,Maharashtra,Navi Mumbai,"Tondare-Taloja, Navi Mumbai - MPCB",04-07-2024 15:00:00,19.0630,73.1209,PM10,55,102,71
India,Maharashtra,Pimpri-Chinchwad,"Gavalinagar, Pimpri Chinchwad - MPCB",04-07-2024 15:00:00,18.63673,73.82487,PM10,16,54,34
India,Maharashtra,Pimpri-Chinchwad,"Gavalinagar, Pimpri Chinchwad - MPCB",04-07-2024 15:00:00,18.63673,73.82487,NH3,4,4,4
India,Maharashtra,Pune,"Bhosari, Pune - IITM",04-07-2024 15:00:00,18.640051,73.848956,PM2.5,11,44,23
India,Maharashtra,Pune,"Karve Road, Pune - MPCB",04-07-2024 15:00:00,18.5011743,73.8165527,PM2.5,NA,NA,NA
India,Maharashtra,Sangli,"Vijay Nagar, Sangli - MPCB",04-07-2024 15:00:00, 16.5038,74.3623,SO2,1,7,4
India,Maharashtra,Solapur,"Dnyaneshwar Nagar, Solapur - MPCB",04-07-2024 15:00:00,17.6336264,75.9132495,PM10,30,75,52
India,Maharashtra,Solapur,"Dnyaneshwar Nagar, Solapur - MPCB",04-07-2024 15:00:00,17.6336264,75.9132495,NO2,2,8,5
India,Maharashtra,Solapur,"Ratandeep Housing Society, Solapur - MPCB",04-07-2024 15:00:00,17.65439,75.90649,NO2,3,9,5
India,Maharashtra,Solapur,"Ratandeep Housing Society, Solapur - MPCB",04-07-2024 15:00:00,17.65439,75.90649,SO2,3,4,3
India,Maharashtra,Solapur,"Ratandeep Housing Society, Solapur - MPCB",04-07-2024 15:00:00,17.65439,75.90649,OZONE,11,29,17
India,Maharashtra,Solapur,"Solapur, Solapur - MPCB",04-07-2024 15:00:00,17.6599188,75.9063906,SO2,NA,NA,NA
India,Maharashtra,Thane,"Pimpleshwar Mandir, Thane - MPCB",04-07-2024 15:00:00,19.192056,72.9585188,NO2,17,22,19
India,Maharashtra,Thane,"Pimpleshwar Mandir, Thane - MPCB",04-07-2024 15:00:00,19.192056,72.9585188,SO2,1,6,3
India,Maharashtra,Thane,"Pimpleshwar Mandir, Thane - MPCB",04-07-2024 15:00:00,19.192056,72.9585188,CO,3,68,27
India,Maharashtra,Thane,"Upvan Fort, Thane - MPCB",04-07-2024 15:00:00,19.222279,72.957979,PM2.5,11,41,22
India,Maharashtra,Thane,"Upvan Fort, Thane - MPCB",04-07-2024 15:00:00,19.222279,72.957979,SO2,1,7,5
India,Maharashtra,Ulhasnagar,"Sidhi Vinayak Nagar, Ulhasnagar - MPCB",04-07-2024 15:00:00,19.235581,73.159121,NO2,2,51,23
India,Manipur,Imphal,"DM College of Science, Imphal - Manipur PCB",04-07-2024 15:00:00,24.8207389,93.9423085,NO2,7,8,7
India,Manipur,Imphal,"Manipur University, Imphal - Manipur PCB",04-07-2024 15:00:00,24.7524239,93.9286218,PM2.5,NA,NA,NA
India,Manipur,Imphal,"Manipur University, Imphal - Manipur PCB",04-07-2024 15:00:00,24.7524239,93.9286218,NH3,1,1,1
India,Manipur,Imphal,"Manipur University, Imphal - Manipur PCB",04-07-2024 15:00:00,24.7524239,93.9286218,OZONE,NA,NA,NA
India,Meghalaya,Shillong,"Lumpyngngad, Shillong - Meghalaya PCB",04-07-2024 15:00:00,25.5586,91.8985,NO2,1,2,1
India,Mizoram,Aizawl,"Sikulpuikawn, Aizawl - Mizoram PCB",04-07-2024 15:00:00,23.7176342,92.7192841,PM2.5,2,13,7
India,Mizoram,Aizawl,"Sikulpuikawn, Aizawl - Mizoram PCB",04-07-2024 15:00:00,23.7176342,92.7192841,CO,6,14,9
India,Mizoram,Aizawl,"Sikulpuikawn, Aizawl - Mizoram PCB",04-07-2024 15:00:00,23.7176342,92.7192841,OZONE,1,2,1
India,Nagaland,Kohima,"PWD Juction, Kohima - NPCB",04-07-2024 15:00:00,25.6635413,94.0989878,NH3,1,1,1
India,Nagaland,Kohima,"PWD Juction, Kohima - NPCB",04-07-2024 15:00:00,25.6635413,94.0989878,OZONE,2,10,4
India,Odisha,Angul,"Hakimapada, Angul - OSPCB",04-07-2024 15:00:00,20.832874,85.104082,PM2.5,2,207,63
India,Odisha,Angul,"Hakimapada, Angul - OSPCB",04-07-2024 15:00:00,20.832874,85.104082,NH3,1,1,1
India,Odisha,Angul,"Hakimapada, Angul - OSPCB",04-07-2024 15:00:00,20.832874,85.104082,SO2,6,9,8
India,Odisha,Balasore,"Kalidaspur, Balasore - OSPCB",04-07-2024 15:00:00,21.51161,86.89088,PM10,16,117,57
India,Odisha,Balasore,"Kalidaspur, Balasore - OSPCB",04-07-2024 15:00:00,21.51161,86.89088,CO,38,104,48
India,Odisha,Barbil,"Forest Office, Barbil - OSPCB",04-07-2024 15:00:00,22.1166054,85.3945546,OZONE,18,53,33
India,Odisha,Baripada,"Meher Colony, Baripada - OSPCB",04-07-2024 15:00:00,21.941841,86.728318,SO2,8,10,9
India,Odisha,Bhubaneswar,"Lingraj Mandir, Bhubaneswar - OSPCB",04-07-2024 15:00:00,20.240790,85.836784,PM2.5,28,173,50
India,Odisha,Bhubaneswar,"Lingraj Mandir, Bhubaneswar - OSPCB",04-07-2024 15:00:00,20.240790,85.836784,PM10,60,267,101
India,Odisha,Bhubaneswar,"Lingraj Mandir, Bhubaneswar - OSPCB",04-07-2024 15:00:00,20.240790,85.836784,NH3,2,4,3
India,Odisha,Bhubaneswar,"Lingraj Mandir, Bhubaneswar - OSPCB",04-07-2024 15:00:00,20.240790,85.836784,OZONE,6,55,30
India,Odisha,Bileipada,"Tata Township, Bileipada - OSPCB",04-07-2024 15:00:00,22.06156703,85.47409613,CO,9,24,10
India,Odisha,Byasanagar,"Ferro Chrome Colony, Byasanagar - OSPCB",04-07-2024 15:00:00,20.94185,86.11510,SO2,1,15,5
India,Odisha,Cuttack,"CDA Area, Cuttack - OSPCB",04-07-2024 15:00:00,20.48891     ,85.84768     ,NO2,11,46,24
India,Odisha,Keonjhar,"Jagamohanpur, Keonjhar - OSPCB",04-07-2024 15:00:00,21.643900,85.599355,CO,42,77,47
India,Odisha,Rourkela,"Fertilizer Township, Rourkela - OSPCB",04-07-2024 15:00:00,22.18972222,84.86277778,NO2,7,80,29
India,Odisha,Rourkela,"Raghunathpali, Rourkela - OSPCB",04-07-2024 15:00:00,22.220833,84.809444,NO2,15,54,30
India,Odisha,Rourkela,"Raghunathpali, Rourkela - OSPCB",04-07-2024 15:00:00,22.220833,84.809444,NH3,1,3,2
India,Odisha,Suakati,"OMC Colony, Suakati - OSPCB",04-07-2024 15:00:00,21.606865,85.510538,PM2.5,19,48,30
India,Odisha,Talcher,"Talcher Coalfields,Talcher - OSPCB",04-07-2024 15:00:00,20.9360711,85.1707021,OZONE,24,26,25
India,Odisha,Tensa,"Barsua Iron Ore Mines, Tensa - OSPCB",04-07-2024 15:00:00,21.869985,85.167016,PM10,NA,NA,NA
India,Odisha,Tensa,"Barsua Iron Ore Mines, Tensa - OSPCB",04-07-2024 15:00:00,21.869985,85.167016,NH3,NA,NA,NA
India,Odisha,Tensa,"Barsua Iron Ore Mines, Tensa - OSPCB",04-07-2024 15:00:00,21.869985,85.167016,SO2,NA,NA,NA
India,Puducherry,Puducherry,"Jawahar Nagar, Puducherry - PPCC",04-07-2024 15:00:00,11.9309,79.8027,PM2.5,11,70,31
India,Punjab,Amritsar,"Golden Temple, Amritsar - PPCB",04-07-2024 15:00:00,31.620000,74.876512,NO2,5,60,26
India,Punjab,Bathinda,"Hardev Nagar, Bathinda - PPCB",04-07-2024 15:00:00,30.233011,74.907758,PM2.5,1,118,51
India,Punjab,Jalandhar,"Civil Line, Jalandhar - PPCB",04-07-2024 15:00:00,31.321907,75.578914,PM10,38,101,69
India,Punjab,Khanna,"Kalal Majra, Khanna - PPCB",04-07-2024 15:00:00,30.736056 ,76.209694,PM10,19,87,61
India,Punjab,Khanna,"Kalal Majra, Khanna - PPCB",04-07-2024 15:00:00,30.736056 ,76.209694,NO2,28,29,29
India,Punjab,Khanna,"Kalal Majra, Khanna - PPCB",04-07-2024 15:00:00,30.736056 ,76.209694,CO,27,34,33
India,Punjab,Ludhiana,"Punjab Agricultural University, Ludhiana - PPCB",04-07-2024 15:00:00,30.9028,75.8086,NO2,22,26,24
India,Punjab,Ludhiana,"Punjab Agricultural University, Ludhiana - PPCB",04-07-2024 15:00:00,30.9028,75.8086,SO2,7,10,8
India,Punjab,Ludhiana,"Punjab Agricultural University, Ludhiana - PPCB",04-07-2024 15:00:00,30.9028,75.8086,CO,23,103,41
India,Punjab,Mandi Gobindgarh,"RIMT University, Mandi Gobindgarh - PPCB",04-07-2024 15:00:00,30.649961,76.331442,NO2,NA,NA,NA
India,Punjab,Patiala,"Model Town, Patiala - PPCB",04-07-2024 15:00:00,30.349388,76.366642,NO2,18,26,21
India,Rajasthan,Alwar,"Moti Doongri, Alwar - RSPCB",04-07-2024 15:00:00,27.554793,76.611536,SO2,10,33,20
India,Rajasthan,Banswara,"Rati Talai, Banswara - RSPCB",04-07-2024 15:00:00,23.555190,74.440010,PM2.5,NA,NA,NA
India,Rajasthan,Banswara,"Rati Talai, Banswara - RSPCB",04-07-2024 15:00:00,23.555190,74.440010,SO2,NA,NA,NA
India,Rajasthan,Banswara,"Rati Talai, Banswara - RSPCB",04-07-2024 15:00:00,23.555190,74.440010,CO,32,36,34
India,Rajasthan,Baran,"Bamboliya, Baran - RSPCB",04-07-2024 15:00:00,25.106006,76.469948,NO2,7,13,9
India,Rajasthan,Barmer,"Railway Colony, Barmer - RSPCB",04-07-2024 15:00:00,25.747299,71.393989,OZONE,2,46,27
India,Rajasthan,Bhiwadi,"RIICO Ind. Area III, Bhiwadi - RSPCB",04-07-2024 15:00:00,28.194909,76.862296,PM2.5,NA,NA,NA
India,Rajasthan,Bhiwadi,"RIICO Ind. Area III, Bhiwadi - RSPCB",04-07-2024 15:00:00,28.194909,76.862296,NH3,NA,NA,NA
India,Rajasthan,Bhiwadi,"Vasundhara Nagar_UIT, Bhiwadi - RSPCB",04-07-2024 15:00:00,28.207266,76.829265,CO,16,26,19
India,Rajasthan,Chittorgarh,"Shastri Nagar, Chittorgarh - RSPCB",04-07-2024 15:00:00,24.892047,74.623527,SO2,8,14,11
India,Rajasthan,Dungarpur,"Bhoiwada, Dungarpur - RSPCB",04-07-2024 15:00:00,23.837789,73.714926,PM10,12,151,94
India,Rajasthan,Jaipur,"Mansarovar Sector-12, Jaipur - RSPCB",04-07-2024 15:00:00,26.843698,75.766894,PM2.5,NA,NA,NA
India,Rajasthan,Jaipur,"Police Commissionerate, Jaipur - RSPCB",04-07-2024 15:00:00,26.9164092,75.7994901,NO2,4,13,8
India,Rajasthan,Jaipur,"Police Commissionerate, Jaipur - RSPCB",04-07-2024 15:00:00,26.9164092,75.7994901,NH3,16,19,18
India,Rajasthan,Jaipur,"Police Commissionerate, Jaipur - RSPCB",04-07-2024 15:00:00,26.9164092,75.7994901,CO,22,68,48
India,Rajasthan,Jaipur,"Sector-2 Murlipura, Jaipur - RSPCB",04-07-2024 15:00:00,26.960669,75.771817,PM2.5,NA,NA,NA
India,Rajasthan,Jaipur,"Shastri Nagar, Jaipur - RSPCB",04-07-2024 15:00:00,26.9502929,75.730943,NO2,11,49,29
India,Rajasthan,Jaisalmer,"Sadar Bazar, Jaisalmer - RSPCB",04-07-2024 15:00:00,26.912329,70.909168,PM10,74,133,105
India,Rajasthan,Jaisalmer,"Sadar Bazar, Jaisalmer - RSPCB",04-07-2024 15:00:00,26.912329,70.909168,NH3,1,8,4
India,Rajasthan,Jalore,"Mudtra Sili, Jalore - RSPCB",04-07-2024 15:00:00,25.344694,72.626208,CO,12,24,20
India,Rajasthan,Jhalawar,"Rajlaxmi Nagar, Jhalawar - RSPCB",04-07-2024 15:00:00,24.588397,76.172782,PM2.5,29,68,51
India,Rajasthan,Jhalawar,"Rajlaxmi Nagar, Jhalawar - RSPCB",04-07-2024 15:00:00,24.588397,76.172782,PM10,60,135,101
India,Rajasthan,Jhalawar,"Rajlaxmi Nagar, Jhalawar - RSPCB",04-07-2024 15:00:00,24.588397,76.172782,SO2,8,10,9
India,Rajasthan,Jhunjhunu,"Indra Nagar, Jhunjhunu - RSPCB",04-07-2024 15:00:00,28.108988,75.386577,NO2,11,37,17
India,Rajasthan,Jodhpur,"Collectorate, Jodhpur - RSPCB",04-07-2024 15:00:00,26.268249,73.0193853,CO,1,115,29
India,Rajasthan,Jodhpur,"Jhalamand, Jodhpur - RSPCB",04-07-2024 15:00:00,26.215415,73.070156,OZONE,16,58,27
India,Rajasthan,Jodhpur,"Mandor, Jodhpur - RSPCB",04-07-2024 15:00:00,26.358805,73.047444,OZONE,12,47,24
India,Rajasthan,Karauli,"Satyawati Vihar, Karauli - RSPCB",04-07-2024 15:00:00,26.506177,77.025989,PM2.5,28,95,57
India,Rajasthan,Karauli,"Satyawati Vihar, Karauli - RSPCB",04-07-2024 15:00:00,26.506177,77.025989,CO,2,10,4
India,Rajasthan,Kota,"Dhanmandi, Kota - RSPCB",04-07-2024 15:00:00,25.164090,75.858137,PM10,9,76,40
India,Rajasthan,Kota,"Dhanmandi, Kota - RSPCB",04-07-2024 15:00:00,25.164090,75.858137,NH3,3,6,4
India,Rajasthan,Kota,"Dhanmandi, Kota - RSPCB",04-07-2024 15:00:00,25.164090,75.858137,OZONE,5,76,33
India,Rajasthan,Kota,"Nayapura, Kota - RSPCB",04-07-2024 15:00:00,25.196024,75.855668,NO2,9,49,20
India,Rajasthan,Kota,"Shrinath Puram, Kota - RSPCB",04-07-2024 15:00:00,25.14389,75.821256,NH3,4,8,6
India,Rajasthan,Kota,"Shrinath Puram, Kota - RSPCB",04-07-2024 15:00:00,25.14389,75.821256,OZONE,26,59,31
India,Rajasthan,Nagaur,"Karni Colony, Nagaur - RSPCB",04-07-2024 15:00:00,27.213494,73.734444,PM2.5,32,61,45
India,Rajasthan,Nagaur,"Karni Colony, Nagaur - RSPCB",04-07-2024 15:00:00,27.213494,73.734444,PM10,64,103,83
India,Rajasthan,Nagaur,"Karni Colony, Nagaur - RSPCB",04-07-2024 15:00:00,27.213494,73.734444,NO2,4,11,7
India,Rajasthan,Pali,"Indira Colony Vistar, Pali - RSPCB",04-07-2024 15:00:00,25.771061, 73.340227,NH3,3,7,4
India,Rajasthan,Pali,"Indira Colony Vistar, Pali - RSPCB",04-07-2024 15:00:00,25.771061, 73.340227,OZONE,9,63,32
India,Rajasthan,Pratapgarh,"Pragati Nagar, Pratapgarh - RSPCB",04-07-2024 15:00:00,24.041198,74.780702,OZONE,20,43,30
India,Rajasthan,Rajsamand,"Dhoinda, Rajsamand - RSPCB",04-07-2024 15:00:00,25.036360,73.883502,SO2,6,9,8
India,Rajasthan,Sawai Madhopur,"Sahu Nagar, Sawai Madhopur - RSPCB",04-07-2024 15:00:00,26.031443,76.359327,PM2.5,8,36,17
India,Rajasthan,Sawai Madhopur,"Sahu Nagar, Sawai Madhopur - RSPCB",04-07-2024 15:00:00,26.031443,76.359327,NO2,14,22,18
India,Rajasthan,Sawai Madhopur,"Sahu Nagar, Sawai Madhopur - RSPCB",04-07-2024 15:00:00,26.031443,76.359327,CO,40,54,44
India,Rajasthan,Sikar,"Radhakishan Pura, Sikar - RSPCB",04-07-2024 15:00:00,27.608912,75.153302,PM2.5,5,47,20
India,Rajasthan,Sikar,"Radhakishan Pura, Sikar - RSPCB",04-07-2024 15:00:00,27.608912,75.153302,CO,2,52,35
India,Rajasthan,Sirohi,"Vedhaynath Colony, Sirohi - RSPCB",04-07-2024 15:00:00,24.885261,72.857549,SO2,6,11,9
India,Rajasthan,Sirohi,"Vedhaynath Colony, Sirohi - RSPCB",04-07-2024 15:00:00,24.885261,72.857549,CO,1,28,4
India,Rajasthan,Sri Ganganagar,"Old City, Sri Ganganagar - RSPCB",04-07-2024 15:00:00,29.931624,73.864511,PM2.5,22,296,87
India,Rajasthan,Sri Ganganagar,"Old City, Sri Ganganagar - RSPCB",04-07-2024 15:00:00,29.931624,73.864511,SO2,8,40,32
India,Rajasthan,Udaipur,"Ashok Nagar, Udaipur - RSPCB",04-07-2024 15:00:00,24.5886166,73.6321397,PM10,19,123,78
India,Rajasthan,Udaipur,"Ashok Nagar, Udaipur - RSPCB",04-07-2024 15:00:00,24.5886166,73.6321397,NO2,2,27,9
India,TamilNadu,Ariyalur,"Keelapalur, Ariyalur - TNPCB",04-07-2024 15:00:00,11.06825,79.07033,NO2,10,12,10
India,TamilNadu,Ariyalur,"Keelapalur, Ariyalur - TNPCB",04-07-2024 15:00:00,11.06825,79.07033,NH3,2,3,2
India,TamilNadu,Ariyalur,"Keelapalur, Ariyalur - TNPCB",04-07-2024 15:00:00,11.06825,79.07033,SO2,35,37,36
India,TamilNadu,Chennai,"Arumbakkam, Chennai - TNPCB",04-07-2024 15:00:00,13.0664,80.2112 ,PM2.5,6,56,21
India,TamilNadu,Chennai,"Kodungaiyur, Chennai - TNPCB",04-07-2024 15:00:00,13.1278,80.2642,NH3,3,6,4
India,TamilNadu,Chennai,"Kodungaiyur, Chennai - TNPCB",04-07-2024 15:00:00,13.1278,80.2642,CO,13,46,32
India,TamilNadu,Chennai,"Kodungaiyur, Chennai - TNPCB",04-07-2024 15:00:00,13.1278,80.2642,OZONE,20,68,34
India,TamilNadu,Chennai,"Manali, Chennai - CPCB",04-07-2024 15:00:00,13.164544,80.26285,PM10,17,115,61
India,TamilNadu,Chennai,"Manali, Chennai - CPCB",04-07-2024 15:00:00,13.164544,80.26285,CO,82,103,99
India,TamilNadu,Chennai,"Perungudi, Chennai - TNPCB",04-07-2024 15:00:00,12.9533,80.2357,PM10,14,119,52
India,TamilNadu,Chennai,"Perungudi, Chennai - TNPCB",04-07-2024 15:00:00,12.9533,80.2357,NO2,2,14,8
India,TamilNadu,Chennai,"Perungudi, Chennai - TNPCB",04-07-2024 15:00:00,12.9533,80.2357,NH3,2,4,3
India,TamilNadu,Chennai,"Perungudi, Chennai - TNPCB",04-07-2024 15:00:00,12.9533,80.2357,CO,28,36,33
India,TamilNadu,Chennai,"Royapuram, Chennai - TNPCB",04-07-2024 15:00:00,13.1036,80.2909,PM10,12,111,47
India,TamilNadu,Chennai,"Royapuram, Chennai - TNPCB",04-07-2024 15:00:00,13.1036,80.2909,NO2,19,49,35
India,TamilNadu,Coimbatore,"PSG College of Arts and Science, Coimbatore - TNPCB",04-07-2024 15:00:00,11.0328,77.0349,OZONE,3,5,4
India,TamilNadu,Cuddalore,"Semmandalam, Cuddalore - TNPCB",04-07-2024 15:00:00,11.7637683,79.7499835,PM2.5,5,51,19
India,TamilNadu,Ooty,"Bombay Castel, Ooty - TNPCB",04-07-2024 15:00:00,11.4068288,76.7138973,PM2.5,20,40,31
India,TamilNadu,Ramanathapuram,"Chalai Bazaar, Ramanathapuram - TNPCB",04-07-2024 15:00:00,9.36399,78.831977,SO2,NA,NA,NA
India,TamilNadu,Ramanathapuram,"Chalai Bazaar, Ramanathapuram - TNPCB",04-07-2024 15:00:00,9.36399,78.831977,OZONE,14,14,14
India,TamilNadu,Tirupur,"Kumaran College, Tirupur - TNPCB",04-07-2024 15:00:00,11.0973603,77.3228673,CO,14,52,38
India,TamilNadu,Vellore,"Vasanthapuram, Vellore - TNPCB",04-07-2024 15:00:00,12.909494,79.131861,PM2.5,13,40,23
India,TamilNadu,Vellore,"Vasanthapuram, Vellore - TNPCB",04-07-2024 15:00:00,12.909494,79.131861,SO2,NA,NA,NA
India,Telangana,Hyderabad,"Bollaram Industrial Area, Hyderabad - TSPCB",04-07-2024 15:00:00,17.540891,78.358528,PM2.5,16,33,26
India,Telangana,Hyderabad,"Bollaram Industrial Area, Hyderabad - TSPCB",04-07-2024 15:00:00,17.540891,78.358528,NH3,2,3,2
India,Telangana,Hyderabad,"Central University, Hyderabad - TSPCB",04-07-2024 15:00:00,17.460103,78.334361,SO2,4,10,7
India,Telangana,Hyderabad,"Central University, Hyderabad - TSPCB",04-07-2024 15:00:00,17.460103,78.334361,OZONE,3,4,4
India,Telangana,Hyderabad,"ECIL Kapra, Hyderabad - TSPCB",04-07-2024 15:00:00,17.470431,78.566959,NO2,NA,NA,NA
India,Telangana,Hyderabad,"ECIL Kapra, Hyderabad - TSPCB",04-07-2024 15:00:00,17.470431,78.566959,NH3,NA,NA,NA
India,Telangana,Hyderabad,"ECIL Kapra, Hyderabad - TSPCB",04-07-2024 15:00:00,17.470431,78.566959,SO2,NA,NA,NA
India,Telangana,Hyderabad,"ECIL Kapra, Hyderabad - TSPCB",04-07-2024 15:00:00,17.470431,78.566959,CO,18,28,25
India,Telangana,Hyderabad,"ICRISAT Patancheru, Hyderabad - TSPCB",04-07-2024 15:00:00,17.518400,78.278777,CO,14,26,18
India,Telangana,Hyderabad,"ICRISAT Patancheru, Hyderabad - TSPCB",04-07-2024 15:00:00,17.518400,78.278777,OZONE,3,26,10
India,Telangana,Hyderabad,"IDA Pashamylaram, Hyderabad - TSPCB",04-07-2024 15:00:00,17.5316895,78.218939,SO2,3,9,6
India,Telangana,Hyderabad,"IITH Kandi, Hyderabad - TSPCB",04-07-2024 15:00:00,17.585705,78.126199,PM10,NA,NA,NA
India,Telangana,Hyderabad,"IITH Kandi, Hyderabad - TSPCB",04-07-2024 15:00:00,17.585705,78.126199,NO2,NA,NA,NA
India,Telangana,Hyderabad,"IITH Kandi, Hyderabad - TSPCB",04-07-2024 15:00:00,17.585705,78.126199,SO2,NA,NA,NA
India,Telangana,Hyderabad,"Kokapet, Hyderabad - TSPCB",04-07-2024 15:00:00,17.393559,78.339194,PM2.5,NA,NA,NA
India,Telangana,Hyderabad,"Kokapet, Hyderabad - TSPCB",04-07-2024 15:00:00,17.393559,78.339194,PM10,NA,NA,NA
India,Telangana,Hyderabad,"Nacharam_TSIIC IALA, Hyderabad - TSPCB",04-07-2024 15:00:00,17.429398,78.569354,PM2.5,47,55,49
India,Telangana,Hyderabad,"Nacharam_TSIIC IALA, Hyderabad - TSPCB",04-07-2024 15:00:00,17.429398,78.569354,NO2,12,17,16
India,Telangana,Hyderabad,"Nacharam_TSIIC IALA, Hyderabad - TSPCB",04-07-2024 15:00:00,17.429398,78.569354,SO2,11,21,14
India,Telangana,Hyderabad,"New Malakpet, Hyderabad - TSPCB",04-07-2024 15:00:00,17.37206,78.50864,PM10,56,81,71
India,Telangana,Hyderabad,"New Malakpet, Hyderabad - TSPCB",04-07-2024 15:00:00,17.37206,78.50864,NO2,21,22,21
India,Telangana,Hyderabad,"Somajiguda, Hyderabad - TSPCB",04-07-2024 15:00:00,17.417094,78.457437,PM10,62,77,68
India,Telangana,Hyderabad,"Somajiguda, Hyderabad - TSPCB",04-07-2024 15:00:00,17.417094,78.457437,CO,18,55,29
India,Telangana,Hyderabad,"Zoo Park, Hyderabad - TSPCB",04-07-2024 15:00:00,17.349694,78.451437,SO2,1,5,2
India,Tripura,Agartala,"Bardowali, Agartala - Tripura SPCB",04-07-2024 15:00:00,23.8175497,91.2726974,NH3,5,13,8
India,Tripura,Agartala,"Bardowali, Agartala - Tripura SPCB",04-07-2024 15:00:00,23.8175497,91.2726974,SO2,42,43,42
India,Uttar_Pradesh,Agra,"Manoharpur, Agra - UPPCB",04-07-2024 15:00:00,27.23711,78.01936,OZONE,13,28,19
India,Uttar_Pradesh,Agra,"Sector-3B Avas Vikas Colony, Agra - UPPCB",04-07-2024 15:00:00,27.19412,77.96237,SO2,13,17,15
India,Uttar_Pradesh,Agra,"Shahjahan Garden, Agra - UPPCB",04-07-2024 15:00:00,27.169338,78.03582,NO2,18,19,18
India,Uttar_Pradesh,Agra,"Shahjahan Garden, Agra - UPPCB",04-07-2024 15:00:00,27.169338,78.03582,SO2,1,32,29
India,Uttar_Pradesh,Agra,"Shastripuram, Agra - UPPCB",04-07-2024 15:00:00,27.19862,77.92066,PM10,10,60,26
India,Uttar_Pradesh,Bareilly,"Civil Lines, Bareilly - UPPCB",04-07-2024 15:00:00,28.359581,79.414455,OZONE,3,7,4
India,Uttar_Pradesh,Bareilly,"Rajendra Nagar, Bareilly - UPPCB",04-07-2024 15:00:00,28.38910936,79.42963708,NH3,1,2,1
India,Uttar_Pradesh,Bareilly,"Rajendra Nagar, Bareilly - UPPCB",04-07-2024 15:00:00,28.38910936,79.42963708,OZONE,NA,NA,NA
India,Uttar_Pradesh,Bulandshahr,"Yamunapuram, Bulandshahr - UPPCB",04-07-2024 15:00:00,28.406963,77.849831,PM2.5,2,32,13
India,Uttar_Pradesh,Bulandshahr,"Yamunapuram, Bulandshahr - UPPCB",04-07-2024 15:00:00,28.406963,77.849831,NH3,4,20,9
India,Uttar_Pradesh,Firozabad,"Vibhab Nagar, Firozabad - UPPCB",04-07-2024 15:00:00,27.1594,78.3953,NH3,2,2,2
India,Uttar_Pradesh,Firozabad,"Vibhab Nagar, Firozabad - UPPCB",04-07-2024 15:00:00,27.1594,78.3953,SO2,5,11,6
India,Uttar_Pradesh,Ghaziabad,"Indirapuram, Ghaziabad - UPPCB",04-07-2024 15:00:00,28.646233,77.358075,CO,22,38,25
India,Uttar_Pradesh,Ghaziabad,"Loni, Ghaziabad - UPPCB",04-07-2024 15:00:00,28.757294,77.278792,NH3,1,4,2
India,Uttar_Pradesh,Ghaziabad,"Loni, Ghaziabad - UPPCB",04-07-2024 15:00:00,28.757294,77.278792,CO,50,95,64
India,Uttar_Pradesh,Ghaziabad,"Sanjay Nagar, Ghaziabad - UPPCB",04-07-2024 15:00:00,28.685382,77.453839,OZONE,13,23,16
India,Uttar_Pradesh,Ghaziabad,"Vasundhara, Ghaziabad - UPPCB",04-07-2024 15:00:00,28.6603346,77.3572563,PM10,14,47,30
India,Uttar_Pradesh,Gorakhpur,"Madan Mohan Malaviya University of Technology, Gorakhpur - UPPCB",04-07-2024 15:00:00,26.730136,83.433859,NO2,11,11,11
India,Uttar_Pradesh,Gorakhpur,"Madan Mohan Malaviya University of Technology, Gorakhpur - UPPCB",04-07-2024 15:00:00,26.730136,83.433859,NH3,1,1,1
India,Uttar_Pradesh,Gorakhpur,"Madan Mohan Malaviya University of Technology, Gorakhpur - UPPCB",04-07-2024 15:00:00,26.730136,83.433859,CO,4,18,8
India,Uttar_Pradesh,Gorakhpur,"Madan Mohan Malaviya University of Technology, Gorakhpur - UPPCB",04-07-2024 15:00:00,26.730136,83.433859,OZONE,12,12,12
India,Uttar_Pradesh,Greater Noida,"Knowledge Park - III, Greater Noida - UPPCB",04-07-2024 15:00:00,28.47272,77.482000,NH3,8,15,10
India,Uttar_Pradesh,Greater Noida,"Knowledge Park - III, Greater Noida - UPPCB",04-07-2024 15:00:00,28.47272,77.482000,CO,30,64,52
India,Uttar_Pradesh,Greater Noida,"Knowledge Park - V, Greater Noida - UPPCB",04-07-2024 15:00:00,28.557054,77.453663,NH3,4,7,5
India,Uttar_Pradesh,Hapur,"Anand Vihar, Hapur - UPPCB",04-07-2024 15:00:00,28.725645,77.749675,NH3,8,10,8
India,Uttar_Pradesh,Hapur,"Anand Vihar, Hapur - UPPCB",04-07-2024 15:00:00,28.725645,77.749675,CO,53,68,61
India,Uttar_Pradesh,Jhansi,"Shivaji Nagar, Jhansi - UPPCB",04-07-2024 15:00:00,25.4547,78.6039,OZONE,1,3,1
India,Uttar_Pradesh,Kanpur,"FTI Kidwai Nagar, Kanpur - UPPCB",04-07-2024 15:00:00,26.428282,80.327067,PM10,1,29,16
India,Uttar_Pradesh,Kanpur,"FTI Kidwai Nagar, Kanpur - UPPCB",04-07-2024 15:00:00,26.428282,80.327067,CO,15,42,30
India,Uttar_Pradesh,Kanpur,"NSI Kalyanpur, Kanpur - UPPCB",04-07-2024 15:00:00,26.509954,80.249612,PM10,NA,NA,NA
India,Uttar_Pradesh,Lucknow,"B R Ambedkar University, Lucknow - UPPCB",04-07-2024 15:00:00,26.766433,80.927299,NH3,3,3,3
India,Uttar_Pradesh,Lucknow,"B R Ambedkar University, Lucknow - UPPCB",04-07-2024 15:00:00,26.766433,80.927299,OZONE,10,20,15
India,Uttar_Pradesh,Lucknow,"Gomti Nagar, Lucknow - UPPCB",04-07-2024 15:00:00,26.868120,81.005119,OZONE,39,44,41
India,Uttar_Pradesh,Lucknow,"Kendriya Vidyalaya, Lucknow - CPCB",04-07-2024 15:00:00,26.906111,80.948222,CO,10,61,23
India,Uttar_Pradesh,Lucknow,"Kendriya Vidyalaya, Lucknow - CPCB",04-07-2024 15:00:00,26.906111,80.948222,OZONE,3,28,9
India,Uttar_Pradesh,Lucknow,"Lalbagh, Lucknow - CPCB",04-07-2024 15:00:00,26.8458805,80.9365541,NO2,6,20,11
India,Uttar_Pradesh,Lucknow,"Lalbagh, Lucknow - CPCB",04-07-2024 15:00:00,26.8458805,80.9365541,SO2,6,22,10
India,Uttar_Pradesh,Lucknow,"Talkatora District Industries Center, Lucknow - CPCB",04-07-2024 15:00:00,26.83399722,80.8917361,PM2.5,25,90,47
India,Uttar_Pradesh,Lucknow,"Talkatora District Industries Center, Lucknow - CPCB",04-07-2024 15:00:00,26.83399722,80.8917361,CO,2,93,22
India,Uttar_Pradesh,Lucknow,"Talkatora District Industries Center, Lucknow - CPCB",04-07-2024 15:00:00,26.83399722,80.8917361,OZONE,4,85,25
India,Uttar_Pradesh,Meerut,"Ganga Nagar, Meerut - UPPCB",04-07-2024 15:00:00,28.999264,77.7590354,OZONE,10,30,15
India,Uttar_Pradesh,Meerut,"Jai Bhim Nagar, Meerut - UPPCB",04-07-2024 15:00:00,28.9535882,77.7622941,NO2,17,24,21
India,Uttar_Pradesh,Meerut,"Pallavpuram Phase 2, Meerut - UPPCB",04-07-2024 15:00:00,29.063510,77.709723,PM2.5,5,31,14
India,Uttar_Pradesh,Moradabad,"Buddhi Vihar, Moradabad - UPPCB",04-07-2024 15:00:00,28.83526,78.74460,PM2.5,9,57,31
India,Uttar_Pradesh,Moradabad,"Buddhi Vihar, Moradabad - UPPCB",04-07-2024 15:00:00,28.83526,78.74460,NO2,23,23,23
India,Uttar_Pradesh,Moradabad,"Eco Herbal Park, Moradabad - UPPCB",04-07-2024 15:00:00,28.840739,78.697531,PM2.5,NA,NA,NA
India,Uttar_Pradesh,Moradabad,"Eco Herbal Park, Moradabad - UPPCB",04-07-2024 15:00:00,28.840739,78.697531,CO,8,48,26
India,Uttar_Pradesh,Moradabad,"Jigar Colony, Moradabad - UPPCB",04-07-2024 15:00:00,28.856664,78.772638,NO2,17,22,20
India,Uttar_Pradesh,Moradabad,"Jigar Colony, Moradabad - UPPCB",04-07-2024 15:00:00,28.856664,78.772638,SO2,16,19,17
India,Uttar_Pradesh,Moradabad,"Kashiram Nagar, Moradabad - UPPCB",04-07-2024 15:00:00,28.849399,78.742362,PM2.5,12,80,34
India,Uttar_Pradesh,Noida,"Sector - 62, Noida - IMD",04-07-2024 15:00:00,28.6245479,77.3577104,NO2,6,12,10
India,Uttar_Pradesh,Noida,"Sector - 62, Noida - IMD",04-07-2024 15:00:00,28.6245479,77.3577104,CO,58,67,62
India,Uttar_Pradesh,Noida,"Sector-1, Noida - UPPCB",04-07-2024 15:00:00,28.5898,77.3101,PM10,20,58,42
India,Uttar_Pradesh,Noida,"Sector-1, Noida - UPPCB",04-07-2024 15:00:00,28.5898,77.3101,SO2,9,24,12
India,Uttar_Pradesh,Noida,"Sector-116, Noida - UPPCB",04-07-2024 15:00:00,28.569230,77.393848,OZONE,29,67,41
India,Uttar_Pradesh,Prayagraj,"Jhunsi, Prayagraj - UPPCB",04-07-2024 15:00:00,25.425602,81.917152,NH3,5,5,5
India,Uttar_Pradesh,Prayagraj,"Jhunsi, Prayagraj - UPPCB",04-07-2024 15:00:00,25.425602,81.917152,CO,11,22,15
India,Uttar_Pradesh,Prayagraj,"Jhunsi, Prayagraj - UPPCB",04-07-2024 15:00:00,25.425602,81.917152,OZONE,1,17,5
India,Uttar_Pradesh,Prayagraj,"Motilal Nehru NIT, Prayagraj - UPPCB",04-07-2024 15:00:00,25.494,81.863,PM2.5,10,17,13
India,Uttar_Pradesh,Prayagraj,"Motilal Nehru NIT, Prayagraj - UPPCB",04-07-2024 15:00:00,25.494,81.863,PM10,14,29,18
India,Uttar_Pradesh,Varanasi,"Ardhali Bazar, Varanasi - UPPCB",04-07-2024 15:00:00,25.3505986,82.9083074,PM10,6,46,24
India,Uttar_Pradesh,Varanasi,"Ardhali Bazar, Varanasi - UPPCB",04-07-2024 15:00:00,25.3505986,82.9083074,SO2,29,34,31
India,Uttar_Pradesh,Varanasi,"Bhelupur, Varanasi - UPPCB",04-07-2024 15:00:00,25.301778,82.996789,NO2,8,8,8
India,Uttar_Pradesh,Varanasi,"Bhelupur, Varanasi - UPPCB",04-07-2024 15:00:00,25.301778,82.996789,NH3,1,1,1
India,Uttar_Pradesh,Varanasi,"Bhelupur, Varanasi - UPPCB",04-07-2024 15:00:00,25.301778,82.996789,OZONE,1,4,1
India,Uttar_Pradesh,Varanasi,"IESD Banaras Hindu University, Varanasi - UPPCB",04-07-2024 15:00:00,25.262326,82.995408,PM10,1,76,15
India,Uttar_Pradesh,Varanasi,"IESD Banaras Hindu University, Varanasi - UPPCB",04-07-2024 15:00:00,25.262326,82.995408,NO2,2,3,2
India,Uttar_Pradesh,Varanasi,"IESD Banaras Hindu University, Varanasi - UPPCB",04-07-2024 15:00:00,25.262326,82.995408,OZONE,9,12,10
India,Uttar_Pradesh,Varanasi,"Maldahiya, Varanasi - UPPCB",04-07-2024 15:00:00,25.32393,82.99687,PM2.5,5,27,17
India,Uttar_Pradesh,Varanasi,"Maldahiya, Varanasi - UPPCB",04-07-2024 15:00:00,25.32393,82.99687,NO2,1,2,2
India,Uttar_Pradesh,Vrindavan,"Omex Eternity, Vrindavan - UPPCB",04-07-2024 15:00:00,27.5714090,77.6557570,PM10,4,482,71
India,Uttarakhand,Dehradun,"Doon University, Dehradun - UKPCB",04-07-2024 15:00:00,30.269444,78.044167,PM10,4,44,20
India,Uttarakhand,Dehradun,"Doon University, Dehradun - UKPCB",04-07-2024 15:00:00,30.269444,78.044167,SO2,1,1,1
India,Uttarakhand,Kashipur,"Govt. Girls Inter College, Kashipur - UKPCB",04-07-2024 15:00:00,29.2124114,78.9611753,PM10,NA,NA,NA
India,Uttarakhand,Rishikesh,"Shivaji Nagar, Rishikesh - UKPCB",04-07-2024 15:00:00,30.075911,78.2859547,NO2,5,12,8
India,Uttarakhand,Rishikesh,"Shivaji Nagar, Rishikesh - UKPCB",04-07-2024 15:00:00,30.075911,78.2859547,SO2,4,5,4
India,West_Bengal,Asansol,"Evelyn Lodge, Asansol - WBPCB",04-07-2024 15:00:00,23.6979360,86.9443950,NH3,1,3,2
India,West_Bengal,Asansol,"Evelyn Lodge, Asansol - WBPCB",04-07-2024 15:00:00,23.6979360,86.9443950,CO,9,48,18
India,West_Bengal,Asansol,"Evelyn Lodge, Asansol - WBPCB",04-07-2024 15:00:00,23.6979360,86.9443950,OZONE,24,37,27
India,West_Bengal,Durgapur,"PCBL Residential Complex, Durgapur - WBPCB",04-07-2024 15:00:00,23.5087640,87.3544400,SO2,9,39,13
India,West_Bengal,Durgapur,"Sidhu Kanhu Indoor Stadium, Durgapur - WBPCB",04-07-2024 15:00:00,23.5404352,87.2892225,PM10,58,123,86
India,West_Bengal,Durgapur,"Sidhu Kanhu Indoor Stadium, Durgapur - WBPCB",04-07-2024 15:00:00,23.5404352,87.2892225,NH3,4,7,5
India,West_Bengal,Haldia,"Priyambada Housing Estate, Haldia - WBPCB",04-07-2024 15:00:00,22.06047,88.109737,NO2,6,32,14
India,West_Bengal,Haldia,"Priyambada Housing Estate, Haldia - WBPCB",04-07-2024 15:00:00,22.06047,88.109737,OZONE,23,30,26
India,West_Bengal,Howrah,"Belur Math, Howrah - WBPCB",04-07-2024 15:00:00,22.629801,88.352017,PM10,30,74,44
India,West_Bengal,Howrah,"Belur Math, Howrah - WBPCB",04-07-2024 15:00:00,22.629801,88.352017,CO,8,26,16
India,West_Bengal,Howrah,"Ghusuri, Howrah - WBPCB",04-07-2024 15:00:00,22.611968,88.347422,PM2.5,31,69,46
India,West_Bengal,Howrah,"Ghusuri, Howrah - WBPCB",04-07-2024 15:00:00,22.611968,88.347422,NO2,23,23,23
India,West_Bengal,Howrah,"Padmapukur, Howrah - WBPCB",04-07-2024 15:00:00,22.5687319,88.2797276,PM10,39,103,59
India,West_Bengal,Kolkata,"Ballygunge, Kolkata - WBPCB",04-07-2024 15:00:00,22.5367507,88.3638022,NH3,4,35,10
India,West_Bengal,Kolkata,"Ballygunge, Kolkata - WBPCB",04-07-2024 15:00:00,22.5367507,88.3638022,CO,13,26,19
India,West_Bengal,Kolkata,"Bidhannagar, Kolkata - WBPCB",04-07-2024 15:00:00,22.58157048,88.41002457,PM2.5,19,50,29
India,West_Bengal,Kolkata,"Bidhannagar, Kolkata - WBPCB",04-07-2024 15:00:00,22.58157048,88.41002457,NH3,6,7,6
India,West_Bengal,Kolkata,"Jadavpur, Kolkata - WBPCB",04-07-2024 15:00:00,22.49929,88.36917,PM2.5,22,49,33
India,West_Bengal,Kolkata,"Jadavpur, Kolkata - WBPCB",04-07-2024 15:00:00,22.49929,88.36917,NO2,14,17,16
India,West_Bengal,Kolkata,"Rabindra Bharati University, Kolkata - WBPCB",04-07-2024 15:00:00,22.627847,88.380669,NH3,NA,NA,NA
India,West_Bengal,Kolkata,"Rabindra Bharati University, Kolkata - WBPCB",04-07-2024 15:00:00,22.627847,88.380669,CO,27,44,33
India,West_Bengal,Kolkata,"Rabindra Sarobar, Kolkata - WBPCB",04-07-2024 15:00:00,22.51106,88.35142,OZONE,5,20,8
India,Andhra_Pradesh,Amaravati,"Secretariat, Amaravati - APPCB",04-07-2024 15:00:00,16.5150833,80.5181667,SO2,NA,NA,NA
India,Andhra_Pradesh,Amaravati,"Secretariat, Amaravati - APPCB",04-07-2024 15:00:00,16.5150833,80.5181667,OZONE,22,22,22
India,Andhra_Pradesh,Anantapur,"Gulzarpet, Anantapur - APPCB",04-07-2024 15:00:00,14.675886,77.593027,PM2.5,25,52,38
India,Andhra_Pradesh,Anantapur,"Gulzarpet, Anantapur - APPCB",04-07-2024 15:00:00,14.675886,77.593027,PM10,55,500,96
India,Andhra_Pradesh,Anantapur,"Gulzarpet, Anantapur - APPCB",04-07-2024 15:00:00,14.675886,77.593027,OZONE,2,14,6
India,Andhra_Pradesh,Chittoor,"Gangineni Cheruvu, Chittoor - APPCB",04-07-2024 15:00:00,13.204880,79.097889,PM10,26,93,57
India,Andhra_Pradesh,Chittoor,"Gangineni Cheruvu, Chittoor - APPCB",04-07-2024 15:00:00,13.204880,79.097889,NH3,3,4,3
India,Andhra_Pradesh,Kadapa,"Yerramukkapalli, Kadapa - APPCB",04-07-2024 15:00:00,14.465052,78.824187,PM2.5,NA,NA,NA
India,Andhra_Pradesh,Kadapa,"Yerramukkapalli, Kadapa - APPCB",04-07-2024 15:00:00,14.465052,78.824187,NH3,NA,NA,NA
India,Andhra_Pradesh,Rajamahendravaram,"Anand Kala Kshetram, Rajamahendravaram - APPCB",04-07-2024 15:00:00,16.9872867,81.7363176,NH3,1,14,5
India,Andhra_Pradesh,Tirupati,"Vaikuntapuram, Tirupati - APPCB",04-07-2024 15:00:00,13.615387,79.409230,SO2,NA,NA,NA
India,Andhra_Pradesh,Tirupati,"Vaikuntapuram, Tirupati - APPCB",04-07-2024 15:00:00,13.615387,79.409230,OZONE,33,40,37
India,Andhra_Pradesh,Vijayawada,"Kanuru, Vijayawada - APPCB",04-07-2024 15:00:00,16.486692,80.699436,PM2.5,43,61,50
India,Andhra_Pradesh,Vijayawada,"Kanuru, Vijayawada - APPCB",04-07-2024 15:00:00,16.486692,80.699436,CO,36,36,36
India,Andhra_Pradesh,Vijayawada,"Rajiv Nagar, Vijayawada - APPCB",04-07-2024 15:00:00,16.554731,80.649110,NH3,1,2,2
India,Andhra_Pradesh,Vijayawada,"Rajiv Nagar, Vijayawada - APPCB",04-07-2024 15:00:00,16.554731,80.649110,CO,38,38,38
India,Assam,Byrnihat,"Central Academy for SFS, Byrnihat - PCBA",04-07-2024 15:00:00,26.071318,91.87488,PM2.5,NA,NA,NA
India,Assam,Byrnihat,"Central Academy for SFS, Byrnihat - PCBA",04-07-2024 15:00:00,26.071318,91.87488,SO2,NA,NA,NA
India,Assam,Guwahati,"IITG, Guwahati - PCBA",04-07-2024 15:00:00,26.2028636,91.70046436,PM2.5,7,213,48
India,Assam,Guwahati,"IITG, Guwahati - PCBA",04-07-2024 15:00:00,26.2028636,91.70046436,SO2,19,22,20
India,Assam,Guwahati,"IITG, Guwahati - PCBA",04-07-2024 15:00:00,26.2028636,91.70046436,OZONE,2,8,5
India,Assam,Guwahati,"Pan Bazaar, Guwahati - PCBA",04-07-2024 15:00:00,26.187500,91.744194,PM2.5,4,32,15
India,Assam,Guwahati,"Railway Colony, Guwahati - PCBA",04-07-2024 15:00:00,26.181742,91.78063,PM2.5,11,72,33
India,Assam,Guwahati,"Railway Colony, Guwahati - PCBA",04-07-2024 15:00:00,26.181742,91.78063,CO,16,28,17
India,Assam,Nagaon,"Christianpatty, Nagaon - PCBA",04-07-2024 15:00:00,26.349082,92.68449,PM2.5,23,40,26
India,Assam,Nagaon,"Christianpatty, Nagaon - PCBA",04-07-2024 15:00:00,26.349082,92.68449,PM10,15,28,18
India,Assam,Sivasagar,"Girls College, Sivasagar - PCBA",04-07-2024 15:00:00,26.987634,94.636574,PM2.5,37,42,39
India,Bihar,Arrah,"New DM Office, Arrah - BSPCB",04-07-2024 15:00:00,25.5626095,84.663264,PM10,NA,NA,NA
India,Bihar,Arrah,"New DM Office, Arrah - BSPCB",04-07-2024 15:00:00,25.5626095,84.663264,OZONE,8,35,13
India,Bihar,Aurangabad,"Gurdeo Nagar, Aurangabad - BSPCB",04-07-2024 15:00:00,24.75746,84.366208,NO2,2,13,7
India,Bihar,Bettiah,"Kamalnath Nagar, Bettiah - BSPCB",04-07-2024 15:00:00,26.80365,84.51954,OZONE,1,10,5
India,Bihar,Bhagalpur,"DM Office_Kachari Chowk, Bhagalpur - BSPCB",04-07-2024 15:00:00,25.251013,86.989001,PM10,20,401,150
India,Bihar,Bihar Sharif,"D M Colony, Bihar Sharif - BSPCB",04-07-2024 15:00:00,25.204762,85.514960,SO2,3,4,3
India,Bihar,Buxar,"Charitra Van, Buxar - BSPCB (Formerly known as Central Jail)",04-07-2024 15:00:00,25.567520,83.966379,SO2,4,11,5
India,Bihar,Chhapra,"Darshan Nagar, Chhapra - BSPCB",04-07-2024 15:00:00,25.7808257,84.7446768,PM10,2,16,8
India,Bihar,Chhapra,"Darshan Nagar, Chhapra - BSPCB",04-07-2024 15:00:00,25.7808257,84.7446768,SO2,18,76,46
India,Bihar,Chhapra,"Darshan Nagar, Chhapra - BSPCB",04-07-2024 15:00:00,25.7808257,84.7446768,CO,21,60,36
India,Bihar,Gaya,"Collectorate, Gaya - BSPCB",04-07-2024 15:00:00,24.7955,84.9994,PM2.5,19,120,56
India,Bihar,Gaya,"Collectorate, Gaya - BSPCB",04-07-2024 15:00:00,24.7955,84.9994,NO2,8,11,9
India,Bihar,Gaya,"Collectorate, Gaya - BSPCB",04-07-2024 15:00:00,24.7955,84.9994,OZONE,62,65,64
India,Bihar,Gaya,"SFTI Kusdihra, Gaya - BSPCB",04-07-2024 15:00:00,24.762518,84.982348,NH3,2,4,3
India,Bihar,Katihar,"Mirchaibari, Katihar - BSPCB",04-07-2024 15:00:00,25.560083,87.553265,CO,18,39,30
India,Bihar,Katihar,"Mirchaibari, Katihar - BSPCB",04-07-2024 15:00:00,25.560083,87.553265,OZONE,4,4,4
India,Bihar,Kishanganj,"SDM Office_Khagra, Kishanganj - BSPCB",04-07-2024 15:00:00,26.0881305,87.93840336,NH3,5,7,6
India,Bihar,Kishanganj,"SDM Office_Khagra, Kishanganj - BSPCB",04-07-2024 15:00:00,26.0881305,87.93840336,OZONE,53,66,58
India,Bihar,Munger,"Town Hall, Munger - BSPCB",04-07-2024 15:00:00,25.376776,86.471523,PM10,NA,NA,NA
India,Bihar,Munger,"Town Hall, Munger - BSPCB",04-07-2024 15:00:00,25.376776,86.471523,CO,87,103,97
India,Bihar,Muzaffarpur,"Buddha Colony, Muzaffarpur - BSPCB",04-07-2024 15:00:00,26.11442,85.39813,NO2,8,17,12
India,Bihar,Patna,"DRM Office Danapur, Patna - BSPCB",04-07-2024 15:00:00,25.586562,85.043586,NH3,2,3,3
India,Bihar,Patna,"DRM Office Danapur, Patna - BSPCB",04-07-2024 15:00:00,25.586562,85.043586,SO2,1,5,2
India,Bihar,Patna,"DRM Office Danapur, Patna - BSPCB",04-07-2024 15:00:00,25.586562,85.043586,OZONE,7,26,13
India,Bihar,Patna,"Govt. High School Shikarpur, Patna - BSPCB",04-07-2024 15:00:00,25.592539,85.227158,PM2.5,31,55,42
India,Bihar,Patna,"Govt. High School Shikarpur, Patna - BSPCB",04-07-2024 15:00:00,25.592539,85.227158,NO2,33,35,34
India,Bihar,Patna,"Govt. High School Shikarpur, Patna - BSPCB",04-07-2024 15:00:00,25.592539,85.227158,SO2,9,14,11
India,Bihar,Patna,"Govt. High School Shikarpur, Patna - BSPCB",04-07-2024 15:00:00,25.592539,85.227158,OZONE,1,58,32
India,Bihar,Patna,"IGSC Planetarium Complex, Patna - BSPCB",04-07-2024 15:00:00,25.610369,85.132568,NO2,NA,NA,NA
India,Bihar,Patna,"IGSC Planetarium Complex, Patna - BSPCB",04-07-2024 15:00:00,25.610369,85.132568,CO,6,16,7
India,Bihar,Patna,"Muradpur, Patna - BSPCB",04-07-2024 15:00:00,25.619651,85.147382,OZONE,5,63,30
India,Bihar,Patna,"Rajbansi Nagar, Patna - BSPCB",04-07-2024 15:00:00,25.599486,85.113666,NO2,4,28,12
India,Bihar,Patna,"Samanpura, Patna - BSPCB",04-07-2024 15:00:00,25.596727,85.085624,PM2.5,27,59,43
India,Bihar,Purnia,"Mariam Nagar, Purnia - BSPCB",04-07-2024 15:00:00,25.366336,87.117468,CO,26,61,48
India,Bihar,Rajgir,"Dangi Tola, Rajgir - BSPCB",04-07-2024 15:00:00,25.03280,85.41948,NH3,1,2,2
India,Bihar,Saharsa,"Police Line, Saharsa - BSPCB",04-07-2024 15:00:00,25.892357,86.590325,NH3,9,9,9
India,Bihar,Saharsa,"Police Line, Saharsa - BSPCB",04-07-2024 15:00:00,25.892357,86.590325,CO,54,56,55
India,Bihar,Samastipur,"DM Office_Kasipur, Samastipur - BSPCB",04-07-2024 15:00:00,25.859655,85.77944,PM2.5,NA,NA,NA
India,Bihar,Samastipur,"DM Office_Kasipur, Samastipur - BSPCB",04-07-2024 15:00:00,25.859655,85.77944,NO2,NA,NA,NA
India,Bihar,Samastipur,"DM Office_Kasipur, Samastipur - BSPCB",04-07-2024 15:00:00,25.859655,85.77944,OZONE,3,5,3
India,Bihar,Sasaram,"Dada Peer, Sasaram - BSPCB",04-07-2024 15:00:00,24.952822,84.002396,CO,52,70,58
India,Chandigarh,Chandigarh,"Sector 22, Chandigarh - CPCC",04-07-2024 15:00:00,30.735567,76.775714,NO2,9,36,20
India,Chhattisgarh,Bhilai,"32Bungalows, Bhilai - CECB",04-07-2024 15:00:00,21.194815,81.314770,NH3,8,8,8
India,Chhattisgarh,Bhilai,"32Bungalows, Bhilai - CECB",04-07-2024 15:00:00,21.194815,81.314770,CO,6,13,8
India,Chhattisgarh,Bhilai,"Civic Center, Bhilai - Bhilai Steel Plant",04-07-2024 15:00:00,21.185571,81.343175,NH3,3,4,4
India,Chhattisgarh,Bhilai,"Civic Center, Bhilai - Bhilai Steel Plant",04-07-2024 15:00:00,21.185571,81.343175,SO2,10,11,10
India,Chhattisgarh,Bilaspur,"Mangala, Bilaspur - NTPC",04-07-2024 15:00:00,22.08815,82.13737,PM2.5,4,50,22
India,Chhattisgarh,Chhal,"Nawapara SECL Colony, Chhal - CECB",04-07-2024 15:00:00,22.118125,83.140608,NO2,NA,NA,NA
India,Chhattisgarh,Chhal,"Nawapara SECL Colony, Chhal - CECB",04-07-2024 15:00:00,22.118125,83.140608,OZONE,16,36,23
India,Chhattisgarh,Korba,"Rampur, Korba - CECB",04-07-2024 15:00:00,22.368195,82.746431,NO2,NA,NA,NA
India,Chhattisgarh,Korba,"Urja Nagar, Korba - CECB",04-07-2024 15:00:00,22.348441,82.549611,PM10,NA,NA,NA
India,Chhattisgarh,Korba,"Urja Nagar, Korba - CECB",04-07-2024 15:00:00,22.348441,82.549611,NH3,NA,NA,NA
India,Chhattisgarh,Kunjemura,"OP Jindal School, Kunjemura - CECB",04-07-2024 15:00:00,22.126650,83.483212,NO2,12,38,21
India,Chhattisgarh,Milupara,"Govt. Higher Secondary School, Milupara - CECB",04-07-2024 15:00:00,22.1910172,83.5197009,PM10,NA,NA,NA
India,Chhattisgarh,Milupara,"Govt. Higher Secondary School, Milupara - CECB",04-07-2024 15:00:00,22.1910172,83.5197009,NH3,NA,NA,NA
India,Chhattisgarh,Milupara,"Govt. Higher Secondary School, Milupara - CECB",04-07-2024 15:00:00,22.1910172,83.5197009,CO,5,18,10
India,Chhattisgarh,Raipur,"AIIMS, Raipur - CECB",04-07-2024 15:00:00,21.258815,81.578979,PM2.5,5,21,13
India,Chhattisgarh,Raipur,"AIIMS, Raipur - CECB",04-07-2024 15:00:00,21.258815,81.578979,PM10,12,64,30
India,Chhattisgarh,Raipur,"AIIMS, Raipur - CECB",04-07-2024 15:00:00,21.258815,81.578979,NO2,9,39,14
India,Chhattisgarh,Raipur,"AIIMS, Raipur - CECB",04-07-2024 15:00:00,21.258815,81.578979,NH3,6,6,6
India,Chhattisgarh,Raipur,"AIIMS, Raipur - CECB",04-07-2024 15:00:00,21.258815,81.578979,SO2,2,5,4
India,Chhattisgarh,Raipur,"Bhatagaon New ISBT, Raipur - CECB",04-07-2024 15:00:00,21.219665,81.630094,NH3,NA,NA,NA
India,Chhattisgarh,Raipur,"Bhatagaon New ISBT, Raipur - CECB",04-07-2024 15:00:00,21.219665,81.630094,CO,16,24,18
India,Chhattisgarh,Tumidih,"OP Jindal Industrial Park, Tumidih - CECB",04-07-2024 15:00:00,22.06631475,83.33820077,PM2.5,NA,NA,NA
India,Delhi,Delhi,"Aya Nagar, Delhi - IMD",04-07-2024 15:00:00,28.4706914,77.1099364,PM2.5,6,74,31
India,Delhi,Delhi,"Aya Nagar, Delhi - IMD",04-07-2024 15:00:00,28.4706914,77.1099364,PM10,1,50,28
India,Delhi,Delhi,"Aya Nagar, Delhi - IMD",04-07-2024 15:00:00,28.4706914,77.1099364,OZONE,14,16,14
India,Delhi,Delhi,"Bawana, Delhi - DPCC",04-07-2024 15:00:00,28.776200,77.051074,PM10,31,92,59
India,Delhi,Delhi,"Bawana, Delhi - DPCC",04-07-2024 15:00:00,28.776200,77.051074,OZONE,7,80,20
India,Delhi,Delhi,"Burari Crossing, Delhi - IMD",04-07-2024 15:00:00,28.7256504,77.2011573,OZONE,18,86,51
India,Delhi,Delhi,"Chandni Chowk, Delhi - IITM",04-07-2024 15:00:00,28.656756,77.227234,OZONE,1,19,5
India,Delhi,Delhi,"DTU, Delhi - CPCB",04-07-2024 15:00:00,28.7500499,77.1112615,PM2.5,8,63,30
India,Delhi,Delhi,"DTU, Delhi - CPCB",04-07-2024 15:00:00,28.7500499,77.1112615,OZONE,30,31,30
India,Delhi,Delhi,"Dr. Karni Singh Shooting Range, Delhi - DPCC",04-07-2024 15:00:00,28.498571,77.264840,OZONE,16,51,22
India,Delhi,Delhi,"Dwarka-Sector 8, Delhi - DPCC ",04-07-2024 15:00:00,28.5710274,77.0719006,OZONE,6,21,13
India,Delhi,Delhi,"IHBAS, Dilshad Garden, Delhi - CPCB",04-07-2024 15:00:00,28.6811736,77.3025234,PM2.5,42,78,50
India,Delhi,Delhi,"IHBAS, Dilshad Garden, Delhi - CPCB",04-07-2024 15:00:00,28.6811736,77.3025234,OZONE,13,34,15
India,Delhi,Delhi,"Jawaharlal Nehru Stadium, Delhi - DPCC",04-07-2024 15:00:00,28.580280,77.233829,NH3,6,8,7
India,Delhi,Delhi,"Lodhi Road, Delhi - IMD",04-07-2024 15:00:00,28.5918245,77.2273074,NO2,1,8,2
India,Delhi,Delhi,"Mandir Marg, Delhi - DPCC",04-07-2024 15:00:00,28.636429,77.201067,PM2.5,NA,NA,NA
India,Delhi,Delhi,"Mandir Marg, Delhi - DPCC",04-07-2024 15:00:00,28.636429,77.201067,PM10,19,84,38
India,Delhi,Delhi,"Mandir Marg, Delhi - DPCC",04-07-2024 15:00:00,28.636429,77.201067,SO2,5,14,9
India,Delhi,Delhi,"Najafgarh, Delhi - DPCC",04-07-2024 15:00:00,28.570173,76.933762,PM2.5,5,40,25
India,Delhi,Delhi,"Najafgarh, Delhi - DPCC",04-07-2024 15:00:00,28.570173,76.933762,CO,21,52,47
India,Delhi,Delhi,"Narela, Delhi - DPCC",04-07-2024 15:00:00,28.822836,77.101981,PM10,38,107,66
India,Delhi,Delhi,"Nehru Nagar, Delhi - DPCC",04-07-2024 15:00:00,28.567890,77.250515,PM10,16,112,55
India,Delhi,Delhi,"Nehru Nagar, Delhi - DPCC",04-07-2024 15:00:00,28.567890,77.250515,NO2,20,95,35
India,Delhi,Delhi,"North Campus, DU, Delhi - IMD",04-07-2024 15:00:00,28.6573814,77.1585447,OZONE,5,6,5
India,Delhi,Delhi,"Okhla Phase-2, Delhi - DPCC",04-07-2024 15:00:00,28.530785,77.271255,CO,34,114,49
India,Delhi,Delhi,"Patparganj, Delhi - DPCC",04-07-2024 15:00:00,28.623763,77.287209,PM10,25,77,50
India,Delhi,Delhi,"Patparganj, Delhi - DPCC",04-07-2024 15:00:00,28.623763,77.287209,SO2,9,18,14
India,Delhi,Delhi,"Pusa, Delhi - DPCC",04-07-2024 15:00:00,28.639652,77.146275,SO2,1,8,3
India,Delhi,Delhi,"Pusa, Delhi - IMD",04-07-2024 15:00:00,28.636110,77.173332,PM2.5,14,63,36
India,Delhi,Delhi,"Pusa, Delhi - IMD",04-07-2024 15:00:00,28.636110,77.173332,NO2,9,21,14
India,Delhi,Delhi,"Pusa, Delhi - IMD",04-07-2024 15:00:00,28.636110,77.173332,CO,56,72,60
India,Delhi,Delhi,"R K Puram, Delhi - DPCC",04-07-2024 15:00:00,28.563262,77.186937,PM2.5,20,170,73
India,Delhi,Delhi,"R K Puram, Delhi - DPCC",04-07-2024 15:00:00,28.563262,77.186937,PM10,29,94,60
India,Delhi,Delhi,"R K Puram, Delhi - DPCC",04-07-2024 15:00:00,28.563262,77.186937,NO2,12,85,42
India,Delhi,Delhi,"R K Puram, Delhi - DPCC",04-07-2024 15:00:00,28.563262,77.186937,CO,20,103,37
India,Delhi,Delhi,"Rohini, Delhi - DPCC",04-07-2024 15:00:00,28.732528,77.119920,PM10,43,117,81
India,Delhi,Delhi,"Shadipur, Delhi - CPCB",04-07-2024 15:00:00,28.6514781,77.1473105,PM10,27,94,47
India,Delhi,Delhi,"Shadipur, Delhi - CPCB",04-07-2024 15:00:00,28.6514781,77.1473105,SO2,10,20,16
India,Delhi,Delhi,"Shadipur, Delhi - CPCB",04-07-2024 15:00:00,28.6514781,77.1473105,OZONE,7,52,18
India,Delhi,Delhi,"Sirifort, Delhi - CPCB",04-07-2024 15:00:00,28.5504249,77.2159377,PM10,14,91,43
India,Delhi,Delhi,"Sonia Vihar, Delhi - DPCC",04-07-2024 15:00:00,28.710508,77.249485,NO2,NA,NA,NA
India,Delhi,Delhi,"Sri Aurobindo Marg, Delhi - DPCC",04-07-2024 15:00:00,28.531346,77.190156,CO,42,91,59
India,Delhi,Delhi,"Wazirpur, Delhi - DPCC",04-07-2024 15:00:00,28.699793,77.165453,NO2,26,89,49
India,Delhi,Delhi,"Wazirpur, Delhi - DPCC",04-07-2024 15:00:00,28.699793,77.165453,NH3,1,45,10
India,Gujarat,Ahmedabad,"Chandkheda, Ahmedabad - IITM",04-07-2024 15:00:00,23.107969,72.574648,PM10,39,80,56
India,Gujarat,Ahmedabad,"Gyaspur, Ahmedabad - IITM",04-07-2024 15:00:00,22.977134,72.553024,OZONE,8,45,21
India,Gujarat,Ahmedabad,"Maninagar, Ahmedabad - GPCB",04-07-2024 15:00:00,23.002657,72.591912,NO2,26,104,45
India,Gujarat,Ahmedabad,"Maninagar, Ahmedabad - GPCB",04-07-2024 15:00:00,23.002657,72.591912,SO2,12,19,15
India,Gujarat,Ahmedabad,"Maninagar, Ahmedabad - GPCB",04-07-2024 15:00:00,23.002657,72.591912,OZONE,7,67,23
India,Gujarat,Ahmedabad,"Raikhad, Ahmedabad - IITM",04-07-2024 15:00:00,23.020509,72.579261,PM2.5,40,119,56
India,Gujarat,Ahmedabad,"Raikhad, Ahmedabad - IITM",04-07-2024 15:00:00,23.020509,72.579261,NH3,4,7,6
India,Gujarat,Ankleshwar,"GIDC, Ankleshwar - GPCB",04-07-2024 15:00:00,21.613267,73.010555,PM2.5,29,31,30
India,Gujarat,Ankleshwar,"GIDC, Ankleshwar - GPCB",04-07-2024 15:00:00,21.613267,73.010555,PM10,20,66,45
India,Gujarat,Ankleshwar,"GIDC, Ankleshwar - GPCB",04-07-2024 15:00:00,21.613267,73.010555,OZONE,21,25,24
India,Gujarat,Gandhinagar,"GIFT City, Gandhinagar - IITM",04-07-2024 15:00:00,23.163798,72.677768,PM10,60,108,82
India,Gujarat,Gandhinagar,"GIFT City, Gandhinagar - IITM",04-07-2024 15:00:00,23.163798,72.677768,NO2,28,42,32
India,Gujarat,Gandhinagar,"GIFT City, Gandhinagar - IITM",04-07-2024 15:00:00,23.163798,72.677768,CO,14,28,21
India,Gujarat,Gandhinagar,"GIFT City, Gandhinagar - IITM",04-07-2024 15:00:00,23.163798,72.677768,OZONE,9,23,13
India,Gujarat,Gandhinagar,"Sector-10, Gandhinagar - GPCB",04-07-2024 15:00:00,23.221714,72.654328,PM10,36,107,67
India,Gujarat,Gandhinagar,"Sector-10, Gandhinagar - GPCB",04-07-2024 15:00:00,23.221714,72.654328,SO2,4,6,6
India,Gujarat,Gandhinagar,"Sector-10, Gandhinagar - GPCB",04-07-2024 15:00:00,23.221714,72.654328,CO,20,20,20
India,Gujarat,Vatva,"Phase-4 GIDC, Vatva - GPCB",04-07-2024 15:00:00,22.969611,72.643500,PM2.5,NA,NA,NA
India,Haryana,Ambala,"Patti Mehar, Ambala - HSPCB",04-07-2024 15:00:00,30.379589,76.778328,OZONE,40,54,47
India,Haryana,Bahadurgarh,"Arya Nagar, Bahadurgarh - HSPCB",04-07-2024 15:00:00,28.6701,76.9254,PM10,20,99,42
India,Haryana,Bahadurgarh,"Arya Nagar, Bahadurgarh - HSPCB",04-07-2024 15:00:00,28.6701,76.9254,NH3,8,10,9
India,Haryana,Bhiwani,"H.B. Colony, Bhiwani - HSPCB",04-07-2024 15:00:00,28.806223,76.141105,NH3,6,6,6
India,Haryana,Bhiwani,"H.B. Colony, Bhiwani - HSPCB",04-07-2024 15:00:00,28.806223,76.141105,OZONE,9,44,23
India,Haryana,Charkhi Dadri,"Mini Secretariat, Charkhi Dadri - HSPCB",04-07-2024 15:00:00,28.593883,76.270653,NO2,15,25,18
India,Haryana,Faridabad,"New Industrial Town, Faridabad - HSPCB",04-07-2024 15:00:00,28.39072,77.30059,CO,3,32,15
India,Haryana,Faridabad,"New Industrial Town, Faridabad - HSPCB",04-07-2024 15:00:00,28.39072,77.30059,OZONE,9,19,13
India,Haryana,Faridabad,"Sector 11, Faridabad - HSPCB",04-07-2024 15:00:00,28.376058,77.315741,SO2,3,4,3
India,Haryana,Faridabad,"Sector 11, Faridabad - HSPCB",04-07-2024 15:00:00,28.376058,77.315741,CO,30,45,34
India,Haryana,Fatehabad,"Huda Sector, Fatehabad - HSPCB",04-07-2024 15:00:00,29.503664,75.467934,PM2.5,24,30,25
India,Haryana,Fatehabad,"Huda Sector, Fatehabad - HSPCB",04-07-2024 15:00:00,29.503664,75.467934,SO2,6,21,13
India,Haryana,Gurugram,"NISE Gwal Pahari, Gurugram - IMD",04-07-2024 15:00:00,28.422681,77.148944,PM2.5,NA,NA,NA
India,Haryana,Gurugram,"Sector-51, Gurugram - HSPCB",04-07-2024 15:00:00,28.4227,77.0667,PM10,91,231,125
India,Haryana,Gurugram,"Sector-51, Gurugram - HSPCB",04-07-2024 15:00:00,28.4227,77.0667,SO2,2,4,3
India,Haryana,Gurugram,"Sector-51, Gurugram - HSPCB",04-07-2024 15:00:00,28.4227,77.0667,OZONE,26,34,32
India,Haryana,Gurugram,"Vikas Sadan, Gurugram - HSPCB",04-07-2024 15:00:00,28.4501238,77.0263051,SO2,9,57,36
India,Haryana,Jind,"Police Lines, Jind - HSPCB",04-07-2024 15:00:00,29.307814,76.337619,PM10,27,159,56
India,Haryana,Jind,"Police Lines, Jind - HSPCB",04-07-2024 15:00:00,29.307814,76.337619,NO2,6,17,11
India,Haryana,Jind,"Police Lines, Jind - HSPCB",04-07-2024 15:00:00,29.307814,76.337619,CO,1,123,35
India,Haryana,Jind,"Police Lines, Jind - HSPCB",04-07-2024 15:00:00,29.307814,76.337619,OZONE,21,71,34
India,Haryana,Kaithal,"Rishi Nagar, Kaithal - HSPCB",04-07-2024 15:00:00,29.8006,76.4155,NH3,8,8,8
India,Haryana,Kurukshetra,"Sector-7, Kurukshetra - HSPCB",04-07-2024 15:00:00,29.966942,76.875879,NO2,17,22,19
India,Haryana,Mandikhera,"General Hospital, Mandikhera - HSPCB",04-07-2024 15:00:00,27.9002,76.9938,PM2.5,6,331,28
India,Haryana,Mandikhera,"General Hospital, Mandikhera - HSPCB",04-07-2024 15:00:00,27.9002,76.9938,PM10,9,407,39
India,Haryana,Mandikhera,"General Hospital, Mandikhera - HSPCB",04-07-2024 15:00:00,27.9002,76.9938,CO,20,42,29
India,Haryana,Manesar,"Sector-2 IMT, Manesar - HSPCB",04-07-2024 15:00:00,28.360699,76.936090,NH3,1,3,2
India,Haryana,Palwal,"Shyam Nagar, Palwal - HSPCB",04-07-2024 15:00:00,28.1485564,77.3320667,PM2.5,17,57,35
India,Haryana,Palwal,"Shyam Nagar, Palwal - HSPCB",04-07-2024 15:00:00,28.1485564,77.3320667,NO2,23,24,24
India,Haryana,Panipat,"Sector-18, Panipat - HSPCB",04-07-2024 15:00:00,29.432304,76.972765,PM2.5,96,98,97
India,Haryana,Panipat,"Sector-18, Panipat - HSPCB",04-07-2024 15:00:00,29.432304,76.972765,CO,24,26,25
India,Haryana,Yamuna Nagar,"Gobind Pura, Yamuna Nagar - HSPCB",04-07-2024 15:00:00,30.1480566,77.2893471,NO2,11,20,16
India,Haryana,Yamuna Nagar,"Gobind Pura, Yamuna Nagar - HSPCB",04-07-2024 15:00:00,30.1480566,77.2893471,CO,30,48,38
India,Himachal Pradesh,Baddi,"HIMUDA Complex Phase-1, Baddi - HPPCB",04-07-2024 15:00:00,30.943887,76.801991,PM2.5,2,80,36
India,Himachal Pradesh,Baddi,"HIMUDA Complex Phase-1, Baddi - HPPCB",04-07-2024 15:00:00,30.943887,76.801991,PM10,24,113,55
India,Himachal Pradesh,Baddi,"HIMUDA Complex Phase-1, Baddi - HPPCB",04-07-2024 15:00:00,30.943887,76.801991,NO2,11,20,16
India,Jharkhand,Dhanbad,"Kalakusuma, Dhanbad - DMC",04-07-2024 15:00:00,23.811548,86.481238,PM10,98,102,100
India,Jharkhand,Dhanbad,"Kalakusuma, Dhanbad - DMC",04-07-2024 15:00:00,23.811548,86.481238,CO,129,133,132
India,Jharkhand,Dhanbad,"Sardar Patel Nagar, Dhanbad - JSPCB",04-07-2024 15:00:00,23.80569,86.44268,OZONE,10,30,15
India,Jharkhand,Pathardih,"Mohalbani Ghat, Pathardih - DMC",04-07-2024 15:00:00,23.669880,86.411725,PM2.5,NA,NA,NA
India,Jharkhand,Pathardih,"Mohalbani Ghat, Pathardih - DMC",04-07-2024 15:00:00,23.669880,86.411725,PM10,NA,NA,NA
India,Jharkhand,Pathardih,"Mohalbani Ghat, Pathardih - DMC",04-07-2024 15:00:00,23.669880,86.411725,CO,4,115,5
India,Jharkhand,Pathardih,"Mohalbani Ghat, Pathardih - DMC",04-07-2024 15:00:00,23.669880,86.411725,OZONE,9,21,13
India,Karnataka,Bagalkot,"Vidayagiri, Bagalkot - KSPCB",04-07-2024 15:00:00,16.172806,75.659694,NO2,9,10,9
India,Karnataka,Belgaum,"Ramteerth Nagar, Belgaum - KSPCB",04-07-2024 15:00:00,15.888653,74.541751,NO2,NA,NA,NA
India,Karnataka,Belgaum,"Ramteerth Nagar, Belgaum - KSPCB",04-07-2024 15:00:00,15.888653,74.541751,NH3,5,9,7
India,Karnataka,Bengaluru,"City Railway Station, Bengaluru - KSPCB",04-07-2024 15:00:00,12.9756843,77.5660749,SO2,17,18,18
India,Karnataka,Bengaluru,"Hebbal, Bengaluru - KSPCB",04-07-2024 15:00:00,13.029152,77.585901,PM10,11,30,21
India,Karnataka,Bengaluru,"Hebbal, Bengaluru - KSPCB",04-07-2024 15:00:00,13.029152,77.585901,NH3,1,1,1
India,Karnataka,Bengaluru,"Hebbal, Bengaluru - KSPCB",04-07-2024 15:00:00,13.029152,77.585901,CO,3,26,17
India,Karnataka,Bengaluru,"Jayanagar 5th Block, Bengaluru - KSPCB",04-07-2024 15:00:00,12.920984,77.584908,PM2.5,11,35,21
India,Karnataka,Bengaluru,"Jayanagar 5th Block, Bengaluru - KSPCB",04-07-2024 15:00:00,12.920984,77.584908,CO,20,22,21
India,Karnataka,Bengaluru,"Peenya, Bengaluru - CPCB",04-07-2024 15:00:00,13.0270199,77.494094,SO2,11,17,14
India,Karnataka,Bengaluru,"Peenya, Bengaluru - CPCB",04-07-2024 15:00:00,13.0270199,77.494094,OZONE,8,19,14
India,Karnataka,Bengaluru,"RVCE-Mailasandra, Bengaluru - KSPCB",04-07-2024 15:00:00,12.921418,77.502466,PM2.5,33,129,60
India,Karnataka,Bengaluru,"Sanegurava Halli, Bengaluru - KSPCB",04-07-2024 15:00:00,12.990328,77.5431385,NO2,20,31,23
India,Karnataka,Bengaluru,"Shivapura_Peenya, Bengaluru - KSPCB",04-07-2024 15:00:00,13.0246342,77.5080115,SO2,1,6,3
India,Karnataka,Bengaluru,"Silk Board, Bengaluru - KSPCB",04-07-2024 15:00:00,12.917348,77.622813,PM2.5,11,42,24
India,Karnataka,Chamarajanagar,"Urban, Chamarajanagar - KSPCB",04-07-2024 15:00:00,11.55358,76.55521,NO2,19,35,24
India,Karnataka,Chamarajanagar,"Urban, Chamarajanagar - KSPCB",04-07-2024 15:00:00,11.55358,76.55521,NH3,2,3,2
India,Karnataka,Chamarajanagar,"Urban, Chamarajanagar - KSPCB",04-07-2024 15:00:00,11.55358,76.55521,SO2,3,8,5
India,Karnataka,Chikkamagaluru,"Kalyana Nagara, Chikkamagaluru - KSPCB",04-07-2024 15:00:00,13.328028,75.797056,NH3,2,3,2
India,Karnataka,Chikkamagaluru,"Kalyana Nagara, Chikkamagaluru - KSPCB",04-07-2024 15:00:00,13.328028,75.797056,SO2,1,4,2
India,Karnataka,Dharwad,"Kalabhavan, Dharwad - KSPCB",04-07-2024 15:00:00,15.459706,75.008381,PM10,56,102,77
India,Karnataka,Dharwad,"Kalabhavan, Dharwad - KSPCB",04-07-2024 15:00:00,15.459706,75.008381,NO2,12,22,18
India,Karnataka,Dharwad,"Kalabhavan, Dharwad - KSPCB",04-07-2024 15:00:00,15.459706,75.008381,NH3,2,4,3
India,Karnataka,Hassan,"B.Katihalli, Hassan - KSPCB",04-07-2024 15:00:00,13.008556,76.125258,PM2.5,NA,NA,NA
India,Karnataka,Hassan,"B.Katihalli, Hassan - KSPCB",04-07-2024 15:00:00,13.008556,76.125258,NH3,NA,NA,NA
India,Karnataka,Haveri,"Ashwini Nagar, Haveri - KSPCB",04-07-2024 15:00:00,14.791800,75.389600,SO2,NA,NA,NA
India,Karnataka,Hubballi,"Lingaraj Nagar, Hubballi - KSPCB",04-07-2024 15:00:00,15.3714823,75.1160168,PM2.5,36,45,37
India,Karnataka,Hubballi,"Lingaraj Nagar, Hubballi - KSPCB",04-07-2024 15:00:00,15.3714823,75.1160168,NO2,6,11,10
India,Karnataka,Hubballi,"Lingaraj Nagar, Hubballi - KSPCB",04-07-2024 15:00:00,15.3714823,75.1160168,OZONE,10,19,13
India,Karnataka,Kalaburagi,"Lal Bahadur Shastri Nagar, Kalaburagi - KSPCB",04-07-2024 15:00:00,17.321993,76.822628,NH3,2,3,2
India,Karnataka,Kalaburagi,"Lal Bahadur Shastri Nagar, Kalaburagi - KSPCB",04-07-2024 15:00:00,17.321993,76.822628,SO2,1,5,2
India,Karnataka,Karwar,"KHB Colony, Karwar - KSPCB",04-07-2024 15:00:00,14.816666,74.141003,PM10,10,53,26
India,Karnataka,Kolar,"Tamaka Ind. Area, Kolar - KSPCB",04-07-2024 15:00:00,13.1276288,78.1570122,NO2,NA,NA,NA
India,Karnataka,Madikeri,"Stuart Hill, Madikeri - KSPCB",04-07-2024 15:00:00,12.415911,75.735050,NO2,1,2,1
India,Karnataka,Mangalore,"Kadri, Mangalore - KSPCB",04-07-2024 15:00:00,12.889250,74.853000,CO,12,18,15
India,Karnataka,Mangalore,"Kadri, Mangalore - KSPCB",04-07-2024 15:00:00,12.889250,74.853000,OZONE,30,33,32
India,Karnataka,Raichur,"Haji Colony, Raichur - KSPCB",04-07-2024 15:00:00,16.208139,77.348417,SO2,40,74,69
India,Karnataka,Ramanagara,"Vijay Nagar, Ramanagara - KSPCB",04-07-2024 15:00:00,12.733409,77.298051,PM10,8,27,15
India,Karnataka,Ramanagara,"Vijay Nagar, Ramanagara - KSPCB",04-07-2024 15:00:00,12.733409,77.298051,NO2,6,26,20
India,Karnataka,Ramanagara,"Vijay Nagar, Ramanagara - KSPCB",04-07-2024 15:00:00,12.733409,77.298051,SO2,13,25,19
India,Karnataka,Ramanagara,"Vijay Nagar, Ramanagara - KSPCB",04-07-2024 15:00:00,12.733409,77.298051,CO,6,32,20
India,Karnataka,Ramanagara,"Vijay Nagar, Ramanagara - KSPCB",04-07-2024 15:00:00,12.733409,77.298051,OZONE,27,30,29
India,Karnataka,Shivamogga,"Vinoba Nagara, Shivamogga - KSPCB",04-07-2024 15:00:00,13.940000,75.555917,NO2,12,34,21
India,Karnataka,Shivamogga,"Vinoba Nagara, Shivamogga - KSPCB",04-07-2024 15:00:00,13.940000,75.555917,NH3,2,5,3
India,Karnataka,Shivamogga,"Vinoba Nagara, Shivamogga - KSPCB",04-07-2024 15:00:00,13.940000,75.555917,SO2,3,10,6
India,Karnataka,Tumakuru,"Thimmalapura, Tumakuru - KSPCB",04-07-2024 15:00:00,13.377516,77.099072,NO2,17,17,17
India,Karnataka,Tumakuru,"Thimmalapura, Tumakuru - KSPCB",04-07-2024 15:00:00,13.377516,77.099072,SO2,7,9,7
India,Karnataka,Udupi,"Brahmagiri, Udupi - KSPCB",04-07-2024 15:00:00,13.34194444,74.74694444,SO2,16,18,17
India,Kerala,Kollam,"Polayathode, Kollam - Kerala PCB",04-07-2024 15:00:00,8.8787,76.6073,PM2.5,NA,NA,NA
India,Kerala,Thiruvananthapuram,"Kariavattom, Thiruvananthapuram - Kerala PCB",04-07-2024 15:00:00,8.563700,76.886500,CO,18,41,29
India,Kerala,Thiruvananthapuram,"Kariavattom, Thiruvananthapuram - Kerala PCB",04-07-2024 15:00:00,8.563700,76.886500,OZONE,36,37,36
India,Kerala,Thiruvananthapuram,"Plammoodu, Thiruvananthapuram - Kerala PCB",04-07-2024 15:00:00,8.5149093,76.9435879,PM2.5,NA,NA,NA
India,Kerala,Thrissur,"Corporation Ground, Thrissur - Kerala PCB",04-07-2024 15:00:00,10.532400,76.215900,PM2.5,33,40,36
India,Kerala,Thrissur,"Corporation Ground, Thrissur - Kerala PCB",04-07-2024 15:00:00,10.532400,76.215900,SO2,NA,NA,NA
India,Kerala,Thrissur,"Corporation Ground, Thrissur - Kerala PCB",04-07-2024 15:00:00,10.532400,76.215900,CO,36,40,39
India,Kerala,Thrissur,"Corporation Ground, Thrissur - Kerala PCB",04-07-2024 15:00:00,10.532400,76.215900,OZONE,20,22,22
India,Madhya Pradesh,Bhopal,"Idgah Hills, Bhopal - MPPCB",04-07-2024 15:00:00,23.264759,77.381568,NH3,2,3,2
India,Madhya Pradesh,Bhopal,"Paryavaran Parisar, Bhopal - MPPCB",04-07-2024 15:00:00,23.210494,77.425409,NO2,8,41,14
India,Madhya Pradesh,Bhopal,"Paryavaran Parisar, Bhopal - MPPCB",04-07-2024 15:00:00,23.210494,77.425409,SO2,1,15,9
India,Madhya Pradesh,Bhopal,"T T Nagar, Bhopal - MPPCB",04-07-2024 15:00:00,23.233584,77.400574,PM10,24,76,49
India,Madhya Pradesh,Bhopal,"T T Nagar, Bhopal - MPPCB",04-07-2024 15:00:00,23.233584,77.400574,CO,7,42,24
India,Madhya Pradesh,Dewas,"Bhopal Chauraha, Dewas - MPPCB",04-07-2024 15:00:00,22.9682591,76.064118,NH3,3,3,3
India,Madhya Pradesh,Gwalior,"City Center, Gwalior - MPPCB",04-07-2024 15:00:00,26.203442,78.193251,PM2.5,12,32,18
India,Madhya Pradesh,Gwalior,"City Center, Gwalior - MPPCB",04-07-2024 15:00:00,26.203442,78.193251,NH3,3,4,3
India,Madhya Pradesh,Gwalior,"Deen Dayal Nagar, Gwalior - MPPCB",04-07-2024 15:00:00,26.259242,78.216432,NO2,5,39,17
