country,state,city,station,last_update,latitude,longitude,pollutant_id,pollutant_min,pollutant_max,pollutant_avg
India,Andhra_Pradesh,Amaravati,"Secretariat, Amaravati - APPCB",30-01-2024 11:00:00,16.5150833,80.5181667,PM10,84,127,102
India,Andhra_Pradesh,Amaravati,"Secretariat, Amaravati - APPCB",30-01-2024 11:00:00,16.5150833,80.5181667,CO,17,70,51
India,Andhra_Pradesh,Amaravati,"Secretariat, Amaravati - APPCB",30-01-2024 11:00:00,16.5150833,80.5181667,OZONE,7,65,17
India,Andhra_Pradesh,Anantapur,"Gulzarpet, Anantapur - APPCB",30-01-2024 11:00:00,14.675886,77.593027,PM10,45,109,72
India,Andhra_Pradesh,Chittoor,"Gangineni Cheruvu, Chittoor - APPCB",30-01-2024 11:00:00,13.204880,79.097889,SO2,5,24,11
India,Andhra_Pradesh,Kadapa,"Yerramukkapalli, Kadapa - APPCB",30-01-2024 11:00:00,14.465052,78.824187,NO2,8,8,8
India,Andhra_Pradesh,Rajamahendravaram,"Anand Kala Kshetram, Rajamahendravaram - APPCB",30-01-2024 11:00:00,16.9872867,81.7363176,CO,1,84,25
India,Andhra_Pradesh,Tirupati,"Tirumala, Tirupati - APPCB",30-01-2024 11:00:00,13.67,79.35,PM2.5,64,152,91
India,Andhra_Pradesh,Tirupati,"Tirumala, Tirupati - APPCB",30-01-2024 11:00:00,13.67,79.35,CO,36,54,46
India,Andhra_Pradesh,Tirupati,"Vaikuntapuram, Tirupati - APPCB",30-01-2024 11:00:00,13.615387,79.409230,PM2.5,20,37,27
India,Andhra_Pradesh,Tirupati,"Vaikuntapuram, Tirupati - APPCB",30-01-2024 11:00:00,13.615387,79.409230,NO2,16,28,21
India,Andhra_Pradesh,Tirupati,"Vaikuntapuram, Tirupati - APPCB",30-01-2024 11:00:00,13.615387,79.409230,SO2,4,5,5
India,Andhra_Pradesh,Vijayawada,"HB Colony, Vijayawada - APPCB",30-01-2024 11:00:00,16.536107,80.594233,NH3,NA,NA,NA
India,Andhra_Pradesh,Vijayawada,"HB Colony, Vijayawada - APPCB",30-01-2024 11:00:00,16.536107,80.594233,OZONE,6,6,6
India,Andhra_Pradesh,Vijayawada,"Rajiv Gandhi Park, Vijayawada - APPCB",30-01-2024 11:00:00,16.509717,80.612222,NO2,NA,NA,NA
India,Andhra_Pradesh,Visakhapatnam,"GVM Corporation, Visakhapatnam - APPCB",30-01-2024 11:00:00,17.72,83.3,CO,4,50,26
India,Andhra_Pradesh,Visakhapatnam,"GVM Corporation, Visakhapatnam - APPCB",30-01-2024 11:00:00,17.72,83.3,OZONE,8,83,10
India,Assam,Byrnihat,"Central Academy for SFS, Byrnihat - PCBA",30-01-2024 11:00:00,26.071318,91.87488,OZONE,11,14,13
India,Assam,Guwahati,"IITG, Guwahati - PCBA",30-01-2024 11:00:00,26.2028636,91.70046436,OZONE,2,21,3
India,Assam,Guwahati,"Pan Bazaar, Guwahati - PCBA",30-01-2024 11:00:00,26.187500,91.744194,NH3,3,5,4
India,Assam,Guwahati,"Railway Colony, Guwahati - PCBA",30-01-2024 11:00:00,26.181742,91.78063,SO2,19,32,24
India,Assam,Guwahati,"Railway Colony, Guwahati - PCBA",30-01-2024 11:00:00,26.181742,91.78063,OZONE,7,40,24
India,Assam,Nagaon,"Christianpatty, Nagaon - PCBA",30-01-2024 11:00:00,26.349082,92.68449,PM2.5,15,305,89
India,Assam,Nagaon,"Christianpatty, Nagaon - PCBA",30-01-2024 11:00:00,26.349082,92.68449,NO2,14,30,21
India,Assam,Nagaon,"Christianpatty, Nagaon - PCBA",30-01-2024 11:00:00,26.349082,92.68449,CO,21,120,21
India,Assam,Silchar,"Tarapur, Silchar - PCBA",30-01-2024 11:00:00,24.82827,92.79525,NO2,25,52,36
India,Assam,Sivasagar,"Girls College, Sivasagar - PCBA",30-01-2024 11:00:00,26.987634,94.636574,SO2,5,6,6
India,Assam,Sivasagar,"Girls College, Sivasagar - PCBA",30-01-2024 11:00:00,26.987634,94.636574,CO,11,69,36
India,Assam,Sivasagar,"Girls College, Sivasagar - PCBA",30-01-2024 11:00:00,26.987634,94.636574,OZONE,1,5,1
India,Bihar,Araria,"Kharahiya Basti, Araria - BSPCB",30-01-2024 11:00:00,26.146529,87.454184,SO2,10,17,15
India,Bihar,Araria,"Kharahiya Basti, Araria - BSPCB",30-01-2024 11:00:00,26.146529,87.454184,CO,11,30,24
India,Bihar,Arrah,"New DM Office, Arrah - BSPCB",30-01-2024 11:00:00,25.5626095,84.663264,NO2,22,84,38
India,Bihar,Arrah,"New DM Office, Arrah - BSPCB",30-01-2024 11:00:00,25.5626095,84.663264,OZONE,13,31,16
India,Bihar,Bhagalpur,"DM Office_Kachari Chowk, Bhagalpur - BSPCB",30-01-2024 11:00:00,25.251013,86.989001,CO,30,82,49
India,Bihar,Bihar Sharif,"D M Colony, Bihar Sharif - BSPCB",30-01-2024 11:00:00,25.204762,85.514960,OZONE,5,56,12
India,Bihar,Gaya,"Kareemganj, Gaya - BSPCB",30-01-2024 11:00:00,24.792403,84.992416,PM2.5,15,190,74
India,Bihar,Gaya,"Kareemganj, Gaya - BSPCB",30-01-2024 11:00:00,24.792403,84.992416,NH3,1,6,3
India,Bihar,Gaya,"Kareemganj, Gaya - BSPCB",30-01-2024 11:00:00,24.792403,84.992416,CO,1,100,39
India,Bihar,Hajipur,"Industrial Area, Hajipur - BSPCB",30-01-2024 11:00:00,25.697189,85.245900,NO2,30,67,44
India,Bihar,Hajipur,"Industrial Area, Hajipur - BSPCB",30-01-2024 11:00:00,25.697189,85.245900,CO,69,106,103
India,Bihar,Katihar,"Mirchaibari, Katihar - BSPCB",30-01-2024 11:00:00,25.560083,87.553265,PM10,149,432,262
India,Bihar,Kishanganj,"SDM Office_Khagra, Kishanganj - BSPCB",30-01-2024 11:00:00,26.0881305,87.93840336,NO2,30,39,34
India,Bihar,Motihari,"Gandak Colony, Motihari - BSPCB",30-01-2024 11:00:00,26.63086,84.90051,CO,22,116,88
India,Bihar,Munger,"Town Hall, Munger - BSPCB",30-01-2024 11:00:00,25.376776,86.471523,PM10,89,234,151
India,Bihar,Munger,"Town Hall, Munger - BSPCB",30-01-2024 11:00:00,25.376776,86.471523,CO,60,123,114
India,Bihar,Muzaffarpur,"Buddha Colony, Muzaffarpur - BSPCB",30-01-2024 11:00:00,26.11442,85.39813,NO2,34,113,57
India,Bihar,Muzaffarpur,"MIT-Daudpur Kothi, Muzaffarpur - BSPCB",30-01-2024 11:00:00,26.1403345,85.3650192,NH3,3,6,5
India,Bihar,Muzaffarpur,"MIT-Daudpur Kothi, Muzaffarpur - BSPCB",30-01-2024 11:00:00,26.1403345,85.3650192,OZONE,6,87,7
India,Bihar,Muzaffarpur,"Muzaffarpur Collectorate, Muzaffarpur - BSPCB",30-01-2024 11:00:00,26.1209,85.3647,OZONE,21,94,24
India,Bihar,Patna,"Govt. High School Shikarpur, Patna - BSPCB",30-01-2024 11:00:00,25.592539,85.227158,PM2.5,300,387,349
India,Bihar,Patna,"Govt. High School Shikarpur, Patna - BSPCB",30-01-2024 11:00:00,25.592539,85.227158,NH3,3,5,4
India,Bihar,Patna,"Muradpur, Patna - BSPCB",30-01-2024 11:00:00,25.619651,85.147382,PM2.5,266,366,329
India,Bihar,Patna,"Rajbansi Nagar, Patna - BSPCB",30-01-2024 11:00:00,25.599486,85.113666,PM2.5,325,385,347
India,Bihar,Patna,"Samanpura, Patna - BSPCB",30-01-2024 11:00:00,25.596727,85.085624,NH3,3,3,3
India,Bihar,Purnia,"Mariam Nagar, Purnia - BSPCB",30-01-2024 11:00:00,25.366336,87.117468,PM10,120,466,332
India,Bihar,Purnia,"Mariam Nagar, Purnia - BSPCB",30-01-2024 11:00:00,25.366336,87.117468,NH3,1,1,1
India,Bihar,Purnia,"Mariam Nagar, Purnia - BSPCB",30-01-2024 11:00:00,25.366336,87.117468,CO,16,147,61
India,Bihar,Samastipur,"DM Office_Kasipur, Samastipur - BSPCB",30-01-2024 11:00:00,25.859655,85.77944,PM2.5,NA,NA,NA
India,Bihar,Sasaram,"Dada Peer, Sasaram - BSPCB",30-01-2024 11:00:00,24.952822,84.002396,NO2,5,17,9
India,Bihar,Siwan,"Chitragupta Nagar, Siwan - BSPCB",30-01-2024 11:00:00,26.2271665,84.3570427,SO2,25,37,31
India,Bihar,Siwan,"Chitragupta Nagar, Siwan - BSPCB",30-01-2024 11:00:00,26.2271665,84.3570427,OZONE,2,87,5
India,Chandigarh,Chandigarh,"Sector 22, Chandigarh - CPCC",30-01-2024 11:00:00,30.735567,76.775714,PM2.5,263,425,339
India,Chandigarh,Chandigarh,"Sector 22, Chandigarh - CPCC",30-01-2024 11:00:00,30.735567,76.775714,PM10,135,429,230
India,Chandigarh,Chandigarh,"Sector 22, Chandigarh - CPCC",30-01-2024 11:00:00,30.735567,76.775714,CO,44,108,76
India,Chandigarh,Chandigarh,"Sector-53, Chandigarh - CPCC",30-01-2024 11:00:00,30.719859,76.738637,NO2,26,100,59
India,Chandigarh,Chandigarh,"Sector-53, Chandigarh - CPCC",30-01-2024 11:00:00,30.719859,76.738637,NH3,6,9,8
India,Chandigarh,Chandigarh,"Sector-53, Chandigarh - CPCC",30-01-2024 11:00:00,30.719859,76.738637,CO,48,139,89
India,Chhattisgarh,Bhilai,"32Bungalows, Bhilai - CECB",30-01-2024 11:00:00,21.194815,81.314770,PM10,43,94,71
India,Chhattisgarh,Bhilai,"Civic Center, Bhilai - Bhilai Steel Plant",30-01-2024 11:00:00,21.185571,81.343175,PM10,NA,NA,NA
India,Chhattisgarh,Bilaspur,"Mangala, Bilaspur - NTPC",30-01-2024 11:00:00,22.08815,82.13737,NO2,16,17,16
India,Chhattisgarh,Chhal,"Nawapara SECL Colony, Chhal - CECB",30-01-2024 11:00:00,22.118125,83.140608,PM2.5,74,106,93
India,Chhattisgarh,Chhal,"Nawapara SECL Colony, Chhal - CECB",30-01-2024 11:00:00,22.118125,83.140608,NO2,13,43,23
India,Chhattisgarh,Chhal,"Nawapara SECL Colony, Chhal - CECB",30-01-2024 11:00:00,22.118125,83.140608,NH3,2,2,2
India,Chhattisgarh,Korba,"Urja Nagar, Korba - CECB",30-01-2024 11:00:00,22.348441,82.549611,SO2,NA,NA,NA
India,Chhattisgarh,Korba,"Urja Nagar, Korba - CECB",30-01-2024 11:00:00,22.348441,82.549611,OZONE,NA,NA,NA
India,Chhattisgarh,Kunjemura,"OP Jindal School, Kunjemura - CECB",30-01-2024 11:00:00,22.126650,83.483212,PM10,80,500,257
India,Chhattisgarh,Kunjemura,"OP Jindal School, Kunjemura - CECB",30-01-2024 11:00:00,22.126650,83.483212,CO,40,102,58
India,Chhattisgarh,Milupara,"Govt. Higher Secondary School, Milupara - CECB",30-01-2024 11:00:00,22.1910172,83.5197009,NH3,1,2,2
India,Chhattisgarh,Raipur,"AIIMS, Raipur - CECB",30-01-2024 11:00:00,21.258815,81.578979,PM10,52,116,77
India,Chhattisgarh,Raipur,"Bhatagaon New ISBT, Raipur - CECB",30-01-2024 11:00:00,21.219665,81.630094,PM2.5,43,132,78
India,Chhattisgarh,Raipur,"Bhatagaon New ISBT, Raipur - CECB",30-01-2024 11:00:00,21.219665,81.630094,NO2,67,106,81
India,Chhattisgarh,Raipur,"Bhatagaon New ISBT, Raipur - CECB",30-01-2024 11:00:00,21.219665,81.630094,NH3,2,4,3
India,Chhattisgarh,Raipur,"Krishak Nagar, Raipur - CECB",30-01-2024 11:00:00,21.237755,81.705301,CO,39,56,47
India,Chhattisgarh,Raipur,"Krishak Nagar, Raipur - CECB",30-01-2024 11:00:00,21.237755,81.705301,OZONE,3,5,3
India,Chhattisgarh,Raipur,"Siltara Phase-II, Raipur - CECB",30-01-2024 11:00:00,21.371751,81.664929,PM2.5,34,162,90
India,Chhattisgarh,Tumidih,"OP Jindal Industrial Park, Tumidih - CECB",30-01-2024 11:00:00,22.06631475,83.33820077,NH3,1,4,3
India,Delhi,Delhi,"Alipur, Delhi - DPCC",30-01-2024 11:00:00,28.815329,77.153010,PM10,112,393,248
India,Delhi,Delhi,"Anand Vihar, Delhi - DPCC",30-01-2024 11:00:00,28.647622,77.3158090,OZONE,14,18,15
India,Delhi,Delhi,"Ashok Vihar, Delhi - DPCC",30-01-2024 11:00:00,28.695381,77.181665,PM10,192,456,338
India,Delhi,Delhi,"Aya Nagar, Delhi - IMD",30-01-2024 11:00:00,28.4706914,77.1099364,PM2.5,42,357,253
India,Delhi,Delhi,"Aya Nagar, Delhi - IMD",30-01-2024 11:00:00,28.4706914,77.1099364,NO2,24,45,31
India,Delhi,Delhi,"Bawana, Delhi - DPCC",30-01-2024 11:00:00,28.776200,77.051074,NH3,8,14,11
India,Delhi,Delhi,"CRRI Mathura Road, Delhi - IMD",30-01-2024 11:00:00,28.5512005,77.2735737,NO2,15,23,20
India,Delhi,Delhi,"CRRI Mathura Road, Delhi - IMD",30-01-2024 11:00:00,28.5512005,77.2735737,OZONE,3,41,4
India,Delhi,Delhi,"Dr. Karni Singh Shooting Range, Delhi - DPCC",30-01-2024 11:00:00,28.498571,77.264840,NO2,54,140,81
India,Delhi,Delhi,"Dr. Karni Singh Shooting Range, Delhi - DPCC",30-01-2024 11:00:00,28.498571,77.264840,SO2,6,12,10
India,Delhi,Delhi,"Dr. Karni Singh Shooting Range, Delhi - DPCC",30-01-2024 11:00:00,28.498571,77.264840,OZONE,1,172,1
India,Delhi,Delhi,"Dwarka-Sector 8, Delhi - DPCC ",30-01-2024 11:00:00,28.5710274,77.0719006,PM2.5,294,420,360
India,Delhi,Delhi,"Dwarka-Sector 8, Delhi - DPCC ",30-01-2024 11:00:00,28.5710274,77.0719006,NH3,6,9,6
India,Delhi,Delhi,"Dwarka-Sector 8, Delhi - DPCC ",30-01-2024 11:00:00,28.5710274,77.0719006,SO2,6,9,8
India,Delhi,Delhi,"Dwarka-Sector 8, Delhi - DPCC ",30-01-2024 11:00:00,28.5710274,77.0719006,CO,67,111,77
India,Delhi,Delhi,"IGI Airport (T3), Delhi - IMD",30-01-2024 11:00:00,28.5627763,77.1180053,PM2.5,192,384,316
India,Delhi,Delhi,"IGI Airport (T3), Delhi - IMD",30-01-2024 11:00:00,28.5627763,77.1180053,NO2,21,57,43
India,Delhi,Delhi,"Jahangirpuri, Delhi - DPCC",30-01-2024 11:00:00,28.732820,77.170633,NO2,54,115,81
India,Delhi,Delhi,"Jahangirpuri, Delhi - DPCC",30-01-2024 11:00:00,28.732820,77.170633,SO2,17,25,21
India,Delhi,Delhi,"Jawaharlal Nehru Stadium, Delhi - DPCC",30-01-2024 11:00:00,28.580280,77.233829,PM10,158,426,301
India,Delhi,Delhi,"Major Dhyan Chand National Stadium, Delhi - DPCC",30-01-2024 11:00:00,28.611281,77.237738,NH3,7,17,14
India,Delhi,Delhi,"Mandir Marg, Delhi - DPCC",30-01-2024 11:00:00,28.636429,77.201067,PM10,181,409,293
India,Delhi,Delhi,"Mandir Marg, Delhi - DPCC",30-01-2024 11:00:00,28.636429,77.201067,NH3,17,18,17
India,Delhi,Delhi,"NSIT Dwarka, Delhi - CPCB",30-01-2024 11:00:00,28.60909,77.0325413,PM10,128,379,263
India,Delhi,Delhi,"NSIT Dwarka, Delhi - CPCB",30-01-2024 11:00:00,28.60909,77.0325413,SO2,2,20,13
India,Delhi,Delhi,"NSIT Dwarka, Delhi - CPCB",30-01-2024 11:00:00,28.60909,77.0325413,CO,33,104,72
India,Delhi,Delhi,"Najafgarh, Delhi - DPCC",30-01-2024 11:00:00,28.570173,76.933762,CO,16,71,54
India,Delhi,Delhi,"Narela, Delhi - DPCC",30-01-2024 11:00:00,28.822836,77.101981,PM2.5,215,435,353
India,Delhi,Delhi,"Nehru Nagar, Delhi - DPCC",30-01-2024 11:00:00,28.567890,77.250515,PM2.5,352,500,405
India,Delhi,Delhi,"North Campus, DU, Delhi - IMD",30-01-2024 11:00:00,28.6573814,77.1585447,PM2.5,NA,NA,NA
India,Delhi,Delhi,"North Campus, DU, Delhi - IMD",30-01-2024 11:00:00,28.6573814,77.1585447,PM10,NA,NA,NA
India,Delhi,Delhi,"North Campus, DU, Delhi - IMD",30-01-2024 11:00:00,28.6573814,77.1585447,NO2,NA,NA,NA
India,Delhi,Delhi,"North Campus, DU, Delhi - IMD",30-01-2024 11:00:00,28.6573814,77.1585447,OZONE,18,42,18
India,Delhi,Delhi,"Okhla Phase-2, Delhi - DPCC",30-01-2024 11:00:00,28.530785,77.271255,PM2.5,338,452,383
India,Delhi,Delhi,"Patparganj, Delhi - DPCC",30-01-2024 11:00:00,28.623763,77.287209,NO2,43,91,59
India,Delhi,Delhi,"Patparganj, Delhi - DPCC",30-01-2024 11:00:00,28.623763,77.287209,OZONE,2,11,4
India,Delhi,Delhi,"Pusa, Delhi - DPCC",30-01-2024 11:00:00,28.639652,77.146275,PM10,226,500,368
India,Delhi,Delhi,"Pusa, Delhi - IMD",30-01-2024 11:00:00,28.636110,77.173332,NO2,35,70,49
India,Delhi,Delhi,"R K Puram, Delhi - DPCC",30-01-2024 11:00:00,28.563262,77.186937,NH3,7,12,10
India,Delhi,Delhi,"Rohini, Delhi - DPCC",30-01-2024 11:00:00,28.732528,77.119920,NO2,29,95,59
India,Delhi,Delhi,"Rohini, Delhi - DPCC",30-01-2024 11:00:00,28.732528,77.119920,SO2,7,24,15
India,Delhi,Delhi,"Rohini, Delhi - DPCC",30-01-2024 11:00:00,28.732528,77.119920,CO,54,103,70
India,Delhi,Delhi,"Shadipur, Delhi - CPCB",30-01-2024 11:00:00,28.6514781,77.1473105,PM2.5,258,475,372
India,Delhi,Delhi,"Shadipur, Delhi - CPCB",30-01-2024 11:00:00,28.6514781,77.1473105,OZONE,10,32,17
India,Delhi,Delhi,"Sirifort, Delhi - CPCB",30-01-2024 11:00:00,28.5504249,77.2159377,PM2.5,328,432,390
India,Delhi,Delhi,"Sirifort, Delhi - CPCB",30-01-2024 11:00:00,28.5504249,77.2159377,PM10,193,436,336
India,Delhi,Delhi,"Sonia Vihar, Delhi - DPCC",30-01-2024 11:00:00,28.710508,77.249485,PM2.5,291,457,378
India,Delhi,Delhi,"Sonia Vihar, Delhi - DPCC",30-01-2024 11:00:00,28.710508,77.249485,PM10,161,438,322
India,Delhi,Delhi,"Sonia Vihar, Delhi - DPCC",30-01-2024 11:00:00,28.710508,77.249485,CO,74,112,82
India,Delhi,Delhi,"Sri Aurobindo Marg, Delhi - DPCC",30-01-2024 11:00:00,28.531346,77.190156,PM2.5,230,385,347
India,Delhi,Delhi,"Sri Aurobindo Marg, Delhi - DPCC",30-01-2024 11:00:00,28.531346,77.190156,PM10,133,316,251
India,Delhi,Delhi,"Sri Aurobindo Marg, Delhi - DPCC",30-01-2024 11:00:00,28.531346,77.190156,NO2,23,94,50
India,Delhi,Delhi,"Wazirpur, Delhi - DPCC",30-01-2024 11:00:00,28.699793,77.165453,PM10,191,476,354
India,Gujarat,Ahmedabad,"Chandkheda, Ahmedabad - IITM",30-01-2024 11:00:00,23.107969,72.574648,NO2,26,33,30
India,Gujarat,Ahmedabad,"Chandkheda, Ahmedabad - IITM",30-01-2024 11:00:00,23.107969,72.574648,OZONE,13,16,14
India,Gujarat,Ahmedabad,"Maninagar, Ahmedabad - GPCB",30-01-2024 11:00:00,23.002657,72.591912,PM10,NA,NA,NA
India,Gujarat,Ahmedabad,"Maninagar, Ahmedabad - GPCB",30-01-2024 11:00:00,23.002657,72.591912,CO,16,40,29
India,Gujarat,Ahmedabad,"Raikhad, Ahmedabad - IITM",30-01-2024 11:00:00,23.020509,72.579261,PM2.5,NA,NA,NA
India,Gujarat,Ahmedabad,"Raikhad, Ahmedabad - IITM",30-01-2024 11:00:00,23.020509,72.579261,NO2,16,17,16
India,Gujarat,Ahmedabad,"Raikhad, Ahmedabad - IITM",30-01-2024 11:00:00,23.020509,72.579261,OZONE,21,21,21
India,Gujarat,Ahmedabad,"Rakhial, Ahmedabad - IITM",30-01-2024 11:00:00,23.016834,72.625775,OZONE,1,44,6
India,Gujarat,Ahmedabad,"SAC ISRO Bopal, Ahmedabad - IITM",30-01-2024 11:00:00,23.041137,72.456691,NO2,13,18,14
India,Gujarat,Ahmedabad,"Sardar Vallabhbhai Patel Stadium, Ahmedabad - IITM",30-01-2024 11:00:00,23.043070,72.562968,PM2.5,66,302,117
India,Gujarat,Ahmedabad,"Sardar Vallabhbhai Patel Stadium, Ahmedabad - IITM",30-01-2024 11:00:00,23.043070,72.562968,CO,16,61,41
India,Gujarat,Ankleshwar,"GIDC, Ankleshwar - GPCB",30-01-2024 11:00:00,21.613267,73.010555,PM10,63,129,95
India,Gujarat,Ankleshwar,"GIDC, Ankleshwar - GPCB",30-01-2024 11:00:00,21.613267,73.010555,NO2,33,34,34
India,Gujarat,Gandhinagar,"GIFT City, Gandhinagar - IITM",30-01-2024 11:00:00,23.163798,72.677768,OZONE,2,24,6
India,Gujarat,Gandhinagar,"IIPHG Lekawada, Gandhinagar - IITM",30-01-2024 11:00:00,23.243639,72.68994,NO2,13,14,13
India,Gujarat,Gandhinagar,"Sector-10, Gandhinagar - GPCB",30-01-2024 11:00:00,23.221714,72.654328,CO,18,20,20
India,Gujarat,Surat,"Science Center, Surat - SMC",30-01-2024 11:00:00,21.170046,72.795405,NO2,7,31,11
India,Gujarat,Surat,"Science Center, Surat - SMC",30-01-2024 11:00:00,21.170046,72.795405,SO2,16,28,21
India,Gujarat,Vapi,"Phase-1 GIDC, Vapi - GPCB",30-01-2024 11:00:00,20.362421,72.918013,PM2.5,110,372,235
India,Haryana,Bahadurgarh,"Arya Nagar, Bahadurgarh - HSPCB",30-01-2024 11:00:00,28.6701,76.9254,PM10,76,232,159
India,Haryana,Bahadurgarh,"Arya Nagar, Bahadurgarh - HSPCB",30-01-2024 11:00:00,28.6701,76.9254,SO2,10,14,12
India,Haryana,Charkhi Dadri,"Mini Secretariat, Charkhi Dadri - HSPCB",30-01-2024 11:00:00,28.593883,76.270653,OZONE,14,17,15
India,Haryana,Dharuhera,"Municipal Corporation Office, Dharuhera -  HSPCB",30-01-2024 11:00:00,28.206800,76.799700,NO2,45,112,68
India,Haryana,Faridabad,"Sector 11, Faridabad - HSPCB",30-01-2024 11:00:00,28.376058,77.315741,NO2,30,33,32
India,Haryana,Faridabad,"Sector 11, Faridabad - HSPCB",30-01-2024 11:00:00,28.376058,77.315741,NH3,6,6,6
India,Haryana,Faridabad,"Sector 30, Faridabad - HSPCB",30-01-2024 11:00:00,28.4417,77.3217,PM10,142,203,190
India,Haryana,Faridabad,"Sector 30, Faridabad - HSPCB",30-01-2024 11:00:00,28.4417,77.3217,NH3,9,9,9
India,Haryana,Faridabad,"Sector- 16A, Faridabad - HSPCB",30-01-2024 11:00:00,28.4088421,77.3099081,SO2,14,28,19
India,Haryana,Gurugram,"NISE Gwal Pahari, Gurugram - IMD",30-01-2024 11:00:00,28.422681,77.148944,NO2,12,38,21
India,Haryana,Gurugram,"Sector-51, Gurugram - HSPCB",30-01-2024 11:00:00,28.4227,77.0667,CO,75,100,91
India,Haryana,Gurugram,"Sector-51, Gurugram - HSPCB",30-01-2024 11:00:00,28.4227,77.0667,OZONE,27,67,42
India,Haryana,Gurugram,"Teri Gram, Gurugram - HSPCB",30-01-2024 11:00:00,28.4275,77.1465,NO2,25,52,36
India,Haryana,Gurugram,"Teri Gram, Gurugram - HSPCB",30-01-2024 11:00:00,28.4275,77.1465,SO2,1,4,3
India,Haryana,Gurugram,"Teri Gram, Gurugram - HSPCB",30-01-2024 11:00:00,28.4275,77.1465,OZONE,10,36,33
India,Haryana,Gurugram,"Vikas Sadan, Gurugram - HSPCB",30-01-2024 11:00:00,28.4501238,77.0263051,SO2,22,38,27
India,Haryana,Hisar,"Urban Estate-II, Hisar - HSPCB",30-01-2024 11:00:00,29.140560,75.744941,PM2.5,46,293,172
India,Haryana,Jind,"Police Lines, Jind - HSPCB",30-01-2024 11:00:00,29.307814,76.337619,NO2,6,15,11
India,Haryana,Kaithal,"Rishi Nagar, Kaithal - HSPCB",30-01-2024 11:00:00,29.8006,76.4155,OZONE,3,21,7
India,Haryana,Mandikhera,"General Hospital, Mandikhera - HSPCB",30-01-2024 11:00:00,27.9002,76.9938,CO,66,104,79
India,Haryana,Mandikhera,"General Hospital, Mandikhera - HSPCB",30-01-2024 11:00:00,27.9002,76.9938,OZONE,20,33,26
India,Haryana,Manesar,"Sector-2 IMT, Manesar - HSPCB",30-01-2024 11:00:00,28.360699,76.936090,PM2.5,95,285,200
India,Haryana,Manesar,"Sector-2 IMT, Manesar - HSPCB",30-01-2024 11:00:00,28.360699,76.936090,CO,42,62,50
India,Haryana,Narnaul,"Shastri Nagar, Narnaul - HSPCB",30-01-2024 11:00:00,28.060249,76.113115,PM2.5,46,272,116
India,Haryana,Narnaul,"Shastri Nagar, Narnaul - HSPCB",30-01-2024 11:00:00,28.060249,76.113115,SO2,11,58,20
India,Haryana,Panipat,"Sector-18, Panipat - HSPCB",30-01-2024 11:00:00,29.497973,76.993331,PM2.5,122,125,123
India,Haryana,Panipat,"Sector-18, Panipat - HSPCB",30-01-2024 11:00:00,29.497973,76.993331,SO2,12,13,12
India,Haryana,Panipat,"Sector-18, Panipat - HSPCB",30-01-2024 11:00:00,29.497973,76.993331,CO,23,27,24
India,Haryana,Rohtak,"MD University, Rohtak - HSPCB",30-01-2024 11:00:00,28.52123,76.37138,OZONE,44,53,50
India,Haryana,Sirsa,"F-Block, Sirsa - HSPCB",30-01-2024 11:00:00,29.536400,75.015800,PM10,51,121,95
India,Haryana,Sirsa,"F-Block, Sirsa - HSPCB",30-01-2024 11:00:00,29.536400,75.015800,SO2,29,45,39
India,Haryana,Sonipat,"Murthal, Sonipat - HSPCB",30-01-2024 11:00:00,29.027200,77.062100,PM10,164,164,164
India,Haryana,Sonipat,"Murthal, Sonipat - HSPCB",30-01-2024 11:00:00,29.027200,77.062100,NO2,37,44,40
India,Haryana,Yamuna Nagar,"Gobind Pura, Yamuna Nagar - HSPCB",30-01-2024 11:00:00,30.1480566,77.2893471,PM2.5,40,301,126
India,Himachal Pradesh,Baddi,"HIMUDA Complex Phase-1, Baddi - HPPCB",30-01-2024 11:00:00,30.943887,76.801991,SO2,45,136,76
India,Jammu_and_Kashmir,Srinagar,"Rajbagh, Srinagar - JKSPCB",30-01-2024 11:00:00,34.066206,74.819820,SO2,NA,NA,NA
India,Jharkhand,Dhanbad,"Kalakusuma, Dhanbad - DMC",30-01-2024 11:00:00,23.811548,86.481238,SO2,NA,NA,NA
India,Jharkhand,Dhanbad,"Kalakusuma, Dhanbad - DMC",30-01-2024 11:00:00,23.811548,86.481238,CO,2,92,2
India,Jharkhand,Pathardih,"Mohalbani Ghat, Pathardih - DMC",30-01-2024 11:00:00,23.669880,86.411725,NO2,NA,NA,NA
India,Karnataka,Bagalkot,"Vidayagiri, Bagalkot - KSPCB",30-01-2024 11:00:00,16.172806,75.659694,OZONE,NA,NA,NA
India,Karnataka,Belgaum,"Ramteerth Nagar, Belgaum - KSPCB",30-01-2024 11:00:00,15.888653,74.541751,SO2,8,9,8
India,Karnataka,Bengaluru,"BTM Layout, Bengaluru - CPCB",30-01-2024 11:00:00,12.9135218,77.5950804,PM10,47,80,67
India,Karnataka,Bengaluru,"BTM Layout, Bengaluru - CPCB",30-01-2024 11:00:00,12.9135218,77.5950804,NO2,41,42,41
India,Karnataka,Bengaluru,"BTM Layout, Bengaluru - CPCB",30-01-2024 11:00:00,12.9135218,77.5950804,SO2,11,12,12
India,Karnataka,Bengaluru,"Bapuji Nagar, Bengaluru - KSPCB",30-01-2024 11:00:00,12.951913,77.539784,NH3,1,1,1
India,Karnataka,Bengaluru,"Hebbal, Bengaluru - KSPCB",30-01-2024 11:00:00,13.029152,77.585901,PM2.5,NA,NA,NA
India,Karnataka,Bengaluru,"Hebbal, Bengaluru - KSPCB",30-01-2024 11:00:00,13.029152,77.585901,PM10,NA,NA,NA
India,Karnataka,Bengaluru,"Hebbal, Bengaluru - KSPCB",30-01-2024 11:00:00,13.029152,77.585901,NO2,NA,NA,NA
India,Karnataka,Bengaluru,"Hebbal, Bengaluru - KSPCB",30-01-2024 11:00:00,13.029152,77.585901,SO2,NA,NA,NA
India,Karnataka,Bengaluru,"Hombegowda Nagar, Bengaluru - KSPCB",30-01-2024 11:00:00,12.938539,77.590100,PM10,52,131,82
India,Karnataka,Bengaluru,"Hombegowda Nagar, Bengaluru - KSPCB",30-01-2024 11:00:00,12.938539,77.590100,SO2,1,4,3
India,Karnataka,Bengaluru,"Hombegowda Nagar, Bengaluru - KSPCB",30-01-2024 11:00:00,12.938539,77.590100,OZONE,4,5,5
India,Karnataka,Bengaluru,"Jayanagar 5th Block, Bengaluru - KSPCB",30-01-2024 11:00:00,12.920984,77.584908,NO2,10,13,11
India,Karnataka,Bengaluru,"Jigani, Bengaluru - KSPCB",30-01-2024 11:00:00,12.7816279,77.6299145,PM10,38,112,82
India,Karnataka,Bengaluru,"Jigani, Bengaluru - KSPCB",30-01-2024 11:00:00,12.7816279,77.6299145,NH3,4,4,4
India,Karnataka,Bengaluru,"Jigani, Bengaluru - KSPCB",30-01-2024 11:00:00,12.7816279,77.6299145,SO2,15,15,15
India,Karnataka,Bengaluru,"Kasturi Nagar, Bengaluru - KSPCB",30-01-2024 11:00:00,13.003872,77.664217,NO2,16,17,16
India,Karnataka,Bengaluru,"Kasturi Nagar, Bengaluru - KSPCB",30-01-2024 11:00:00,13.003872,77.664217,NH3,3,4,4
India,Karnataka,Bengaluru,"Peenya, Bengaluru - CPCB",30-01-2024 11:00:00,13.0270199,77.494094,PM2.5,15,72,51
India,Karnataka,Bengaluru,"Peenya, Bengaluru - CPCB",30-01-2024 11:00:00,13.0270199,77.494094,PM10,16,101,71
India,Karnataka,Bengaluru,"Peenya, Bengaluru - CPCB",30-01-2024 11:00:00,13.0270199,77.494094,NO2,NA,NA,NA
India,Karnataka,Bengaluru,"RVCE-Mailasandra, Bengaluru - KSPCB",30-01-2024 11:00:00,12.921418,77.502466,PM2.5,68,95,77
India,Karnataka,Bengaluru,"RVCE-Mailasandra, Bengaluru - KSPCB",30-01-2024 11:00:00,12.921418,77.502466,PM10,105,148,127
India,Karnataka,Bengaluru,"RVCE-Mailasandra, Bengaluru - KSPCB",30-01-2024 11:00:00,12.921418,77.502466,OZONE,NA,NA,NA
India,Karnataka,Bidar,"Naubad, Bidar - KSPCB",30-01-2024 11:00:00,17.930306,77.482194,PM10,87,117,99
India,Karnataka,Bidar,"Naubad, Bidar - KSPCB",30-01-2024 11:00:00,17.930306,77.482194,NH3,3,3,3
India,Karnataka,Chikkaballapur,"Chikkaballapur Rural, Chikkaballapur - KSPCB",30-01-2024 11:00:00,13.428828,77.731418,NH3,1,1,1
India,Karnataka,Chikkaballapur,"Chikkaballapur Rural, Chikkaballapur - KSPCB",30-01-2024 11:00:00,13.428828,77.731418,CO,8,25,10
India,Karnataka,Chikkamagaluru,"Kalyana Nagara, Chikkamagaluru - KSPCB",30-01-2024 11:00:00,13.328028,75.797056,NO2,16,27,21
India,Karnataka,Chikkamagaluru,"Kalyana Nagara, Chikkamagaluru - KSPCB",30-01-2024 11:00:00,13.328028,75.797056,OZONE,22,77,26
India,Karnataka,Davanagere,"Devaraj Urs Badavane, Davanagere - KSPCB",30-01-2024 11:00:00,14.475800,75.905200,PM2.5,NA,NA,NA
India,Karnataka,Davanagere,"Devaraj Urs Badavane, Davanagere - KSPCB",30-01-2024 11:00:00,14.475800,75.905200,NO2,10,15,11
India,Karnataka,Dharwad,"Kalabhavan, Dharwad - KSPCB",30-01-2024 11:00:00,15.459706,75.008381,PM10,70,131,104
India,Karnataka,Dharwad,"Kalabhavan, Dharwad - KSPCB",30-01-2024 11:00:00,15.459706,75.008381,NH3,3,3,3
India,Karnataka,Gadag,"Panchal Nagar, Gadag - KSPCB",30-01-2024 11:00:00,15.411456,75.638133,NH3,2,4,2
India,Karnataka,Haveri,"Ashwini Nagar, Haveri - KSPCB",30-01-2024 11:00:00,14.791800,75.389600,SO2,13,14,14
India,Karnataka,Haveri,"Ashwini Nagar, Haveri - KSPCB",30-01-2024 11:00:00,14.791800,75.389600,CO,33,36,35
India,Karnataka,Hubballi,"Lingaraj Nagar, Hubballi - KSPCB",30-01-2024 11:00:00,15.3714823,75.1160168,PM10,53,76,64
India,Karnataka,Kalaburagi,"Lal Bahadur Shastri Nagar, Kalaburagi - KSPCB",30-01-2024 11:00:00,17.321993,76.822628,PM10,6,65,27
India,Karnataka,Kalaburagi,"Mahatma Basaveswar Colony, Kalaburgi - KSPCB",30-01-2024 11:00:00,17.336318,76.847397,NH3,3,4,3
India,Karnataka,Karwar,"KHB Colony, Karwar - KSPCB",30-01-2024 11:00:00,14.816666,74.141003,SO2,18,18,18
India,Karnataka,Koppal,"Diwator Nagar, Koppal - KSPCB",30-01-2024 11:00:00,15.347630,76.181767,NH3,3,7,5
India,Karnataka,Madikeri,"Stuart Hill, Madikeri - KSPCB",30-01-2024 11:00:00,12.415911,75.735050,OZONE,29,44,35
India,Karnataka,Mangalore,"Kadri, Mangalore - KSPCB",30-01-2024 11:00:00,12.889250,74.853000,PM2.5,57,133,84
India,Karnataka,Mysuru,"Hebbal 1st Stage, Mysuru - KSPCB",30-01-2024 11:00:00,12.21041,76.37376,PM10,51,88,68
India,Karnataka,Ramanagara,"Vijay Nagar, Ramanagara - KSPCB",30-01-2024 11:00:00,12.733409,77.298051,PM10,37,66,48
India,Karnataka,Ramanagara,"Vijay Nagar, Ramanagara - KSPCB",30-01-2024 11:00:00,12.733409,77.298051,NH3,1,1,1
India,Karnataka,Ramanagara,"Vijay Nagar, Ramanagara - KSPCB",30-01-2024 11:00:00,12.733409,77.298051,OZONE,28,34,29
India,Karnataka,Shivamogga,"Vinoba Nagara, Shivamogga - KSPCB",30-01-2024 11:00:00,13.940000,75.555917,PM2.5,33,57,43
India,Karnataka,Shivamogga,"Vinoba Nagara, Shivamogga - KSPCB",30-01-2024 11:00:00,13.940000,75.555917,NH3,2,18,4
India,Karnataka,Shivamogga,"Vinoba Nagara, Shivamogga - KSPCB",30-01-2024 11:00:00,13.940000,75.555917,CO,12,40,21
India,Karnataka,Yadgir,"Collector Office, Yadgir - KSPCB",30-01-2024 11:00:00,16.7602,77.1428,OZONE,18,19,18
India,Kerala,Eloor,"Udyogamandal, Eloor - Kerala PCB",30-01-2024 11:00:00,10.073232,76.302765,PM2.5,30,57,46
India,Kerala,Kannur,"Thavakkara, Kannur - Kerala PCB",30-01-2024 11:00:00,11.875000,75.373200,PM2.5,45,52,47
India,Kerala,Kannur,"Thavakkara, Kannur - Kerala PCB",30-01-2024 11:00:00,11.875000,75.373200,PM10,59,68,63
India,Kerala,Kollam,"Polayathode, Kollam - Kerala PCB",30-01-2024 11:00:00,8.8787,76.6073,CO,10,44,17
India,Kerala,Thrissur,"Corporation Ground, Thrissur - Kerala PCB",30-01-2024 11:00:00,10.532400,76.215900,PM10,54,62,58
India,Madhya Pradesh,Bhopal,"Idgah Hills, Bhopal - MPPCB",30-01-2024 11:00:00,23.264759,77.381568,NO2,13,105,34
India,Madhya Pradesh,Bhopal,"Idgah Hills, Bhopal - MPPCB",30-01-2024 11:00:00,23.264759,77.381568,SO2,6,25,14
India,Madhya Pradesh,Bhopal,"Idgah Hills, Bhopal - MPPCB",30-01-2024 11:00:00,23.264759,77.381568,CO,26,104,45
India,Madhya Pradesh,Bhopal,"Paryavaran Parisar, Bhopal - MPPCB",30-01-2024 11:00:00,23.210494,77.425409,PM2.5,27,347,128
India,Madhya Pradesh,Bhopal,"T T Nagar, Bhopal - MPPCB",30-01-2024 11:00:00,23.233584,77.400574,PM2.5,43,270,123
India,Madhya Pradesh,Bhopal,"T T Nagar, Bhopal - MPPCB",30-01-2024 11:00:00,23.233584,77.400574,CO,41,76,56
India,Madhya Pradesh,Dewas,"Bhopal Chauraha, Dewas - MPPCB",30-01-2024 11:00:00,22.9682591,76.064118,NO2,10,13,12
India,Madhya Pradesh,Dewas,"Bhopal Chauraha, Dewas - MPPCB",30-01-2024 11:00:00,22.9682591,76.064118,NH3,3,3,3
India,Madhya Pradesh,Dewas,"Bhopal Chauraha, Dewas - MPPCB",30-01-2024 11:00:00,22.9682591,76.064118,OZONE,16,45,29
India,Madhya Pradesh,Gwalior,"Deen Dayal Nagar, Gwalior - MPPCB",30-01-2024 11:00:00,26.259242,78.216432,NH3,7,16,12
India,Madhya Pradesh,Gwalior,"Deen Dayal Nagar, Gwalior - MPPCB",30-01-2024 11:00:00,26.259242,78.216432,SO2,15,23,19
India,Madhya Pradesh,Indore,"Chhoti Gwaltoli, Indore - MPPCB",30-01-2024 11:00:00,22.4310,75.5213,CO,58,113,76
India,Madhya Pradesh,Indore,"Maguda Nagar, Indore - IMC",30-01-2024 11:00:00,22.7524,75.8872,PM2.5,57,255,114
India,Madhya Pradesh,Indore,"Maguda Nagar, Indore - IMC",30-01-2024 11:00:00,22.7524,75.8872,CO,20,32,26
India,Madhya Pradesh,Indore,"Residency Area, Indore - IMC",30-01-2024 11:00:00,22.7084,75.8815,SO2,24,26,25
India,Madhya Pradesh,Indore,"Residency Area, Indore - IMC",30-01-2024 11:00:00,22.7084,75.8815,OZONE,11,16,13
India,Madhya Pradesh,Jabalpur,"Govindh Bhavan Colony, Jabalpur - JMC",30-01-2024 11:00:00,23.163174,79.973061,PM10,62,101,78
India,Madhya Pradesh,Jabalpur,"Govindh Bhavan Colony, Jabalpur - JMC",30-01-2024 11:00:00,23.163174,79.973061,OZONE,4,150,19
India,Madhya Pradesh,Jabalpur,"Gupteshwar, Jabalpur - JMC",30-01-2024 11:00:00,23.142888,79.916147,PM2.5,57,157,85
India,Madhya Pradesh,Jabalpur,"Gupteshwar, Jabalpur - JMC",30-01-2024 11:00:00,23.142888,79.916147,CO,30,104,45
India,Madhya Pradesh,Jabalpur,"Gupteshwar, Jabalpur - JMC",30-01-2024 11:00:00,23.142888,79.916147,OZONE,8,143,22
India,Madhya Pradesh,Jabalpur,"Suhagi, Jabalpur - JMC",30-01-2024 11:00:00,23.218135,79.957770,PM2.5,77,305,178
India,Madhya Pradesh,Jabalpur,"Suhagi, Jabalpur - JMC",30-01-2024 11:00:00,23.218135,79.957770,CO,12,111,55
India,Madhya Pradesh,Maihar,"Sahilara, Maihar - KJS Cements",30-01-2024 11:00:00,24.2613009,80.7231783,NO2,14,14,14
India,Madhya Pradesh,Maihar,"Sahilara, Maihar - KJS Cements",30-01-2024 11:00:00,24.2613009,80.7231783,CO,28,51,46
India,Madhya Pradesh,Mandideep,"Sector-D Industrial Area, Mandideep - MPPCB",30-01-2024 11:00:00,23.108440,77.511428,PM2.5,43,257,145
India,Madhya Pradesh,Mandideep,"Sector-D Industrial Area, Mandideep - MPPCB",30-01-2024 11:00:00,23.108440,77.511428,NO2,32,130,94
India,Madhya Pradesh,Mandideep,"Sector-D Industrial Area, Mandideep - MPPCB",30-01-2024 11:00:00,23.108440,77.511428,OZONE,34,51,37
India,Madhya Pradesh,Pithampur,"Sector-2 Industrial Area, Pithampur - MPPCB",30-01-2024 11:00:00,22.624758,75.675238,PM10,80,206,133
India,Madhya Pradesh,Pithampur,"Sector-2 Industrial Area, Pithampur - MPPCB",30-01-2024 11:00:00,22.624758,75.675238,OZONE,34,60,37
India,Madhya Pradesh,Ratlam,"Shasthri Nagar, Ratlam - IPCA Lab",30-01-2024 11:00:00,23.331731,75.045981,PM2.5,38,260,98
India,Madhya Pradesh,Sagar,"Civil Lines, Sagar - MPPCB",30-01-2024 11:00:00,23.838586,78.759431,NO2,12,21,15
India,Madhya Pradesh,Satna,"Bandhavgar Colony, Satna - Birla Cement",30-01-2024 11:00:00,24.58434363,80.8549414,PM10,42,66,55
India,Madhya Pradesh,Satna,"Bandhavgar Colony, Satna - Birla Cement",30-01-2024 11:00:00,24.58434363,80.8549414,NO2,7,22,12
India,Madhya Pradesh,Satna,"Bandhavgar Colony, Satna - Birla Cement",30-01-2024 11:00:00,24.58434363,80.8549414,CO,22,54,42
India,Madhya Pradesh,Satna,"Bandhavgar Colony, Satna - Birla Cement",30-01-2024 11:00:00,24.58434363,80.8549414,OZONE,57,82,62
India,Madhya Pradesh,Singrauli,"Suryakiran Bhawan NCL, Singrauli - MPPCB",30-01-2024 11:00:00,24.108970,82.645580,CO,44,109,102
India,Madhya Pradesh,Singrauli,"Suryakiran Bhawan NCL, Singrauli - MPPCB",30-01-2024 11:00:00,24.108970,82.645580,OZONE,1,72,22
India,Madhya Pradesh,Ujjain,"Mahakaleshwar Temple, Ujjain - MPPCB",30-01-2024 11:00:00,23.182719 ,75.768218 ,SO2,7,28,16
India,Madhya Pradesh,Ujjain,"Mahakaleshwar Temple, Ujjain - MPPCB",30-01-2024 11:00:00,23.182719 ,75.768218 ,CO,19,106,74
India,Maharashtra,Ahmednagar,"Tarakpur, Ahmednagar - MPCB",30-01-2024 11:00:00,19.10122,74.73339,SO2,7,19,15
India,Maharashtra,Ahmednagar,"Tarakpur, Ahmednagar - MPCB",30-01-2024 11:00:00,19.10122,74.73339,CO,10,106,29
India,Maharashtra,Ahmednagar,"Tarakpur, Ahmednagar - MPCB",30-01-2024 11:00:00,19.10122,74.73339,OZONE,10,189,53
India,Maharashtra,Akola,"Ramdaspeth, Akola - MPCB",30-01-2024 11:00:00,20.719516,77.000253,PM2.5,39,307,98
India,Maharashtra,Akola,"Ramdaspeth, Akola - MPCB",30-01-2024 11:00:00,20.719516,77.000253,PM10,59,263,118
India,Maharashtra,Amravati,"Shri Shivaji Science College, Amaravati - MPCB",30-01-2024 11:00:00,20.939198,77.765701,SO2,15,40,25
India,Maharashtra,Aurangabad,"MIDC Chilkalthana, Aurangabad - MPCB",30-01-2024 11:00:00,19.875620,75.387310,SO2,8,25,13
India,Maharashtra,Aurangabad,"More Chowk Waluj, Aurangabad - MPCB",30-01-2024 11:00:00,19.8389439,75.244448,NH3,1,1,1
India,Maharashtra,Aurangabad,"More Chowk Waluj, Aurangabad - MPCB",30-01-2024 11:00:00,19.8389439,75.244448,OZONE,2,24,4
India,Maharashtra,Badlapur,"Katrap, Badlapur - MPCB",30-01-2024 11:00:00,19.16485,73.23409,PM2.5,74,304,191
India,Maharashtra,Badlapur,"Katrap, Badlapur - MPCB",30-01-2024 11:00:00,19.16485,73.23409,CO,18,103,63
India,Maharashtra,Belapur,"CBD Belapur, Belapur - MPCB",30-01-2024 11:00:00,19.0243902,73.0406721,PM2.5,77,234,104
India,Maharashtra,Belapur,"CBD Belapur, Belapur - MPCB",30-01-2024 11:00:00,19.0243902,73.0406721,PM10,111,384,156
India,Maharashtra,Belapur,"CBD Belapur, Belapur - MPCB",30-01-2024 11:00:00,19.0243902,73.0406721,CO,20,62,43
India,Maharashtra,Bhiwandi,"Gokul Nagar, Bhiwandi - MPCB",30-01-2024 11:00:00,19.309073,73.057223,CO,17,108,87
India,Maharashtra,Chandrapur,"Chauhan Colony, Chandrapur - MPCB",30-01-2024 11:00:00,19.962900,79.298714,NO2,17,61,31
India,Maharashtra,Chandrapur,"Chauhan Colony, Chandrapur - MPCB",30-01-2024 11:00:00,19.962900,79.298714,OZONE,8,20,13
India,Maharashtra,Jalgaon,"Prabhat Colony, Jalgaon - MPCB",30-01-2024 11:00:00,21.001264,75.565602,PM10,87,298,140
India,Maharashtra,Jalgaon,"Prabhat Colony, Jalgaon - MPCB",30-01-2024 11:00:00,21.001264,75.565602,NO2,31,194,93
India,Maharashtra,Jalgaon,"Prabhat Colony, Jalgaon - MPCB",30-01-2024 11:00:00,21.001264,75.565602,NH3,1,9,3
India,Maharashtra,Jalna,"Old MIDC, Jalna - MPCB",30-01-2024 11:00:00,19.854616,75.905894,NO2,28,47,39
India,Maharashtra,Jalna,"Old MIDC, Jalna - MPCB",30-01-2024 11:00:00,19.854616,75.905894,SO2,11,18,13
India,Maharashtra,Kalyan,"Khadakpada, Kalyan - MPCB",30-01-2024 11:00:00,19.25292,73.142019,NH3,1,2,1
India,Maharashtra,Latur,"Sawe Wadi, Latur - MPCB",30-01-2024 11:00:00,18.39963,76.57452,NH3,8,8,8
India,Maharashtra,Latur,"Sawe Wadi, Latur - MPCB",30-01-2024 11:00:00,18.39963,76.57452,CO,22,140,33
India,Maharashtra,Latur,"Sawe Wadi, Latur - MPCB",30-01-2024 11:00:00,18.39963,76.57452,OZONE,9,85,42
India,Maharashtra,Mahad,"Kamble Tarf Birwadi, Mahad - MPCB",30-01-2024 11:00:00,18.1023399,73.4783687,PM10,68,157,90
India,Maharashtra,Mira-Bhayandar,"Bhayandar West, Mira-Bhayandar - MPCB",30-01-2024 11:00:00,19.296481,72.840923,SO2,4,27,15
India,Maharashtra,Mumbai,"Bandra Kurla Complex, Mumbai - MPCB",30-01-2024 11:00:00,19.065931,72.862131,OZONE,1,57,3
India,Maharashtra,Mumbai,"Borivali East, Mumbai - IITM",30-01-2024 11:00:00,19.23241,72.86895,NO2,24,136,63
India,Maharashtra,Mumbai,"Byculla, Mumbai - BMC",30-01-2024 11:00:00,18.9767,72.8380,CO,22,86,48
India,Maharashtra,Mumbai,"Chembur, Mumbai - MPCB",30-01-2024 11:00:00,19.0364585,72.8954371,PM2.5,72,128,98
India,Maharashtra,Mumbai,"Chhatrapati Shivaji Intl. Airport (T2), Mumbai - MPCB",30-01-2024 11:00:00,19.10078,72.87462,PM10,NA,NA,NA
India,Maharashtra,Mumbai,"Chhatrapati Shivaji Intl. Airport (T2), Mumbai - MPCB",30-01-2024 11:00:00,19.10078,72.87462,SO2,NA,NA,NA
India,Maharashtra,Mumbai,"Colaba, Mumbai - MPCB",30-01-2024 11:00:00,18.910000,72.820000,NO2,18,27,22
India,Maharashtra,Mumbai,"Deonar, Mumbai - IITM",30-01-2024 11:00:00,19.04946,72.9230,PM2.5,NA,NA,NA
India,Maharashtra,Mumbai,"Khindipada-Bhandup West, Mumbai - IITM",30-01-2024 11:00:00,19.1653323,72.922099,PM10,66,158,110
India,Maharashtra,Mumbai,"Kurla, Mumbai - MPCB",30-01-2024 11:00:00,19.0863,72.8888,PM2.5,73,147,91
India,Maharashtra,Mumbai,"Malad West, Mumbai - IITM",30-01-2024 11:00:00,19.19709,72.82204,NH3,NA,NA,NA
India,Maharashtra,Mumbai,"Mindspace-Malad West, Mumbai - MPCB",30-01-2024 11:00:00,19.1878657,72.8304069,PM10,102,139,115
India,Maharashtra,Mumbai,"Mulund West, Mumbai - MPCB",30-01-2024 11:00:00,19.1750,72.9419,PM2.5,27,100,51
India,Maharashtra,Mumbai,"Mulund West, Mumbai - MPCB",30-01-2024 11:00:00,19.1750,72.9419,NH3,9,10,10
India,Maharashtra,Mumbai,"Navy Nagar-Colaba, Mumbai - IITM",30-01-2024 11:00:00,18.897756,72.813320,PM10,106,173,123
India,Maharashtra,Mumbai,"Navy Nagar-Colaba, Mumbai - IITM",30-01-2024 11:00:00,18.897756,72.813320,CO,14,45,28
India,Maharashtra,Mumbai,"Powai, Mumbai - MPCB",30-01-2024 11:00:00,19.137500,72.915056,OZONE,20,36,21
India,Maharashtra,Mumbai,"Sewri, Mumbai - BMC",30-01-2024 11:00:00,19.000084,72.856730,NO2,60,126,91
India,Maharashtra,Mumbai,"Sewri, Mumbai - BMC",30-01-2024 11:00:00,19.000084,72.856730,SO2,7,35,19
India,Maharashtra,Mumbai,"Sion, Mumbai - MPCB",30-01-2024 11:00:00,19.047000,72.874600,PM10,76,193,116
India,Maharashtra,Mumbai,"Sion, Mumbai - MPCB",30-01-2024 11:00:00,19.047000,72.874600,CO,11,60,51
India,Maharashtra,Mumbai,"Vile Parle West, Mumbai - MPCB",30-01-2024 11:00:00,19.10861,72.83622,PM10,62,111,84
India,Maharashtra,Mumbai,"Vile Parle West, Mumbai - MPCB",30-01-2024 11:00:00,19.10861,72.83622,CO,NA,NA,NA
India,Maharashtra,Nagpur,"Ambazari, Nagpur - MPCB",30-01-2024 11:00:00,21.121801,79.04952,PM10,122,180,143
India,Maharashtra,Nagpur,"Ambazari, Nagpur - MPCB",30-01-2024 11:00:00,21.121801,79.04952,NH3,1,24,5
India,Maharashtra,Nagpur,"Ambazari, Nagpur - MPCB",30-01-2024 11:00:00,21.121801,79.04952,SO2,24,74,39
India,Maharashtra,Nagpur,"Opp GPO Civil Lines, Nagpur - MPCB",30-01-2024 11:00:00,21.152875,79.0517531,PM2.5,106,283,190
India,Maharashtra,Nagpur,"Ram Nagar, Nagpur - MPCB",30-01-2024 11:00:00,21.143383,79.048912,PM10,116,172,137
India,Maharashtra,Nagpur,"Ram Nagar, Nagpur - MPCB",30-01-2024 11:00:00,21.143383,79.048912,OZONE,14,93,19
India,Maharashtra,Nashik,"Gangapur Road, Nashik - MPCB",30-01-2024 11:00:00,20.0073285,73.7762427,SO2,1,7,3
India,Maharashtra,Nashik,"Hirawadi, Nashik - MPCB",30-01-2024 11:00:00,20.021503,73.813844,NH3,1,2,1
India,Maharashtra,Nashik,"MIDC Ambad, Nashik - MPCB",30-01-2024 11:00:00,19.950220,73.731480,PM2.5,59,302,144
India,Maharashtra,Nashik,"MIDC Ambad, Nashik - MPCB",30-01-2024 11:00:00,19.950220,73.731480,NH3,2,4,2
India,Maharashtra,Nashik,"MIDC Ambad, Nashik - MPCB",30-01-2024 11:00:00,19.950220,73.731480,CO,37,110,75
India,Maharashtra,Nashik,"Pandav Nagari, Nashik - MPCB",30-01-2024 11:00:00,19.9591346,73.7788008,CO,42,108,78
India,Maharashtra,Navi Mumbai,"Kopripada-Vashi, Navi Mumbai - MPCB",30-01-2024 11:00:00,19.090337,73.014232,PM10,51,134,95
India,Maharashtra,Navi Mumbai,"Mahape, Navi Mumbai - MPCB",30-01-2024 11:00:00,19.1135051,73.008978,NH3,3,4,3
India,Maharashtra,Navi Mumbai,"Mahape, Navi Mumbai - MPCB",30-01-2024 11:00:00,19.1135051,73.008978,OZONE,17,62,44
India,Maharashtra,Navi Mumbai,"Nerul, Navi Mumbai - MPCB",30-01-2024 11:00:00,19.008751,73.016620,PM10,88,280,137
India,Maharashtra,Navi Mumbai,"Nerul, Navi Mumbai - MPCB",30-01-2024 11:00:00,19.008751,73.016620,SO2,14,15,15
India,Maharashtra,Navi Mumbai,"Nerul, Navi Mumbai - MPCB",30-01-2024 11:00:00,19.008751,73.016620,OZONE,35,54,47
India,Maharashtra,Navi Mumbai,"Sanpada, Navi Mumbai - MPCB",30-01-2024 11:00:00,19.0575752,73.0151367,PM2.5,42,91,70
India,Maharashtra,Navi Mumbai,"Sanpada, Navi Mumbai - MPCB",30-01-2024 11:00:00,19.0575752,73.0151367,PM10,75,137,110
India,Maharashtra,Navi Mumbai,"Sanpada, Navi Mumbai - MPCB",30-01-2024 11:00:00,19.0575752,73.0151367,NO2,11,26,17
India,Maharashtra,Navi Mumbai,"Sector-19A Nerul, Navi Mumbai - IITM",30-01-2024 11:00:00,19.044,73.0325,NH3,6,56,20
India,Maharashtra,Navi Mumbai,"Sector-2E Kalamboli, Navi Mumbai - MPCB",30-01-2024 11:00:00,19.02579,73.10297,NO2,28,108,61
India,Maharashtra,Navi Mumbai,"Sector-2E Kalamboli, Navi Mumbai - MPCB",30-01-2024 11:00:00,19.02579,73.10297,NH3,2,21,14
India,Maharashtra,Navi Mumbai,"Tondare-Taloja, Navi Mumbai - MPCB",30-01-2024 11:00:00,19.0630,73.1209,PM2.5,53,301,141
India,Maharashtra,Navi Mumbai,"Tondare-Taloja, Navi Mumbai - MPCB",30-01-2024 11:00:00,19.0630,73.1209,OZONE,6,120,19
India,Maharashtra,Parbhani,"Masoom Colony, Parbhani - MPCB",30-01-2024 11:00:00,19.265594,76.761463,PM10,124,199,158
India,Maharashtra,Pimpri-Chinchwad,"Park Street Wakad, Pimpri Chinchwad - MPCB",30-01-2024 11:00:00,18.59051,73.77946,NO2,74,145,99
India,Maharashtra,Pimpri-Chinchwad,"Thergaon, Pimpri Chinchwad - MPCB",30-01-2024 11:00:00,18.616318,73.765797,NH3,NA,NA,NA
India,Maharashtra,Pune,"Bhosari, Pune - IITM",30-01-2024 11:00:00,18.640051,73.848956,CO,40,46,44
India,Maharashtra,Pune,"Katraj Dairy, Pune - MPCB",30-01-2024 11:00:00,18.454450,73.854155,CO,60,106,79
India,Maharashtra,Pune,"Mhada Colony, Pune - IITM",30-01-2024 11:00:00,18.573040,73.927715,OZONE,1,33,2
India,Maharashtra,Pune,"Revenue Colony-Shivajinagar, Pune - IITM",30-01-2024 11:00:00,18.530085,73.849598,SO2,NA,NA,NA
India,Maharashtra,Pune,"Transport Nagar-Nigdi, Pune - IITM",30-01-2024 11:00:00,18.664282,73.763966,PM10,100,213,130
India,Maharashtra,Pune,"Transport Nagar-Nigdi, Pune - IITM",30-01-2024 11:00:00,18.664282,73.763966,NO2,14,47,30
India,Maharashtra,Sangli,"Vijay Nagar, Sangli - MPCB",30-01-2024 11:00:00, 16.5038,74.3623,NO2,17,104,46
India,Maharashtra,Sangli,"Vijay Nagar, Sangli - MPCB",30-01-2024 11:00:00, 16.5038,74.3623,NH3,1,4,3
India,Maharashtra,Solapur,"Dnyaneshwar Nagar, Solapur - MPCB",30-01-2024 11:00:00,17.6336264,75.9132495,SO2,1,6,4
India,Maharashtra,Solapur,"Dnyaneshwar Nagar, Solapur - MPCB",30-01-2024 11:00:00,17.6336264,75.9132495,CO,10,109,27
India,Maharashtra,Solapur,"Solapur, Solapur - MPCB",30-01-2024 11:00:00,17.6599188,75.9063906,PM2.5,44,129,80
India,Maharashtra,Solapur,"Solapur, Solapur - MPCB",30-01-2024 11:00:00,17.6599188,75.9063906,NO2,54,55,54
India,Maharashtra,Thane,"Kasarvadavali, Thane - MPCB",30-01-2024 11:00:00,19.26777,72.97182,PM10,123,227,158
India,Maharashtra,Ulhasnagar,"Sidhi Vinayak Nagar, Ulhasnagar - MPCB",30-01-2024 11:00:00,19.235581,73.159121,PM2.5,59,153,92
India,Maharashtra,Ulhasnagar,"Sidhi Vinayak Nagar, Ulhasnagar - MPCB",30-01-2024 11:00:00,19.235581,73.159121,PM10,82,137,111
India,Maharashtra,Virar,"Bolinj, Virar - MPCB",30-01-2024 11:00:00,19.4458210,72.7988231,CO,22,46,34
India,Manipur,Imphal,"DM College of Science, Imphal - Manipur PCB",30-01-2024 11:00:00,24.8207389,93.9423085,NO2,NA,NA,NA
India,Manipur,Imphal,"Manipur University, Imphal - Manipur PCB",30-01-2024 11:00:00,24.7524239,93.9286218,SO2,60,66,63
India,Meghalaya,Shillong,"Lumpyngngad, Shillong - Meghalaya PCB",30-01-2024 11:00:00,25.5586,91.8985,PM10,51,116,78
India,Meghalaya,Shillong,"Lumpyngngad, Shillong - Meghalaya PCB",30-01-2024 11:00:00,25.5586,91.8985,CO,11,28,15
India,Nagaland,Kohima,"PWD Juction, Kohima - NPCB",30-01-2024 11:00:00,25.6635413,94.0989878,PM2.5,48,309,108
India,Odisha,Balasore,"Kalidaspur, Balasore - OSPCB",30-01-2024 11:00:00,21.51161,86.89088,SO2,18,43,31
India,Odisha,Bhubaneswar,"Lingraj Mandir, Bhubaneswar - OSPCB",30-01-2024 11:00:00,20.240790,85.836784,SO2,NA,NA,NA
India,Odisha,Bhubaneswar,"Patia, Bhubaneswar - OSPCB",30-01-2024 11:00:00,20.34652,85.81630,SO2,2,47,18
India,Odisha,Brajrajnagar,"GM Office, Brajrajnagar - OSPCB",30-01-2024 11:00:00,21.8004996,83.8396977,PM2.5,70,302,122
India,Odisha,Brajrajnagar,"GM Office, Brajrajnagar - OSPCB",30-01-2024 11:00:00,21.8004996,83.8396977,CO,57,116,97
India,Odisha,Cuttack,"CDA Area, Cuttack - OSPCB",30-01-2024 11:00:00,20.48891     ,85.84768     ,PM2.5,80,306,243
India,Odisha,Keonjhar,"Jagamohanpur, Keonjhar - OSPCB",30-01-2024 11:00:00,21.643900,85.599355,SO2,11,16,13
India,Odisha,Nayagarh,"Dabuna, Nayagarh - OSPCB",30-01-2024 11:00:00,21.847279,85.416905,OZONE,2,60,3
India,Odisha,Rairangpur,"Divisional Forest Office, Rairangpur - OSPCB",30-01-2024 11:00:00,22.265816,86.174829,PM2.5,12,241,159
India,Odisha,Rairangpur,"Divisional Forest Office, Rairangpur - OSPCB",30-01-2024 11:00:00,22.265816,86.174829,CO,20,52,29
India,Odisha,Rourkela,"Fertilizer Township, Rourkela - OSPCB",30-01-2024 11:00:00,22.18972222,84.86277778,PM10,105,198,149
India,Odisha,Rourkela,"Fertilizer Township, Rourkela - OSPCB",30-01-2024 11:00:00,22.18972222,84.86277778,SO2,12,15,13
India,Odisha,Rourkela,"Raghunathpali, Rourkela - OSPCB",30-01-2024 11:00:00,22.220833,84.809444,NO2,27,145,60
India,Odisha,Rourkela,"Raghunathpali, Rourkela - OSPCB",30-01-2024 11:00:00,22.220833,84.809444,NH3,1,2,1
India,Odisha,Rourkela,"Raghunathpali, Rourkela - OSPCB",30-01-2024 11:00:00,22.220833,84.809444,SO2,1,27,11
India,Odisha,Suakati,"OMC Colony, Suakati - OSPCB",30-01-2024 11:00:00,21.606865,85.510538,SO2,8,103,39
India,Odisha,Talcher,"Talcher Coalfields,Talcher - OSPCB",30-01-2024 11:00:00,20.9360711,85.1707021,OZONE,1,5,1
India,Puducherry,Puducherry,"Jawahar Nagar, Puducherry - PPCC",30-01-2024 11:00:00,11.9309,79.8027,CO,21,58,33
India,Puducherry,Puducherry,"Jawahar Nagar, Puducherry - PPCC",30-01-2024 11:00:00,11.9309,79.8027,OZONE,30,70,37
India,Punjab,Amritsar,"Golden Temple, Amritsar - PPCB",30-01-2024 11:00:00,31.620000,74.876512,PM10,66,176,129
India,Punjab,Amritsar,"Golden Temple, Amritsar - PPCB",30-01-2024 11:00:00,31.620000,74.876512,SO2,16,54,25
India,Punjab,Amritsar,"Golden Temple, Amritsar - PPCB",30-01-2024 11:00:00,31.620000,74.876512,CO,25,86,29
India,Punjab,Jalandhar,"Civil Line, Jalandhar - PPCB",30-01-2024 11:00:00,31.321907,75.578914,SO2,4,15,8
India,Punjab,Ludhiana,"Punjab Agricultural University, Ludhiana - PPCB",30-01-2024 11:00:00,30.9028,75.8086,PM2.5,46,312,184
India,Punjab,Ludhiana,"Punjab Agricultural University, Ludhiana - PPCB",30-01-2024 11:00:00,30.9028,75.8086,OZONE,8,71,11
India,Punjab,Mandi Gobindgarh,"RIMT University, Mandi Gobindgarh - PPCB",30-01-2024 11:00:00,30.649961,76.331442,PM10,148,441,249
India,Punjab,Mandi Gobindgarh,"RIMT University, Mandi Gobindgarh - PPCB",30-01-2024 11:00:00,30.649961,76.331442,NO2,NA,NA,NA
India,Punjab,Mandi Gobindgarh,"RIMT University, Mandi Gobindgarh - PPCB",30-01-2024 11:00:00,30.649961,76.331442,CO,11,84,42
India,Punjab,Mandi Gobindgarh,"RIMT University, Mandi Gobindgarh - PPCB",30-01-2024 11:00:00,30.649961,76.331442,OZONE,26,40,33
India,Punjab,Patiala,"Model Town, Patiala - PPCB",30-01-2024 11:00:00,30.349388,76.366642,SO2,1,100,21
India,Punjab,Patiala,"Model Town, Patiala - PPCB",30-01-2024 11:00:00,30.349388,76.366642,OZONE,21,108,23
India,Punjab,Rupnagar,"Ratanpura, Rupnagar - Ambuja Cements",30-01-2024 11:00:00,31.0325454,76.5623046,PM10,65,471,165
India,Punjab,Rupnagar,"Ratanpura, Rupnagar - Ambuja Cements",30-01-2024 11:00:00,31.0325454,76.5623046,SO2,5,8,6
India,Rajasthan,Ajmer,"Civil Lines,  Ajmer - RSPCB",30-01-2024 11:00:00,26.470859,74.646594,PM10,9,153,92
India,Rajasthan,Ajmer,"Civil Lines,  Ajmer - RSPCB",30-01-2024 11:00:00,26.470859,74.646594,NO2,23,72,42
India,Rajasthan,Ajmer,"Civil Lines,  Ajmer - RSPCB",30-01-2024 11:00:00,26.470859,74.646594,OZONE,1,56,14
India,Rajasthan,Alwar,"Moti Doongri, Alwar - RSPCB",30-01-2024 11:00:00,27.554793,76.611536,NO2,43,113,59
India,Rajasthan,Baran,"Bamboliya, Baran - RSPCB",30-01-2024 11:00:00,25.106006,76.469948,NO2,21,100,40
India,Rajasthan,Bharatpur,"Krishna Nagar, Bharatpur - RSPCB",30-01-2024 11:00:00,27.215415,77.50873,PM2.5,77,306,152
India,Rajasthan,Bharatpur,"Krishna Nagar, Bharatpur - RSPCB",30-01-2024 11:00:00,27.215415,77.50873,SO2,1,19,6
India,Rajasthan,Bhilwara,"Pratap Nagar, Bhilwara - RSPCB",30-01-2024 11:00:00,25.339605,74.618883,PM10,3,470,151
India,Rajasthan,Bhilwara,"Pratap Nagar, Bhilwara - RSPCB",30-01-2024 11:00:00,25.339605,74.618883,CO,20,124,62
India,Rajasthan,Bundi,"New Colony, Bundi - RSPCB",30-01-2024 11:00:00,25.435774,75.644272,OZONE,14,78,14
India,Rajasthan,Chittorgarh,"Shastri Nagar, Chittorgarh - RSPCB",30-01-2024 11:00:00,24.892047,74.623527,NH3,1,13,8
India,Rajasthan,Chittorgarh,"Shastri Nagar, Chittorgarh - RSPCB",30-01-2024 11:00:00,24.892047,74.623527,CO,91,114,110
India,Rajasthan,Churu,"Subash Chowk, Churu - RSPCB",30-01-2024 11:00:00,28.296139,74.961696,PM10,80,328,159
India,Rajasthan,Churu,"Subash Chowk, Churu - RSPCB",30-01-2024 11:00:00,28.296139,74.961696,SO2,10,20,14
India,Rajasthan,Dholpur,"Raja Ganj, Dholpur - RSPCB",30-01-2024 11:00:00,26.699557,77.898881,NO2,18,58,37
India,Rajasthan,Dholpur,"Raja Ganj, Dholpur - RSPCB",30-01-2024 11:00:00,26.699557,77.898881,NH3,11,18,13
India,Rajasthan,Hanumangarh,"Housing Board, Hanumangarh - RSPCB",30-01-2024 11:00:00,29.610750,74.283608,PM10,127,421,267
India,Rajasthan,Jaipur,"Adarsh Nagar, Jaipur - RSPCB",30-01-2024 11:00:00,26.902909,75.836858,NO2,22,98,59
India,Rajasthan,Jaipur,"Mansarovar Sector-12, Jaipur - RSPCB",30-01-2024 11:00:00,26.843698,75.766894,NH3,7,25,14
India,Rajasthan,Jaipur,"Mansarovar Sector-12, Jaipur - RSPCB",30-01-2024 11:00:00,26.843698,75.766894,OZONE,1,139,16
India,Rajasthan,Jaipur,"Shastri Nagar, Jaipur - RSPCB",30-01-2024 11:00:00,26.9502929,75.730943,PM10,65,176,124
India,Rajasthan,Jaipur,"Shastri Nagar, Jaipur - RSPCB",30-01-2024 11:00:00,26.9502929,75.730943,OZONE,13,132,34
India,Rajasthan,Jaisalmer,"Sadar Bazar, Jaisalmer - RSPCB",30-01-2024 11:00:00,26.912329,70.909168,PM10,96,191,129
India,Rajasthan,Jaisalmer,"Sadar Bazar, Jaisalmer - RSPCB",30-01-2024 11:00:00,26.912329,70.909168,NO2,11,67,29
India,Rajasthan,Jaisalmer,"Sadar Bazar, Jaisalmer - RSPCB",30-01-2024 11:00:00,26.912329,70.909168,OZONE,60,140,78
India,Rajasthan,Jhalawar,"Rajlaxmi Nagar, Jhalawar - RSPCB",30-01-2024 11:00:00,24.588397,76.172782,PM10,90,201,133
India,Rajasthan,Jhalawar,"Rajlaxmi Nagar, Jhalawar - RSPCB",30-01-2024 11:00:00,24.588397,76.172782,NO2,12,60,26
India,Rajasthan,Jhalawar,"Rajlaxmi Nagar, Jhalawar - RSPCB",30-01-2024 11:00:00,24.588397,76.172782,CO,22,94,63
India,Rajasthan,Jhunjhunu,"Indra Nagar, Jhunjhunu - RSPCB",30-01-2024 11:00:00,28.108988,75.386577,CO,24,110,80
India,Rajasthan,Jhunjhunu,"Indra Nagar, Jhunjhunu - RSPCB",30-01-2024 11:00:00,28.108988,75.386577,OZONE,4,96,7
India,Rajasthan,Jodhpur,"Collectorate, Jodhpur - RSPCB",30-01-2024 11:00:00,26.268249,73.0193853,PM2.5,73,352,206
India,Rajasthan,Jodhpur,"Collectorate, Jodhpur - RSPCB",30-01-2024 11:00:00,26.268249,73.0193853,PM10,76,243,146
India,Rajasthan,Jodhpur,"Collectorate, Jodhpur - RSPCB",30-01-2024 11:00:00,26.268249,73.0193853,NO2,26,59,44
India,Rajasthan,Jodhpur,"Collectorate, Jodhpur - RSPCB",30-01-2024 11:00:00,26.268249,73.0193853,SO2,2,54,20
India,Rajasthan,Jodhpur,"Digari Kalan, Jodhpur - RSPCB",30-01-2024 11:00:00,26.295810,73.082283,NO2,13,89,41
India,Rajasthan,Jodhpur,"Digari Kalan, Jodhpur - RSPCB",30-01-2024 11:00:00,26.295810,73.082283,CO,24,75,38
India,Rajasthan,Jodhpur,"Jhalamand, Jodhpur - RSPCB",30-01-2024 11:00:00,26.215415,73.070156,PM2.5,40,156,86
India,Rajasthan,Jodhpur,"Mandor, Jodhpur - RSPCB",30-01-2024 11:00:00,26.358805,73.047444,PM2.5,47,233,95
India,Rajasthan,Jodhpur,"Mandor, Jodhpur - RSPCB",30-01-2024 11:00:00,26.358805,73.047444,NH3,6,22,8
India,Rajasthan,Jodhpur,"Mandor, Jodhpur - RSPCB",30-01-2024 11:00:00,26.358805,73.047444,OZONE,4,98,43
India,Rajasthan,Karauli,"Satyawati Vihar, Karauli - RSPCB",30-01-2024 11:00:00,26.506177,77.025989,PM2.5,318,428,355
India,Rajasthan,Karauli,"Satyawati Vihar, Karauli - RSPCB",30-01-2024 11:00:00,26.506177,77.025989,NH3,6,65,11
India,Rajasthan,Kota,"Dhanmandi, Kota - RSPCB",30-01-2024 11:00:00,25.164090,75.858137,NO2,30,132,77
India,Rajasthan,Kota,"Dhanmandi, Kota - RSPCB",30-01-2024 11:00:00,25.164090,75.858137,CO,30,180,100
India,Rajasthan,Kota,"Nayapura, Kota - RSPCB",30-01-2024 11:00:00,25.196024,75.855668,NH3,11,22,15
India,Rajasthan,Kota,"Nayapura, Kota - RSPCB",30-01-2024 11:00:00,25.196024,75.855668,CO,1,108,9
India,Rajasthan,Nagaur,"Karni Colony, Nagaur - RSPCB",30-01-2024 11:00:00,27.213494,73.734444,CO,40,84,64
India,Rajasthan,Nagaur,"Karni Colony, Nagaur - RSPCB",30-01-2024 11:00:00,27.213494,73.734444,OZONE,37,63,49
India,Rajasthan,Pali,"Indira Colony Vistar, Pali - RSPCB",30-01-2024 11:00:00,25.771061, 73.340227,SO2,11,20,18
India,Rajasthan,Pratapgarh,"Pragati Nagar, Pratapgarh - RSPCB",30-01-2024 11:00:00,24.041198,74.780702,PM2.5,47,319,110
India,Rajasthan,Rajsamand,"Dhoinda, Rajsamand - RSPCB",30-01-2024 11:00:00,25.036360,73.883502,NO2,11,58,28
India,Rajasthan,Sawai Madhopur,"Sahu Nagar, Sawai Madhopur - RSPCB",30-01-2024 11:00:00,26.031443,76.359327,PM2.5,92,334,200
India,Rajasthan,Sawai Madhopur,"Sahu Nagar, Sawai Madhopur - RSPCB",30-01-2024 11:00:00,26.031443,76.359327,OZONE,14,96,18
India,Rajasthan,Sikar,"Radhakishan Pura, Sikar - RSPCB",30-01-2024 11:00:00,27.608912,75.153302,PM10,74,300,146
India,Rajasthan,Sirohi,"Vedhaynath Colony, Sirohi - RSPCB",30-01-2024 11:00:00,24.885261,72.857549,OZONE,1,104,13
India,Rajasthan,Sri Ganganagar,"Old City, Sri Ganganagar - RSPCB",30-01-2024 11:00:00,29.931624,73.864511,PM2.5,267,500,402
India,Rajasthan,Sri Ganganagar,"Old City, Sri Ganganagar - RSPCB",30-01-2024 11:00:00,29.931624,73.864511,NO2,1,101,47
India,Rajasthan,Sri Ganganagar,"Old City, Sri Ganganagar - RSPCB",30-01-2024 11:00:00,29.931624,73.864511,CO,106,177,122
India,Rajasthan,Tonk,"Shastri Nagar, Tonk - RSPCB",30-01-2024 11:00:00,26.159933,75.780517,PM2.5,NA,NA,NA
India,Rajasthan,Udaipur,"Ashok Nagar, Udaipur - RSPCB",30-01-2024 11:00:00,24.5886166,73.6321397,PM2.5,59,299,158
India,Rajasthan,Udaipur,"Ashok Nagar, Udaipur - RSPCB",30-01-2024 11:00:00,24.5886166,73.6321397,PM10,94,198,128
India,Rajasthan,Udaipur,"Ashok Nagar, Udaipur - RSPCB",30-01-2024 11:00:00,24.5886166,73.6321397,SO2,14,26,20
India,Rajasthan,Udaipur,"Ashok Nagar, Udaipur - RSPCB",30-01-2024 11:00:00,24.5886166,73.6321397,OZONE,10,14,12
India,Sikkim,Gangtok,"Zero Point GICI, Gangtok - SSPCB",30-01-2024 11:00:00,27.338530,88.614099,PM2.5,NA,NA,NA
India,Sikkim,Gangtok,"Zero Point GICI, Gangtok - SSPCB",30-01-2024 11:00:00,27.338530,88.614099,PM10,20,63,43
India,Sikkim,Gangtok,"Zero Point GICI, Gangtok - SSPCB",30-01-2024 11:00:00,27.338530,88.614099,SO2,9,10,9
India,TamilNadu,Chengalpattu,"Crescent University, Chengalpattu - TNPCB",30-01-2024 11:00:00,12.8777316,80.0834807,PM10,NA,NA,NA
India,TamilNadu,Chennai,"Alandur Bus Depot, Chennai - CPCB",30-01-2024 11:00:00,12.9099161,80.1076538,NH3,7,22,9
India,TamilNadu,Chennai,"Arumbakkam, Chennai - TNPCB",30-01-2024 11:00:00,13.0664,80.2112 ,PM10,NA,NA,NA
India,TamilNadu,Chennai,"Arumbakkam, Chennai - TNPCB",30-01-2024 11:00:00,13.0664,80.2112 ,NO2,NA,NA,NA
India,TamilNadu,Chennai,"Arumbakkam, Chennai - TNPCB",30-01-2024 11:00:00,13.0664,80.2112 ,NH3,NA,NA,NA
India,TamilNadu,Chennai,"Arumbakkam, Chennai - TNPCB",30-01-2024 11:00:00,13.0664,80.2112 ,SO2,NA,NA,NA
India,TamilNadu,Chennai,"Manali, Chennai - CPCB",30-01-2024 11:00:00,13.164544,80.26285,PM10,57,132,81
India,TamilNadu,Chennai,"Manali, Chennai - CPCB",30-01-2024 11:00:00,13.164544,80.26285,CO,41,101,54
India,TamilNadu,Chennai,"Perungudi, Chennai - TNPCB",30-01-2024 11:00:00,12.9533,80.2357,PM2.5,48,189,89
India,TamilNadu,Chennai,"Perungudi, Chennai - TNPCB",30-01-2024 11:00:00,12.9533,80.2357,SO2,1,7,3
India,TamilNadu,Chennai,"Perungudi, Chennai - TNPCB",30-01-2024 11:00:00,12.9533,80.2357,OZONE,6,16,10
India,TamilNadu,Chennai,"Royapuram, Chennai - TNPCB",30-01-2024 11:00:00,13.1036,80.2909,NH3,1,1,1
India,TamilNadu,Chennai,"Royapuram, Chennai - TNPCB",30-01-2024 11:00:00,13.1036,80.2909,OZONE,8,10,9
India,TamilNadu,Chennai,"Velachery Res. Area, Chennai - CPCB",30-01-2024 11:00:00,13.0052189,80.2398125,SO2,10,11,11
India,TamilNadu,Coimbatore,"PSG College of Arts and Science, Coimbatore - TNPCB",30-01-2024 11:00:00,11.0328,77.0349,NH3,1,1,1
India,TamilNadu,Cuddalore,"Kudikadu, Cuddalore - TNPCB",30-01-2024 11:00:00,11.6829898,79.7532099,NH3,5,6,5
India,TamilNadu,Cuddalore,"Semmandalam, Cuddalore - TNPCB",30-01-2024 11:00:00,11.7637683,79.7499835,OZONE,1,2,2
India,TamilNadu,Gummidipoondi,"Anthoni Pillai Nagar, Gummidipoondi - TNPCB",30-01-2024 11:00:00,13.4127,80.1081,NH3,2,3,2
India,TamilNadu,Kanchipuram,"Kilambi, Kanchipuram - TNPCB",30-01-2024 11:00:00,12.864618,79.659968,PM2.5,NA,NA,NA
India,TamilNadu,Ooty,"Bombay Castel, Ooty - TNPCB",30-01-2024 11:00:00,11.4068288,76.7138973,PM2.5,26,98,69
India,TamilNadu,Ooty,"Bombay Castel, Ooty - TNPCB",30-01-2024 11:00:00,11.4068288,76.7138973,CO,20,20,20
India,TamilNadu,Palkalaiperur,"Bharathidasan University, Palkalaiperur - TNPCB",30-01-2024 11:00:00,10.681158,78.741746,OZONE,1,1,1
India,TamilNadu,Salem,"Sona College of Technology, Salem - TNPCB",30-01-2024 11:00:00,11.679111,78.125052,NO2,7,11,9
India,TamilNadu,Salem,"Sona College of Technology, Salem - TNPCB",30-01-2024 11:00:00,11.679111,78.125052,NH3,1,1,1
India,TamilNadu,Thoothukudi,"Meelavittan, Thoothukudi - TNPCB",30-01-2024 11:00:00,8.816428 ,78.099039,SO2,5,19,14
India,TamilNadu,Tirupur,"Kumaran College, Tirupur - TNPCB",30-01-2024 11:00:00,11.0973603,77.3228673,SO2,18,19,19
India,TamilNadu,Vellore,"Vasanthapuram, Vellore - TNPCB",30-01-2024 11:00:00,12.909494,79.131861,NH3,1,1,1
India,TamilNadu,Vellore,"Vasanthapuram, Vellore - TNPCB",30-01-2024 11:00:00,12.909494,79.131861,OZONE,1,2,1
India,TamilNadu,Virudhunagar,"Collectorate Office, Virudhunagar - TNPCB",30-01-2024 11:00:00,9.559382,77.948828,PM2.5,38,109,63
India,TamilNadu,Virudhunagar,"Collectorate Office, Virudhunagar - TNPCB",30-01-2024 11:00:00,9.559382,77.948828,NO2,18,48,30
India,TamilNadu,Virudhunagar,"Collectorate Office, Virudhunagar - TNPCB",30-01-2024 11:00:00,9.559382,77.948828,SO2,15,17,16
India,Telangana,Hyderabad,"Bollaram Industrial Area, Hyderabad - TSPCB",30-01-2024 11:00:00,17.540891,78.358528,OZONE,36,39,37
India,Telangana,Hyderabad,"Central University, Hyderabad - TSPCB",30-01-2024 11:00:00,17.460103,78.334361,PM2.5,46,68,55
India,Telangana,Hyderabad,"Central University, Hyderabad - TSPCB",30-01-2024 11:00:00,17.460103,78.334361,CO,22,50,38
India,Telangana,Hyderabad,"ICRISAT Patancheru, Hyderabad - TSPCB",30-01-2024 11:00:00,17.518400,78.278777,PM2.5,71,117,87
India,Telangana,Hyderabad,"ICRISAT Patancheru, Hyderabad - TSPCB",30-01-2024 11:00:00,17.518400,78.278777,NH3,2,2,2
India,Telangana,Hyderabad,"ICRISAT Patancheru, Hyderabad - TSPCB",30-01-2024 11:00:00,17.518400,78.278777,CO,34,84,55
India,Telangana,Hyderabad,"Kokapet, Hyderabad - TSPCB",30-01-2024 11:00:00,17.393559,78.339194,NO2,5,5,5
India,Telangana,Hyderabad,"Kokapet, Hyderabad - TSPCB",30-01-2024 11:00:00,17.393559,78.339194,CO,14,30,29
India,Telangana,Hyderabad,"Kompally Municipal Office, Hyderabad - TSPCB",30-01-2024 11:00:00,17.544899,78.486949,PM2.5,37,190,97
India,Telangana,Hyderabad,"Kompally Municipal Office, Hyderabad - TSPCB",30-01-2024 11:00:00,17.544899,78.486949,NH3,4,6,6
India,Telangana,Hyderabad,"Kompally Municipal Office, Hyderabad - TSPCB",30-01-2024 11:00:00,17.544899,78.486949,SO2,1,12,6
India,Telangana,Hyderabad,"Nacharam_TSIIC IALA, Hyderabad - TSPCB",30-01-2024 11:00:00,17.429398,78.569354,NO2,NA,NA,NA
India,Telangana,Hyderabad,"New Malakpet, Hyderabad - TSPCB",30-01-2024 11:00:00,17.37206,78.50864,SO2,15,25,20
India,Telangana,Hyderabad,"Ramachandrapuram, Hyderabad - TSPCB",30-01-2024 11:00:00,17.528544,78.286195,OZONE,1,64,16
India,Telangana,Hyderabad,"Somajiguda, Hyderabad - TSPCB",30-01-2024 11:00:00,17.417094,78.457437,SO2,NA,NA,NA
India,Telangana,Hyderabad,"Somajiguda, Hyderabad - TSPCB",30-01-2024 11:00:00,17.417094,78.457437,OZONE,4,27,9
India,Telangana,Hyderabad,"Zoo Park, Hyderabad - TSPCB",30-01-2024 11:00:00,17.349694,78.451437,NO2,25,48,37
India,Tripura,Agartala,"Bardowali, Agartala - Tripura SPCB",30-01-2024 11:00:00,23.8175497,91.2726974,SO2,24,26,25
India,Tripura,Agartala,"Bardowali, Agartala - Tripura SPCB",30-01-2024 11:00:00,23.8175497,91.2726974,CO,31,105,50
India,Uttar_Pradesh,Agra,"Manoharpur, Agra - UPPCB",30-01-2024 11:00:00,27.23711,78.01936,NH3,1,2,2
India,Uttar_Pradesh,Agra,"Rohta, Agra - UPPCB",30-01-2024 11:00:00,27.106972,78.000111,NH3,1,2,2
India,Uttar_Pradesh,Agra,"Sanjay Palace, Agra - UPPCB",30-01-2024 11:00:00,27.19865833,78.00598056,PM2.5,82,318,194
India,Uttar_Pradesh,Agra,"Sector-3B Avas Vikas Colony, Agra - UPPCB",30-01-2024 11:00:00,27.19412,77.96237,CO,22,109,83
India,Uttar_Pradesh,Agra,"Shahjahan Garden, Agra - UPPCB",30-01-2024 11:00:00,27.169338,78.03582,NO2,34,35,35
India,Uttar_Pradesh,Agra,"Shahjahan Garden, Agra - UPPCB",30-01-2024 11:00:00,27.169338,78.03582,SO2,35,46,40
India,Uttar_Pradesh,Baghpat,"Sardar Patel Inter College, Baghpat - UPPCB",30-01-2024 11:00:00,28.964949,77.278761,PM2.5,75,348,225
India,Uttar_Pradesh,Baghpat,"Sardar Patel Inter College, Baghpat - UPPCB",30-01-2024 11:00:00,28.964949,77.278761,NO2,38,71,53
India,Uttar_Pradesh,Baghpat,"Sardar Patel Inter College, Baghpat - UPPCB",30-01-2024 11:00:00,28.964949,77.278761,NH3,3,5,4
India,Uttar_Pradesh,Baghpat,"Sardar Patel Inter College, Baghpat - UPPCB",30-01-2024 11:00:00,28.964949,77.278761,SO2,2,15,9
India,Uttar_Pradesh,Baghpat,"Sardar Patel Inter College, Baghpat - UPPCB",30-01-2024 11:00:00,28.964949,77.278761,OZONE,1,51,3
India,Uttar_Pradesh,Bareilly,"Rajendra Nagar, Bareilly - UPPCB",30-01-2024 11:00:00,28.38910936,79.42963708,PM2.5,43,179,103
India,Uttar_Pradesh,Bareilly,"Rajendra Nagar, Bareilly - UPPCB",30-01-2024 11:00:00,28.38910936,79.42963708,NH3,1,1,1
India,Uttar_Pradesh,Bareilly,"Rajendra Nagar, Bareilly - UPPCB",30-01-2024 11:00:00,28.38910936,79.42963708,SO2,40,45,42
India,Uttar_Pradesh,Bulandshahr,"Yamunapuram, Bulandshahr - UPPCB",30-01-2024 11:00:00,28.406963,77.849831,PM10,112,306,189
India,Uttar_Pradesh,Bulandshahr,"Yamunapuram, Bulandshahr - UPPCB",30-01-2024 11:00:00,28.406963,77.849831,NH3,7,24,13
India,Uttar_Pradesh,Bulandshahr,"Yamunapuram, Bulandshahr - UPPCB",30-01-2024 11:00:00,28.406963,77.849831,SO2,11,23,17
India,Uttar_Pradesh,Firozabad,"Nagla Bhau, Firozabad - UPPCB",30-01-2024 11:00:00,27.168897,78.376960,PM2.5,79,328,157
India,Uttar_Pradesh,Firozabad,"Vibhab Nagar, Firozabad - UPPCB",30-01-2024 11:00:00,27.1594,78.3953,SO2,NA,NA,NA
India,Uttar_Pradesh,Ghaziabad,"Indirapuram, Ghaziabad - UPPCB",30-01-2024 11:00:00,28.646233,77.358075,PM2.5,138,383,287
India,Uttar_Pradesh,Ghaziabad,"Indirapuram, Ghaziabad - UPPCB",30-01-2024 11:00:00,28.646233,77.358075,NH3,7,9,8
India,Uttar_Pradesh,Ghaziabad,"Loni, Ghaziabad - UPPCB",30-01-2024 11:00:00,28.757294,77.278792,PM10,99,402,234
India,Uttar_Pradesh,Ghaziabad,"Loni, Ghaziabad - UPPCB",30-01-2024 11:00:00,28.757294,77.278792,OZONE,5,94,5
India,Uttar_Pradesh,Ghaziabad,"Vasundhara, Ghaziabad - UPPCB",30-01-2024 11:00:00,28.6603346,77.3572563,PM10,136,388,219
India,Uttar_Pradesh,Ghaziabad,"Vasundhara, Ghaziabad - UPPCB",30-01-2024 11:00:00,28.6603346,77.3572563,NO2,6,159,77
India,Uttar_Pradesh,Ghaziabad,"Vasundhara, Ghaziabad - UPPCB",30-01-2024 11:00:00,28.6603346,77.3572563,NH3,10,19,14
India,Uttar_Pradesh,Greater Noida,"Knowledge Park - III, Greater Noida - UPPCB",30-01-2024 11:00:00,28.47272,77.482000,SO2,NA,NA,NA
India,Uttar_Pradesh,Greater Noida,"Knowledge Park - V, Greater Noida - UPPCB",30-01-2024 11:00:00,28.557054,77.453663,CO,22,170,107
India,Uttar_Pradesh,Hapur,"Anand Vihar, Hapur - UPPCB",30-01-2024 11:00:00,28.725645,77.749675,NH3,8,12,10
India,Uttar_Pradesh,Jhansi,"Shivaji Nagar, Jhansi - UPPCB",30-01-2024 11:00:00,25.4547,78.6039,PM10,129,190,156
India,Uttar_Pradesh,Jhansi,"Shivaji Nagar, Jhansi - UPPCB",30-01-2024 11:00:00,25.4547,78.6039,NO2,17,36,24
India,Uttar_Pradesh,Jhansi,"Shivaji Nagar, Jhansi - UPPCB",30-01-2024 11:00:00,25.4547,78.6039,OZONE,NA,NA,NA
India,Uttar_Pradesh,Kanpur,"FTI Kidwai Nagar, Kanpur - UPPCB",30-01-2024 11:00:00,26.428282,80.327067,PM2.5,54,216,112
India,Uttar_Pradesh,Kanpur,"FTI Kidwai Nagar, Kanpur - UPPCB",30-01-2024 11:00:00,26.428282,80.327067,OZONE,3,6,3
India,Uttar_Pradesh,Kanpur,"NSI Kalyanpur, Kanpur - UPPCB",30-01-2024 11:00:00,26.509954,80.249612,SO2,23,33,25
India,Uttar_Pradesh,Kanpur,"Nehru Nagar, Kanpur - UPPCB",30-01-2024 11:00:00,26.4703136,80.3229863,SO2,2,29,9
India,Uttar_Pradesh,Khurja,"Kalindi Kunj, Khurja - UPPCB",30-01-2024 11:00:00,28.2348927,77.8683002,PM2.5,59,259,140
India,Uttar_Pradesh,Khurja,"Kalindi Kunj, Khurja - UPPCB",30-01-2024 11:00:00,28.2348927,77.8683002,SO2,36,82,49
India,Uttar_Pradesh,Lucknow,"Gomti Nagar, Lucknow - UPPCB",30-01-2024 11:00:00,26.868120,81.005119,PM2.5,61,202,112
India,Uttar_Pradesh,Lucknow,"Kendriya Vidyalaya, Lucknow - CPCB",30-01-2024 11:00:00,26.906111,80.948222,PM2.5,6,345,255
India,Uttar_Pradesh,Lucknow,"Kendriya Vidyalaya, Lucknow - CPCB",30-01-2024 11:00:00,26.906111,80.948222,PM10,129,426,240
India,Uttar_Pradesh,Lucknow,"Kukrail Picnic Spot-1, Lucknow - UPPCB",30-01-2024 11:00:00,26.90723,80.98579,NO2,8,9,8
India,Uttar_Pradesh,Lucknow,"Kukrail Picnic Spot-1, Lucknow - UPPCB",30-01-2024 11:00:00,26.90723,80.98579,SO2,26,30,28
India,Uttar_Pradesh,Lucknow,"Kukrail Picnic Spot-1, Lucknow - UPPCB",30-01-2024 11:00:00,26.90723,80.98579,CO,30,78,66
India,Uttar_Pradesh,Lucknow,"Lalbagh, Lucknow - CPCB",30-01-2024 11:00:00,26.8458805,80.9365541,CO,86,140,117
India,Uttar_Pradesh,Lucknow,"Talkatora District Industries Center, Lucknow - CPCB",30-01-2024 11:00:00,26.83399722,80.8917361,PM2.5,156,412,308
India,Uttar_Pradesh,Lucknow,"Talkatora District Industries Center, Lucknow - CPCB",30-01-2024 11:00:00,26.83399722,80.8917361,PM10,98,445,278
India,Uttar_Pradesh,Meerut,"Ganga Nagar, Meerut - UPPCB",30-01-2024 11:00:00,28.999264,77.7590354,CO,4,105,17
India,Uttar_Pradesh,Meerut,"Jai Bhim Nagar, Meerut - UPPCB",30-01-2024 11:00:00,28.9535882,77.7622941,PM2.5,89,386,227
India,Uttar_Pradesh,Meerut,"Jai Bhim Nagar, Meerut - UPPCB",30-01-2024 11:00:00,28.9535882,77.7622941,NH3,9,15,12
India,Uttar_Pradesh,Meerut,"Jai Bhim Nagar, Meerut - UPPCB",30-01-2024 11:00:00,28.9535882,77.7622941,SO2,2,23,9
India,Uttar_Pradesh,Meerut,"Pallavpuram Phase 2, Meerut - UPPCB",30-01-2024 11:00:00,29.063510,77.709723,NH3,4,20,11
India,Uttar_Pradesh,Moradabad,"Buddhi Vihar, Moradabad - UPPCB",30-01-2024 11:00:00,28.83526,78.74460,NO2,23,24,23
India,Uttar_Pradesh,Moradabad,"Buddhi Vihar, Moradabad - UPPCB",30-01-2024 11:00:00,28.83526,78.74460,CO,46,119,103
India,Uttar_Pradesh,Moradabad,"Employment Office, Moradabad - UPPCB",30-01-2024 11:00:00,28.88528,78.73880,NH3,3,4,4
India,Uttar_Pradesh,Moradabad,"Employment Office, Moradabad - UPPCB",30-01-2024 11:00:00,28.88528,78.73880,OZONE,13,21,13
India,Uttar_Pradesh,Moradabad,"Jigar Colony, Moradabad - UPPCB",30-01-2024 11:00:00,28.856664,78.772638,NH3,5,5,5
India,Uttar_Pradesh,Moradabad,"Kashiram Nagar, Moradabad - UPPCB",30-01-2024 11:00:00,28.849399,78.742362,CO,48,119,105
India,Uttar_Pradesh,Moradabad,"Transport Nagar, Moradabad - UPPCB",30-01-2024 11:00:00,28.802625,78.753728,PM2.5,89,326,224
India,Uttar_Pradesh,Moradabad,"Transport Nagar, Moradabad - UPPCB",30-01-2024 11:00:00,28.802625,78.753728,OZONE,14,25,15
India,Uttar_Pradesh,Muzaffarnagar,"New Mandi, Muzaffarnagar - UPPCB",30-01-2024 11:00:00,29.4723508,77.7194031,PM2.5,187,384,295
India,Uttar_Pradesh,Noida,"Sector - 62, Noida - IMD",30-01-2024 11:00:00,28.6245479,77.3577104,NO2,19,34,23
India,Uttar_Pradesh,Noida,"Sector-1, Noida - UPPCB",30-01-2024 11:00:00,28.5898,77.3101,NO2,50,98,75
India,Uttar_Pradesh,Noida,"Sector-1, Noida - UPPCB",30-01-2024 11:00:00,28.5898,77.3101,NH3,8,16,12
India,Uttar_Pradesh,Noida,"Sector-1, Noida - UPPCB",30-01-2024 11:00:00,28.5898,77.3101,OZONE,1,5,2
India,Uttar_Pradesh,Noida,"Sector-116, Noida - UPPCB",30-01-2024 11:00:00,28.569230,77.393848,PM10,142,378,229
India,Uttar_Pradesh,Noida,"Sector-116, Noida - UPPCB",30-01-2024 11:00:00,28.569230,77.393848,OZONE,1,64,4
India,Uttar_Pradesh,Prayagraj,"Jhunsi, Prayagraj - UPPCB",30-01-2024 11:00:00,25.425602,81.917152,NO2,6,6,6
India,Uttar_Pradesh,Prayagraj,"Jhunsi, Prayagraj - UPPCB",30-01-2024 11:00:00,25.425602,81.917152,SO2,31,33,31
India,Uttar_Pradesh,Prayagraj,"Motilal Nehru NIT, Prayagraj - UPPCB",30-01-2024 11:00:00,25.494,81.863,SO2,24,30,26
India,Uttar_Pradesh,Prayagraj,"Motilal Nehru NIT, Prayagraj - UPPCB",30-01-2024 11:00:00,25.494,81.863,CO,24,60,54
India,Uttar_Pradesh,Varanasi,"Ardhali Bazar, Varanasi - UPPCB",30-01-2024 11:00:00,25.3505986,82.9083074,OZONE,17,29,22
India,Uttar_Pradesh,Varanasi,"Bhelupur, Varanasi - UPPCB",30-01-2024 11:00:00,25.301778,82.996789,SO2,21,22,22
India,Uttar_Pradesh,Varanasi,"IESD Banaras Hindu University, Varanasi - UPPCB",30-01-2024 11:00:00,25.262326,82.995408,SO2,13,14,13
India,Uttar_Pradesh,Varanasi,"IESD Banaras Hindu University, Varanasi - UPPCB",30-01-2024 11:00:00,25.262326,82.995408,CO,36,44,42
India,Uttar_Pradesh,Varanasi,"IESD Banaras Hindu University, Varanasi - UPPCB",30-01-2024 11:00:00,25.262326,82.995408,OZONE,1,3,1
India,Uttar_Pradesh,Varanasi,"Maldahiya, Varanasi - UPPCB",30-01-2024 11:00:00,25.32393,82.99687,PM2.5,29,53,42
India,Uttar_Pradesh,Varanasi,"Maldahiya, Varanasi - UPPCB",30-01-2024 11:00:00,25.32393,82.99687,PM10,43,79,64
India,Uttar_Pradesh,Varanasi,"Maldahiya, Varanasi - UPPCB",30-01-2024 11:00:00,25.32393,82.99687,NH3,1,1,1
India,Uttar_Pradesh,Varanasi,"Maldahiya, Varanasi - UPPCB",30-01-2024 11:00:00,25.32393,82.99687,OZONE,4,9,4
India,Uttar_Pradesh,Vrindavan,"Omex Eternity, Vrindavan - UPPCB",30-01-2024 11:00:00,27.5714090,77.6557570,PM10,50,124,82
India,Uttar_Pradesh,Vrindavan,"Omex Eternity, Vrindavan - UPPCB",30-01-2024 11:00:00,27.5714090,77.6557570,NH3,3,8,4
India,Uttarakhand,Kashipur,"Govt. Girls Inter College, Kashipur - UKPCB",30-01-2024 11:00:00,29.2124114,78.9611753,NO2,NA,NA,NA
India,Uttarakhand,Rishikesh,"Shivaji Nagar, Rishikesh - UKPCB",30-01-2024 11:00:00,30.075911,78.2859547,NH3,3,4,4
India,West_Bengal,Asansol,"Asansol Court Area, Asansol - WBPCB",30-01-2024 11:00:00,23.685297,86.945968,NO2,31,104,53
India,West_Bengal,Asansol,"Asansol Court Area, Asansol - WBPCB",30-01-2024 11:00:00,23.685297,86.945968,SO2,11,31,18
India,West_Bengal,Asansol,"Asansol Court Area, Asansol - WBPCB",30-01-2024 11:00:00,23.685297,86.945968,CO,2,70,27
India,West_Bengal,Haldia,"Priyambada Housing Estate, Haldia - WBPCB",30-01-2024 11:00:00,22.06047,88.109737,CO,37,68,48
India,West_Bengal,Howrah,"Belur Math, Howrah - WBPCB",30-01-2024 11:00:00,22.629801,88.352017,NH3,4,7,6
India,West_Bengal,Howrah,"Belur Math, Howrah - WBPCB",30-01-2024 11:00:00,22.629801,88.352017,SO2,8,17,11
India,West_Bengal,Howrah,"Ghusuri, Howrah - WBPCB",30-01-2024 11:00:00,22.611968,88.347422,PM10,139,434,246
India,West_Bengal,Howrah,"Padmapukur, Howrah - WBPCB",30-01-2024 11:00:00,22.5687319,88.2797276,CO,21,93,55
India,West_Bengal,Kolkata,"Ballygunge, Kolkata - WBPCB",30-01-2024 11:00:00,22.5367507,88.3638022,PM2.5,121,255,198
India,West_Bengal,Kolkata,"Ballygunge, Kolkata - WBPCB",30-01-2024 11:00:00,22.5367507,88.3638022,PM10,119,168,144
India,West_Bengal,Kolkata,"Ballygunge, Kolkata - WBPCB",30-01-2024 11:00:00,22.5367507,88.3638022,NO2,26,119,70
India,West_Bengal,Kolkata,"Ballygunge, Kolkata - WBPCB",30-01-2024 11:00:00,22.5367507,88.3638022,NH3,9,14,11
India,West_Bengal,Kolkata,"Ballygunge, Kolkata - WBPCB",30-01-2024 11:00:00,22.5367507,88.3638022,OZONE,14,104,35
India,West_Bengal,Kolkata,"Bidhannagar, Kolkata - WBPCB",30-01-2024 11:00:00,22.58157048,88.41002457,PM10,112,200,154
India,West_Bengal,Kolkata,"Fort William, Kolkata - WBPCB",30-01-2024 11:00:00,22.556640,88.342674,PM10,93,174,145
India,West_Bengal,Kolkata,"Fort William, Kolkata - WBPCB",30-01-2024 11:00:00,22.556640,88.342674,NH3,7,12,9
India,West_Bengal,Kolkata,"Jadavpur, Kolkata - WBPCB",30-01-2024 11:00:00,22.49929,88.36917,PM2.5,162,308,250
India,West_Bengal,Kolkata,"Jadavpur, Kolkata - WBPCB",30-01-2024 11:00:00,22.49929,88.36917,NO2,5,28,9
India,West_Bengal,Kolkata,"Rabindra Bharati University, Kolkata - WBPCB",30-01-2024 11:00:00,22.627847,88.380669,PM10,105,170,134
India,West_Bengal,Kolkata,"Victoria, Kolkata - WBPCB",30-01-2024 11:00:00,22.5448082,88.3403691,PM10,122,158,143
India,West_Bengal,Kolkata,"Victoria, Kolkata - WBPCB",30-01-2024 11:00:00,22.5448082,88.3403691,OZONE,4,184,26
India,Andhra_Pradesh,Amaravati,"Secretariat, Amaravati - APPCB",30-01-2024 11:00:00,16.5150833,80.5181667,PM2.5,81,137,107
India,Andhra_Pradesh,Anantapur,"Gulzarpet, Anantapur - APPCB",30-01-2024 11:00:00,14.675886,77.593027,NO2,NA,NA,NA
India,Andhra_Pradesh,Anantapur,"Gulzarpet, Anantapur - APPCB",30-01-2024 11:00:00,14.675886,77.593027,SO2,3,14,6
India,Andhra_Pradesh,Chittoor,"Gangineni Cheruvu, Chittoor - APPCB",30-01-2024 11:00:00,13.204880,79.097889,PM10,42,98,57
India,Andhra_Pradesh,Chittoor,"Gangineni Cheruvu, Chittoor - APPCB",30-01-2024 11:00:00,13.204880,79.097889,NO2,9,28,14
India,Andhra_Pradesh,Chittoor,"Gangineni Cheruvu, Chittoor - APPCB",30-01-2024 11:00:00,13.204880,79.097889,CO,NA,NA,NA
India,Andhra_Pradesh,Rajamahendravaram,"Anand Kala Kshetram, Rajamahendravaram - APPCB",30-01-2024 11:00:00,16.9872867,81.7363176,PM10,118,148,134
India,Andhra_Pradesh,Tirupati,"Tirumala, Tirupati - APPCB",30-01-2024 11:00:00,13.67,79.35,PM10,52,100,74
India,Andhra_Pradesh,Tirupati,"Tirumala, Tirupati - APPCB",30-01-2024 11:00:00,13.67,79.35,NO2,41,80,61
India,Andhra_Pradesh,Tirupati,"Vaikuntapuram, Tirupati - APPCB",30-01-2024 11:00:00,13.615387,79.409230,NH3,2,3,3
India,Andhra_Pradesh,Vijayawada,"HB Colony, Vijayawada - APPCB",30-01-2024 11:00:00,16.536107,80.594233,NO2,NA,NA,NA
India,Andhra_Pradesh,Vijayawada,"Rajiv Gandhi Park, Vijayawada - APPCB",30-01-2024 11:00:00,16.509717,80.612222,NH3,NA,NA,NA
India,Andhra_Pradesh,Vijayawada,"Rajiv Gandhi Park, Vijayawada - APPCB",30-01-2024 11:00:00,16.509717,80.612222,SO2,NA,NA,NA
India,Andhra_Pradesh,Visakhapatnam,"GVM Corporation, Visakhapatnam - APPCB",30-01-2024 11:00:00,17.72,83.3,PM2.5,75,305,170
India,Arunachal_Pradesh,Naharlagun,"Naharlagun, Naharlagun - APSPCB",30-01-2024 11:00:00,27.103358,93.679645,OZONE,NA,NA,NA
India,Assam,Byrnihat,"Central Academy for SFS, Byrnihat - PCBA",30-01-2024 11:00:00,26.071318,91.87488,PM2.5,80,500,316
India,Assam,Byrnihat,"Central Academy for SFS, Byrnihat - PCBA",30-01-2024 11:00:00,26.071318,91.87488,NH3,1,5,4
India,Assam,Guwahati,"LGBI Airport, Guwahati - PCBA",30-01-2024 11:00:00,26.10887,91.589544,SO2,11,13,12
India,Assam,Guwahati,"Pan Bazaar, Guwahati - PCBA",30-01-2024 11:00:00,26.187500,91.744194,PM2.5,59,330,230
India,Assam,Guwahati,"Railway Colony, Guwahati - PCBA",30-01-2024 11:00:00,26.181742,91.78063,CO,19,114,82
India,Assam,Nagaon,"Christianpatty, Nagaon - PCBA",30-01-2024 11:00:00,26.349082,92.68449,PM10,92,466,218
India,Assam,Nagaon,"Christianpatty, Nagaon - PCBA",30-01-2024 11:00:00,26.349082,92.68449,NH3,2,12,4
India,Assam,Nagaon,"Christianpatty, Nagaon - PCBA",30-01-2024 11:00:00,26.349082,92.68449,SO2,NA,NA,NA
India,Assam,Nalbari,"Bata Chowk, Nalbari - PCBA",30-01-2024 11:00:00,26.446912,91.439057,PM2.5,60,449,275
India,Assam,Nalbari,"Bata Chowk, Nalbari - PCBA",30-01-2024 11:00:00,26.446912,91.439057,NO2,17,62,39
India,Assam,Nalbari,"Bata Chowk, Nalbari - PCBA",30-01-2024 11:00:00,26.446912,91.439057,SO2,5,34,13
India,Assam,Silchar,"Tarapur, Silchar - PCBA",30-01-2024 11:00:00,24.82827,92.79525,PM10,46,55,51
India,Assam,Silchar,"Tarapur, Silchar - PCBA",30-01-2024 11:00:00,24.82827,92.79525,NH3,1,1,1
India,Assam,Silchar,"Tarapur, Silchar - PCBA",30-01-2024 11:00:00,24.82827,92.79525,OZONE,NA,NA,NA
India,Assam,Sivasagar,"Girls College, Sivasagar - PCBA",30-01-2024 11:00:00,26.987634,94.636574,PM2.5,26,57,42
India,Assam,Sivasagar,"Girls College, Sivasagar - PCBA",30-01-2024 11:00:00,26.987634,94.636574,PM10,36,89,61
India,Assam,Sivasagar,"Girls College, Sivasagar - PCBA",30-01-2024 11:00:00,26.987634,94.636574,NO2,16,33,24
India,Bihar,Araria,"Kharahiya Basti, Araria - BSPCB",30-01-2024 11:00:00,26.146529,87.454184,PM2.5,NA,NA,NA
India,Bihar,Araria,"Kharahiya Basti, Araria - BSPCB",30-01-2024 11:00:00,26.146529,87.454184,PM10,NA,NA,NA
India,Bihar,Araria,"Kharahiya Basti, Araria - BSPCB",30-01-2024 11:00:00,26.146529,87.454184,NO2,6,22,9
India,Bihar,Araria,"Kharahiya Basti, Araria - BSPCB",30-01-2024 11:00:00,26.146529,87.454184,NH3,6,9,7
India,Bihar,Arrah,"New DM Office, Arrah - BSPCB",30-01-2024 11:00:00,25.5626095,84.663264,SO2,16,20,18
India,Bihar,Aurangabad,"Gurdeo Nagar, Aurangabad - BSPCB",30-01-2024 11:00:00,24.75746,84.366208,PM10,149,424,245
India,Bihar,Aurangabad,"Gurdeo Nagar, Aurangabad - BSPCB",30-01-2024 11:00:00,24.75746,84.366208,NO2,9,17,11
India,Bihar,Aurangabad,"Gurdeo Nagar, Aurangabad - BSPCB",30-01-2024 11:00:00,24.75746,84.366208,CO,64,84,70
India,Bihar,Bettiah,"Kamalnath Nagar, Bettiah - BSPCB",30-01-2024 11:00:00,26.80365,84.51954,NO2,NA,NA,NA
India,Bihar,Bhagalpur,"DM Office_Kachari Chowk, Bhagalpur - BSPCB",30-01-2024 11:00:00,25.251013,86.989001,NO2,45,155,75
India,Bihar,Bhagalpur,"Mayaganj, Bhagalpur - BSPCB",30-01-2024 11:00:00,25.265194,87.012947,PM2.5,315,481,394
India,Bihar,Bihar Sharif,"D M Colony, Bihar Sharif - BSPCB",30-01-2024 11:00:00,25.204762,85.514960,PM10,115,263,179
India,Bihar,Bihar Sharif,"D M Colony, Bihar Sharif - BSPCB",30-01-2024 11:00:00,25.204762,85.514960,SO2,2,16,7
India,Bihar,Chhapra,"Darshan Nagar, Chhapra - BSPCB",30-01-2024 11:00:00,25.7808257,84.7446768,PM2.5,280,424,356
India,Bihar,Gaya,"Collectorate, Gaya - BSPCB",30-01-2024 11:00:00,24.7955,84.9994,PM2.5,27,411,276
India,Bihar,Gaya,"Kareemganj, Gaya - BSPCB",30-01-2024 11:00:00,24.792403,84.992416,PM10,102,297,193
India,Bihar,Gaya,"Kareemganj, Gaya - BSPCB",30-01-2024 11:00:00,24.792403,84.992416,OZONE,3,31,19
India,Bihar,Gaya,"SFTI Kusdihra, Gaya - BSPCB",30-01-2024 11:00:00,24.762518,84.982348,PM2.5,NA,NA,NA
India,Bihar,Hajipur,"Industrial Area, Hajipur - BSPCB",30-01-2024 11:00:00,25.697189,85.245900,PM10,14,285,203
India,Bihar,Hajipur,"Industrial Area, Hajipur - BSPCB",30-01-2024 11:00:00,25.697189,85.245900,SO2,5,7,6
India,Bihar,Manguraha,"Forest Rest House, Manguraha - BSPCB",30-01-2024 11:00:00,27.308328,84.531742,PM2.5,67,301,125
India,Bihar,Manguraha,"Forest Rest House, Manguraha - BSPCB",30-01-2024 11:00:00,27.308328,84.531742,NH3,2,3,2
India,Bihar,Motihari,"Gandak Colony, Motihari - BSPCB",30-01-2024 11:00:00,26.63086,84.90051,PM10,110,319,178
India,Bihar,Motihari,"Gandak Colony, Motihari - BSPCB",30-01-2024 11:00:00,26.63086,84.90051,NH3,10,23,15
India,Bihar,Motihari,"Gandak Colony, Motihari - BSPCB",30-01-2024 11:00:00,26.63086,84.90051,OZONE,15,78,35
India,Bihar,Muzaffarpur,"Muzaffarpur Collectorate, Muzaffarpur - BSPCB",30-01-2024 11:00:00,26.1209,85.3647,PM2.5,98,470,301
India,Bihar,Muzaffarpur,"Muzaffarpur Collectorate, Muzaffarpur - BSPCB",30-01-2024 11:00:00,26.1209,85.3647,CO,24,76,73
India,Bihar,Patna,"DRM Office Danapur, Patna - BSPCB",30-01-2024 11:00:00,25.586562,85.043586,NO2,1,74,34
India,Bihar,Patna,"DRM Office Danapur, Patna - BSPCB",30-01-2024 11:00:00,25.586562,85.043586,SO2,7,12,8
India,Bihar,Patna,"Muradpur, Patna - BSPCB",30-01-2024 11:00:00,25.619651,85.147382,PM10,305,495,419
India,Bihar,Patna,"Muradpur, Patna - BSPCB",30-01-2024 11:00:00,25.619651,85.147382,SO2,3,20,9
India,Bihar,Patna,"Samanpura, Patna - BSPCB",30-01-2024 11:00:00,25.596727,85.085624,CO,82,136,110
India,Bihar,Purnia,"Mariam Nagar, Purnia - BSPCB",30-01-2024 11:00:00,25.366336,87.117468,SO2,10,30,21
India,Bihar,Rajgir,"Dangi Tola, Rajgir - BSPCB",30-01-2024 11:00:00,25.03280,85.41948,PM10,155,461,215
India,Bihar,Rajgir,"Dangi Tola, Rajgir - BSPCB",30-01-2024 11:00:00,25.03280,85.41948,NO2,1,1,1
India,Bihar,Rajgir,"Dangi Tola, Rajgir - BSPCB",30-01-2024 11:00:00,25.03280,85.41948,OZONE,21,26,23
India,Bihar,Saharsa,"Police Line, Saharsa - BSPCB",30-01-2024 11:00:00,25.892357,86.590325,SO2,9,32,19
India,Bihar,Samastipur,"DM Office_Kasipur, Samastipur - BSPCB",30-01-2024 11:00:00,25.859655,85.77944,PM10,NA,NA,NA
India,Bihar,Samastipur,"DM Office_Kasipur, Samastipur - BSPCB",30-01-2024 11:00:00,25.859655,85.77944,NO2,2,7,5
India,Bihar,Samastipur,"DM Office_Kasipur, Samastipur - BSPCB",30-01-2024 11:00:00,25.859655,85.77944,NH3,4,5,5
India,Bihar,Samastipur,"DM Office_Kasipur, Samastipur - BSPCB",30-01-2024 11:00:00,25.859655,85.77944,CO,13,28,20
India,Bihar,Siwan,"Chitragupta Nagar, Siwan - BSPCB",30-01-2024 11:00:00,26.2271665,84.3570427,PM10,99,257,162
India,Bihar,Siwan,"Chitragupta Nagar, Siwan - BSPCB",30-01-2024 11:00:00,26.2271665,84.3570427,NO2,19,160,52
India,Bihar,Siwan,"Chitragupta Nagar, Siwan - BSPCB",30-01-2024 11:00:00,26.2271665,84.3570427,NH3,1,36,8
India,Chandigarh,Chandigarh,"Sector-25, Chandigarh - CPCC",30-01-2024 11:00:00,30.751462,76.762879,SO2,1,36,13
India,Chandigarh,Chandigarh,"Sector-53, Chandigarh - CPCC",30-01-2024 11:00:00,30.719859,76.738637,SO2,NA,NA,NA
India,Chhattisgarh,Bhilai,"32Bungalows, Bhilai - CECB",30-01-2024 11:00:00,21.194815,81.314770,NO2,19,32,25
India,Chhattisgarh,Bhilai,"32Bungalows, Bhilai - CECB",30-01-2024 11:00:00,21.194815,81.314770,SO2,3,6,4
India,Chhattisgarh,Bhilai,"Civic Center, Bhilai - Bhilai Steel Plant",30-01-2024 11:00:00,21.185571,81.343175,PM2.5,NA,NA,NA
India,Chhattisgarh,Bhilai,"Civic Center, Bhilai - Bhilai Steel Plant",30-01-2024 11:00:00,21.185571,81.343175,OZONE,7,48,11
India,Chhattisgarh,Bilaspur,"Mangala, Bilaspur - NTPC",30-01-2024 11:00:00,22.08815,82.13737,PM2.5,5,188,43
India,Chhattisgarh,Chhal,"Nawapara SECL Colony, Chhal - CECB",30-01-2024 11:00:00,22.118125,83.140608,PM10,57,123,102
India,Chhattisgarh,Korba,"Rampur, Korba - CECB",30-01-2024 11:00:00,22.368195,82.746431,SO2,14,43,21
India,Chhattisgarh,Korba,"Rampur, Korba - CECB",30-01-2024 11:00:00,22.368195,82.746431,OZONE,2,41,7
India,Chhattisgarh,Kunjemura,"OP Jindal School, Kunjemura - CECB",30-01-2024 11:00:00,22.126650,83.483212,OZONE,3,68,5
India,Chhattisgarh,Milupara,"Govt. Higher Secondary School, Milupara - CECB",30-01-2024 11:00:00,22.1910172,83.5197009,PM10,51,141,86
India,Chhattisgarh,Milupara,"Govt. Higher Secondary School, Milupara - CECB",30-01-2024 11:00:00,22.1910172,83.5197009,NO2,16,95,43
India,Chhattisgarh,Milupara,"Govt. Higher Secondary School, Milupara - CECB",30-01-2024 11:00:00,22.1910172,83.5197009,SO2,10,85,26
India,Chhattisgarh,Raipur,"AIIMS, Raipur - CECB",30-01-2024 11:00:00,21.258815,81.578979,NO2,52,71,60
India,Chhattisgarh,Raipur,"AIIMS, Raipur - CECB",30-01-2024 11:00:00,21.258815,81.578979,SO2,7,30,10
India,Chhattisgarh,Raipur,"Bhatagaon New ISBT, Raipur - CECB",30-01-2024 11:00:00,21.219665,81.630094,OZONE,3,10,3
India,Chhattisgarh,Raipur,"Krishak Nagar, Raipur - CECB",30-01-2024 11:00:00,21.237755,81.705301,PM2.5,46,100,64
India,Chhattisgarh,Raipur,"Krishak Nagar, Raipur - CECB",30-01-2024 11:00:00,21.237755,81.705301,PM10,47,114,71
India,Chhattisgarh,Raipur,"Krishak Nagar, Raipur - CECB",30-01-2024 11:00:00,21.237755,81.705301,NH3,1,1,1
India,Chhattisgarh,Raipur,"Siltara Phase-II, Raipur - CECB",30-01-2024 11:00:00,21.371751,81.664929,CO,40,101,91
India,Chhattisgarh,Tumidih,"OP Jindal Industrial Park, Tumidih - CECB",30-01-2024 11:00:00,22.06631475,83.33820077,PM2.5,55,316,132
India,Chhattisgarh,Tumidih,"OP Jindal Industrial Park, Tumidih - CECB",30-01-2024 11:00:00,22.06631475,83.33820077,PM10,56,451,164
India,Chhattisgarh,Tumidih,"OP Jindal Industrial Park, Tumidih - CECB",30-01-2024 11:00:00,22.06631475,83.33820077,NO2,18,55,31
India,Chhattisgarh,Tumidih,"OP Jindal Industrial Park, Tumidih - CECB",30-01-2024 11:00:00,22.06631475,83.33820077,CO,32,103,45
India,Delhi,Delhi,"Anand Vihar, Delhi - DPCC",30-01-2024 11:00:00,28.647622,77.3158090,PM2.5,329,485,397
India,Delhi,Delhi,"Anand Vihar, Delhi - DPCC",30-01-2024 11:00:00,28.647622,77.3158090,NH3,8,18,12
India,Delhi,Delhi,"Ashok Vihar, Delhi - DPCC",30-01-2024 11:00:00,28.695381,77.181665,SO2,17,26,21
India,Delhi,Delhi,"Ashok Vihar, Delhi - DPCC",30-01-2024 11:00:00,28.695381,77.181665,OZONE,4,21,5
India,Delhi,Delhi,"Aya Nagar, Delhi - IMD",30-01-2024 11:00:00,28.4706914,77.1099364,CO,92,106,104
India,Delhi,Delhi,"Bawana, Delhi - DPCC",30-01-2024 11:00:00,28.776200,77.051074,PM2.5,183,453,340
India,Delhi,Delhi,"Bawana, Delhi - DPCC",30-01-2024 11:00:00,28.776200,77.051074,NO2,19,75,45
India,Delhi,Delhi,"Bawana, Delhi - DPCC",30-01-2024 11:00:00,28.776200,77.051074,OZONE,3,82,5
India,Delhi,Delhi,"Burari Crossing, Delhi - IMD",30-01-2024 11:00:00,28.7256504,77.2011573,PM2.5,220,498,358
India,Delhi,Delhi,"Burari Crossing, Delhi - IMD",30-01-2024 11:00:00,28.7256504,77.2011573,NO2,4,46,11
India,Delhi,Delhi,"DTU, Delhi - CPCB",30-01-2024 11:00:00,28.7500499,77.1112615,OZONE,26,30,26
India,Delhi,Delhi,"Dr. Karni Singh Shooting Range, Delhi - DPCC",30-01-2024 11:00:00,28.498571,77.264840,PM10,168,416,317
India,Delhi,Delhi,"IGI Airport (T3), Delhi - IMD",30-01-2024 11:00:00,28.5627763,77.1180053,CO,32,109,105
India,Delhi,Delhi,"IGI Airport (T3), Delhi - IMD",30-01-2024 11:00:00,28.5627763,77.1180053,OZONE,11,50,11
India,Delhi,Delhi,"ITO, Delhi - CPCB",30-01-2024 11:00:00,28.628624,77.241060,PM10,133,354,216
India,Delhi,Delhi,"ITO, Delhi - CPCB",30-01-2024 11:00:00,28.628624,77.241060,SO2,4,32,21
India,Delhi,Delhi,"ITO, Delhi - CPCB",30-01-2024 11:00:00,28.628624,77.241060,CO,32,54,44
India,Delhi,Delhi,"Jawaharlal Nehru Stadium, Delhi - DPCC",30-01-2024 11:00:00,28.580280,77.233829,PM2.5,257,425,353
India,Delhi,Delhi,"Jawaharlal Nehru Stadium, Delhi - DPCC",30-01-2024 11:00:00,28.580280,77.233829,SO2,1,33,11
India,Delhi,Delhi,"Lodhi Road, Delhi - IITM",30-01-2024 11:00:00,28.588333,77.221667,PM2.5,NA,NA,NA
India,Delhi,Delhi,"Major Dhyan Chand National Stadium, Delhi - DPCC",30-01-2024 11:00:00,28.611281,77.237738,PM2.5,346,460,395
India,Delhi,Delhi,"Major Dhyan Chand National Stadium, Delhi - DPCC",30-01-2024 11:00:00,28.611281,77.237738,NO2,52,170,83
India,Delhi,Delhi,"Major Dhyan Chand National Stadium, Delhi - DPCC",30-01-2024 11:00:00,28.611281,77.237738,CO,20,125,38
India,Delhi,Delhi,"Mandir Marg, Delhi - DPCC",30-01-2024 11:00:00,28.636429,77.201067,NO2,92,138,118
India,Delhi,Delhi,"Mundka, Delhi - DPCC",30-01-2024 11:00:00,28.684678,77.076574,PM10,145,406,280
India,Delhi,Delhi,"Mundka, Delhi - DPCC",30-01-2024 11:00:00,28.684678,77.076574,NO2,34,90,61
India,Delhi,Delhi,"Mundka, Delhi - DPCC",30-01-2024 11:00:00,28.684678,77.076574,SO2,3,16,6
India,Delhi,Delhi,"Mundka, Delhi - DPCC",30-01-2024 11:00:00,28.684678,77.076574,CO,64,91,73
India,Delhi,Delhi,"NSIT Dwarka, Delhi - CPCB",30-01-2024 11:00:00,28.60909,77.0325413,OZONE,16,69,18
India,Delhi,Delhi,"Najafgarh, Delhi - DPCC",30-01-2024 11:00:00,28.570173,76.933762,PM2.5,150,354,292
India,Delhi,Delhi,"Najafgarh, Delhi - DPCC",30-01-2024 11:00:00,28.570173,76.933762,NH3,4,28,7
India,Delhi,Delhi,"Narela, Delhi - DPCC",30-01-2024 11:00:00,28.822836,77.101981,PM10,127,453,282
India,Delhi,Delhi,"Narela, Delhi - DPCC",30-01-2024 11:00:00,28.822836,77.101981,NO2,18,76,45
India,Delhi,Delhi,"Nehru Nagar, Delhi - DPCC",30-01-2024 11:00:00,28.567890,77.250515,PM10,248,500,364
India,Delhi,Delhi,"New Moti Bagh, Delhi - MHUA",30-01-2024 11:00:00,28.57834,77.18400,CO,71,108,81
India,Delhi,Delhi,"Okhla Phase-2, Delhi - DPCC",30-01-2024 11:00:00,28.530785,77.271255,PM10,252,461,354
India,Delhi,Delhi,"Okhla Phase-2, Delhi - DPCC",30-01-2024 11:00:00,28.530785,77.271255,NO2,49,121,75
India,Delhi,Delhi,"Patparganj, Delhi - DPCC",30-01-2024 11:00:00,28.623763,77.287209,PM2.5,340,488,388
India,Delhi,Delhi,"Patparganj, Delhi - DPCC",30-01-2024 11:00:00,28.623763,77.287209,PM10,250,483,344
India,Delhi,Delhi,"Patparganj, Delhi - DPCC",30-01-2024 11:00:00,28.623763,77.287209,NH3,8,15,12
India,Delhi,Delhi,"Patparganj, Delhi - DPCC",30-01-2024 11:00:00,28.623763,77.287209,CO,48,115,56
India,Delhi,Delhi,"Punjabi Bagh, Delhi - DPCC",30-01-2024 11:00:00,28.674045,77.131023,SO2,7,12,9
India,Delhi,Delhi,"Pusa, Delhi - DPCC",30-01-2024 11:00:00,28.639652,77.146275,NO2,131,405,228
India,Delhi,Delhi,"Pusa, Delhi - IMD",30-01-2024 11:00:00,28.636110,77.173332,PM2.5,106,391,285
India,Delhi,Delhi,"Pusa, Delhi - IMD",30-01-2024 11:00:00,28.636110,77.173332,PM10,88,373,204
India,Delhi,Delhi,"R K Puram, Delhi - DPCC",30-01-2024 11:00:00,28.563262,77.186937,PM10,158,438,317
India,Delhi,Delhi,"R K Puram, Delhi - DPCC",30-01-2024 11:00:00,28.563262,77.186937,CO,92,135,101
India,Delhi,Delhi,"Shadipur, Delhi - CPCB",30-01-2024 11:00:00,28.6514781,77.1473105,PM10,186,469,352
India,Delhi,Delhi,"Shadipur, Delhi - CPCB",30-01-2024 11:00:00,28.6514781,77.1473105,SO2,8,19,14
India,Delhi,Delhi,"Shadipur, Delhi - CPCB",30-01-2024 11:00:00,28.6514781,77.1473105,CO,42,108,69
India,Delhi,Delhi,"Sri Aurobindo Marg, Delhi - DPCC",30-01-2024 11:00:00,28.531346,77.190156,NH3,10,13,12
India,Delhi,Delhi,"Sri Aurobindo Marg, Delhi - DPCC",30-01-2024 11:00:00,28.531346,77.190156,SO2,9,18,13
India,Delhi,Delhi,"Vivek Vihar, Delhi - DPCC",30-01-2024 11:00:00,28.672342,77.315260,CO,56,119,70
India,Delhi,Delhi,"Wazirpur, Delhi - DPCC",30-01-2024 11:00:00,28.699793,77.165453,PM2.5,322,471,393
India,Delhi,Delhi,"Wazirpur, Delhi - DPCC",30-01-2024 11:00:00,28.699793,77.165453,CO,4,81,34
India,Gujarat,Ahmedabad,"Chandkheda, Ahmedabad - IITM",30-01-2024 11:00:00,23.107969,72.574648,PM2.5,62,223,107
India,Gujarat,Ahmedabad,"Chandkheda, Ahmedabad - IITM",30-01-2024 11:00:00,23.107969,72.574648,PM10,68,144,98
India,Gujarat,Ahmedabad,"Chandkheda, Ahmedabad - IITM",30-01-2024 11:00:00,23.107969,72.574648,CO,2,50,35
India,Gujarat,Ahmedabad,"Gyaspur, Ahmedabad - IITM",30-01-2024 11:00:00,22.977134,72.553024,NH3,4,4,4
India,Gujarat,Ahmedabad,"Maninagar, Ahmedabad - GPCB",30-01-2024 11:00:00,23.002657,72.591912,OZONE,4,82,28
India,Gujarat,Ahmedabad,"Raikhad, Ahmedabad - IITM",30-01-2024 11:00:00,23.020509,72.579261,SO2,11,11,11
India,Gujarat,Ahmedabad,"SAC ISRO Bopal, Ahmedabad - IITM",30-01-2024 11:00:00,23.041137,72.456691,PM10,49,194,100
India,Gujarat,Ahmedabad,"SAC ISRO Bopal, Ahmedabad - IITM",30-01-2024 11:00:00,23.041137,72.456691,NH3,2,3,3
India,Gujarat,Ahmedabad,"SAC ISRO Bopal, Ahmedabad - IITM",30-01-2024 11:00:00,23.041137,72.456691,SO2,13,15,15
India,Gujarat,Ahmedabad,"SAC ISRO Bopal, Ahmedabad - IITM",30-01-2024 11:00:00,23.041137,72.456691,CO,42,62,49
India,Gujarat,Ahmedabad,"SAC ISRO Bopal, Ahmedabad - IITM",30-01-2024 11:00:00,23.041137,72.456691,OZONE,13,16,13
India,Gujarat,Ahmedabad,"SAC ISRO Satellite, Ahmedabad - IITM",30-01-2024 11:00:00,23.023389,72.515201,PM2.5,87,187,135
India,Gujarat,Ahmedabad,"SAC ISRO Satellite, Ahmedabad - IITM",30-01-2024 11:00:00,23.023389,72.515201,OZONE,3,17,8
India,Gujarat,Ahmedabad,"SVPI Airport Hansol, Ahmedabad - IITM",30-01-2024 11:00:00,23.076793,72.627874,PM2.5,69,219,135
India,Gujarat,Ahmedabad,"SVPI Airport Hansol, Ahmedabad - IITM",30-01-2024 11:00:00,23.076793,72.627874,PM10,64,134,103
India,Gujarat,Ahmedabad,"SVPI Airport Hansol, Ahmedabad - IITM",30-01-2024 11:00:00,23.076793,72.627874,SO2,21,26,23
India,Gujarat,Ankleshwar,"GIDC, Ankleshwar - GPCB",30-01-2024 11:00:00,21.613267,73.010555,PM2.5,68,238,135
India,Gujarat,Gandhinagar,"Sector-10, Gandhinagar - GPCB",30-01-2024 11:00:00,23.221714,72.654328,PM2.5,26,63,44
India,Gujarat,Gandhinagar,"Sector-10, Gandhinagar - GPCB",30-01-2024 11:00:00,23.221714,72.654328,NO2,5,12,8
India,Gujarat,Gandhinagar,"Sector-10, Gandhinagar - GPCB",30-01-2024 11:00:00,23.221714,72.654328,OZONE,1,39,3
India,Gujarat,Vapi,"Phase-1 GIDC, Vapi - GPCB",30-01-2024 11:00:00,20.362421,72.918013,OZONE,1,6,2
India,Gujarat,Vatva,"Phase-4 GIDC, Vatva - GPCB",30-01-2024 11:00:00,22.969611,72.643500,PM10,62,111,87
India,Gujarat,Vatva,"Phase-4 GIDC, Vatva - GPCB",30-01-2024 11:00:00,22.969611,72.643500,NO2,41,136,87
India,Gujarat,Vatva,"Phase-4 GIDC, Vatva - GPCB",30-01-2024 11:00:00,22.969611,72.643500,NH3,1,2,1
India,Gujarat,Vatva,"Phase-4 GIDC, Vatva - GPCB",30-01-2024 11:00:00,22.969611,72.643500,CO,38,40,40
India,Haryana,Ambala,"Patti Mehar, Ambala - HSPCB",30-01-2024 11:00:00,30.379589,76.778328,PM2.5,59,180,110
India,Haryana,Ambala,"Patti Mehar, Ambala - HSPCB",30-01-2024 11:00:00,30.379589,76.778328,OZONE,19,40,32
India,Haryana,Bahadurgarh,"Arya Nagar, Bahadurgarh - HSPCB",30-01-2024 11:00:00,28.6701,76.9254,PM2.5,67,337,241
India,Haryana,Bahadurgarh,"Arya Nagar, Bahadurgarh - HSPCB",30-01-2024 11:00:00,28.6701,76.9254,OZONE,38,46,43
India,Haryana,Ballabgarh,"Nathu Colony, Ballabgarh - HSPCB",30-01-2024 11:00:00,28.3419248,77.319699,PM2.5,176,400,306
India,Haryana,Ballabgarh,"Nathu Colony, Ballabgarh - HSPCB",30-01-2024 11:00:00,28.3419248,77.319699,OZONE,1,23,1
India,Haryana,Dharuhera,"Municipal Corporation Office, Dharuhera -  HSPCB",30-01-2024 11:00:00,28.206800,76.799700,NH3,9,26,18
India,Haryana,Dharuhera,"Municipal Corporation Office, Dharuhera -  HSPCB",30-01-2024 11:00:00,28.206800,76.799700,OZONE,11,63,13
India,Haryana,Faridabad,"New Industrial Town, Faridabad - HSPCB",30-01-2024 11:00:00,28.39072,77.30059,PM2.5,266,500,380
India,Haryana,Faridabad,"New Industrial Town, Faridabad - HSPCB",30-01-2024 11:00:00,28.39072,77.30059,PM10,180,500,368
India,Haryana,Faridabad,"New Industrial Town, Faridabad - HSPCB",30-01-2024 11:00:00,28.39072,77.30059,OZONE,3,152,49
India,Haryana,Faridabad,"Sector 11, Faridabad - HSPCB",30-01-2024 11:00:00,28.376058,77.315741,PM2.5,83,335,224
India,Haryana,Faridabad,"Sector 11, Faridabad - HSPCB",30-01-2024 11:00:00,28.376058,77.315741,PM10,NA,NA,NA
India,Haryana,Faridabad,"Sector 30, Faridabad - HSPCB",30-01-2024 11:00:00,28.4417,77.3217,NO2,30,33,31
India,Haryana,Gurugram,"NISE Gwal Pahari, Gurugram - IMD",30-01-2024 11:00:00,28.422681,77.148944,PM10,16,303,179
India,Haryana,Gurugram,"Sector-51, Gurugram - HSPCB",30-01-2024 11:00:00,28.4227,77.0667,SO2,3,4,3
India,Haryana,Gurugram,"Vikas Sadan, Gurugram - HSPCB",30-01-2024 11:00:00,28.4501238,77.0263051,OZONE,8,68,14
India,Haryana,Hisar,"Urban Estate-II, Hisar - HSPCB",30-01-2024 11:00:00,29.140560,75.744941,CO,40,98,48
India,Haryana,Jind,"Police Lines, Jind - HSPCB",30-01-2024 11:00:00,29.307814,76.337619,NH3,2,5,3
India,Haryana,Jind,"Police Lines, Jind - HSPCB",30-01-2024 11:00:00,29.307814,76.337619,CO,2,158,28
India,Haryana,Kaithal,"Rishi Nagar, Kaithal - HSPCB",30-01-2024 11:00:00,29.8006,76.4155,PM10,77,177,130
India,Haryana,Kaithal,"Rishi Nagar, Kaithal - HSPCB",30-01-2024 11:00:00,29.8006,76.4155,NH3,8,8,8
India,Haryana,Karnal,"Sector-12, Karnal - HSPCB",30-01-2024 11:00:00,29.695300,77.002700,PM2.5,98,98,98
India,Haryana,Karnal,"Sector-12, Karnal - HSPCB",30-01-2024 11:00:00,29.695300,77.002700,NH3,10,13,11
India,Haryana,Manesar,"Sector-2 IMT, Manesar - HSPCB",30-01-2024 11:00:00,28.360699,76.936090,PM10,113,195,159
India,Haryana,Manesar,"Sector-2 IMT, Manesar - HSPCB",30-01-2024 11:00:00,28.360699,76.936090,NO2,16,27,23
India,Haryana,Manesar,"Sector-2 IMT, Manesar - HSPCB",30-01-2024 11:00:00,28.360699,76.936090,OZONE,5,42,5
India,Haryana,Narnaul,"Shastri Nagar, Narnaul - HSPCB",30-01-2024 11:00:00,28.060249,76.113115,OZONE,3,79,57
India,Haryana,Palwal,"Shyam Nagar, Palwal - HSPCB",30-01-2024 11:00:00,28.1485564,77.3320667,PM10,NA,NA,NA
India,Haryana,Palwal,"Shyam Nagar, Palwal - HSPCB",30-01-2024 11:00:00,28.1485564,77.3320667,NO2,NA,NA,NA
India,Haryana,Palwal,"Shyam Nagar, Palwal - HSPCB",30-01-2024 11:00:00,28.1485564,77.3320667,CO,16,22,18
India,Haryana,Panchkula,"Sector-6, Panchkula - HSPCB ",30-01-2024 11:00:00,30.7057778,76.8531805555555,PM2.5,41,170,95
India,Haryana,Panchkula,"Sector-6, Panchkula - HSPCB ",30-01-2024 11:00:00,30.7057778,76.8531805555555,SO2,11,12,12
India,Haryana,Rohtak,"MD University, Rohtak - HSPCB",30-01-2024 11:00:00,28.52123,76.37138,PM2.5,54,338,163
India,Haryana,Sonipat,"Murthal, Sonipat - HSPCB",30-01-2024 11:00:00,29.027200,77.062100,OZONE,16,36,20
India,Haryana,Yamuna Nagar,"Gobind Pura, Yamuna Nagar - HSPCB",30-01-2024 11:00:00,30.1480566,77.2893471,PM10,50,202,118
India,Haryana,Yamuna Nagar,"Gobind Pura, Yamuna Nagar - HSPCB",30-01-2024 11:00:00,30.1480566,77.2893471,CO,4,89,52
India,Himachal Pradesh,Baddi,"HIMUDA Complex Phase-1, Baddi - HPPCB",30-01-2024 11:00:00,30.943887,76.801991,PM10,116,356,199
India,Himachal Pradesh,Baddi,"HIMUDA Complex Phase-1, Baddi - HPPCB",30-01-2024 11:00:00,30.943887,76.801991,NO2,15,61,37
India,Himachal Pradesh,Baddi,"HIMUDA Complex Phase-1, Baddi - HPPCB",30-01-2024 11:00:00,30.943887,76.801991,CO,22,66,47
India,Jammu_and_Kashmir,Srinagar,"Rajbagh, Srinagar - JKSPCB",30-01-2024 11:00:00,34.066206,74.819820,OZONE,6,6,6
India,Jharkhand,Dhanbad,"Sardar Patel Nagar, Dhanbad - JSPCB",30-01-2024 11:00:00,23.80569,86.44268,PM10,NA,NA,NA
India,Jharkhand,Pathardih,"Mohalbani Ghat, Pathardih - DMC",30-01-2024 11:00:00,23.669880,86.411725,CO,108,147,109
India,Karnataka,Bagalkot,"Vidayagiri, Bagalkot - KSPCB",30-01-2024 11:00:00,16.172806,75.659694,PM10,46,47,46
India,Karnataka,Bagalkot,"Vidayagiri, Bagalkot - KSPCB",30-01-2024 11:00:00,16.172806,75.659694,NH3,1,2,1
India,Karnataka,Bengaluru,"BTM Layout, Bengaluru - CPCB",30-01-2024 11:00:00,12.9135218,77.5950804,CO,64,101,86
India,Karnataka,Bengaluru,"Bapuji Nagar, Bengaluru - KSPCB",30-01-2024 11:00:00,12.951913,77.539784,OZONE,10,12,11
India,Karnataka,Bengaluru,"City Railway Station, Bengaluru - KSPCB",30-01-2024 11:00:00,12.9756843,77.5660749,SO2,15,16,16
India,Karnataka,Bengaluru,"Hombegowda Nagar, Bengaluru - KSPCB",30-01-2024 11:00:00,12.938539,77.590100,NH3,2,2,2
India,Karnataka,Bengaluru,"Jayanagar 5th Block, Bengaluru - KSPCB",30-01-2024 11:00:00,12.920984,77.584908,PM10,65,139,102
India,Karnataka,Bengaluru,"Jayanagar 5th Block, Bengaluru - KSPCB",30-01-2024 11:00:00,12.920984,77.584908,CO,5,51,15
India,Karnataka,Bengaluru,"Kasturi Nagar, Bengaluru - KSPCB",30-01-2024 11:00:00,13.003872,77.664217,PM10,91,141,119
India,Karnataka,Bengaluru,"Kasturi Nagar, Bengaluru - KSPCB",30-01-2024 11:00:00,13.003872,77.664217,SO2,10,10,10
India,Karnataka,Bengaluru,"Kasturi Nagar, Bengaluru - KSPCB",30-01-2024 11:00:00,13.003872,77.664217,OZONE,29,100,56
India,Karnataka,Bengaluru,"Peenya, Bengaluru - CPCB",30-01-2024 11:00:00,13.0270199,77.494094,SO2,9,23,16
India,Karnataka,Bengaluru,"Peenya, Bengaluru - CPCB",30-01-2024 11:00:00,13.0270199,77.494094,OZONE,37,40,38
India,Karnataka,Bengaluru,"Sanegurava Halli, Bengaluru - KSPCB",30-01-2024 11:00:00,12.990328,77.5431385,CO,7,46,14
India,Karnataka,Bengaluru,"Silk Board, Bengaluru - KSPCB",30-01-2024 11:00:00,12.917348,77.622813,PM2.5,37,81,61
India,Karnataka,Chamarajanagar,"Urban, Chamarajanagar - KSPCB",30-01-2024 11:00:00,11.55358,76.55521,OZONE,15,43,19
India,Karnataka,Chikkaballapur,"Chikkaballapur Rural, Chikkaballapur - KSPCB",30-01-2024 11:00:00,13.428828,77.731418,SO2,18,28,23
India,Karnataka,Chikkamagaluru,"Kalyana Nagara, Chikkamagaluru - KSPCB",30-01-2024 11:00:00,13.328028,75.797056,PM10,30,96,58
India,Karnataka,Chikkamagaluru,"Kalyana Nagara, Chikkamagaluru - KSPCB",30-01-2024 11:00:00,13.328028,75.797056,SO2,1,8,3
India,Karnataka,Davanagere,"Devaraj Urs Badavane, Davanagere - KSPCB",30-01-2024 11:00:00,14.475800,75.905200,CO,16,19,16
India,Karnataka,Dharwad,"Kalabhavan, Dharwad - KSPCB",30-01-2024 11:00:00,15.459706,75.008381,CO,38,182,70
India,Karnataka,Dharwad,"Kalabhavan, Dharwad - KSPCB",30-01-2024 11:00:00,15.459706,75.008381,OZONE,2,46,13
