country,state,city,station,last_update,latitude,longitude,pollutant_id,pollutant_min,pollutant_max,pollutant_avg
India,Andhra_Pradesh,Anantapur,"Gulzarpet, Anantapur - APPCB",23-06-2024 16:00:00,14.675886,77.593027,NO2,NA,NA,NA
India,Andhra_Pradesh,Chittoor,"Gangineni Cheruvu, Chittoor - APPCB",23-06-2024 16:00:00,13.204880,79.097889,NO2,NA,NA,NA
India,Andhra_Pradesh,Chittoor,"Gangineni Cheruvu, Chittoor - APPCB",23-06-2024 16:00:00,13.204880,79.097889,SO2,NA,NA,NA
India,Andhra_Pradesh,Kadapa,"Yerramukkapalli, Kadapa - APPCB",23-06-2024 16:00:00,14.465052,78.824187,PM2.5,NA,NA,NA
India,Andhra_Pradesh,Kadapa,"Yerramukkapalli, Kadapa - APPCB",23-06-2024 16:00:00,14.465052,78.824187,NO2,NA,NA,NA
India,Andhra_Pradesh,Kadapa,"Yerramukkapalli, Kadapa - APPCB",23-06-2024 16:00:00,14.465052,78.824187,SO2,NA,NA,NA
India,Andhra_Pradesh,Rajamahendravaram,"Anand Kala Kshetram, Rajamahendravaram - APPCB",23-06-2024 16:00:00,16.9872867,81.7363176,NO2,3,72,19
India,Andhra_Pradesh,Rajamahendravaram,"Anand Kala Kshetram, Rajamahendravaram - APPCB",23-06-2024 16:00:00,16.9872867,81.7363176,SO2,11,12,12
India,Andhra_Pradesh,Rajamahendravaram,"Anand Kala Kshetram, Rajamahendravaram - APPCB",23-06-2024 16:00:00,16.9872867,81.7363176,OZONE,23,54,46
India,Andhra_Pradesh,Tirupati,"Tirumala, Tirupati - APPCB",23-06-2024 16:00:00,13.67,79.35,NO2,17,36,25
India,Andhra_Pradesh,Tirupati,"Vaikuntapuram, Tirupati - APPCB",23-06-2024 16:00:00,13.615387,79.409230,PM2.5,NA,NA,NA
India,Andhra_Pradesh,Vijayawada,"HB Colony, Vijayawada - APPCB",23-06-2024 16:00:00,16.536107,80.594233,CO,33,33,33
India,Andhra_Pradesh,Vijayawada,"Kanuru, Vijayawada - APPCB",23-06-2024 16:00:00,16.486692,80.699436,PM2.5,39,147,64
India,Andhra_Pradesh,Vijayawada,"Rajiv Nagar, Vijayawada - APPCB",23-06-2024 16:00:00,16.554731,80.649110,PM10,53,72,56
India,Andhra_Pradesh,Vijayawada,"Rajiv Nagar, Vijayawada - APPCB",23-06-2024 16:00:00,16.554731,80.649110,NH3,1,2,2
India,Andhra_Pradesh,Visakhapatnam,"GVM Corporation, Visakhapatnam - APPCB",23-06-2024 16:00:00,17.72,83.3,OZONE,11,16,12
India,Assam,Byrnihat,"Central Academy for SFS, Byrnihat - PCBA",23-06-2024 16:00:00,26.071318,91.87488,NO2,14,30,19
India,Assam,Byrnihat,"Central Academy for SFS, Byrnihat - PCBA",23-06-2024 16:00:00,26.071318,91.87488,OZONE,23,133,25
India,Assam,Guwahati,"Pan Bazaar, Guwahati - PCBA",23-06-2024 16:00:00,26.187500,91.744194,PM2.5,18,56,32
India,Assam,Nagaon,"Christianpatty, Nagaon - PCBA",23-06-2024 16:00:00,26.349082,92.68449,NH3,1,10,2
India,Assam,Nagaon,"Christianpatty, Nagaon - PCBA",23-06-2024 16:00:00,26.349082,92.68449,SO2,8,13,10
India,Assam,Nagaon,"Christianpatty, Nagaon - PCBA",23-06-2024 16:00:00,26.349082,92.68449,OZONE,7,31,25
India,Assam,Silchar,"Tarapur, Silchar - PCBA",23-06-2024 16:00:00,24.82827,92.79525,NO2,9,9,9
India,Assam,Sivasagar,"Girls College, Sivasagar - PCBA",23-06-2024 16:00:00,26.987634,94.636574,PM10,50,82,62
India,Bihar,Araria,"Kharahiya Basti, Araria - BSPCB",23-06-2024 16:00:00,26.146529,87.454184,PM2.5,NA,NA,NA
India,Bihar,Araria,"Kharahiya Basti, Araria - BSPCB",23-06-2024 16:00:00,26.146529,87.454184,OZONE,29,33,32
India,Bihar,Arrah,"New DM Office, Arrah - BSPCB",23-06-2024 16:00:00,25.5626095,84.663264,CO,11,29,19
India,Bihar,Aurangabad,"Gurdeo Nagar, Aurangabad - BSPCB",23-06-2024 16:00:00,24.75746,84.366208,SO2,6,26,18
India,Bihar,Aurangabad,"Gurdeo Nagar, Aurangabad - BSPCB",23-06-2024 16:00:00,24.75746,84.366208,CO,6,44,16
India,Bihar,Bettiah,"Kamalnath Nagar, Bettiah - BSPCB",23-06-2024 16:00:00,26.80365,84.51954,PM10,111,441,205
India,Bihar,Bettiah,"Kamalnath Nagar, Bettiah - BSPCB",23-06-2024 16:00:00,26.80365,84.51954,SO2,11,17,14
India,Bihar,Bhagalpur,"DM Office_Kachari Chowk, Bhagalpur - BSPCB",23-06-2024 16:00:00,25.251013,86.989001,NO2,44,59,51
India,Bihar,Bhagalpur,"DM Office_Kachari Chowk, Bhagalpur - BSPCB",23-06-2024 16:00:00,25.251013,86.989001,OZONE,46,48,48
India,Bihar,Buxar,"Charitra Van, Buxar - BSPCB (Formerly known as Central Jail)",23-06-2024 16:00:00,25.567520,83.966379,NH3,1,1,1
India,Bihar,Chhapra,"Darshan Nagar, Chhapra - BSPCB",23-06-2024 16:00:00,25.7808257,84.7446768,OZONE,1,6,3
India,Bihar,Gaya,"Collectorate, Gaya - BSPCB",23-06-2024 16:00:00,24.7955,84.9994,SO2,1,15,7
India,Bihar,Gaya,"Kareemganj, Gaya - BSPCB",23-06-2024 16:00:00,24.792403,84.992416,NH3,NA,NA,NA
India,Bihar,Gaya,"SFTI Kusdihra, Gaya - BSPCB",23-06-2024 16:00:00,24.762518,84.982348,SO2,NA,NA,NA
India,Bihar,Hajipur,"Industrial Area, Hajipur - BSPCB",23-06-2024 16:00:00,25.697189,85.245900,NH3,10,15,13
India,Bihar,Hajipur,"Industrial Area, Hajipur - BSPCB",23-06-2024 16:00:00,25.697189,85.245900,SO2,6,9,7
India,Bihar,Katihar,"Mirchaibari, Katihar - BSPCB",23-06-2024 16:00:00,25.560083,87.553265,SO2,5,10,7
India,Bihar,Kishanganj,"SDM Office_Khagra, Kishanganj - BSPCB",23-06-2024 16:00:00,26.0881305,87.93840336,NO2,30,57,54
India,Bihar,Kishanganj,"SDM Office_Khagra, Kishanganj - BSPCB",23-06-2024 16:00:00,26.0881305,87.93840336,NH3,6,8,6
India,Bihar,Kishanganj,"SDM Office_Khagra, Kishanganj - BSPCB",23-06-2024 16:00:00,26.0881305,87.93840336,OZONE,7,39,9
India,Bihar,Manguraha,"Forest Rest House, Manguraha - BSPCB",23-06-2024 16:00:00,27.308328,84.531742,SO2,2,3,2
India,Bihar,Manguraha,"Forest Rest House, Manguraha - BSPCB",23-06-2024 16:00:00,27.308328,84.531742,OZONE,7,55,15
India,Bihar,Munger,"Town Hall, Munger - BSPCB",23-06-2024 16:00:00,25.376776,86.471523,CO,82,103,95
India,Bihar,Muzaffarpur,"Buddha Colony, Muzaffarpur - BSPCB",23-06-2024 16:00:00,26.11442,85.39813,NH3,3,6,4
India,Bihar,Muzaffarpur,"Buddha Colony, Muzaffarpur - BSPCB",23-06-2024 16:00:00,26.11442,85.39813,SO2,1,4,2
India,Bihar,Muzaffarpur,"MIT-Daudpur Kothi, Muzaffarpur - BSPCB",23-06-2024 16:00:00,26.1403345,85.3650192,PM2.5,42,103,69
India,Bihar,Muzaffarpur,"Muzaffarpur Collectorate, Muzaffarpur - BSPCB",23-06-2024 16:00:00,26.1209,85.3647,NO2,33,58,39
India,Bihar,Muzaffarpur,"Muzaffarpur Collectorate, Muzaffarpur - BSPCB",23-06-2024 16:00:00,26.1209,85.3647,SO2,6,8,8
India,Bihar,Patna,"DRM Office Danapur, Patna - BSPCB",23-06-2024 16:00:00,25.586562,85.043586,CO,19,38,29
India,Bihar,Patna,"Govt. High School Shikarpur, Patna - BSPCB",23-06-2024 16:00:00,25.592539,85.227158,SO2,8,13,10
India,Bihar,Patna,"Muradpur, Patna - BSPCB",23-06-2024 16:00:00,25.619651,85.147382,SO2,3,20,7
India,Bihar,Patna,"Rajbansi Nagar, Patna - BSPCB",23-06-2024 16:00:00,25.599486,85.113666,CO,20,35,26
India,Bihar,Purnia,"Mariam Nagar, Purnia - BSPCB",23-06-2024 16:00:00,25.366336,87.117468,PM10,NA,NA,NA
India,Bihar,Rajgir,"Dangi Tola, Rajgir - BSPCB",23-06-2024 16:00:00,25.03280,85.41948,SO2,4,4,4
India,Bihar,Rajgir,"Dangi Tola, Rajgir - BSPCB",23-06-2024 16:00:00,25.03280,85.41948,OZONE,29,41,35
India,Bihar,Saharsa,"Police Line, Saharsa - BSPCB",23-06-2024 16:00:00,25.892357,86.590325,SO2,16,16,16
India,Bihar,Saharsa,"Police Line, Saharsa - BSPCB",23-06-2024 16:00:00,25.892357,86.590325,OZONE,8,47,33
India,Bihar,Samastipur,"DM Office_Kasipur, Samastipur - BSPCB",23-06-2024 16:00:00,25.859655,85.77944,PM2.5,5,17,11
India,Bihar,Samastipur,"DM Office_Kasipur, Samastipur - BSPCB",23-06-2024 16:00:00,25.859655,85.77944,CO,94,107,101
India,Bihar,Sasaram,"Dada Peer, Sasaram - BSPCB",23-06-2024 16:00:00,24.952822,84.002396,NH3,2,17,9
India,Bihar,Siwan,"Chitragupta Nagar, Siwan - BSPCB",23-06-2024 16:00:00,26.2271665,84.3570427,PM2.5,NA,NA,NA
India,Bihar,Siwan,"Chitragupta Nagar, Siwan - BSPCB",23-06-2024 16:00:00,26.2271665,84.3570427,SO2,NA,NA,NA
India,Chandigarh,Chandigarh,"Sector 22, Chandigarh - CPCC",23-06-2024 16:00:00,30.735567,76.775714,PM10,64,187,118
India,Chandigarh,Chandigarh,"Sector 22, Chandigarh - CPCC",23-06-2024 16:00:00,30.735567,76.775714,NH3,8,14,10
India,Chandigarh,Chandigarh,"Sector 22, Chandigarh - CPCC",23-06-2024 16:00:00,30.735567,76.775714,CO,34,60,36
India,Chandigarh,Chandigarh,"Sector-25, Chandigarh - CPCC",23-06-2024 16:00:00,30.751462,76.762879,PM2.5,90,232,147
India,Chandigarh,Chandigarh,"Sector-53, Chandigarh - CPCC",23-06-2024 16:00:00,30.719859,76.738637,CO,33,111,47
India,Chhattisgarh,Bhilai,"32Bungalows, Bhilai - CECB",23-06-2024 16:00:00,21.194815,81.314770,NO2,6,8,7
India,Chhattisgarh,Bhilai,"32Bungalows, Bhilai - CECB",23-06-2024 16:00:00,21.194815,81.314770,NH3,8,9,9
India,Chhattisgarh,Bhilai,"32Bungalows, Bhilai - CECB",23-06-2024 16:00:00,21.194815,81.314770,SO2,9,11,10
India,Chhattisgarh,Bhilai,"Civic Center, Bhilai - Bhilai Steel Plant",23-06-2024 16:00:00,21.185571,81.343175,PM2.5,15,29,23
India,Chhattisgarh,Bhilai,"Civic Center, Bhilai - Bhilai Steel Plant",23-06-2024 16:00:00,21.185571,81.343175,CO,34,49,41
India,Chhattisgarh,Bhilai,"Civic Center, Bhilai - Bhilai Steel Plant",23-06-2024 16:00:00,21.185571,81.343175,OZONE,12,34,23
India,Chhattisgarh,Bhilai,"Hathkhoj, Bhilai - CECB",23-06-2024 16:00:00,21.224231,81.408350,NO2,4,23,9
India,Chhattisgarh,Bhilai,"Hathkhoj, Bhilai - CECB",23-06-2024 16:00:00,21.224231,81.408350,CO,4,23,13
India,Chhattisgarh,Bilaspur,"Mangala, Bilaspur - NTPC",23-06-2024 16:00:00,22.08815,82.13737,PM2.5,14,54,33
India,Chhattisgarh,Bilaspur,"Mangala, Bilaspur - NTPC",23-06-2024 16:00:00,22.08815,82.13737,SO2,13,18,15
India,Chhattisgarh,Chhal,"Nawapara SECL Colony, Chhal - CECB",23-06-2024 16:00:00,22.118125,83.140608,PM10,NA,NA,NA
India,Chhattisgarh,Chhal,"Nawapara SECL Colony, Chhal - CECB",23-06-2024 16:00:00,22.118125,83.140608,OZONE,1,42,11
India,Chhattisgarh,Korba,"Urja Nagar, Korba - CECB",23-06-2024 16:00:00,22.348441,82.549611,SO2,7,12,9
India,Chhattisgarh,Kunjemura,"OP Jindal School, Kunjemura - CECB",23-06-2024 16:00:00,22.126650,83.483212,CO,22,96,33
India,Chhattisgarh,Milupara,"Govt. Higher Secondary School, Milupara - CECB",23-06-2024 16:00:00,22.1910172,83.5197009,PM10,16,136,48
India,Chhattisgarh,Raipur,"AIIMS, Raipur - CECB",23-06-2024 16:00:00,21.258815,81.578979,NH3,6,6,6
India,Chhattisgarh,Raipur,"Bhatagaon New ISBT, Raipur - CECB",23-06-2024 16:00:00,21.219665,81.630094,PM2.5,NA,NA,NA
India,Chhattisgarh,Raipur,"Bhatagaon New ISBT, Raipur - CECB",23-06-2024 16:00:00,21.219665,81.630094,NO2,NA,NA,NA
India,Chhattisgarh,Raipur,"Krishak Nagar, Raipur - CECB",23-06-2024 16:00:00,21.237755,81.705301,SO2,9,16,12
India,Chhattisgarh,Tumidih,"OP Jindal Industrial Park, Tumidih - CECB",23-06-2024 16:00:00,22.06631475,83.33820077,PM10,29,128,65
India,Chhattisgarh,Tumidih,"OP Jindal Industrial Park, Tumidih - CECB",23-06-2024 16:00:00,22.06631475,83.33820077,SO2,5,9,6
India,Delhi,Delhi,"Alipur, Delhi - DPCC",23-06-2024 16:00:00,28.815329,77.153010,NO2,26,58,38
India,Delhi,Delhi,"Alipur, Delhi - DPCC",23-06-2024 16:00:00,28.815329,77.153010,CO,32,58,42
India,Delhi,Delhi,"Anand Vihar, Delhi - DPCC",23-06-2024 16:00:00,28.647622,77.3158090,NO2,37,72,50
India,Delhi,Delhi,"Anand Vihar, Delhi - DPCC",23-06-2024 16:00:00,28.647622,77.3158090,OZONE,75,101,88
India,Delhi,Delhi,"Ashok Vihar, Delhi - DPCC",23-06-2024 16:00:00,28.695381,77.181665,PM10,NA,NA,NA
India,Delhi,Delhi,"Aya Nagar, Delhi - IMD",23-06-2024 16:00:00,28.4706914,77.1099364,CO,2,44,21
India,Delhi,Delhi,"Bawana, Delhi - DPCC",23-06-2024 16:00:00,28.776200,77.051074,PM2.5,85,312,171
India,Delhi,Delhi,"Bawana, Delhi - DPCC",23-06-2024 16:00:00,28.776200,77.051074,NO2,14,346,64
India,Delhi,Delhi,"CRRI Mathura Road, Delhi - IMD",23-06-2024 16:00:00,28.5512005,77.2735737,PM2.5,66,148,91
India,Delhi,Delhi,"Chandni Chowk, Delhi - IITM",23-06-2024 16:00:00,28.656756,77.227234,CO,52,86,64
India,Delhi,Delhi,"Chandni Chowk, Delhi - IITM",23-06-2024 16:00:00,28.656756,77.227234,OZONE,1,13,1
India,Delhi,Delhi,"DTU, Delhi - CPCB",23-06-2024 16:00:00,28.7500499,77.1112615,OZONE,29,110,66
India,Delhi,Delhi,"Dr. Karni Singh Shooting Range, Delhi - DPCC",23-06-2024 16:00:00,28.498571,77.264840,PM2.5,83,226,125
India,Delhi,Delhi,"Dr. Karni Singh Shooting Range, Delhi - DPCC",23-06-2024 16:00:00,28.498571,77.264840,CO,32,54,45
India,Delhi,Delhi,"IGI Airport (T3), Delhi - IMD",23-06-2024 16:00:00,28.5627763,77.1180053,PM2.5,63,236,88
India,Delhi,Delhi,"ITO, Delhi - CPCB",23-06-2024 16:00:00,28.628624,77.241060,NH3,4,6,5
India,Delhi,Delhi,"Jahangirpuri, Delhi - DPCC",23-06-2024 16:00:00,28.732820,77.170633,PM10,127,454,195
India,Delhi,Delhi,"Jawaharlal Nehru Stadium, Delhi - DPCC",23-06-2024 16:00:00,28.580280,77.233829,OZONE,10,171,56
India,Delhi,Delhi,"Mandir Marg, Delhi - DPCC",23-06-2024 16:00:00,28.636429,77.201067,NH3,4,8,6
India,Delhi,Delhi,"Mandir Marg, Delhi - DPCC",23-06-2024 16:00:00,28.636429,77.201067,SO2,6,22,14
India,Delhi,Delhi,"NSIT Dwarka, Delhi - CPCB",23-06-2024 16:00:00,28.60909,77.0325413,OZONE,10,40,27
India,Delhi,Delhi,"Najafgarh, Delhi - DPCC",23-06-2024 16:00:00,28.570173,76.933762,PM10,81,190,118
India,Delhi,Delhi,"Najafgarh, Delhi - DPCC",23-06-2024 16:00:00,28.570173,76.933762,SO2,9,17,13
India,Delhi,Delhi,"Najafgarh, Delhi - DPCC",23-06-2024 16:00:00,28.570173,76.933762,OZONE,5,40,22
India,Delhi,Delhi,"Narela, Delhi - DPCC",23-06-2024 16:00:00,28.822836,77.101981,NH3,5,6,5
India,Delhi,Delhi,"Narela, Delhi - DPCC",23-06-2024 16:00:00,28.822836,77.101981,CO,36,58,46
India,Delhi,Delhi,"Narela, Delhi - DPCC",23-06-2024 16:00:00,28.822836,77.101981,OZONE,57,125,88
India,Delhi,Delhi,"Nehru Nagar, Delhi - DPCC",23-06-2024 16:00:00,28.567890,77.250515,PM2.5,52,167,111
India,Delhi,Delhi,"Nehru Nagar, Delhi - DPCC",23-06-2024 16:00:00,28.567890,77.250515,NO2,9,50,30
India,Delhi,Delhi,"North Campus, DU, Delhi - IMD",23-06-2024 16:00:00,28.6573814,77.1585447,OZONE,5,24,14
India,Delhi,Delhi,"Patparganj, Delhi - DPCC",23-06-2024 16:00:00,28.623763,77.287209,NH3,7,10,9
India,Delhi,Delhi,"Punjabi Bagh, Delhi - DPCC",23-06-2024 16:00:00,28.674045,77.131023,NO2,12,49,30
India,Delhi,Delhi,"Pusa, Delhi - DPCC",23-06-2024 16:00:00,28.639652,77.146275,NO2,39,105,69
India,Delhi,Delhi,"Pusa, Delhi - IMD",23-06-2024 16:00:00,28.636110,77.173332,OZONE,7,44,24
India,Delhi,Delhi,"R K Puram, Delhi - DPCC",23-06-2024 16:00:00,28.563262,77.186937,NH3,1,10,4
India,Delhi,Delhi,"Rohini, Delhi - DPCC",23-06-2024 16:00:00,28.732528,77.119920,NH3,12,30,18
India,Delhi,Delhi,"Shadipur, Delhi - CPCB",23-06-2024 16:00:00,28.6514781,77.1473105,NO2,41,71,60
India,Delhi,Delhi,"Shadipur, Delhi - CPCB",23-06-2024 16:00:00,28.6514781,77.1473105,NH3,8,15,11
India,Delhi,Delhi,"Sonia Vihar, Delhi - DPCC",23-06-2024 16:00:00,28.710508,77.249485,PM10,88,179,132
India,Delhi,Delhi,"Vivek Vihar, Delhi - DPCC",23-06-2024 16:00:00,28.672342,77.315260,PM2.5,77,203,111
India,Delhi,Delhi,"Wazirpur, Delhi - DPCC",23-06-2024 16:00:00,28.699793,77.165453,PM2.5,NA,NA,NA
India,Delhi,Delhi,"Wazirpur, Delhi - DPCC",23-06-2024 16:00:00,28.699793,77.165453,NO2,34,102,58
India,Delhi,Delhi,"Wazirpur, Delhi - DPCC",23-06-2024 16:00:00,28.699793,77.165453,SO2,14,27,20
India,Delhi,Delhi,"Wazirpur, Delhi - DPCC",23-06-2024 16:00:00,28.699793,77.165453,OZONE,3,48,8
India,Gujarat,Ahmedabad,"Chandkheda, Ahmedabad - IITM",23-06-2024 16:00:00,23.107969,72.574648,PM10,50,147,95
India,Gujarat,Ahmedabad,"Chandkheda, Ahmedabad - IITM",23-06-2024 16:00:00,23.107969,72.574648,OZONE,2,7,3
India,Gujarat,Ahmedabad,"Gyaspur, Ahmedabad - IITM",23-06-2024 16:00:00,22.977134,72.553024,PM10,80,218,130
India,Gujarat,Ahmedabad,"Gyaspur, Ahmedabad - IITM",23-06-2024 16:00:00,22.977134,72.553024,NH3,4,7,5
India,Gujarat,Ahmedabad,"Maninagar, Ahmedabad - GPCB",23-06-2024 16:00:00,23.002657,72.591912,PM2.5,38,136,67
India,Gujarat,Ahmedabad,"Maninagar, Ahmedabad - GPCB",23-06-2024 16:00:00,23.002657,72.591912,CO,1,8,3
India,Gujarat,Ahmedabad,"Raikhad, Ahmedabad - IITM",23-06-2024 16:00:00,23.020509,72.579261,NH3,7,7,7
India,Gujarat,Ahmedabad,"Raikhad, Ahmedabad - IITM",23-06-2024 16:00:00,23.020509,72.579261,CO,10,15,12
India,Gujarat,Ahmedabad,"Rakhial, Ahmedabad - IITM",23-06-2024 16:00:00,23.016834,72.625775,PM2.5,37,144,72
India,Gujarat,Ahmedabad,"Rakhial, Ahmedabad - IITM",23-06-2024 16:00:00,23.016834,72.625775,NO2,20,81,49
India,Gujarat,Ahmedabad,"Rakhial, Ahmedabad - IITM",23-06-2024 16:00:00,23.016834,72.625775,NH3,4,13,7
India,Gujarat,Ahmedabad,"Rakhial, Ahmedabad - IITM",23-06-2024 16:00:00,23.016834,72.625775,CO,10,46,16
India,Gujarat,Ahmedabad,"Sardar Vallabhbhai Patel Stadium, Ahmedabad - IITM",23-06-2024 16:00:00,23.043070,72.562968,PM10,64,150,108
India,Gujarat,Gandhinagar,"GIFT City, Gandhinagar - IITM",23-06-2024 16:00:00,23.163798,72.677768,PM10,67,153,109
India,Gujarat,Gandhinagar,"GIFT City, Gandhinagar - IITM",23-06-2024 16:00:00,23.163798,72.677768,NH3,7,8,8
India,Gujarat,Gandhinagar,"GIFT City, Gandhinagar - IITM",23-06-2024 16:00:00,23.163798,72.677768,SO2,6,15,10
India,Gujarat,Vapi,"Phase-1 GIDC, Vapi - GPCB",23-06-2024 16:00:00,20.362421,72.918013,PM10,28,92,50
India,Gujarat,Vapi,"Phase-1 GIDC, Vapi - GPCB",23-06-2024 16:00:00,20.362421,72.918013,SO2,47,48,48
India,Gujarat,Vatva,"Phase-4 GIDC, Vatva - GPCB",23-06-2024 16:00:00,22.969611,72.643500,NH3,10,24,16
India,Haryana,Ambala,"Patti Mehar, Ambala - HSPCB",23-06-2024 16:00:00,30.379589,76.778328,SO2,7,30,14
India,Haryana,Bahadurgarh,"Arya Nagar, Bahadurgarh - HSPCB",23-06-2024 16:00:00,28.6701,76.9254,PM2.5,69,124,92
India,Haryana,Bahadurgarh,"Arya Nagar, Bahadurgarh - HSPCB",23-06-2024 16:00:00,28.6701,76.9254,NO2,20,25,22
India,Haryana,Ballabgarh,"Nathu Colony, Ballabgarh - HSPCB",23-06-2024 16:00:00,28.3419248,77.319699,PM10,NA,NA,NA
India,Haryana,Ballabgarh,"Nathu Colony, Ballabgarh - HSPCB",23-06-2024 16:00:00,28.3419248,77.319699,NO2,NA,NA,NA
India,Haryana,Ballabgarh,"Nathu Colony, Ballabgarh - HSPCB",23-06-2024 16:00:00,28.3419248,77.319699,NH3,NA,NA,NA
India,Haryana,Charkhi Dadri,"Mini Secretariat, Charkhi Dadri - HSPCB",23-06-2024 16:00:00,28.593883,76.270653,PM10,48,143,97
India,Haryana,Charkhi Dadri,"Mini Secretariat, Charkhi Dadri - HSPCB",23-06-2024 16:00:00,28.593883,76.270653,NO2,14,23,18
India,Haryana,Dharuhera,"Municipal Corporation Office, Dharuhera -  HSPCB",23-06-2024 16:00:00,28.206800,76.799700,PM2.5,NA,NA,NA
India,Haryana,Faridabad,"New Industrial Town, Faridabad - HSPCB",23-06-2024 16:00:00,28.39072,77.30059,SO2,NA,NA,NA
India,Haryana,Faridabad,"New Industrial Town, Faridabad - HSPCB",23-06-2024 16:00:00,28.39072,77.30059,CO,10,16,13
India,Haryana,Faridabad,"New Industrial Town, Faridabad - HSPCB",23-06-2024 16:00:00,28.39072,77.30059,OZONE,48,52,50
India,Haryana,Faridabad,"Sector 11, Faridabad - HSPCB",23-06-2024 16:00:00,28.376058,77.315741,NH3,6,6,6
India,Haryana,Faridabad,"Sector 30, Faridabad - HSPCB",23-06-2024 16:00:00,28.4417,77.3217,CO,20,52,28
India,Haryana,Faridabad,"Sector 30, Faridabad - HSPCB",23-06-2024 16:00:00,28.4417,77.3217,OZONE,19,26,21
India,Haryana,Fatehabad,"Huda Sector, Fatehabad - HSPCB",23-06-2024 16:00:00,29.503664,75.467934,SO2,8,18,12
India,Haryana,Gurugram,"NISE Gwal Pahari, Gurugram - IMD",23-06-2024 16:00:00,28.422681,77.148944,PM10,13,130,84
India,Haryana,Gurugram,"NISE Gwal Pahari, Gurugram - IMD",23-06-2024 16:00:00,28.422681,77.148944,NO2,20,35,27
India,Haryana,Gurugram,"NISE Gwal Pahari, Gurugram - IMD",23-06-2024 16:00:00,28.422681,77.148944,OZONE,1,80,63
India,Haryana,Gurugram,"Sector-51, Gurugram - HSPCB",23-06-2024 16:00:00,28.4227,77.0667,CO,30,57,37
India,Haryana,Gurugram,"Vikas Sadan, Gurugram - HSPCB",23-06-2024 16:00:00,28.4501238,77.0263051,PM2.5,2,436,106
India,Haryana,Hisar,"Urban Estate-II, Hisar - HSPCB",23-06-2024 16:00:00,29.140560,75.744941,NH3,4,4,4
India,Haryana,Hisar,"Urban Estate-II, Hisar - HSPCB",23-06-2024 16:00:00,29.140560,75.744941,CO,25,48,30
India,Haryana,Jind,"Police Lines, Jind - HSPCB",23-06-2024 16:00:00,29.307814,76.337619,SO2,NA,NA,NA
India,Haryana,Jind,"Police Lines, Jind - HSPCB",23-06-2024 16:00:00,29.307814,76.337619,CO,NA,NA,NA
India,Haryana,Kaithal,"Rishi Nagar, Kaithal - HSPCB",23-06-2024 16:00:00,29.8006,76.4155,CO,3,32,16
India,Haryana,Karnal,"Sector-12, Karnal - HSPCB",23-06-2024 16:00:00,29.695300,77.002700,NH3,10,13,11
India,Haryana,Mandikhera,"General Hospital, Mandikhera - HSPCB",23-06-2024 16:00:00,27.9002,76.9938,NO2,19,23,21
India,Haryana,Mandikhera,"General Hospital, Mandikhera - HSPCB",23-06-2024 16:00:00,27.9002,76.9938,SO2,29,39,34
India,Haryana,Mandikhera,"General Hospital, Mandikhera - HSPCB",23-06-2024 16:00:00,27.9002,76.9938,CO,29,56,48
India,Haryana,Manesar,"Sector-2 IMT, Manesar - HSPCB",23-06-2024 16:00:00,28.360699,76.936090,OZONE,12,80,49
India,Haryana,Narnaul,"Shastri Nagar, Narnaul - HSPCB",23-06-2024 16:00:00,28.060249,76.113115,OZONE,40,58,49
India,Haryana,Palwal,"Shyam Nagar, Palwal - HSPCB",23-06-2024 16:00:00,28.1485564,77.3320667,PM2.5,50,74,61
India,Haryana,Panchkula,"Sector-6, Panchkula - HSPCB ",23-06-2024 16:00:00,30.7057778,76.8531805555555,PM2.5,94,270,166
India,Haryana,Panchkula,"Sector-6, Panchkula - HSPCB ",23-06-2024 16:00:00,30.7057778,76.8531805555555,OZONE,36,48,42
India,Haryana,Panipat,"Sector-18, Panipat - HSPCB",23-06-2024 16:00:00,29.432304,76.972765,NO2,31,32,31
India,Haryana,Panipat,"Sector-18, Panipat - HSPCB",23-06-2024 16:00:00,29.432304,76.972765,NH3,2,3,3
India,Haryana,Sirsa,"F-Block, Sirsa - HSPCB",23-06-2024 16:00:00,29.536400,75.015800,SO2,2,8,5
India,Haryana,Sirsa,"F-Block, Sirsa - HSPCB",23-06-2024 16:00:00,29.536400,75.015800,OZONE,23,48,35
India,Haryana,Sonipat,"Murthal, Sonipat - HSPCB",23-06-2024 16:00:00,29.027200,77.062100,NO2,37,44,39
India,Haryana,Yamuna Nagar,"Gobind Pura, Yamuna Nagar - HSPCB",23-06-2024 16:00:00,30.1480566,77.2893471,CO,NA,NA,NA
India,Haryana,Yamuna Nagar,"Gobind Pura, Yamuna Nagar - HSPCB",23-06-2024 16:00:00,30.1480566,77.2893471,OZONE,NA,NA,NA
India,Himachal Pradesh,Baddi,"HIMUDA Complex Phase-1, Baddi - HPPCB",23-06-2024 16:00:00,30.943887,76.801991,NH3,6,8,7
India,Himachal Pradesh,Baddi,"HIMUDA Complex Phase-1, Baddi - HPPCB",23-06-2024 16:00:00,30.943887,76.801991,CO,16,50,19
India,Karnataka,Bagalkot,"Vidayagiri, Bagalkot - KSPCB",23-06-2024 16:00:00,16.172806,75.659694,NO2,9,10,9
India,Karnataka,Bagalkot,"Vidayagiri, Bagalkot - KSPCB",23-06-2024 16:00:00,16.172806,75.659694,NH3,1,2,1
India,Karnataka,Belgaum,"Ramteerth Nagar, Belgaum - KSPCB",23-06-2024 16:00:00,15.888653,74.541751,NH3,3,11,8
India,Karnataka,Belgaum,"Ramteerth Nagar, Belgaum - KSPCB",23-06-2024 16:00:00,15.888653,74.541751,SO2,9,10,9
India,Karnataka,Bengaluru,"Bapuji Nagar, Bengaluru - KSPCB",23-06-2024 16:00:00,12.951913,77.539784,PM2.5,12,48,23
India,Karnataka,Bengaluru,"Bapuji Nagar, Bengaluru - KSPCB",23-06-2024 16:00:00,12.951913,77.539784,NO2,14,16,15
India,Karnataka,Bengaluru,"Bapuji Nagar, Bengaluru - KSPCB",23-06-2024 16:00:00,12.951913,77.539784,OZONE,28,56,48
India,Karnataka,Bengaluru,"City Railway Station, Bengaluru - KSPCB",23-06-2024 16:00:00,12.9756843,77.5660749,PM10,65,110,85
India,Karnataka,Bengaluru,"Hombegowda Nagar, Bengaluru - KSPCB",23-06-2024 16:00:00,12.938539,77.590100,CO,10,26,15
India,Karnataka,Bengaluru,"Jigani, Bengaluru - KSPCB",23-06-2024 16:00:00,12.7816279,77.6299145,NH3,3,3,3
India,Karnataka,Bengaluru,"Jigani, Bengaluru - KSPCB",23-06-2024 16:00:00,12.7816279,77.6299145,SO2,8,9,9
India,Karnataka,Bengaluru,"Jigani, Bengaluru - KSPCB",23-06-2024 16:00:00,12.7816279,77.6299145,CO,28,42,38
India,Karnataka,Bengaluru,"Kasturi Nagar, Bengaluru - KSPCB",23-06-2024 16:00:00,13.003872,77.664217,PM10,36,51,44
India,Karnataka,Bengaluru,"Kasturi Nagar, Bengaluru - KSPCB",23-06-2024 16:00:00,13.003872,77.664217,NH3,3,4,4
India,Karnataka,Bengaluru,"Kasturi Nagar, Bengaluru - KSPCB",23-06-2024 16:00:00,13.003872,77.664217,SO2,10,10,10
India,Karnataka,Bengaluru,"Kasturi Nagar, Bengaluru - KSPCB",23-06-2024 16:00:00,13.003872,77.664217,OZONE,39,39,39
India,Karnataka,Bengaluru,"Peenya, Bengaluru - CPCB",23-06-2024 16:00:00,13.0270199,77.494094,CO,75,84,77
India,Karnataka,Bengaluru,"Shivapura_Peenya, Bengaluru - KSPCB",23-06-2024 16:00:00,13.0246342,77.5080115,SO2,2,5,3
India,Karnataka,Bengaluru,"Shivapura_Peenya, Bengaluru - KSPCB",23-06-2024 16:00:00,13.0246342,77.5080115,OZONE,53,56,54
India,Karnataka,Bengaluru,"Silk Board, Bengaluru - KSPCB",23-06-2024 16:00:00,12.917348,77.622813,NO2,9,31,16
India,Karnataka,Chamarajanagar,"Urban, Chamarajanagar - KSPCB",23-06-2024 16:00:00,11.55358,76.55521,PM2.5,25,31,30
India,Karnataka,Chamarajanagar,"Urban, Chamarajanagar - KSPCB",23-06-2024 16:00:00,11.55358,76.55521,PM10,44,46,45
India,Karnataka,Chamarajanagar,"Urban, Chamarajanagar - KSPCB",23-06-2024 16:00:00,11.55358,76.55521,NO2,23,29,28
India,Karnataka,Chikkaballapur,"Chikkaballapur Rural, Chikkaballapur - KSPCB",23-06-2024 16:00:00,13.428828,77.731418,NH3,1,1,1
India,Karnataka,Chikkaballapur,"Chikkaballapur Rural, Chikkaballapur - KSPCB",23-06-2024 16:00:00,13.428828,77.731418,CO,3,10,8
India,Karnataka,Chikkamagaluru,"Kalyana Nagara, Chikkamagaluru - KSPCB",23-06-2024 16:00:00,13.328028,75.797056,PM2.5,7,37,18
India,Karnataka,Chikkamagaluru,"Kalyana Nagara, Chikkamagaluru - KSPCB",23-06-2024 16:00:00,13.328028,75.797056,NO2,13,31,23
India,Karnataka,Davanagere,"Devaraj Urs Badavane, Davanagere - KSPCB",23-06-2024 16:00:00,14.475800,75.905200,PM2.5,4,26,18
India,Karnataka,Davanagere,"Devaraj Urs Badavane, Davanagere - KSPCB",23-06-2024 16:00:00,14.475800,75.905200,OZONE,21,23,22
India,Karnataka,Dharwad,"Kalabhavan, Dharwad - KSPCB",23-06-2024 16:00:00,15.459706,75.008381,NO2,4,11,7
India,Karnataka,Dharwad,"Kalabhavan, Dharwad - KSPCB",23-06-2024 16:00:00,15.459706,75.008381,NH3,3,3,3
India,Karnataka,Gadag,"Panchal Nagar, Gadag - KSPCB",23-06-2024 16:00:00,15.411456,75.638133,CO,46,52,48
India,Karnataka,Gadag,"Panchal Nagar, Gadag - KSPCB",23-06-2024 16:00:00,15.411456,75.638133,OZONE,5,8,6
India,Karnataka,Hassan,"B.Katihalli, Hassan - KSPCB",23-06-2024 16:00:00,13.008556,76.125258,SO2,13,31,20
India,Karnataka,Hubballi,"Lingaraj Nagar, Hubballi - KSPCB",23-06-2024 16:00:00,15.3714823,75.1160168,NH3,1,4,2
India,Karnataka,Hubballi,"Lingaraj Nagar, Hubballi - KSPCB",23-06-2024 16:00:00,15.3714823,75.1160168,CO,1,16,4
India,Karnataka,Kalaburagi,"Mahatma Basaveswar Colony, Kalaburgi - KSPCB",23-06-2024 16:00:00,17.336318,76.847397,PM10,15,63,32
India,Karnataka,Kalaburagi,"Mahatma Basaveswar Colony, Kalaburgi - KSPCB",23-06-2024 16:00:00,17.336318,76.847397,NO2,8,13,10
India,Karnataka,Karwar,"KHB Colony, Karwar - KSPCB",23-06-2024 16:00:00,14.816666,74.141003,NH3,NA,NA,NA
India,Karnataka,Kolar,"Tamaka Ind. Area, Kolar - KSPCB",23-06-2024 16:00:00,13.1276288,78.1570122,SO2,NA,NA,NA
India,Karnataka,Kolar,"Tamaka Ind. Area, Kolar - KSPCB",23-06-2024 16:00:00,13.1276288,78.1570122,CO,5,6,6
India,Karnataka,Koppal,"Diwator Nagar, Koppal - KSPCB",23-06-2024 16:00:00,15.347630,76.181767,PM2.5,4,21,11
India,Karnataka,Koppal,"Diwator Nagar, Koppal - KSPCB",23-06-2024 16:00:00,15.347630,76.181767,SO2,30,30,30
India,Karnataka,Koppal,"Diwator Nagar, Koppal - KSPCB",23-06-2024 16:00:00,15.347630,76.181767,OZONE,10,18,15
India,Karnataka,Madikeri,"Stuart Hill, Madikeri - KSPCB",23-06-2024 16:00:00,12.415911,75.735050,PM2.5,12,32,20
India,Karnataka,Madikeri,"Stuart Hill, Madikeri - KSPCB",23-06-2024 16:00:00,12.415911,75.735050,PM10,10,29,19
India,Karnataka,Madikeri,"Stuart Hill, Madikeri - KSPCB",23-06-2024 16:00:00,12.415911,75.735050,NO2,1,4,2
India,Karnataka,Mysuru,"Hebbal 1st Stage, Mysuru - KSPCB",23-06-2024 16:00:00,12.21041,76.37376,PM2.5,9,35,16
India,Karnataka,Mysuru,"Hebbal 1st Stage, Mysuru - KSPCB",23-06-2024 16:00:00,12.21041,76.37376,CO,2,31,13
India,Karnataka,Raichur,"Haji Colony, Raichur - KSPCB",23-06-2024 16:00:00,16.208139,77.348417,PM2.5,2,17,10
India,Karnataka,Raichur,"Haji Colony, Raichur - KSPCB",23-06-2024 16:00:00,16.208139,77.348417,NO2,10,23,16
India,Karnataka,Raichur,"Haji Colony, Raichur - KSPCB",23-06-2024 16:00:00,16.208139,77.348417,NH3,2,4,3
India,Karnataka,Ramanagara,"Vijay Nagar, Ramanagara - KSPCB",23-06-2024 16:00:00,12.733409,77.298051,SO2,16,43,28
India,Karnataka,Shivamogga,"Vinoba Nagara, Shivamogga - KSPCB",23-06-2024 16:00:00,13.940000,75.555917,PM10,45,77,57
India,Karnataka,Shivamogga,"Vinoba Nagara, Shivamogga - KSPCB",23-06-2024 16:00:00,13.940000,75.555917,OZONE,54,84,71
India,Karnataka,Tumakuru,"Thimmalapura, Tumakuru - KSPCB",23-06-2024 16:00:00,13.377516,77.099072,PM2.5,19,56,32
India,Karnataka,Tumakuru,"Thimmalapura, Tumakuru - KSPCB",23-06-2024 16:00:00,13.377516,77.099072,PM10,45,184,101
India,Karnataka,Udupi,"Brahmagiri, Udupi - KSPCB",23-06-2024 16:00:00,13.34194444,74.74694444,NH3,1,1,1
India,Karnataka,Vijayapura,"Ibrahimpur, Vijayapura - KSPCB",23-06-2024 16:00:00,16.802639,75.722694,NH3,2,2,2
India,Karnataka,Vijayapura,"Ibrahimpur, Vijayapura - KSPCB",23-06-2024 16:00:00,16.802639,75.722694,CO,102,102,102
India,Kerala,Eloor,"Udyogamandal, Eloor - Kerala PCB",23-06-2024 16:00:00,10.073232,76.302765,PM2.5,16,38,23
India,Kerala,Eloor,"Udyogamandal, Eloor - Kerala PCB",23-06-2024 16:00:00,10.073232,76.302765,PM10,25,45,29
India,Kerala,Kannur,"Thavakkara, Kannur - Kerala PCB",23-06-2024 16:00:00,11.875000,75.373200,PM2.5,39,48,45
India,Kerala,Kannur,"Thavakkara, Kannur - Kerala PCB",23-06-2024 16:00:00,11.875000,75.373200,PM10,37,45,42
India,Kerala,Thiruvananthapuram,"Kariavattom, Thiruvananthapuram - Kerala PCB",23-06-2024 16:00:00,8.563700,76.886500,PM10,51,60,56
India,Kerala,Thiruvananthapuram,"Kariavattom, Thiruvananthapuram - Kerala PCB",23-06-2024 16:00:00,8.563700,76.886500,NO2,6,7,6
India,Kerala,Thiruvananthapuram,"Plammoodu, Thiruvananthapuram - Kerala PCB",23-06-2024 16:00:00,8.5149093,76.9435879,PM2.5,NA,NA,NA
India,Kerala,Thiruvananthapuram,"Plammoodu, Thiruvananthapuram - Kerala PCB",23-06-2024 16:00:00,8.5149093,76.9435879,NH3,1,1,1
India,Kerala,Thrissur,"Corporation Ground, Thrissur - Kerala PCB",23-06-2024 16:00:00,10.532400,76.215900,PM2.5,44,51,48
India,Kerala,Thrissur,"Corporation Ground, Thrissur - Kerala PCB",23-06-2024 16:00:00,10.532400,76.215900,SO2,1,2,1
India,Madhya Pradesh,Bhopal,"Idgah Hills, Bhopal - MPPCB",23-06-2024 16:00:00,23.264759,77.381568,PM2.5,12,45,30
India,Madhya Pradesh,Bhopal,"Idgah Hills, Bhopal - MPPCB",23-06-2024 16:00:00,23.264759,77.381568,PM10,22,86,50
India,Madhya Pradesh,Bhopal,"Idgah Hills, Bhopal - MPPCB",23-06-2024 16:00:00,23.264759,77.381568,SO2,9,13,10
India,Madhya Pradesh,Bhopal,"Paryavaran Parisar, Bhopal - MPPCB",23-06-2024 16:00:00,23.210494,77.425409,CO,10,59,26
India,Madhya Pradesh,Bhopal,"T T Nagar, Bhopal - MPPCB",23-06-2024 16:00:00,23.233584,77.400574,NO2,23,42,29
India,Madhya Pradesh,Bhopal,"T T Nagar, Bhopal - MPPCB",23-06-2024 16:00:00,23.233584,77.400574,CO,24,100,37
India,Madhya Pradesh,Bhopal,"T T Nagar, Bhopal - MPPCB",23-06-2024 16:00:00,23.233584,77.400574,OZONE,2,27,19
India,Madhya Pradesh,Damoh,"Shrivastav Colony, Damoh - MPPCB",23-06-2024 16:00:00,23.81748678,79.446246,PM2.5,6,47,23
India,Madhya Pradesh,Damoh,"Shrivastav Colony, Damoh - MPPCB",23-06-2024 16:00:00,23.81748678,79.446246,PM10,5,40,20
India,Madhya Pradesh,Dewas,"Bhopal Chauraha, Dewas - MPPCB",23-06-2024 16:00:00,22.9682591,76.064118,SO2,13,34,29
India,Madhya Pradesh,Dewas,"Bhopal Chauraha, Dewas - MPPCB",23-06-2024 16:00:00,22.9682591,76.064118,CO,18,43,30
India,Madhya Pradesh,Dewas,"Bhopal Chauraha, Dewas - MPPCB",23-06-2024 16:00:00,22.9682591,76.064118,OZONE,18,43,28
India,Madhya Pradesh,Gwalior,"City Center, Gwalior - MPPCB",23-06-2024 16:00:00,26.203442,78.193251,NH3,2,2,2
India,Madhya Pradesh,Gwalior,"Deen Dayal Nagar, Gwalior - MPPCB",23-06-2024 16:00:00,26.259242,78.216432,SO2,7,20,13
India,Madhya Pradesh,Gwalior,"Maharaj Bada, Gwalior - MPPCB",23-06-2024 16:00:00,26.200388,78.147714,SO2,8,14,11
India,Madhya Pradesh,Gwalior,"Phool Bagh, Gwalior - Mondelez Ind. Food",23-06-2024 16:00:00,26.210536,78.171,SO2,23,28,25
India,Madhya Pradesh,Indore,"Chhoti Gwaltoli, Indore - MPPCB",23-06-2024 16:00:00,22.4310,75.5213,PM2.5,26,68,43
India,Madhya Pradesh,Indore,"Maguda Nagar, Indore - IMC",23-06-2024 16:00:00,22.7524,75.8872,PM10,NA,NA,NA
India,Madhya Pradesh,Indore,"Residency Area, Indore - IMC",23-06-2024 16:00:00,22.7084,75.8815,SO2,20,22,22
India,Madhya Pradesh,Jabalpur,"Govindh Bhavan Colony, Jabalpur - JMC",23-06-2024 16:00:00,23.163174,79.973061,NO2,NA,NA,NA
India,Madhya Pradesh,Jabalpur,"Marhatal, Jabalpur - MPPCB",23-06-2024 16:00:00,23.168606,79.932247,NO2,8,35,17
India,Madhya Pradesh,Jabalpur,"Marhatal, Jabalpur - MPPCB",23-06-2024 16:00:00,23.168606,79.932247,NH3,4,9,5
India,Madhya Pradesh,Katni,"Gole Bazar, Katni - MPPCB",23-06-2024 16:00:00,23.50016,80.23284,PM2.5,30,77,55
India,Madhya Pradesh,Mandideep,"Sector-D Industrial Area, Mandideep - MPPCB",23-06-2024 16:00:00,23.108440,77.511428,SO2,6,104,23
India,Madhya Pradesh,Pithampur,"Sector-2 Industrial Area, Pithampur - MPPCB",23-06-2024 16:00:00,22.624758,75.675238,PM2.5,30,75,47
India,Madhya Pradesh,Pithampur,"Sector-2 Industrial Area, Pithampur - MPPCB",23-06-2024 16:00:00,22.624758,75.675238,NO2,2,25,9
India,Madhya Pradesh,Pithampur,"Sector-2 Industrial Area, Pithampur - MPPCB",23-06-2024 16:00:00,22.624758,75.675238,NH3,4,4,4
India,Madhya Pradesh,Pithampur,"Sector-2 Industrial Area, Pithampur - MPPCB",23-06-2024 16:00:00,22.624758,75.675238,SO2,12,25,17
India,Madhya Pradesh,Ratlam,"Shasthri Nagar, Ratlam - IPCA Lab",23-06-2024 16:00:00,23.331731,75.045981,PM2.5,5,83,49
India,Madhya Pradesh,Sagar,"Civil Lines, Sagar - MPPCB",23-06-2024 16:00:00,23.838586,78.759431,SO2,3,8,5
India,Madhya Pradesh,Satna,"Bandhavgar Colony, Satna - Birla Cement",23-06-2024 16:00:00,24.58434363,80.8549414,PM2.5,2,32,15
India,Madhya Pradesh,Satna,"Bandhavgar Colony, Satna - Birla Cement",23-06-2024 16:00:00,24.58434363,80.8549414,NO2,14,46,24
India,Madhya Pradesh,Singrauli,"Suryakiran Bhawan NCL, Singrauli - MPPCB",23-06-2024 16:00:00,24.108970,82.645580,CO,57,120,98
India,Madhya Pradesh,Ujjain,"Mahakaleshwar Temple, Ujjain - MPPCB",23-06-2024 16:00:00,23.182719 ,75.768218 ,OZONE,47,64,48
India,Maharashtra,Akola,"Ramdaspeth, Akola - MPCB",23-06-2024 16:00:00,20.719516,77.000253,NO2,7,33,15
India,Maharashtra,Akola,"Ramdaspeth, Akola - MPCB",23-06-2024 16:00:00,20.719516,77.000253,CO,18,80,21
India,Maharashtra,Akola,"Ramdaspeth, Akola - MPCB",23-06-2024 16:00:00,20.719516,77.000253,OZONE,8,36,28
India,Maharashtra,Amravati,"Shri Shivaji Science College, Amaravati - MPCB",23-06-2024 16:00:00,20.939198,77.765701,NO2,4,32,12
India,Maharashtra,Amravati,"Shri Shivaji Science College, Amaravati - MPCB",23-06-2024 16:00:00,20.939198,77.765701,OZONE,4,30,23
India,Maharashtra,Aurangabad,"MIDC Chilkalthana, Aurangabad - MPCB",23-06-2024 16:00:00,19.875620,75.387310,OZONE,16,49,39
India,Maharashtra,Aurangabad,"More Chowk Waluj, Aurangabad - MPCB",23-06-2024 16:00:00,19.8389439,75.244448,PM10,23,61,39
India,Maharashtra,Belapur,"CBD Belapur, Belapur - MPCB",23-06-2024 16:00:00,19.0243902,73.0406721,PM10,44,74,57
India,Maharashtra,Belapur,"CBD Belapur, Belapur - MPCB",23-06-2024 16:00:00,19.0243902,73.0406721,NH3,1,1,1
India,Maharashtra,Belapur,"CBD Belapur, Belapur - MPCB",23-06-2024 16:00:00,19.0243902,73.0406721,SO2,6,7,7
India,Maharashtra,Belapur,"CBD Belapur, Belapur - MPCB",23-06-2024 16:00:00,19.0243902,73.0406721,CO,15,36,20
India,Maharashtra,Bhiwandi,"Gokul Nagar, Bhiwandi - MPCB",23-06-2024 16:00:00,19.309073,73.057223,PM2.5,30,188,98
India,Maharashtra,Bhiwandi,"Gokul Nagar, Bhiwandi - MPCB",23-06-2024 16:00:00,19.309073,73.057223,PM10,34,138,95
India,Maharashtra,Boisar,"Khaira, Boisar - MPCB",23-06-2024 16:00:00,19.786089,72.757971,PM10,7,203,77
India,Maharashtra,Boisar,"Khaira, Boisar - MPCB",23-06-2024 16:00:00,19.786089,72.757971,SO2,8,14,10
India,Maharashtra,Chandrapur,"Chauhan Colony, Chandrapur - MPCB",23-06-2024 16:00:00,19.962900,79.298714,PM2.5,2,61,19
India,Maharashtra,Dhule,"Deopur, Dhule - MPCB",23-06-2024 16:00:00,20.918946,74.776388,OZONE,1,12,9
India,Maharashtra,Jalgaon,"Prabhat Colony, Jalgaon - MPCB",23-06-2024 16:00:00,21.001264,75.565602,NO2,4,23,9
India,Maharashtra,Jalna,"Old MIDC, Jalna - MPCB",23-06-2024 16:00:00,19.854616,75.905894,PM10,55,113,79
India,Maharashtra,Jalna,"Old MIDC, Jalna - MPCB",23-06-2024 16:00:00,19.854616,75.905894,NO2,22,27,24
India,Maharashtra,Jalna,"Old MIDC, Jalna - MPCB",23-06-2024 16:00:00,19.854616,75.905894,NH3,1,2,1
India,Maharashtra,Kalyan,"Khadakpada, Kalyan - MPCB",23-06-2024 16:00:00,19.25292,73.142019,NH3,1,1,1
India,Maharashtra,Kolhapur,"Shivaji University, Kolhapur - MPCB",23-06-2024 16:00:00,16.6870449,74.2505872,OZONE,21,39,36
India,Maharashtra,Kolhapur,"Sinchan Bhavan, Kolhapur - MPCB",23-06-2024 16:00:00,16.7143745,74.2426398,NO2,1,10,5
India,Maharashtra,Latur,"Sawe Wadi, Latur - MPCB",23-06-2024 16:00:00,18.39963,76.57452,OZONE,13,45,35
India,Maharashtra,Malegaon,"Mahesh Nagar, Malegaon - MPCB",23-06-2024 16:00:00,20.555712,74.529236,CO,9,22,14
India,Maharashtra,Mira-Bhayandar,"Bhayandar West, Mira-Bhayandar - MPCB",23-06-2024 16:00:00,19.296481,72.840923,NH3,5,8,6
India,Maharashtra,Mumbai,"Byculla, Mumbai - BMC",23-06-2024 16:00:00,18.9767,72.8380,PM10,25,58,41
India,Maharashtra,Mumbai,"Byculla, Mumbai - BMC",23-06-2024 16:00:00,18.9767,72.8380,NO2,23,24,24
India,Maharashtra,Mumbai,"Chakala-Andheri East, Mumbai - IITM",23-06-2024 16:00:00,19.11074,72.86084,OZONE,7,47,32
India,Maharashtra,Mumbai,"Chembur, Mumbai - MPCB",23-06-2024 16:00:00,19.0364585,72.8954371,PM2.5,30,56,43
India,Maharashtra,Mumbai,"Chembur, Mumbai - MPCB",23-06-2024 16:00:00,19.0364585,72.8954371,OZONE,7,191,49
India,Maharashtra,Mumbai,"Chhatrapati Shivaji Intl. Airport (T2), Mumbai - MPCB",23-06-2024 16:00:00,19.10078,72.87462,OZONE,11,11,11
India,Maharashtra,Mumbai,"Ghatkopar, Mumbai - BMC",23-06-2024 16:00:00,19.083694,72.920967,CO,1,33,9
India,Maharashtra,Mumbai,"Kandivali East, Mumbai - MPCB",23-06-2024 16:00:00,19.205800,72.868200,NO2,20,49,36
India,Maharashtra,Mumbai,"Kandivali East, Mumbai - MPCB",23-06-2024 16:00:00,19.205800,72.868200,CO,36,41,37
India,Maharashtra,Mumbai,"Kandivali West, Mumbai - BMC",23-06-2024 16:00:00,19.215859,72.831718,NH3,NA,NA,NA
India,Maharashtra,Mumbai,"Kandivali West, Mumbai - BMC",23-06-2024 16:00:00,19.215859,72.831718,SO2,1,3,1
India,Maharashtra,Mumbai,"Kherwadi_Bandra East, Mumbai - MPCB",23-06-2024 16:00:00,19.0632143,72.8456324,PM2.5,40,70,54
India,Maharashtra,Mumbai,"Khindipada-Bhandup West, Mumbai - IITM",23-06-2024 16:00:00,19.1653323,72.922099,PM2.5,6,33,18
India,Maharashtra,Mumbai,"Khindipada-Bhandup West, Mumbai - IITM",23-06-2024 16:00:00,19.1653323,72.922099,NO2,2,9,6
India,Maharashtra,Mumbai,"Khindipada-Bhandup West, Mumbai - IITM",23-06-2024 16:00:00,19.1653323,72.922099,NH3,1,6,3
India,Maharashtra,Mumbai,"Khindipada-Bhandup West, Mumbai - IITM",23-06-2024 16:00:00,19.1653323,72.922099,OZONE,4,33,18
India,Maharashtra,Mumbai,"Kurla, Mumbai - MPCB",23-06-2024 16:00:00,19.0863,72.8888,OZONE,28,29,28
India,Maharashtra,Mumbai,"Malad West, Mumbai - IITM",23-06-2024 16:00:00,19.19709,72.82204,CO,2,2,2
India,Maharashtra,Mumbai,"Mazgaon, Mumbai - IITM",23-06-2024 16:00:00,18.96702,72.84214,SO2,NA,NA,NA
India,Maharashtra,Mumbai,"Mazgaon, Mumbai - IITM",23-06-2024 16:00:00,18.96702,72.84214,CO,11,60,24
India,Maharashtra,Mumbai,"Mulund West, Mumbai - MPCB",23-06-2024 16:00:00,19.1750,72.9419,PM2.5,16,35,26
India,Maharashtra,Mumbai,"Navy Nagar-Colaba, Mumbai - IITM",23-06-2024 16:00:00,18.897756,72.813320,NH3,6,9,6
India,Maharashtra,Mumbai,"Powai, Mumbai - MPCB",23-06-2024 16:00:00,19.137500,72.915056,PM10,NA,NA,NA
India,Maharashtra,Mumbai,"Powai, Mumbai - MPCB",23-06-2024 16:00:00,19.137500,72.915056,SO2,14,16,15
India,Maharashtra,Mumbai,"Siddharth Nagar-Worli, Mumbai - IITM",23-06-2024 16:00:00,19.000083,72.813993,CO,38,74,54
India,Maharashtra,Mumbai,"Sion, Mumbai - MPCB",23-06-2024 16:00:00,19.047000,72.874600,PM10,37,108,82
India,Maharashtra,Mumbai,"Sion, Mumbai - MPCB",23-06-2024 16:00:00,19.047000,72.874600,CO,46,72,51
India,Maharashtra,Mumbai,"Vasai West, Mumbai - MPCB",23-06-2024 16:00:00,19.383200,72.820400,CO,12,70,15
India,Maharashtra,Mumbai,"Worli, Mumbai - MPCB",23-06-2024 16:00:00,18.9936162,72.8128113,PM2.5,7,58,34
India,Maharashtra,Mumbai,"Worli, Mumbai - MPCB",23-06-2024 16:00:00,18.9936162,72.8128113,OZONE,3,10,7
India,Maharashtra,Nagpur,"Ambazari, Nagpur - MPCB",23-06-2024 16:00:00,21.121801,79.04952,NH3,2,6,3
India,Maharashtra,Nagpur,"Ambazari, Nagpur - MPCB",23-06-2024 16:00:00,21.121801,79.04952,CO,13,50,24
India,Maharashtra,Nagpur,"Mahal, Nagpur - MPCB",23-06-2024 16:00:00,21.14472,79.107595,PM2.5,23,50,35
India,Maharashtra,Nagpur,"Mahal, Nagpur - MPCB",23-06-2024 16:00:00,21.14472,79.107595,PM10,33,59,46
India,Maharashtra,Nagpur,"Mahal, Nagpur - MPCB",23-06-2024 16:00:00,21.14472,79.107595,NH3,1,4,3
India,Maharashtra,Nagpur,"Opp GPO Civil Lines, Nagpur - MPCB",23-06-2024 16:00:00,21.152875,79.0517531,PM10,26,75,55
India,Maharashtra,Nanded,"Sneh Nagar, Nanded - MPCB",23-06-2024 16:00:00,19.173852,77.296291,SO2,12,20,17
India,Maharashtra,Nanded,"Sneh Nagar, Nanded - MPCB",23-06-2024 16:00:00,19.173852,77.296291,OZONE,14,63,39
India,Maharashtra,Nashik,"Gangapur Road, Nashik - MPCB",23-06-2024 16:00:00,20.0073285,73.7762427,NH3,1,4,2
India,Maharashtra,Nashik,"Gangapur Road, Nashik - MPCB",23-06-2024 16:00:00,20.0073285,73.7762427,CO,16,62,41
India,Maharashtra,Nashik,"Gangapur Road, Nashik - MPCB",23-06-2024 16:00:00,20.0073285,73.7762427,OZONE,10,45,31
India,Maharashtra,Nashik,"Hirawadi, Nashik - MPCB",23-06-2024 16:00:00,20.021503,73.813844,SO2,6,20,14
India,Maharashtra,Nashik,"MIDC Ambad, Nashik - MPCB",23-06-2024 16:00:00,19.950220,73.731480,NO2,NA,NA,NA
India,Maharashtra,Nashik,"MIDC Ambad, Nashik - MPCB",23-06-2024 16:00:00,19.950220,73.731480,OZONE,29,43,37
India,Maharashtra,Nashik,"Pandav Nagari, Nashik - MPCB",23-06-2024 16:00:00,19.9591346,73.7788008,PM2.5,32,60,45
India,Maharashtra,Nashik,"Pandav Nagari, Nashik - MPCB",23-06-2024 16:00:00,19.9591346,73.7788008,NH3,2,8,4
India,Maharashtra,Nashik,"Pandav Nagari, Nashik - MPCB",23-06-2024 16:00:00,19.9591346,73.7788008,SO2,14,19,16
India,Maharashtra,Navi Mumbai,"Kopripada-Vashi, Navi Mumbai - MPCB",23-06-2024 16:00:00,19.090337,73.014232,PM10,40,152,87
India,Maharashtra,Navi Mumbai,"Kopripada-Vashi, Navi Mumbai - MPCB",23-06-2024 16:00:00,19.090337,73.014232,NH3,5,18,10
India,Maharashtra,Navi Mumbai,"Kopripada-Vashi, Navi Mumbai - MPCB",23-06-2024 16:00:00,19.090337,73.014232,CO,7,52,14
India,Maharashtra,Navi Mumbai,"Kopripada-Vashi, Navi Mumbai - MPCB",23-06-2024 16:00:00,19.090337,73.014232,OZONE,3,40,21
India,Maharashtra,Navi Mumbai,"Mahape, Navi Mumbai - MPCB",23-06-2024 16:00:00,19.1135051,73.008978,OZONE,20,58,20
India,Maharashtra,Navi Mumbai,"Sanpada, Navi Mumbai - MPCB",23-06-2024 16:00:00,19.0575752,73.0151367,PM2.5,15,65,36
India,Maharashtra,Navi Mumbai,"Sanpada, Navi Mumbai - MPCB",23-06-2024 16:00:00,19.0575752,73.0151367,PM10,32,103,68
India,Maharashtra,Navi Mumbai,"Sector-19A Nerul, Navi Mumbai - IITM",23-06-2024 16:00:00,19.044,73.0325,NH3,1,3,2
India,Maharashtra,Navi Mumbai,"Sector-2E Kalamboli, Navi Mumbai - MPCB",23-06-2024 16:00:00,19.02579,73.10297,OZONE,3,24,10
India,Maharashtra,Navi Mumbai,"Tondare-Taloja, Navi Mumbai - MPCB",23-06-2024 16:00:00,19.0630,73.1209,OZONE,17,108,46
India,Maharashtra,Pimpri-Chinchwad,"Gavalinagar, Pimpri Chinchwad - MPCB",23-06-2024 16:00:00,18.63673,73.82487,SO2,2,3,3
India,Maharashtra,Pune,"Alandi, Pune - IITM",23-06-2024 16:00:00,18.675076,73.892743,OZONE,15,86,57
India,Maharashtra,Pune,"Bhosari, Pune - IITM",23-06-2024 16:00:00,18.640051,73.848956,PM2.5,12,33,20
India,Maharashtra,Pune,"Bhumkar Nagar, Pune - IITM",23-06-2024 16:00:00,18.605770,73.749976,NO2,NA,NA,NA
India,Maharashtra,Pune,"Bhumkar Nagar, Pune - IITM",23-06-2024 16:00:00,18.605770,73.749976,CO,NA,NA,NA
India,Maharashtra,Pune,"Karve Road, Pune - MPCB",23-06-2024 16:00:00,18.5011743,73.8165527,PM10,10,94,53
India,Maharashtra,Pune,"Mhada Colony, Pune - IITM",23-06-2024 16:00:00,18.573040,73.927715,OZONE,3,63,35
India,Maharashtra,Pune,"Revenue Colony-Shivajinagar, Pune - IITM",23-06-2024 16:00:00,18.530085,73.849598,PM2.5,26,71,52
India,Maharashtra,Pune,"Revenue Colony-Shivajinagar, Pune - IITM",23-06-2024 16:00:00,18.530085,73.849598,CO,16,28,25
India,Maharashtra,Pune,"Revenue Colony-Shivajinagar, Pune - IITM",23-06-2024 16:00:00,18.530085,73.849598,OZONE,8,49,25
India,Maharashtra,Sangli,"Vijay Nagar, Sangli - MPCB",23-06-2024 16:00:00, 16.5038,74.3623,CO,8,20,12
India,Maharashtra,Solapur,"Dnyaneshwar Nagar, Solapur - MPCB",23-06-2024 16:00:00,17.6336264,75.9132495,PM2.5,17,69,38
India,Maharashtra,Solapur,"Dnyaneshwar Nagar, Solapur - MPCB",23-06-2024 16:00:00,17.6336264,75.9132495,PM10,34,92,59
India,Maharashtra,Solapur,"Dnyaneshwar Nagar, Solapur - MPCB",23-06-2024 16:00:00,17.6336264,75.9132495,NH3,10,17,12
India,Maharashtra,Solapur,"Ratandeep Housing Society, Solapur - MPCB",23-06-2024 16:00:00,17.65439,75.90649,PM2.5,31,48,39
India,Maharashtra,Solapur,"Ratandeep Housing Society, Solapur - MPCB",23-06-2024 16:00:00,17.65439,75.90649,NH3,7,12,9
India,Maharashtra,Solapur,"Solapur, Solapur - MPCB",23-06-2024 16:00:00,17.6599188,75.9063906,PM2.5,38,44,39
India,Maharashtra,Thane,"Upvan Fort, Thane - MPCB",23-06-2024 16:00:00,19.222279,72.957979,PM10,25,56,42
India,Maharashtra,Ulhasnagar,"Sidhi Vinayak Nagar, Ulhasnagar - MPCB",23-06-2024 16:00:00,19.235581,73.159121,NO2,9,11,10
India,Manipur,Imphal,"Manipur University, Imphal - Manipur PCB",23-06-2024 16:00:00,24.7524239,93.9286218,PM2.5,1,83,27
India,Manipur,Imphal,"Manipur University, Imphal - Manipur PCB",23-06-2024 16:00:00,24.7524239,93.9286218,NO2,6,15,9
India,Manipur,Imphal,"Manipur University, Imphal - Manipur PCB",23-06-2024 16:00:00,24.7524239,93.9286218,CO,6,30,9
India,Meghalaya,Shillong,"Lumpyngngad, Shillong - Meghalaya PCB",23-06-2024 16:00:00,25.5586,91.8985,PM10,NA,NA,NA
India,Meghalaya,Shillong,"Lumpyngngad, Shillong - Meghalaya PCB",23-06-2024 16:00:00,25.5586,91.8985,SO2,36,36,36
India,Meghalaya,Shillong,"Lumpyngngad, Shillong - Meghalaya PCB",23-06-2024 16:00:00,25.5586,91.8985,CO,4,16,8
India,Mizoram,Aizawl,"Sikulpuikawn, Aizawl - Mizoram PCB",23-06-2024 16:00:00,23.7176342,92.7192841,PM2.5,NA,NA,NA
India,Mizoram,Aizawl,"Sikulpuikawn, Aizawl - Mizoram PCB",23-06-2024 16:00:00,23.7176342,92.7192841,NO2,NA,NA,NA
India,Mizoram,Aizawl,"Sikulpuikawn, Aizawl - Mizoram PCB",23-06-2024 16:00:00,23.7176342,92.7192841,SO2,2,3,3
India,Odisha,Angul,"Hakimapada, Angul - OSPCB",23-06-2024 16:00:00,20.832874,85.104082,PM2.5,12,80,41
India,Odisha,Angul,"Hakimapada, Angul - OSPCB",23-06-2024 16:00:00,20.832874,85.104082,PM10,12,90,48
India,Odisha,Angul,"Hakimapada, Angul - OSPCB",23-06-2024 16:00:00,20.832874,85.104082,NH3,1,1,1
India,Odisha,Balasore,"Kalidaspur, Balasore - OSPCB",23-06-2024 16:00:00,21.51161,86.89088,NO2,5,40,19
India,Odisha,Barbil,"Forest Office, Barbil - OSPCB",23-06-2024 16:00:00,22.1166054,85.3945546,SO2,4,12,8
India,Odisha,Baripada,"Meher Colony, Baripada - OSPCB",23-06-2024 16:00:00,21.941841,86.728318,SO2,8,10,9
India,Odisha,Bhubaneswar,"Lingraj Mandir, Bhubaneswar - OSPCB",23-06-2024 16:00:00,20.240790,85.836784,NO2,6,20,12
India,Odisha,Bhubaneswar,"Patia, Bhubaneswar - OSPCB",23-06-2024 16:00:00,20.34652,85.81630,NH3,1,2,1
India,Odisha,Bileipada,"Tata Township, Bileipada - OSPCB",23-06-2024 16:00:00,22.06156703,85.47409613,SO2,NA,NA,NA
India,Odisha,Bileipada,"Tata Township, Bileipada - OSPCB",23-06-2024 16:00:00,22.06156703,85.47409613,OZONE,NA,NA,NA
India,Odisha,Brajrajnagar,"GM Office, Brajrajnagar - OSPCB",23-06-2024 16:00:00,21.8004996,83.8396977,NO2,18,25,20
India,Odisha,Brajrajnagar,"GM Office, Brajrajnagar - OSPCB",23-06-2024 16:00:00,21.8004996,83.8396977,OZONE,65,272,85
India,Odisha,Byasanagar,"Ferro Chrome Colony, Byasanagar - OSPCB",23-06-2024 16:00:00,20.94185,86.11510,NO2,6,15,8
India,Odisha,Byasanagar,"Ferro Chrome Colony, Byasanagar - OSPCB",23-06-2024 16:00:00,20.94185,86.11510,CO,22,30,25
India,Odisha,Cuttack,"CDA Area, Cuttack - OSPCB",23-06-2024 16:00:00,20.48891     ,85.84768     ,PM2.5,13,43,29
India,Odisha,Keonjhar,"Jagamohanpur, Keonjhar - OSPCB",23-06-2024 16:00:00,21.643900,85.599355,OZONE,1,3,2
India,Odisha,Nayagarh,"Dabuna, Nayagarh - OSPCB",23-06-2024 16:00:00,21.847279,85.416905,NO2,4,10,5
India,Odisha,Rairangpur,"Divisional Forest Office, Rairangpur - OSPCB",23-06-2024 16:00:00,22.265816,86.174829,PM10,34,61,49
India,Odisha,Rairangpur,"Divisional Forest Office, Rairangpur - OSPCB",23-06-2024 16:00:00,22.265816,86.174829,NO2,2,3,2
India,Odisha,Rairangpur,"Divisional Forest Office, Rairangpur - OSPCB",23-06-2024 16:00:00,22.265816,86.174829,NH3,4,4,4
India,Odisha,Rourkela,"Raghunathpali, Rourkela - OSPCB",23-06-2024 16:00:00,22.220833,84.809444,PM10,38,65,52
India,Odisha,Rourkela,"Sector-2, Rourkela - OSPCB",23-06-2024 16:00:00,22.24500000,84.88111111,PM10,28,64,40
India,Odisha,Rourkela,"Sector-2, Rourkela - OSPCB",23-06-2024 16:00:00,22.24500000,84.88111111,NO2,28,121,50
India,Odisha,Suakati,"OMC Colony, Suakati - OSPCB",23-06-2024 16:00:00,21.606865,85.510538,PM10,37,57,45
India,Odisha,Suakati,"OMC Colony, Suakati - OSPCB",23-06-2024 16:00:00,21.606865,85.510538,CO,12,12,12
India,Odisha,Talcher,"Talcher Coalfields,Talcher - OSPCB",23-06-2024 16:00:00,20.9360711,85.1707021,OZONE,24,76,61
India,Puducherry,Puducherry,"Jawahar Nagar, Puducherry - PPCC",23-06-2024 16:00:00,11.9309,79.8027,PM10,19,59,32
India,Punjab,Jalandhar,"Civil Line, Jalandhar - PPCB",23-06-2024 16:00:00,31.321907,75.578914,CO,22,56,30
India,Punjab,Ludhiana,"Punjab Agricultural University, Ludhiana - PPCB",23-06-2024 16:00:00,30.9028,75.8086,PM10,66,409,139
India,Punjab,Ludhiana,"Punjab Agricultural University, Ludhiana - PPCB",23-06-2024 16:00:00,30.9028,75.8086,CO,22,120,36
India,Punjab,Patiala,"Model Town, Patiala - PPCB",23-06-2024 16:00:00,30.349388,76.366642,NH3,4,5,5
India,Punjab,Patiala,"Model Town, Patiala - PPCB",23-06-2024 16:00:00,30.349388,76.366642,CO,18,49,28
India,Punjab,Rupnagar,"Ratanpura, Rupnagar - Ambuja Cements",23-06-2024 16:00:00,31.0325454,76.5623046,PM10,61,192,93
India,Rajasthan,Ajmer,"Civil Lines,  Ajmer - RSPCB",23-06-2024 16:00:00,26.470859,74.646594,PM2.5,58,242,125
India,Rajasthan,Baran,"Bamboliya, Baran - RSPCB",23-06-2024 16:00:00,25.106006,76.469948,PM2.5,18,73,45
India,Rajasthan,Baran,"Bamboliya, Baran - RSPCB",23-06-2024 16:00:00,25.106006,76.469948,SO2,5,8,6
India,Rajasthan,Barmer,"Railway Colony, Barmer - RSPCB",23-06-2024 16:00:00,25.747299,71.393989,NH3,4,26,12
India,Rajasthan,Barmer,"Railway Colony, Barmer - RSPCB",23-06-2024 16:00:00,25.747299,71.393989,SO2,5,13,8
India,Rajasthan,Bhiwadi,"RIICO Ind. Area III, Bhiwadi - RSPCB",23-06-2024 16:00:00,28.194909,76.862296,PM2.5,37,311,152
India,Rajasthan,Bhiwadi,"RIICO Ind. Area III, Bhiwadi - RSPCB",23-06-2024 16:00:00,28.194909,76.862296,CO,8,108,65
India,Rajasthan,Bikaner,"MM Ground, Bikaner - RSPCB",23-06-2024 16:00:00,28.018792,73.292658,PM10,90,340,167
India,Rajasthan,Bundi,"New Colony, Bundi - RSPCB",23-06-2024 16:00:00,25.435774,75.644272,PM2.5,18,31,23
India,Rajasthan,Chittorgarh,"Shastri Nagar, Chittorgarh - RSPCB",23-06-2024 16:00:00,24.892047,74.623527,PM10,NA,NA,NA
India,Rajasthan,Chittorgarh,"Shastri Nagar, Chittorgarh - RSPCB",23-06-2024 16:00:00,24.892047,74.623527,SO2,NA,NA,NA
India,Rajasthan,Chittorgarh,"Shastri Nagar, Chittorgarh - RSPCB",23-06-2024 16:00:00,24.892047,74.623527,OZONE,81,107,91
India,Rajasthan,Dholpur,"Raja Ganj, Dholpur - RSPCB",23-06-2024 16:00:00,26.699557,77.898881,OZONE,12,185,66
India,Rajasthan,Hanumangarh,"Housing Board, Hanumangarh - RSPCB",23-06-2024 16:00:00,29.610750,74.283608,OZONE,17,79,56
India,Rajasthan,Jaipur,"Mansarovar Sector-12, Jaipur - RSPCB",23-06-2024 16:00:00,26.843698,75.766894,NH3,7,10,8
India,Rajasthan,Jaipur,"Police Commissionerate, Jaipur - RSPCB",23-06-2024 16:00:00,26.9164092,75.7994901,PM2.5,59,312,143
India,Rajasthan,Jaipur,"Police Commissionerate, Jaipur - RSPCB",23-06-2024 16:00:00,26.9164092,75.7994901,OZONE,61,203,108
India,Rajasthan,Jaipur,"RIICO Sitapura, Jaipur - RSPCB",23-06-2024 16:00:00,26.786682,75.827928,PM2.5,44,83,61
India,Rajasthan,Jaipur,"RIICO Sitapura, Jaipur - RSPCB",23-06-2024 16:00:00,26.786682,75.827928,CO,28,64,46
India,Rajasthan,Jaipur,"RIICO Sitapura, Jaipur - RSPCB",23-06-2024 16:00:00,26.786682,75.827928,OZONE,58,307,169
India,Rajasthan,Jaipur,"Shastri Nagar, Jaipur - RSPCB",23-06-2024 16:00:00,26.9502929,75.730943,PM2.5,59,118,87
India,Rajasthan,Jaipur,"Shastri Nagar, Jaipur - RSPCB",23-06-2024 16:00:00,26.9502929,75.730943,NO2,22,68,38
India,Rajasthan,Jaipur,"Shastri Nagar, Jaipur - RSPCB",23-06-2024 16:00:00,26.9502929,75.730943,OZONE,39,81,59
India,Rajasthan,Jaisalmer,"Sadar Bazar, Jaisalmer - RSPCB",23-06-2024 16:00:00,26.912329,70.909168,SO2,3,4,3
India,Rajasthan,Jhalawar,"Rajlaxmi Nagar, Jhalawar - RSPCB",23-06-2024 16:00:00,24.588397,76.172782,CO,8,40,15
India,Rajasthan,Jhalawar,"Rajlaxmi Nagar, Jhalawar - RSPCB",23-06-2024 16:00:00,24.588397,76.172782,OZONE,26,113,70
India,Rajasthan,Jhunjhunu,"Indra Nagar, Jhunjhunu - RSPCB",23-06-2024 16:00:00,28.108988,75.386577,CO,13,40,27
India,Rajasthan,Jhunjhunu,"Indra Nagar, Jhunjhunu - RSPCB",23-06-2024 16:00:00,28.108988,75.386577,OZONE,13,156,150
India,Rajasthan,Jodhpur,"Jhalamand, Jodhpur - RSPCB",23-06-2024 16:00:00,26.215415,73.070156,PM2.5,27,71,40
India,Rajasthan,Jodhpur,"Jhalamand, Jodhpur - RSPCB",23-06-2024 16:00:00,26.215415,73.070156,NO2,4,31,16
India,Rajasthan,Jodhpur,"Jhalamand, Jodhpur - RSPCB",23-06-2024 16:00:00,26.215415,73.070156,SO2,3,5,4
India,Rajasthan,Jodhpur,"Mandor, Jodhpur - RSPCB",23-06-2024 16:00:00,26.358805,73.047444,NO2,22,30,25
India,Rajasthan,Jodhpur,"Samrat Ashok Udhyan, Jodhpur - RSPCB",23-06-2024 16:00:00,26.253384,72.976571,NH3,3,10,4
India,Rajasthan,Karauli,"Satyawati Vihar, Karauli - RSPCB",23-06-2024 16:00:00,26.506177,77.025989,PM10,35,125,60
India,Rajasthan,Karauli,"Satyawati Vihar, Karauli - RSPCB",23-06-2024 16:00:00,26.506177,77.025989,NH3,4,7,6
India,Rajasthan,Karauli,"Satyawati Vihar, Karauli - RSPCB",23-06-2024 16:00:00,26.506177,77.025989,OZONE,9,132,64
India,Rajasthan,Kota,"Dhanmandi, Kota - RSPCB",23-06-2024 16:00:00,25.164090,75.858137,OZONE,2,88,41
India,Rajasthan,Kota,"Nayapura, Kota - RSPCB",23-06-2024 16:00:00,25.196024,75.855668,PM10,34,137,80
India,Rajasthan,Kota,"Nayapura, Kota - RSPCB",23-06-2024 16:00:00,25.196024,75.855668,NH3,5,8,6
India,Rajasthan,Kota,"Shrinath Puram, Kota - RSPCB",23-06-2024 16:00:00,25.14389,75.821256,PM2.5,32,148,73
India,Rajasthan,Nagaur,"Karni Colony, Nagaur - RSPCB",23-06-2024 16:00:00,27.213494,73.734444,PM10,80,130,109
India,Rajasthan,Nagaur,"Karni Colony, Nagaur - RSPCB",23-06-2024 16:00:00,27.213494,73.734444,SO2,2,7,5
India,Rajasthan,Pali,"Indira Colony Vistar, Pali - RSPCB",23-06-2024 16:00:00,25.771061, 73.340227,PM2.5,40,270,108
India,Rajasthan,Pali,"Indira Colony Vistar, Pali - RSPCB",23-06-2024 16:00:00,25.771061, 73.340227,PM10,95,180,122
India,Rajasthan,Pali,"Indira Colony Vistar, Pali - RSPCB",23-06-2024 16:00:00,25.771061, 73.340227,CO,4,98,51
India,Rajasthan,Pratapgarh,"Pragati Nagar, Pratapgarh - RSPCB",23-06-2024 16:00:00,24.041198,74.780702,NH3,4,6,5
India,Rajasthan,Pratapgarh,"Pragati Nagar, Pratapgarh - RSPCB",23-06-2024 16:00:00,24.041198,74.780702,SO2,1,4,2
India,Rajasthan,Rajsamand,"Dhoinda, Rajsamand - RSPCB",23-06-2024 16:00:00,25.036360,73.883502,PM10,46,129,77
India,Rajasthan,Sawai Madhopur,"Sahu Nagar, Sawai Madhopur - RSPCB",23-06-2024 16:00:00,26.031443,76.359327,NO2,14,22,18
India,Rajasthan,Sawai Madhopur,"Sahu Nagar, Sawai Madhopur - RSPCB",23-06-2024 16:00:00,26.031443,76.359327,CO,40,54,51
India,Rajasthan,Sawai Madhopur,"Sahu Nagar, Sawai Madhopur - RSPCB",23-06-2024 16:00:00,26.031443,76.359327,OZONE,17,126,90
India,Rajasthan,Sikar,"Radhakishan Pura, Sikar - RSPCB",23-06-2024 16:00:00,27.608912,75.153302,PM2.5,41,136,74
India,Rajasthan,Sikar,"Radhakishan Pura, Sikar - RSPCB",23-06-2024 16:00:00,27.608912,75.153302,NO2,13,39,25
India,Rajasthan,Sikar,"Radhakishan Pura, Sikar - RSPCB",23-06-2024 16:00:00,27.608912,75.153302,CO,26,42,32
India,Rajasthan,Sirohi,"Vedhaynath Colony, Sirohi - RSPCB",23-06-2024 16:00:00,24.885261,72.857549,NH3,1,16,5
India,Rajasthan,Sirohi,"Vedhaynath Colony, Sirohi - RSPCB",23-06-2024 16:00:00,24.885261,72.857549,CO,11,36,18
India,Rajasthan,Sri Ganganagar,"Old City, Sri Ganganagar - RSPCB",23-06-2024 16:00:00,29.931624,73.864511,PM10,NA,NA,NA
India,Rajasthan,Tonk,"Shastri Nagar, Tonk - RSPCB",23-06-2024 16:00:00,26.159933,75.780517,PM2.5,18,72,43
India,Rajasthan,Tonk,"Shastri Nagar, Tonk - RSPCB",23-06-2024 16:00:00,26.159933,75.780517,NH3,2,5,3
India,Rajasthan,Udaipur,"Ashok Nagar, Udaipur - RSPCB",23-06-2024 16:00:00,24.5886166,73.6321397,PM2.5,50,172,101
India,Rajasthan,Udaipur,"Ashok Nagar, Udaipur - RSPCB",23-06-2024 16:00:00,24.5886166,73.6321397,CO,5,98,24
India,Sikkim,Gangtok,"Zero Point GICI, Gangtok - SSPCB",23-06-2024 16:00:00,27.338530,88.614099,PM2.5,8,18,13
India,TamilNadu,Ariyalur,"Keelapalur, Ariyalur - TNPCB",23-06-2024 16:00:00,11.06825,79.07033,NO2,6,7,6
India,TamilNadu,Chennai,"Arumbakkam, Chennai - TNPCB",23-06-2024 16:00:00,13.0664,80.2112 ,PM2.5,12,51,22
India,TamilNadu,Chennai,"Manali, Chennai - CPCB",23-06-2024 16:00:00,13.164544,80.26285,OZONE,6,25,8
India,TamilNadu,Chennai,"Perungudi, Chennai - TNPCB",23-06-2024 16:00:00,12.9533,80.2357,PM10,18,112,48
India,TamilNadu,Chennai,"Perungudi, Chennai - TNPCB",23-06-2024 16:00:00,12.9533,80.2357,CO,29,36,30
India,TamilNadu,Chennai,"Royapuram, Chennai - TNPCB",23-06-2024 16:00:00,13.1036,80.2909,NO2,13,37,25
India,TamilNadu,Chennai,"Royapuram, Chennai - TNPCB",23-06-2024 16:00:00,13.1036,80.2909,SO2,2,16,4
India,TamilNadu,Chennai,"Royapuram, Chennai - TNPCB",23-06-2024 16:00:00,13.1036,80.2909,OZONE,5,8,7
India,TamilNadu,Chennai,"Velachery Res. Area, Chennai - CPCB",23-06-2024 16:00:00,13.0052189,80.2398125,PM2.5,18,52,33
India,TamilNadu,Chennai,"Velachery Res. Area, Chennai - CPCB",23-06-2024 16:00:00,13.0052189,80.2398125,SO2,1,70,19
India,TamilNadu,Chennai,"Velachery Res. Area, Chennai - CPCB",23-06-2024 16:00:00,13.0052189,80.2398125,OZONE,1,17,14
India,TamilNadu,Cuddalore,"Kudikadu, Cuddalore - TNPCB",23-06-2024 16:00:00,11.6829898,79.7532099,SO2,11,11,11
India,TamilNadu,Ooty,"Bombay Castel, Ooty - TNPCB",23-06-2024 16:00:00,11.4068288,76.7138973,PM2.5,5,43,20
India,TamilNadu,Ooty,"Bombay Castel, Ooty - TNPCB",23-06-2024 16:00:00,11.4068288,76.7138973,NH3,NA,NA,NA
India,TamilNadu,Ramanathapuram,"Chalai Bazaar, Ramanathapuram - TNPCB",23-06-2024 16:00:00,9.36399,78.831977,CO,NA,NA,NA
India,TamilNadu,Thoothukudi,"Meelavittan, Thoothukudi - TNPCB",23-06-2024 16:00:00,8.816428 ,78.099039,CO,8,43,16
India,TamilNadu,Thoothukudi,"Meelavittan, Thoothukudi - TNPCB",23-06-2024 16:00:00,8.816428 ,78.099039,OZONE,1,3,1
India,TamilNadu,Tirupur,"Kumaran College, Tirupur - TNPCB",23-06-2024 16:00:00,11.0973603,77.3228673,NO2,2,11,7
India,TamilNadu,Vellore,"Vasanthapuram, Vellore - TNPCB",23-06-2024 16:00:00,12.909494,79.131861,PM10,NA,NA,NA
India,TamilNadu,Virudhunagar,"Collectorate Office, Virudhunagar - TNPCB",23-06-2024 16:00:00,9.559382,77.948828,PM2.5,1,104,34
India,TamilNadu,Virudhunagar,"Collectorate Office, Virudhunagar - TNPCB",23-06-2024 16:00:00,9.559382,77.948828,PM10,6,121,43
India,TamilNadu,Virudhunagar,"Collectorate Office, Virudhunagar - TNPCB",23-06-2024 16:00:00,9.559382,77.948828,SO2,23,26,24
India,TamilNadu,Virudhunagar,"Collectorate Office, Virudhunagar - TNPCB",23-06-2024 16:00:00,9.559382,77.948828,OZONE,6,6,6
India,Telangana,Hyderabad,"Bollaram Industrial Area, Hyderabad - TSPCB",23-06-2024 16:00:00,17.540891,78.358528,PM10,38,98,63
India,Telangana,Hyderabad,"Bollaram Industrial Area, Hyderabad - TSPCB",23-06-2024 16:00:00,17.540891,78.358528,NO2,7,35,24
India,Telangana,Hyderabad,"Central University, Hyderabad - TSPCB",23-06-2024 16:00:00,17.460103,78.334361,SO2,3,10,7
India,Telangana,Hyderabad,"ICRISAT Patancheru, Hyderabad - TSPCB",23-06-2024 16:00:00,17.518400,78.278777,CO,13,53,22
India,Telangana,Hyderabad,"IDA Pashamylaram, Hyderabad - TSPCB",23-06-2024 16:00:00,17.5316895,78.218939,PM2.5,22,167,45
India,Telangana,Hyderabad,"IDA Pashamylaram, Hyderabad - TSPCB",23-06-2024 16:00:00,17.5316895,78.218939,NO2,27,44,36
India,Telangana,Hyderabad,"IDA Pashamylaram, Hyderabad - TSPCB",23-06-2024 16:00:00,17.5316895,78.218939,SO2,2,17,7
India,Telangana,Hyderabad,"Kokapet, Hyderabad - TSPCB",23-06-2024 16:00:00,17.393559,78.339194,PM10,73,89,78
India,Telangana,Hyderabad,"Kokapet, Hyderabad - TSPCB",23-06-2024 16:00:00,17.393559,78.339194,CO,20,21,20
India,Telangana,Hyderabad,"Kompally Municipal Office, Hyderabad - TSPCB",23-06-2024 16:00:00,17.544899,78.486949,PM2.5,NA,NA,NA
India,Telangana,Hyderabad,"Kompally Municipal Office, Hyderabad - TSPCB",23-06-2024 16:00:00,17.544899,78.486949,NO2,NA,NA,NA
India,Telangana,Hyderabad,"Kompally Municipal Office, Hyderabad - TSPCB",23-06-2024 16:00:00,17.544899,78.486949,NH3,NA,NA,NA
India,Telangana,Hyderabad,"Kompally Municipal Office, Hyderabad - TSPCB",23-06-2024 16:00:00,17.544899,78.486949,OZONE,33,37,36
India,Telangana,Hyderabad,"Nacharam_TSIIC IALA, Hyderabad - TSPCB",23-06-2024 16:00:00,17.429398,78.569354,PM10,52,94,68
India,Telangana,Hyderabad,"New Malakpet, Hyderabad - TSPCB",23-06-2024 16:00:00,17.37206,78.50864,PM10,69,81,74
India,Telangana,Hyderabad,"Ramachandrapuram, Hyderabad - TSPCB",23-06-2024 16:00:00,17.528544,78.286195,SO2,12,13,13
India,Telangana,Hyderabad,"Sanathnagar, Hyderabad - TSPCB",23-06-2024 16:00:00,17.4559458,78.4332152,SO2,1,9,5
India,Telangana,Hyderabad,"Somajiguda, Hyderabad - TSPCB",23-06-2024 16:00:00,17.417094,78.457437,PM10,NA,NA,NA
India,Telangana,Hyderabad,"Somajiguda, Hyderabad - TSPCB",23-06-2024 16:00:00,17.417094,78.457437,NO2,NA,NA,NA
India,Telangana,Hyderabad,"Somajiguda, Hyderabad - TSPCB",23-06-2024 16:00:00,17.417094,78.457437,CO,NA,NA,NA
India,Telangana,Hyderabad,"Somajiguda, Hyderabad - TSPCB",23-06-2024 16:00:00,17.417094,78.457437,OZONE,NA,NA,NA
India,Telangana,Hyderabad,"Zoo Park, Hyderabad - TSPCB",23-06-2024 16:00:00,17.349694,78.451437,NO2,5,13,8
India,Telangana,Hyderabad,"Zoo Park, Hyderabad - TSPCB",23-06-2024 16:00:00,17.349694,78.451437,NH3,1,2,1
India,Uttar_Pradesh,Agra,"Manoharpur, Agra - UPPCB",23-06-2024 16:00:00,27.23711,78.01936,SO2,18,18,18
India,Uttar_Pradesh,Agra,"Manoharpur, Agra - UPPCB",23-06-2024 16:00:00,27.23711,78.01936,CO,8,18,13
India,Uttar_Pradesh,Agra,"Rohta, Agra - UPPCB",23-06-2024 16:00:00,27.106972,78.000111,CO,9,20,13
India,Uttar_Pradesh,Agra,"Sanjay Palace, Agra - UPPCB",23-06-2024 16:00:00,27.19865833,78.00598056,PM2.5,8,381,50
India,Uttar_Pradesh,Agra,"Sector-3B Avas Vikas Colony, Agra - UPPCB",23-06-2024 16:00:00,27.19412,77.96237,PM2.5,12,36,20
India,Uttar_Pradesh,Agra,"Sector-3B Avas Vikas Colony, Agra - UPPCB",23-06-2024 16:00:00,27.19412,77.96237,SO2,21,24,22
India,Uttar_Pradesh,Agra,"Shastripuram, Agra - UPPCB",23-06-2024 16:00:00,27.19862,77.92066,NH3,3,7,4
India,Uttar_Pradesh,Bareilly,"Rajendra Nagar, Bareilly - UPPCB",23-06-2024 16:00:00,28.38910936,79.42963708,NO2,2,10,2
India,Uttar_Pradesh,Bulandshahr,"Yamunapuram, Bulandshahr - UPPCB",23-06-2024 16:00:00,28.406963,77.849831,NO2,2,37,16
India,Uttar_Pradesh,Bulandshahr,"Yamunapuram, Bulandshahr - UPPCB",23-06-2024 16:00:00,28.406963,77.849831,NH3,11,22,16
India,Uttar_Pradesh,Bulandshahr,"Yamunapuram, Bulandshahr - UPPCB",23-06-2024 16:00:00,28.406963,77.849831,CO,40,69,54
India,Uttar_Pradesh,Firozabad,"Nagla Bhau, Firozabad - UPPCB",23-06-2024 16:00:00,27.168897,78.376960,NH3,2,2,2
India,Uttar_Pradesh,Firozabad,"Nagla Bhau, Firozabad - UPPCB",23-06-2024 16:00:00,27.168897,78.376960,CO,NA,NA,NA
India,Uttar_Pradesh,Firozabad,"Vibhab Nagar, Firozabad - UPPCB",23-06-2024 16:00:00,27.1594,78.3953,NH3,NA,NA,NA
India,Uttar_Pradesh,Firozabad,"Vibhab Nagar, Firozabad - UPPCB",23-06-2024 16:00:00,27.1594,78.3953,CO,16,24,21
India,Uttar_Pradesh,Ghaziabad,"Indirapuram, Ghaziabad - UPPCB",23-06-2024 16:00:00,28.646233,77.358075,SO2,14,22,17
India,Uttar_Pradesh,Ghaziabad,"Indirapuram, Ghaziabad - UPPCB",23-06-2024 16:00:00,28.646233,77.358075,CO,9,46,23
India,Uttar_Pradesh,Ghaziabad,"Loni, Ghaziabad - UPPCB",23-06-2024 16:00:00,28.757294,77.278792,PM10,121,248,163
India,Uttar_Pradesh,Ghaziabad,"Sanjay Nagar, Ghaziabad - UPPCB",23-06-2024 16:00:00,28.685382,77.453839,SO2,12,44,24
India,Uttar_Pradesh,Ghaziabad,"Vasundhara, Ghaziabad - UPPCB",23-06-2024 16:00:00,28.6603346,77.3572563,CO,20,66,37
India,Uttar_Pradesh,Gorakhpur,"Madan Mohan Malaviya University of Technology, Gorakhpur - UPPCB",23-06-2024 16:00:00,26.730136,83.433859,PM2.5,NA,NA,NA
India,Uttar_Pradesh,Gorakhpur,"Madan Mohan Malaviya University of Technology, Gorakhpur - UPPCB",23-06-2024 16:00:00,26.730136,83.433859,PM10,NA,NA,NA
India,Uttar_Pradesh,Greater Noida,"Knowledge Park - III, Greater Noida - UPPCB",23-06-2024 16:00:00,28.47272,77.482000,PM10,90,160,117
India,Uttar_Pradesh,Greater Noida,"Knowledge Park - V, Greater Noida - UPPCB",23-06-2024 16:00:00,28.557054,77.453663,NH3,5,6,6
India,Uttar_Pradesh,Greater Noida,"Knowledge Park - V, Greater Noida - UPPCB",23-06-2024 16:00:00,28.557054,77.453663,SO2,1,34,15
India,Uttar_Pradesh,Hapur,"Anand Vihar, Hapur - UPPCB",23-06-2024 16:00:00,28.725645,77.749675,PM10,48,98,71
India,Uttar_Pradesh,Hapur,"Anand Vihar, Hapur - UPPCB",23-06-2024 16:00:00,28.725645,77.749675,NO2,13,42,24
India,Uttar_Pradesh,Hapur,"Anand Vihar, Hapur - UPPCB",23-06-2024 16:00:00,28.725645,77.749675,NH3,13,18,15
India,Uttar_Pradesh,Hapur,"Anand Vihar, Hapur - UPPCB",23-06-2024 16:00:00,28.725645,77.749675,SO2,2,10,5
India,Uttar_Pradesh,Jhansi,"Shivaji Nagar, Jhansi - UPPCB",23-06-2024 16:00:00,25.4547,78.6039,SO2,19,23,20
India,Uttar_Pradesh,Kanpur,"FTI Kidwai Nagar, Kanpur - UPPCB",23-06-2024 16:00:00,26.428282,80.327067,PM2.5,NA,NA,NA
India,Uttar_Pradesh,Kanpur,"FTI Kidwai Nagar, Kanpur - UPPCB",23-06-2024 16:00:00,26.428282,80.327067,NO2,19,38,21
India,Uttar_Pradesh,Kanpur,"FTI Kidwai Nagar, Kanpur - UPPCB",23-06-2024 16:00:00,26.428282,80.327067,NH3,15,24,22
India,Uttar_Pradesh,Kanpur,"FTI Kidwai Nagar, Kanpur - UPPCB",23-06-2024 16:00:00,26.428282,80.327067,CO,18,40,37
India,Uttar_Pradesh,Kanpur,"FTI Kidwai Nagar, Kanpur - UPPCB",23-06-2024 16:00:00,26.428282,80.327067,OZONE,NA,NA,NA
India,Uttar_Pradesh,Kanpur,"NSI Kalyanpur, Kanpur - UPPCB",23-06-2024 16:00:00,26.509954,80.249612,NH3,1,1,1
India,Uttar_Pradesh,Kanpur,"Nehru Nagar, Kanpur - UPPCB",23-06-2024 16:00:00,26.4703136,80.3229863,OZONE,NA,NA,NA
India,Uttar_Pradesh,Khurja,"Kalindi Kunj, Khurja - UPPCB",23-06-2024 16:00:00,28.2348927,77.8683002,PM10,60,241,136
India,Uttar_Pradesh,Khurja,"Kalindi Kunj, Khurja - UPPCB",23-06-2024 16:00:00,28.2348927,77.8683002,SO2,32,49,41
India,Uttar_Pradesh,Khurja,"Kalindi Kunj, Khurja - UPPCB",23-06-2024 16:00:00,28.2348927,77.8683002,CO,26,51,44
India,Uttar_Pradesh,Lucknow,"Kendriya Vidyalaya, Lucknow - CPCB",23-06-2024 16:00:00,26.906111,80.948222,PM2.5,40,116,66
India,Uttar_Pradesh,Lucknow,"Kukrail Picnic Spot-1, Lucknow - UPPCB",23-06-2024 16:00:00,26.90723,80.98579,PM10,19,86,36
India,Uttar_Pradesh,Lucknow,"Lalbagh, Lucknow - CPCB",23-06-2024 16:00:00,26.8458805,80.9365541,NO2,25,27,26
India,Uttar_Pradesh,Lucknow,"Lalbagh, Lucknow - CPCB",23-06-2024 16:00:00,26.8458805,80.9365541,OZONE,26,86,67
India,Uttar_Pradesh,Lucknow,"Talkatora District Industries Center, Lucknow - CPCB",23-06-2024 16:00:00,26.83399722,80.8917361,NO2,11,13,12
India,Uttar_Pradesh,Meerut,"Jai Bhim Nagar, Meerut - UPPCB",23-06-2024 16:00:00,28.9535882,77.7622941,PM10,66,186,101
India,Uttar_Pradesh,Meerut,"Pallavpuram Phase 2, Meerut - UPPCB",23-06-2024 16:00:00,29.063510,77.709723,PM10,54,119,87
India,Uttar_Pradesh,Moradabad,"Buddhi Vihar, Moradabad - UPPCB",23-06-2024 16:00:00,28.83526,78.74460,OZONE,2,19,13
India,Uttar_Pradesh,Moradabad,"Eco Herbal Park, Moradabad - UPPCB",23-06-2024 16:00:00,28.840739,78.697531,NH3,8,16,11
India,Uttar_Pradesh,Moradabad,"Employment Office, Moradabad - UPPCB",23-06-2024 16:00:00,28.88528,78.73880,OZONE,16,75,43
India,Uttar_Pradesh,Moradabad,"Kashiram Nagar, Moradabad - UPPCB",23-06-2024 16:00:00,28.849399,78.742362,CO,24,31,27
India,Uttar_Pradesh,Noida,"Sector - 125, Noida - UPPCB",23-06-2024 16:00:00,28.5447608,77.3231257,CO,18,48,28
India,Uttar_Pradesh,Noida,"Sector - 62, Noida - IMD",23-06-2024 16:00:00,28.6245479,77.3577104,CO,29,34,33
India,Uttar_Pradesh,Noida,"Sector - 62, Noida - IMD",23-06-2024 16:00:00,28.6245479,77.3577104,OZONE,22,52,42
India,Uttar_Pradesh,Noida,"Sector-1, Noida - UPPCB",23-06-2024 16:00:00,28.5898,77.3101,CO,26,52,32
India,Uttar_Pradesh,Noida,"Sector-116, Noida - UPPCB",23-06-2024 16:00:00,28.569230,77.393848,PM2.5,70,196,115
India,Uttar_Pradesh,Noida,"Sector-116, Noida - UPPCB",23-06-2024 16:00:00,28.569230,77.393848,SO2,12,30,22
India,Uttar_Pradesh,Prayagraj,"Jhunsi, Prayagraj - UPPCB",23-06-2024 16:00:00,25.425602,81.917152,PM2.5,NA,NA,NA
India,Uttar_Pradesh,Prayagraj,"Jhunsi, Prayagraj - UPPCB",23-06-2024 16:00:00,25.425602,81.917152,PM10,37,89,55
India,Uttar_Pradesh,Prayagraj,"Motilal Nehru NIT, Prayagraj - UPPCB",23-06-2024 16:00:00,25.494,81.863,NH3,6,7,7
India,Uttar_Pradesh,Varanasi,"Ardhali Bazar, Varanasi - UPPCB",23-06-2024 16:00:00,25.3505986,82.9083074,OZONE,18,23,21
India,Uttar_Pradesh,Varanasi,"Maldahiya, Varanasi - UPPCB",23-06-2024 16:00:00,25.32393,82.99687,PM2.5,23,38,29
India,Uttar_Pradesh,Varanasi,"Maldahiya, Varanasi - UPPCB",23-06-2024 16:00:00,25.32393,82.99687,NH3,1,1,1
India,Uttar_Pradesh,Varanasi,"Maldahiya, Varanasi - UPPCB",23-06-2024 16:00:00,25.32393,82.99687,SO2,28,33,28
India,Uttar_Pradesh,Varanasi,"Maldahiya, Varanasi - UPPCB",23-06-2024 16:00:00,25.32393,82.99687,OZONE,3,16,9
India,Uttar_Pradesh,Vrindavan,"Omex Eternity, Vrindavan - UPPCB",23-06-2024 16:00:00,27.5714090,77.6557570,NH3,1,1,1
India,Uttar_Pradesh,Vrindavan,"Omex Eternity, Vrindavan - UPPCB",23-06-2024 16:00:00,27.5714090,77.6557570,SO2,44,46,45
India,Uttarakhand,Dehradun,"Doon University, Dehradun - UKPCB",23-06-2024 16:00:00,30.269444,78.044167,PM2.5,36,94,61
India,Uttarakhand,Dehradun,"Doon University, Dehradun - UKPCB",23-06-2024 16:00:00,30.269444,78.044167,PM10,38,135,71
India,Uttarakhand,Dehradun,"Doon University, Dehradun - UKPCB",23-06-2024 16:00:00,30.269444,78.044167,SO2,1,1,1
India,Uttarakhand,Dehradun,"Doon University, Dehradun - UKPCB",23-06-2024 16:00:00,30.269444,78.044167,CO,24,33,29
India,Uttarakhand,Kashipur,"Govt. Girls Inter College, Kashipur - UKPCB",23-06-2024 16:00:00,29.2124114,78.9611753,NO2,8,13,10
India,Uttarakhand,Kashipur,"Govt. Girls Inter College, Kashipur - UKPCB",23-06-2024 16:00:00,29.2124114,78.9611753,SO2,7,9,8
India,Uttarakhand,Kashipur,"Govt. Girls Inter College, Kashipur - UKPCB",23-06-2024 16:00:00,29.2124114,78.9611753,OZONE,4,48,33
India,Uttarakhand,Rishikesh,"Shivaji Nagar, Rishikesh - UKPCB",23-06-2024 16:00:00,30.075911,78.2859547,PM2.5,1,74,42
India,West_Bengal,Asansol,"Asansol Court Area, Asansol - WBPCB",23-06-2024 16:00:00,23.685297,86.945968,PM10,63,117,94
India,West_Bengal,Asansol,"Evelyn Lodge, Asansol - WBPCB",23-06-2024 16:00:00,23.6979360,86.9443950,SO2,12,16,14
India,West_Bengal,Asansol,"Evelyn Lodge, Asansol - WBPCB",23-06-2024 16:00:00,23.6979360,86.9443950,OZONE,9,48,34
India,West_Bengal,Barrackpore,"SVSPA Campus, Barrackpore - WBPCB",23-06-2024 16:00:00,22.7605581,88.3617589,CO,16,42,19
India,West_Bengal,Durgapur,"Sidhu Kanhu Indoor Stadium, Durgapur - WBPCB",23-06-2024 16:00:00,23.5404352,87.2892225,PM2.5,33,85,60
India,West_Bengal,Haldia,"Priyambada Housing Estate, Haldia - WBPCB",23-06-2024 16:00:00,22.06047,88.109737,CO,22,26,22
India,West_Bengal,Haldia,"Priyambada Housing Estate, Haldia - WBPCB",23-06-2024 16:00:00,22.06047,88.109737,OZONE,19,27,23
India,West_Bengal,Howrah,"Botanical Garden, Howrah - WBPCB",23-06-2024 16:00:00,22.554954,88.292568,NO2,7,31,16
India,West_Bengal,Howrah,"Botanical Garden, Howrah - WBPCB",23-06-2024 16:00:00,22.554954,88.292568,NH3,1,1,1
India,West_Bengal,Howrah,"Botanical Garden, Howrah - WBPCB",23-06-2024 16:00:00,22.554954,88.292568,OZONE,14,57,29
India,West_Bengal,Howrah,"Ghusuri, Howrah - WBPCB",23-06-2024 16:00:00,22.611968,88.347422,PM2.5,24,43,32
India,West_Bengal,Howrah,"Padmapukur, Howrah - WBPCB",23-06-2024 16:00:00,22.5687319,88.2797276,NO2,26,52,40
India,West_Bengal,Kolkata,"Ballygunge, Kolkata - WBPCB",23-06-2024 16:00:00,22.5367507,88.3638022,OZONE,5,12,7
India,West_Bengal,Kolkata,"Bidhannagar, Kolkata - WBPCB",23-06-2024 16:00:00,22.58157048,88.41002457,PM10,18,44,30
India,West_Bengal,Kolkata,"Bidhannagar, Kolkata - WBPCB",23-06-2024 16:00:00,22.58157048,88.41002457,CO,33,41,34
India,West_Bengal,Kolkata,"Jadavpur, Kolkata - WBPCB",23-06-2024 16:00:00,22.49929,88.36917,PM10,25,35,29
India,West_Bengal,Kolkata,"Jadavpur, Kolkata - WBPCB",23-06-2024 16:00:00,22.49929,88.36917,CO,20,24,22
India,West_Bengal,Kolkata,"Rabindra Bharati University, Kolkata - WBPCB",23-06-2024 16:00:00,22.627847,88.380669,PM2.5,12,27,18
India,West_Bengal,Kolkata,"Rabindra Bharati University, Kolkata - WBPCB",23-06-2024 16:00:00,22.627847,88.380669,PM10,20,41,28
India,West_Bengal,Kolkata,"Rabindra Bharati University, Kolkata - WBPCB",23-06-2024 16:00:00,22.627847,88.380669,NH3,10,11,10
India,West_Bengal,Kolkata,"Rabindra Bharati University, Kolkata - WBPCB",23-06-2024 16:00:00,22.627847,88.380669,CO,20,30,24
India,West_Bengal,Kolkata,"Rabindra Sarobar, Kolkata - WBPCB",23-06-2024 16:00:00,22.51106,88.35142,CO,17,22,19
India,West_Bengal,Siliguri,"Ward-32 Bapupara, Siliguri - WBPCB",23-06-2024 16:00:00,26.6879226,88.4152495,PM2.5,29,64,45
India,Andhra_Pradesh,Anantapur,"Gulzarpet, Anantapur - APPCB",23-06-2024 16:00:00,14.675886,77.593027,PM2.5,NA,NA,NA
India,Andhra_Pradesh,Anantapur,"Gulzarpet, Anantapur - APPCB",23-06-2024 16:00:00,14.675886,77.593027,NH3,NA,NA,NA
India,Andhra_Pradesh,Anantapur,"Gulzarpet, Anantapur - APPCB",23-06-2024 16:00:00,14.675886,77.593027,CO,17,40,22
India,Andhra_Pradesh,Chittoor,"Gangineni Cheruvu, Chittoor - APPCB",23-06-2024 16:00:00,13.204880,79.097889,PM10,NA,NA,NA
India,Andhra_Pradesh,Rajamahendravaram,"Anand Kala Kshetram, Rajamahendravaram - APPCB",23-06-2024 16:00:00,16.9872867,81.7363176,PM10,10,66,30
India,Andhra_Pradesh,Tirupati,"Tirumala, Tirupati - APPCB",23-06-2024 16:00:00,13.67,79.35,PM2.5,12,38,24
India,Andhra_Pradesh,Tirupati,"Tirumala, Tirupati - APPCB",23-06-2024 16:00:00,13.67,79.35,OZONE,13,23,19
India,Andhra_Pradesh,Tirupati,"Vaikuntapuram, Tirupati - APPCB",23-06-2024 16:00:00,13.615387,79.409230,NO2,15,24,18
India,Andhra_Pradesh,Vijayawada,"HB Colony, Vijayawada - APPCB",23-06-2024 16:00:00,16.536107,80.594233,PM2.5,25,139,45
India,Andhra_Pradesh,Vijayawada,"HB Colony, Vijayawada - APPCB",23-06-2024 16:00:00,16.536107,80.594233,SO2,4,7,5
India,Andhra_Pradesh,Vijayawada,"Rajiv Gandhi Park, Vijayawada - APPCB",23-06-2024 16:00:00,16.509717,80.612222,PM10,49,90,60
India,Andhra_Pradesh,Vijayawada,"Rajiv Gandhi Park, Vijayawada - APPCB",23-06-2024 16:00:00,16.509717,80.612222,NO2,26,46,34
India,Andhra_Pradesh,Vijayawada,"Rajiv Nagar, Vijayawada - APPCB",23-06-2024 16:00:00,16.554731,80.649110,PM2.5,47,63,50
India,Andhra_Pradesh,Vijayawada,"Rajiv Nagar, Vijayawada - APPCB",23-06-2024 16:00:00,16.554731,80.649110,NO2,10,10,10
India,Andhra_Pradesh,Visakhapatnam,"GVM Corporation, Visakhapatnam - APPCB",23-06-2024 16:00:00,17.72,83.3,NO2,41,67,51
India,Andhra_Pradesh,Visakhapatnam,"GVM Corporation, Visakhapatnam - APPCB",23-06-2024 16:00:00,17.72,83.3,NH3,3,5,3
India,Andhra_Pradesh,Visakhapatnam,"GVM Corporation, Visakhapatnam - APPCB",23-06-2024 16:00:00,17.72,83.3,SO2,8,14,11
India,Assam,Byrnihat,"Central Academy for SFS, Byrnihat - PCBA",23-06-2024 16:00:00,26.071318,91.87488,PM10,19,439,170
India,Assam,Byrnihat,"Central Academy for SFS, Byrnihat - PCBA",23-06-2024 16:00:00,26.071318,91.87488,NH3,14,22,16
India,Assam,Byrnihat,"Central Academy for SFS, Byrnihat - PCBA",23-06-2024 16:00:00,26.071318,91.87488,SO2,9,44,24
India,Assam,Guwahati,"LGBI Airport, Guwahati - PCBA",23-06-2024 16:00:00,26.10887,91.589544,PM2.5,3,432,140
India,Assam,Guwahati,"LGBI Airport, Guwahati - PCBA",23-06-2024 16:00:00,26.10887,91.589544,NO2,6,39,14
India,Assam,Guwahati,"Railway Colony, Guwahati - PCBA",23-06-2024 16:00:00,26.181742,91.78063,PM10,19,139,50
India,Assam,Guwahati,"Railway Colony, Guwahati - PCBA",23-06-2024 16:00:00,26.181742,91.78063,NO2,3,3,3
India,Assam,Guwahati,"Railway Colony, Guwahati - PCBA",23-06-2024 16:00:00,26.181742,91.78063,SO2,1,2,2
India,Assam,Nagaon,"Christianpatty, Nagaon - PCBA",23-06-2024 16:00:00,26.349082,92.68449,CO,1,119,2
India,Assam,Nalbari,"Bata Chowk, Nalbari - PCBA",23-06-2024 16:00:00,26.446912,91.439057,PM10,42,136,69
India,Assam,Nalbari,"Bata Chowk, Nalbari - PCBA",23-06-2024 16:00:00,26.446912,91.439057,SO2,1,43,8
India,Assam,Nalbari,"Bata Chowk, Nalbari - PCBA",23-06-2024 16:00:00,26.446912,91.439057,OZONE,19,33,22
India,Assam,Silchar,"Tarapur, Silchar - PCBA",23-06-2024 16:00:00,24.82827,92.79525,SO2,1,3,1
India,Assam,Silchar,"Tarapur, Silchar - PCBA",23-06-2024 16:00:00,24.82827,92.79525,CO,20,28,23
India,Assam,Silchar,"Tarapur, Silchar - PCBA",23-06-2024 16:00:00,24.82827,92.79525,OZONE,1,2,1
India,Assam,Sivasagar,"Girls College, Sivasagar - PCBA",23-06-2024 16:00:00,26.987634,94.636574,SO2,7,10,8
India,Bihar,Araria,"Kharahiya Basti, Araria - BSPCB",23-06-2024 16:00:00,26.146529,87.454184,SO2,NA,NA,NA
India,Bihar,Arrah,"New DM Office, Arrah - BSPCB",23-06-2024 16:00:00,25.5626095,84.663264,PM10,46,103,66
India,Bihar,Arrah,"New DM Office, Arrah - BSPCB",23-06-2024 16:00:00,25.5626095,84.663264,NO2,9,13,11
India,Bihar,Arrah,"New DM Office, Arrah - BSPCB",23-06-2024 16:00:00,25.5626095,84.663264,SO2,5,10,8
India,Bihar,Aurangabad,"Gurdeo Nagar, Aurangabad - BSPCB",23-06-2024 16:00:00,24.75746,84.366208,NO2,2,11,6
India,Bihar,Bettiah,"Kamalnath Nagar, Bettiah - BSPCB",23-06-2024 16:00:00,26.80365,84.51954,NH3,32,52,42
India,Bihar,Bhagalpur,"DM Office_Kachari Chowk, Bhagalpur - BSPCB",23-06-2024 16:00:00,25.251013,86.989001,PM2.5,58,133,91
India,Bihar,Bhagalpur,"Mayaganj, Bhagalpur - BSPCB",23-06-2024 16:00:00,25.265194,87.012947,PM10,51,267,89
India,Bihar,Bhagalpur,"Mayaganj, Bhagalpur - BSPCB",23-06-2024 16:00:00,25.265194,87.012947,NH3,9,10,10
India,Bihar,Bhagalpur,"Mayaganj, Bhagalpur - BSPCB",23-06-2024 16:00:00,25.265194,87.012947,CO,19,28,25
India,Bihar,Buxar,"Charitra Van, Buxar - BSPCB (Formerly known as Central Jail)",23-06-2024 16:00:00,25.567520,83.966379,PM10,78,193,138
India,Bihar,Buxar,"Charitra Van, Buxar - BSPCB (Formerly known as Central Jail)",23-06-2024 16:00:00,25.567520,83.966379,OZONE,5,83,40
India,Bihar,Chhapra,"Darshan Nagar, Chhapra - BSPCB",23-06-2024 16:00:00,25.7808257,84.7446768,PM2.5,38,72,52
India,Bihar,Chhapra,"Darshan Nagar, Chhapra - BSPCB",23-06-2024 16:00:00,25.7808257,84.7446768,NH3,6,12,9
India,Bihar,Gaya,"Collectorate, Gaya - BSPCB",23-06-2024 16:00:00,24.7955,84.9994,PM2.5,30,310,110
India,Bihar,Gaya,"SFTI Kusdihra, Gaya - BSPCB",23-06-2024 16:00:00,24.762518,84.982348,PM10,NA,NA,NA
India,Bihar,Katihar,"Mirchaibari, Katihar - BSPCB",23-06-2024 16:00:00,25.560083,87.553265,NO2,4,4,4
India,Bihar,Katihar,"Mirchaibari, Katihar - BSPCB",23-06-2024 16:00:00,25.560083,87.553265,NH3,NA,NA,NA
India,Bihar,Katihar,"Mirchaibari, Katihar - BSPCB",23-06-2024 16:00:00,25.560083,87.553265,CO,15,28,23
India,Bihar,Kishanganj,"SDM Office_Khagra, Kishanganj - BSPCB",23-06-2024 16:00:00,26.0881305,87.93840336,CO,5,8,8
India,Bihar,Manguraha,"Forest Rest House, Manguraha - BSPCB",23-06-2024 16:00:00,27.308328,84.531742,CO,24,38,28
India,Bihar,Motihari,"Gandak Colony, Motihari - BSPCB",23-06-2024 16:00:00,26.63086,84.90051,PM10,NA,NA,NA
India,Bihar,Munger,"Town Hall, Munger - BSPCB",23-06-2024 16:00:00,25.376776,86.471523,PM10,34,71,54
India,Bihar,Munger,"Town Hall, Munger - BSPCB",23-06-2024 16:00:00,25.376776,86.471523,NH3,2,3,3
India,Bihar,Munger,"Town Hall, Munger - BSPCB",23-06-2024 16:00:00,25.376776,86.471523,SO2,5,30,16
India,Bihar,Muzaffarpur,"Buddha Colony, Muzaffarpur - BSPCB",23-06-2024 16:00:00,26.11442,85.39813,PM2.5,51,82,67
India,Bihar,Muzaffarpur,"Buddha Colony, Muzaffarpur - BSPCB",23-06-2024 16:00:00,26.11442,85.39813,CO,16,35,20
India,Bihar,Muzaffarpur,"MIT-Daudpur Kothi, Muzaffarpur - BSPCB",23-06-2024 16:00:00,26.1403345,85.3650192,NH3,11,13,12
India,Bihar,Muzaffarpur,"Muzaffarpur Collectorate, Muzaffarpur - BSPCB",23-06-2024 16:00:00,26.1209,85.3647,OZONE,75,124,116
India,Bihar,Patna,"DRM Office Danapur, Patna - BSPCB",23-06-2024 16:00:00,25.586562,85.043586,PM10,80,127,100
India,Bihar,Patna,"DRM Office Danapur, Patna - BSPCB",23-06-2024 16:00:00,25.586562,85.043586,NO2,18,23,20
India,Bihar,Patna,"DRM Office Danapur, Patna - BSPCB",23-06-2024 16:00:00,25.586562,85.043586,NH3,2,3,3
India,Bihar,Patna,"Govt. High School Shikarpur, Patna - BSPCB",23-06-2024 16:00:00,25.592539,85.227158,NH3,5,5,5
India,Bihar,Patna,"Muradpur, Patna - BSPCB",23-06-2024 16:00:00,25.619651,85.147382,OZONE,5,62,42
India,Bihar,Patna,"Samanpura, Patna - BSPCB",23-06-2024 16:00:00,25.596727,85.085624,NH3,7,13,9
India,Bihar,Purnia,"Mariam Nagar, Purnia - BSPCB",23-06-2024 16:00:00,25.366336,87.117468,SO2,7,15,11
India,Bihar,Rajgir,"Dangi Tola, Rajgir - BSPCB",23-06-2024 16:00:00,25.03280,85.41948,PM10,39,106,74
India,Bihar,Saharsa,"Police Line, Saharsa - BSPCB",23-06-2024 16:00:00,25.892357,86.590325,PM2.5,23,113,54
India,Bihar,Samastipur,"DM Office_Kasipur, Samastipur - BSPCB",23-06-2024 16:00:00,25.859655,85.77944,SO2,45,50,48
India,Bihar,Siwan,"Chitragupta Nagar, Siwan - BSPCB",23-06-2024 16:00:00,26.2271665,84.3570427,PM10,NA,NA,NA
India,Chandigarh,Chandigarh,"Sector-25, Chandigarh - CPCC",23-06-2024 16:00:00,30.751462,76.762879,PM10,101,161,129
India,Chandigarh,Chandigarh,"Sector-53, Chandigarh - CPCC",23-06-2024 16:00:00,30.719859,76.738637,NO2,11,186,45
India,Chhattisgarh,Bhilai,"32Bungalows, Bhilai - CECB",23-06-2024 16:00:00,21.194815,81.314770,CO,12,17,15
India,Chhattisgarh,Bhilai,"Hathkhoj, Bhilai - CECB",23-06-2024 16:00:00,21.224231,81.408350,PM2.5,10,31,17
India,Chhattisgarh,Korba,"Rampur, Korba - CECB",23-06-2024 16:00:00,22.368195,82.746431,PM2.5,NA,NA,NA
India,Chhattisgarh,Korba,"Rampur, Korba - CECB",23-06-2024 16:00:00,22.368195,82.746431,NO2,NA,NA,NA
India,Chhattisgarh,Korba,"Rampur, Korba - CECB",23-06-2024 16:00:00,22.368195,82.746431,CO,NA,NA,NA
India,Chhattisgarh,Korba,"Urja Nagar, Korba - CECB",23-06-2024 16:00:00,22.348441,82.549611,PM2.5,NA,NA,NA
India,Chhattisgarh,Korba,"Urja Nagar, Korba - CECB",23-06-2024 16:00:00,22.348441,82.549611,NO2,38,45,42
India,Chhattisgarh,Kunjemura,"OP Jindal School, Kunjemura - CECB",23-06-2024 16:00:00,22.126650,83.483212,PM2.5,19,49,38
India,Chhattisgarh,Raipur,"Bhatagaon New ISBT, Raipur - CECB",23-06-2024 16:00:00,21.219665,81.630094,SO2,NA,NA,NA
India,Chhattisgarh,Raipur,"Krishak Nagar, Raipur - CECB",23-06-2024 16:00:00,21.237755,81.705301,OZONE,5,43,11
India,Chhattisgarh,Raipur,"Siltara Phase-II, Raipur - CECB",23-06-2024 16:00:00,21.371751,81.664929,PM10,38,100,79
India,Chhattisgarh,Raipur,"Siltara Phase-II, Raipur - CECB",23-06-2024 16:00:00,21.371751,81.664929,CO,16,36,25
India,Chhattisgarh,Raipur,"Siltara Phase-II, Raipur - CECB",23-06-2024 16:00:00,21.371751,81.664929,OZONE,3,11,4
India,Chhattisgarh,Tumidih,"OP Jindal Industrial Park, Tumidih - CECB",23-06-2024 16:00:00,22.06631475,83.33820077,PM2.5,24,97,50
India,Chhattisgarh,Tumidih,"OP Jindal Industrial Park, Tumidih - CECB",23-06-2024 16:00:00,22.06631475,83.33820077,NO2,10,40,21
India,Chhattisgarh,Tumidih,"OP Jindal Industrial Park, Tumidih - CECB",23-06-2024 16:00:00,22.06631475,83.33820077,NH3,1,2,2
India,Delhi,Delhi,"Alipur, Delhi - DPCC",23-06-2024 16:00:00,28.815329,77.153010,PM10,110,191,151
India,Delhi,Delhi,"Alipur, Delhi - DPCC",23-06-2024 16:00:00,28.815329,77.153010,NH3,5,17,8
India,Delhi,Delhi,"Alipur, Delhi - DPCC",23-06-2024 16:00:00,28.815329,77.153010,OZONE,6,114,69
India,Delhi,Delhi,"Ashok Vihar, Delhi - DPCC",23-06-2024 16:00:00,28.695381,77.181665,PM2.5,NA,NA,NA
India,Delhi,Delhi,"Ashok Vihar, Delhi - DPCC",23-06-2024 16:00:00,28.695381,77.181665,NO2,NA,NA,NA
India,Delhi,Delhi,"Ashok Vihar, Delhi - DPCC",23-06-2024 16:00:00,28.695381,77.181665,SO2,NA,NA,NA
India,Delhi,Delhi,"Ashok Vihar, Delhi - DPCC",23-06-2024 16:00:00,28.695381,77.181665,CO,NA,NA,NA
India,Delhi,Delhi,"Bawana, Delhi - DPCC",23-06-2024 16:00:00,28.776200,77.051074,NH3,7,33,16
India,Delhi,Delhi,"Chandni Chowk, Delhi - IITM",23-06-2024 16:00:00,28.656756,77.227234,PM2.5,232,326,294
India,Delhi,Delhi,"DTU, Delhi - CPCB",23-06-2024 16:00:00,28.7500499,77.1112615,PM2.5,73,318,155
India,Delhi,Delhi,"Dr. Karni Singh Shooting Range, Delhi - DPCC",23-06-2024 16:00:00,28.498571,77.264840,NO2,16,43,27
India,Delhi,Delhi,"Dr. Karni Singh Shooting Range, Delhi - DPCC",23-06-2024 16:00:00,28.498571,77.264840,SO2,7,14,10
India,Delhi,Delhi,"Dwarka-Sector 8, Delhi - DPCC ",23-06-2024 16:00:00,28.5710274,77.0719006,PM10,108,216,143
India,Delhi,Delhi,"Dwarka-Sector 8, Delhi - DPCC ",23-06-2024 16:00:00,28.5710274,77.0719006,CO,23,52,49
India,Delhi,Delhi,"IHBAS, Dilshad Garden, Delhi - CPCB",23-06-2024 16:00:00,28.6811736,77.3025234,PM2.5,60,149,86
India,Delhi,Delhi,"IHBAS, Dilshad Garden, Delhi - CPCB",23-06-2024 16:00:00,28.6811736,77.3025234,NO2,7,56,32
India,Delhi,Delhi,"IHBAS, Dilshad Garden, Delhi - CPCB",23-06-2024 16:00:00,28.6811736,77.3025234,SO2,11,55,22
India,Delhi,Delhi,"ITO, Delhi - CPCB",23-06-2024 16:00:00,28.628624,77.241060,NO2,7,69,35
India,Delhi,Delhi,"Jahangirpuri, Delhi - DPCC",23-06-2024 16:00:00,28.732820,77.170633,OZONE,1,82,50
India,Delhi,Delhi,"Jawaharlal Nehru Stadium, Delhi - DPCC",23-06-2024 16:00:00,28.580280,77.233829,PM10,91,135,116
India,Delhi,Delhi,"Major Dhyan Chand National Stadium, Delhi - DPCC",23-06-2024 16:00:00,28.611281,77.237738,PM10,103,162,122
India,Delhi,Delhi,"Major Dhyan Chand National Stadium, Delhi - DPCC",23-06-2024 16:00:00,28.611281,77.237738,NO2,16,90,52
India,Delhi,Delhi,"Major Dhyan Chand National Stadium, Delhi - DPCC",23-06-2024 16:00:00,28.611281,77.237738,OZONE,1,91,56
India,Delhi,Delhi,"Mandir Marg, Delhi - DPCC",23-06-2024 16:00:00,28.636429,77.201067,PM2.5,62,187,96
India,Delhi,Delhi,"Mandir Marg, Delhi - DPCC",23-06-2024 16:00:00,28.636429,77.201067,PM10,85,145,110
India,Delhi,Delhi,"Mundka, Delhi - DPCC",23-06-2024 16:00:00,28.684678,77.076574,PM10,116,209,146
India,Delhi,Delhi,"Mundka, Delhi - DPCC",23-06-2024 16:00:00,28.684678,77.076574,NH3,11,28,18
India,Delhi,Delhi,"Mundka, Delhi - DPCC",23-06-2024 16:00:00,28.684678,77.076574,CO,46,70,52
India,Delhi,Delhi,"Mundka, Delhi - DPCC",23-06-2024 16:00:00,28.684678,77.076574,OZONE,28,186,87
India,Delhi,Delhi,"NSIT Dwarka, Delhi - CPCB",23-06-2024 16:00:00,28.60909,77.0325413,NO2,17,30,24
India,Delhi,Delhi,"Narela, Delhi - DPCC",23-06-2024 16:00:00,28.822836,77.101981,PM10,143,218,172
India,Delhi,Delhi,"Nehru Nagar, Delhi - DPCC",23-06-2024 16:00:00,28.567890,77.250515,SO2,4,8,6
India,Delhi,Delhi,"New Moti Bagh, Delhi - MHUA",23-06-2024 16:00:00,28.57834,77.18400,CO,36,78,42
India,Delhi,Delhi,"North Campus, DU, Delhi - IMD",23-06-2024 16:00:00,28.6573814,77.1585447,PM2.5,28,424,163
India,Delhi,Delhi,"Okhla Phase-2, Delhi - DPCC",23-06-2024 16:00:00,28.530785,77.271255,PM10,104,153,128
India,Delhi,Delhi,"Okhla Phase-2, Delhi - DPCC",23-06-2024 16:00:00,28.530785,77.271255,OZONE,17,125,70
India,Delhi,Delhi,"Patparganj, Delhi - DPCC",23-06-2024 16:00:00,28.623763,77.287209,OZONE,10,117,56
India,Delhi,Delhi,"Pusa, Delhi - DPCC",23-06-2024 16:00:00,28.639652,77.146275,PM10,92,159,130
India,Delhi,Delhi,"Pusa, Delhi - DPCC",23-06-2024 16:00:00,28.639652,77.146275,NH3,2,8,4
India,Delhi,Delhi,"Pusa, Delhi - DPCC",23-06-2024 16:00:00,28.639652,77.146275,SO2,5,13,7
India,Delhi,Delhi,"Pusa, Delhi - IMD",23-06-2024 16:00:00,28.636110,77.173332,NO2,21,39,29
India,Delhi,Delhi,"Sirifort, Delhi - CPCB",23-06-2024 16:00:00,28.5504249,77.2159377,NH3,19,21,20
India,Delhi,Delhi,"Sonia Vihar, Delhi - DPCC",23-06-2024 16:00:00,28.710508,77.249485,CO,11,37,22
India,Delhi,Delhi,"Sri Aurobindo Marg, Delhi - DPCC",23-06-2024 16:00:00,28.531346,77.190156,PM10,104,169,127
India,Delhi,Delhi,"Sri Aurobindo Marg, Delhi - DPCC",23-06-2024 16:00:00,28.531346,77.190156,OZONE,2,79,55
India,Delhi,Delhi,"Vivek Vihar, Delhi - DPCC",23-06-2024 16:00:00,28.672342,77.315260,NO2,15,31,22
India,Delhi,Delhi,"Wazirpur, Delhi - DPCC",23-06-2024 16:00:00,28.699793,77.165453,PM10,101,230,155
India,Delhi,Delhi,"Wazirpur, Delhi - DPCC",23-06-2024 16:00:00,28.699793,77.165453,NH3,6,10,8
India,Gujarat,Ahmedabad,"Chandkheda, Ahmedabad - IITM",23-06-2024 16:00:00,23.107969,72.574648,PM2.5,50,235,103
India,Gujarat,Ahmedabad,"Chandkheda, Ahmedabad - IITM",23-06-2024 16:00:00,23.107969,72.574648,SO2,5,14,10
India,Gujarat,Ahmedabad,"Gyaspur, Ahmedabad - IITM",23-06-2024 16:00:00,22.977134,72.553024,CO,12,50,17
India,Gujarat,Ahmedabad,"Gyaspur, Ahmedabad - IITM",23-06-2024 16:00:00,22.977134,72.553024,OZONE,6,59,24
India,Gujarat,Ahmedabad,"Sardar Vallabhbhai Patel Stadium, Ahmedabad - IITM",23-06-2024 16:00:00,23.043070,72.562968,NH3,6,8,7
India,Gujarat,Ankleshwar,"GIDC, Ankleshwar - GPCB",23-06-2024 16:00:00,21.613267,73.010555,CO,30,109,89
India,Gujarat,Surat,"Science Center, Surat - SMC",23-06-2024 16:00:00,21.170046,72.795405,PM2.5,NA,NA,NA
India,Gujarat,Surat,"Science Center, Surat - SMC",23-06-2024 16:00:00,21.170046,72.795405,CO,66,83,78
India,Gujarat,Vapi,"Phase-1 GIDC, Vapi - GPCB",23-06-2024 16:00:00,20.362421,72.918013,NO2,6,7,6
India,Gujarat,Vatva,"Phase-4 GIDC, Vatva - GPCB",23-06-2024 16:00:00,22.969611,72.643500,PM2.5,17,54,34
India,Gujarat,Vatva,"Phase-4 GIDC, Vatva - GPCB",23-06-2024 16:00:00,22.969611,72.643500,SO2,NA,NA,NA
India,Haryana,Bahadurgarh,"Arya Nagar, Bahadurgarh - HSPCB",23-06-2024 16:00:00,28.6701,76.9254,PM10,93,137,115
India,Haryana,Bahadurgarh,"Arya Nagar, Bahadurgarh - HSPCB",23-06-2024 16:00:00,28.6701,76.9254,SO2,NA,NA,NA
India,Haryana,Ballabgarh,"Nathu Colony, Ballabgarh - HSPCB",23-06-2024 16:00:00,28.3419248,77.319699,PM2.5,NA,NA,NA
India,Haryana,Bhiwani,"H.B. Colony, Bhiwani - HSPCB",23-06-2024 16:00:00,28.806223,76.141105,PM2.5,61,187,98
India,Haryana,Charkhi Dadri,"Mini Secretariat, Charkhi Dadri - HSPCB",23-06-2024 16:00:00,28.593883,76.270653,NH3,6,8,7
India,Haryana,Dharuhera,"Municipal Corporation Office, Dharuhera -  HSPCB",23-06-2024 16:00:00,28.206800,76.799700,NH3,NA,NA,NA
India,Haryana,Faridabad,"Sector 11, Faridabad - HSPCB",23-06-2024 16:00:00,28.376058,77.315741,PM10,79,137,106
India,Haryana,Faridabad,"Sector 30, Faridabad - HSPCB",23-06-2024 16:00:00,28.4417,77.3217,NO2,30,33,31
India,Haryana,Faridabad,"Sector 30, Faridabad - HSPCB",23-06-2024 16:00:00,28.4417,77.3217,SO2,5,5,5
India,Haryana,Fatehabad,"Huda Sector, Fatehabad - HSPCB",23-06-2024 16:00:00,29.503664,75.467934,PM2.5,3,211,71
India,Haryana,Fatehabad,"Huda Sector, Fatehabad - HSPCB",23-06-2024 16:00:00,29.503664,75.467934,NH3,10,10,10
India,Haryana,Fatehabad,"Huda Sector, Fatehabad - HSPCB",23-06-2024 16:00:00,29.503664,75.467934,CO,43,45,44
India,Haryana,Gurugram,"Sector-51, Gurugram - HSPCB",23-06-2024 16:00:00,28.4227,77.0667,PM2.5,77,192,103
India,Haryana,Gurugram,"Sector-51, Gurugram - HSPCB",23-06-2024 16:00:00,28.4227,77.0667,NO2,13,29,23
India,Haryana,Gurugram,"Sector-51, Gurugram - HSPCB",23-06-2024 16:00:00,28.4227,77.0667,NH3,7,14,9
India,Haryana,Gurugram,"Teri Gram, Gurugram - HSPCB",23-06-2024 16:00:00,28.4275,77.1465,SO2,NA,NA,NA
India,Haryana,Gurugram,"Teri Gram, Gurugram - HSPCB",23-06-2024 16:00:00,28.4275,77.1465,CO,NA,NA,NA
India,Haryana,Gurugram,"Vikas Sadan, Gurugram - HSPCB",23-06-2024 16:00:00,28.4501238,77.0263051,NO2,5,25,14
India,Haryana,Jind,"Police Lines, Jind - HSPCB",23-06-2024 16:00:00,29.307814,76.337619,PM2.5,NA,NA,NA
India,Haryana,Jind,"Police Lines, Jind - HSPCB",23-06-2024 16:00:00,29.307814,76.337619,NO2,NA,NA,NA
India,Haryana,Kaithal,"Rishi Nagar, Kaithal - HSPCB",23-06-2024 16:00:00,29.8006,76.4155,NO2,24,26,25
India,Haryana,Kaithal,"Rishi Nagar, Kaithal - HSPCB",23-06-2024 16:00:00,29.8006,76.4155,SO2,1,10,6
India,Haryana,Karnal,"Sector-12, Karnal - HSPCB",23-06-2024 16:00:00,29.695300,77.002700,NO2,7,12,10
India,Haryana,Karnal,"Sector-12, Karnal - HSPCB",23-06-2024 16:00:00,29.695300,77.002700,OZONE,24,34,28
India,Haryana,Kurukshetra,"Sector-7, Kurukshetra - HSPCB",23-06-2024 16:00:00,29.966942,76.875879,PM2.5,87,154,107
India,Haryana,Kurukshetra,"Sector-7, Kurukshetra - HSPCB",23-06-2024 16:00:00,29.966942,76.875879,NO2,10,10,10
India,Haryana,Manesar,"Sector-2 IMT, Manesar - HSPCB",23-06-2024 16:00:00,28.360699,76.936090,NO2,13,25,18
India,Haryana,Narnaul,"Shastri Nagar, Narnaul - HSPCB",23-06-2024 16:00:00,28.060249,76.113115,PM2.5,36,89,55
India,Haryana,Narnaul,"Shastri Nagar, Narnaul - HSPCB",23-06-2024 16:00:00,28.060249,76.113115,PM10,36,89,55
India,Haryana,Narnaul,"Shastri Nagar, Narnaul - HSPCB",23-06-2024 16:00:00,28.060249,76.113115,NH3,3,17,10
India,Haryana,Narnaul,"Shastri Nagar, Narnaul - HSPCB",23-06-2024 16:00:00,28.060249,76.113115,SO2,47,47,47
India,Haryana,Narnaul,"Shastri Nagar, Narnaul - HSPCB",23-06-2024 16:00:00,28.060249,76.113115,CO,13,29,23
India,Haryana,Palwal,"Shyam Nagar, Palwal - HSPCB",23-06-2024 16:00:00,28.1485564,77.3320667,CO,22,71,32
India,Haryana,Palwal,"Shyam Nagar, Palwal - HSPCB",23-06-2024 16:00:00,28.1485564,77.3320667,OZONE,28,269,108
India,Haryana,Panipat,"Sector-18, Panipat - HSPCB",23-06-2024 16:00:00,29.432304,76.972765,PM2.5,117,123,120
India,Haryana,Panipat,"Sector-18, Panipat - HSPCB",23-06-2024 16:00:00,29.432304,76.972765,PM10,109,111,110
India,Haryana,Sirsa,"F-Block, Sirsa - HSPCB",23-06-2024 16:00:00,29.536400,75.015800,PM10,87,91,90
India,Haryana,Yamuna Nagar,"Gobind Pura, Yamuna Nagar - HSPCB",23-06-2024 16:00:00,30.1480566,77.2893471,NH3,NA,NA,NA
India,Haryana,Yamuna Nagar,"Gobind Pura, Yamuna Nagar - HSPCB",23-06-2024 16:00:00,30.1480566,77.2893471,SO2,NA,NA,NA
India,Himachal Pradesh,Baddi,"HIMUDA Complex Phase-1, Baddi - HPPCB",23-06-2024 16:00:00,30.943887,76.801991,PM10,97,259,155
India,Karnataka,Bagalkot,"Vidayagiri, Bagalkot - KSPCB",23-06-2024 16:00:00,16.172806,75.659694,PM10,42,42,42
India,Karnataka,Belgaum,"Ramteerth Nagar, Belgaum - KSPCB",23-06-2024 16:00:00,15.888653,74.541751,PM2.5,6,31,13
India,Karnataka,Belgaum,"Ramteerth Nagar, Belgaum - KSPCB",23-06-2024 16:00:00,15.888653,74.541751,PM10,12,61,25
India,Karnataka,Belgaum,"Ramteerth Nagar, Belgaum - KSPCB",23-06-2024 16:00:00,15.888653,74.541751,NO2,3,40,15
India,Karnataka,Belgaum,"Ramteerth Nagar, Belgaum - KSPCB",23-06-2024 16:00:00,15.888653,74.541751,OZONE,19,20,19
India,Karnataka,Bengaluru,"City Railway Station, Bengaluru - KSPCB",23-06-2024 16:00:00,12.9756843,77.5660749,SO2,18,19,18
India,Karnataka,Bengaluru,"Hebbal, Bengaluru - KSPCB",23-06-2024 16:00:00,13.029152,77.585901,NO2,NA,NA,NA
India,Karnataka,Bengaluru,"Hombegowda Nagar, Bengaluru - KSPCB",23-06-2024 16:00:00,12.938539,77.590100,NO2,9,21,14
India,Karnataka,Bengaluru,"Hombegowda Nagar, Bengaluru - KSPCB",23-06-2024 16:00:00,12.938539,77.590100,NH3,1,1,1
India,Karnataka,Bengaluru,"Jayanagar 5th Block, Bengaluru - KSPCB",23-06-2024 16:00:00,12.920984,77.584908,NO2,8,13,9
India,Karnataka,Bengaluru,"Jayanagar 5th Block, Bengaluru - KSPCB",23-06-2024 16:00:00,12.920984,77.584908,SO2,13,53,28
India,Karnataka,Bengaluru,"Jayanagar 5th Block, Bengaluru - KSPCB",23-06-2024 16:00:00,12.920984,77.584908,CO,20,23,22
India,Karnataka,Bengaluru,"Jigani, Bengaluru - KSPCB",23-06-2024 16:00:00,12.7816279,77.6299145,OZONE,26,31,28
India,Karnataka,Bengaluru,"Kasturi Nagar, Bengaluru - KSPCB",23-06-2024 16:00:00,13.003872,77.664217,PM2.5,28,40,34
India,Karnataka,Bengaluru,"Kasturi Nagar, Bengaluru - KSPCB",23-06-2024 16:00:00,13.003872,77.664217,CO,24,25,25
India,Karnataka,Bengaluru,"Peenya, Bengaluru - CPCB",23-06-2024 16:00:00,13.0270199,77.494094,PM10,47,60,53
India,Karnataka,Bengaluru,"RVCE-Mailasandra, Bengaluru - KSPCB",23-06-2024 16:00:00,12.921418,77.502466,PM2.5,17,65,40
India,Karnataka,Bengaluru,"RVCE-Mailasandra, Bengaluru - KSPCB",23-06-2024 16:00:00,12.921418,77.502466,PM10,28,99,63
India,Karnataka,Bengaluru,"Shivapura_Peenya, Bengaluru - KSPCB",23-06-2024 16:00:00,13.0246342,77.5080115,NH3,4,4,4
India,Karnataka,Bengaluru,"Silk Board, Bengaluru - KSPCB",23-06-2024 16:00:00,12.917348,77.622813,PM2.5,5,32,20
India,Karnataka,Bengaluru,"Silk Board, Bengaluru - KSPCB",23-06-2024 16:00:00,12.917348,77.622813,NH3,1,1,1
India,Karnataka,Chamarajanagar,"Urban, Chamarajanagar - KSPCB",23-06-2024 16:00:00,11.55358,76.55521,SO2,3,6,4
India,Karnataka,Chikkaballapur,"Chikkaballapur Rural, Chikkaballapur - KSPCB",23-06-2024 16:00:00,13.428828,77.731418,PM10,11,65,35
India,Karnataka,Chikkaballapur,"Chikkaballapur Rural, Chikkaballapur - KSPCB",23-06-2024 16:00:00,13.428828,77.731418,NO2,5,8,6
India,Karnataka,Chikkaballapur,"Chikkaballapur Rural, Chikkaballapur - KSPCB",23-06-2024 16:00:00,13.428828,77.731418,OZONE,31,35,33
India,Karnataka,Chikkamagaluru,"Kalyana Nagara, Chikkamagaluru - KSPCB",23-06-2024 16:00:00,13.328028,75.797056,OZONE,20,41,34
India,Karnataka,Dharwad,"Kalabhavan, Dharwad - KSPCB",23-06-2024 16:00:00,15.459706,75.008381,PM10,25,88,54
India,Karnataka,Gadag,"Panchal Nagar, Gadag - KSPCB",23-06-2024 16:00:00,15.411456,75.638133,NH3,2,3,2
India,Karnataka,Hassan,"B.Katihalli, Hassan - KSPCB",23-06-2024 16:00:00,13.008556,76.125258,CO,7,38,20
India,Karnataka,Hassan,"B.Katihalli, Hassan - KSPCB",23-06-2024 16:00:00,13.008556,76.125258,OZONE,7,17,14
India,Karnataka,Haveri,"Ashwini Nagar, Haveri - KSPCB",23-06-2024 16:00:00,14.791800,75.389600,NO2,18,71,34
India,Karnataka,Haveri,"Ashwini Nagar, Haveri - KSPCB",23-06-2024 16:00:00,14.791800,75.389600,CO,36,38,37
India,Karnataka,Haveri,"Ashwini Nagar, Haveri - KSPCB",23-06-2024 16:00:00,14.791800,75.389600,OZONE,29,44,38
India,Karnataka,Kalaburagi,"Mahatma Basaveswar Colony, Kalaburgi - KSPCB",23-06-2024 16:00:00,17.336318,76.847397,SO2,2,5,3
India,Karnataka,Kalaburagi,"Mahatma Basaveswar Colony, Kalaburgi - KSPCB",23-06-2024 16:00:00,17.336318,76.847397,CO,28,36,30
India,Karnataka,Karwar,"KHB Colony, Karwar - KSPCB",23-06-2024 16:00:00,14.816666,74.141003,PM2.5,8,36,19
India,Karnataka,Karwar,"KHB Colony, Karwar - KSPCB",23-06-2024 16:00:00,14.816666,74.141003,PM10,12,43,24
India,Karnataka,Karwar,"KHB Colony, Karwar - KSPCB",23-06-2024 16:00:00,14.816666,74.141003,CO,8,8,8
India,Karnataka,Kolar,"Tamaka Ind. Area, Kolar - KSPCB",23-06-2024 16:00:00,13.1276288,78.1570122,PM10,NA,NA,NA
India,Karnataka,Kolar,"Tamaka Ind. Area, Kolar - KSPCB",23-06-2024 16:00:00,13.1276288,78.1570122,NH3,NA,NA,NA
India,Karnataka,Madikeri,"Stuart Hill, Madikeri - KSPCB",23-06-2024 16:00:00,12.415911,75.735050,NH3,NA,NA,NA
India,Karnataka,Madikeri,"Stuart Hill, Madikeri - KSPCB",23-06-2024 16:00:00,12.415911,75.735050,SO2,4,4,4
India,Karnataka,Mangalore,"Kadri, Mangalore - KSPCB",23-06-2024 16:00:00,12.889250,74.853000,PM2.5,13,33,24
India,Karnataka,Mangalore,"Kadri, Mangalore - KSPCB",23-06-2024 16:00:00,12.889250,74.853000,PM10,34,59,48
India,Karnataka,Mangalore,"Kadri, Mangalore - KSPCB",23-06-2024 16:00:00,12.889250,74.853000,NH3,2,2,2
India,Karnataka,Mangalore,"Kadri, Mangalore - KSPCB",23-06-2024 16:00:00,12.889250,74.853000,SO2,10,10,10
India,Karnataka,Mysuru,"Hebbal 1st Stage, Mysuru - KSPCB",23-06-2024 16:00:00,12.21041,76.37376,SO2,1,3,2
India,Karnataka,Raichur,"Haji Colony, Raichur - KSPCB",23-06-2024 16:00:00,16.208139,77.348417,CO,94,104,100
India,Karnataka,Ramanagara,"Vijay Nagar, Ramanagara - KSPCB",23-06-2024 16:00:00,12.733409,77.298051,PM2.5,10,45,18
India,Karnataka,Ramanagara,"Vijay Nagar, Ramanagara - KSPCB",23-06-2024 16:00:00,12.733409,77.298051,NO2,5,12,9
India,Karnataka,Ramanagara,"Vijay Nagar, Ramanagara - KSPCB",23-06-2024 16:00:00,12.733409,77.298051,NH3,2,3,2
India,Karnataka,Ramanagara,"Vijay Nagar, Ramanagara - KSPCB",23-06-2024 16:00:00,12.733409,77.298051,CO,5,122,47
India,Karnataka,Ramanagara,"Vijay Nagar, Ramanagara - KSPCB",23-06-2024 16:00:00,12.733409,77.298051,OZONE,24,48,30
India,Karnataka,Shivamogga,"Vinoba Nagara, Shivamogga - KSPCB",23-06-2024 16:00:00,13.940000,75.555917,SO2,2,8,4
India,Karnataka,Udupi,"Brahmagiri, Udupi - KSPCB",23-06-2024 16:00:00,13.34194444,74.74694444,OZONE,23,23,23
