country,state,city,station,last_update,latitude,longitude,pollutant_id,pollutant_min,pollutant_max,pollutant_avg
India,Andhra_Pradesh,Amaravati,"Secretariat, Amaravati - APPCB",19-08-2024 22:00:00,16.5150833,80.5181667,SO2,17,22,20
India,Andhra_Pradesh,Amaravati,"Secretariat, Amaravati - APPCB",19-08-2024 22:00:00,16.5150833,80.5181667,OZONE,9,12,11
India,Andhra_Pradesh,Anantapur,"Gulzarpet, Anantapur - APPCB",19-08-2024 22:00:00,14.675886,77.593027,PM10,51,77,59
India,Andhra_Pradesh,Anantapur,"Gulzarpet, Anantapur - APPCB",19-08-2024 22:00:00,14.675886,77.593027,NH3,5,5,5
India,Andhra_Pradesh,Anantapur,"Gulzarpet, Anantapur - APPCB",19-08-2024 22:00:00,14.675886,77.593027,SO2,2,6,3
India,Andhra_Pradesh,Kadapa,"Yerramukkapalli, Kadapa - APPCB",19-08-2024 22:00:00,14.465052,78.824187,NO2,NA,NA,NA
India,Andhra_Pradesh,Tirupati,"Tirumala, Tirupati - APPCB",19-08-2024 22:00:00,13.67,79.35,NO2,17,30,23
India,Andhra_Pradesh,Tirupati,"Tirumala, Tirupati - APPCB",19-08-2024 22:00:00,13.67,79.35,CO,18,28,23
India,Andhra_Pradesh,Tirupati,"Vaikuntapuram, Tirupati - APPCB",19-08-2024 22:00:00,13.615387,79.409230,NH3,2,3,2
India,Andhra_Pradesh,Vijayawada,"HB Colony, Vijayawada - APPCB",19-08-2024 22:00:00,16.536107,80.594233,PM2.5,39,67,46
India,Andhra_Pradesh,Vijayawada,"Kanuru, Vijayawada - APPCB",19-08-2024 22:00:00,16.486692,80.699436,PM2.5,31,46,36
India,Andhra_Pradesh,Vijayawada,"Kanuru, Vijayawada - APPCB",19-08-2024 22:00:00,16.486692,80.699436,NH3,4,4,4
India,Andhra_Pradesh,Vijayawada,"Rajiv Gandhi Park, Vijayawada - APPCB",19-08-2024 22:00:00,16.509717,80.612222,PM10,36,83,56
India,Andhra_Pradesh,Vijayawada,"Rajiv Gandhi Park, Vijayawada - APPCB",19-08-2024 22:00:00,16.509717,80.612222,NO2,15,42,28
India,Andhra_Pradesh,Vijayawada,"Rajiv Nagar, Vijayawada - APPCB",19-08-2024 22:00:00,16.554731,80.649110,PM2.5,49,52,50
India,Andhra_Pradesh,Vijayawada,"Rajiv Nagar, Vijayawada - APPCB",19-08-2024 22:00:00,16.554731,80.649110,NO2,10,10,10
India,Andhra_Pradesh,Vijayawada,"Rajiv Nagar, Vijayawada - APPCB",19-08-2024 22:00:00,16.554731,80.649110,SO2,10,10,10
India,Andhra_Pradesh,Visakhapatnam,"GVM Corporation, Visakhapatnam - APPCB",19-08-2024 22:00:00,17.72,83.3,NH3,3,5,3
India,Andhra_Pradesh,Visakhapatnam,"GVM Corporation, Visakhapatnam - APPCB",19-08-2024 22:00:00,17.72,83.3,OZONE,10,15,11
India,Arunachal_Pradesh,Naharlagun,"Naharlagun, Naharlagun - APSPCB",19-08-2024 22:00:00,27.103358,93.679645,SO2,NA,NA,NA
India,Arunachal_Pradesh,Naharlagun,"Naharlagun, Naharlagun - APSPCB",19-08-2024 22:00:00,27.103358,93.679645,OZONE,3,3,3
India,Assam,Byrnihat,"Central Academy for SFS, Byrnihat - PCBA",19-08-2024 22:00:00,26.071318,91.87488,NO2,8,45,16
India,Assam,Byrnihat,"Central Academy for SFS, Byrnihat - PCBA",19-08-2024 22:00:00,26.071318,91.87488,NH3,10,35,15
India,Assam,Guwahati,"IITG, Guwahati - PCBA",19-08-2024 22:00:00,26.2028636,91.70046436,NH3,NA,NA,NA
India,Assam,Guwahati,"Pan Bazaar, Guwahati - PCBA",19-08-2024 22:00:00,26.187500,91.744194,PM10,1,44,13
India,Assam,Guwahati,"Pan Bazaar, Guwahati - PCBA",19-08-2024 22:00:00,26.187500,91.744194,SO2,21,28,24
India,Assam,Guwahati,"Railway Colony, Guwahati - PCBA",19-08-2024 22:00:00,26.181742,91.78063,PM2.5,9,68,31
India,Assam,Nagaon,"Christianpatty, Nagaon - PCBA",19-08-2024 22:00:00,26.349082,92.68449,PM2.5,17,21,18
India,Assam,Nagaon,"Christianpatty, Nagaon - PCBA",19-08-2024 22:00:00,26.349082,92.68449,PM10,20,24,22
India,Assam,Nalbari,"Bata Chowk, Nalbari - PCBA",19-08-2024 22:00:00,26.446912,91.439057,NO2,6,15,10
India,Assam,Silchar,"Tarapur, Silchar - PCBA",19-08-2024 22:00:00,24.82827,92.79525,NH3,1,1,1
India,Assam,Sivasagar,"Girls College, Sivasagar - PCBA",19-08-2024 22:00:00,26.987634,94.636574,NO2,8,13,10
India,Assam,Sivasagar,"Girls College, Sivasagar - PCBA",19-08-2024 22:00:00,26.987634,94.636574,NH3,1,2,1
India,Assam,Sivasagar,"Girls College, Sivasagar - PCBA",19-08-2024 22:00:00,26.987634,94.636574,CO,22,28,27
India,Bihar,Araria,"Kharahiya Basti, Araria - BSPCB",19-08-2024 22:00:00,26.146529,87.454184,OZONE,4,33,26
India,Bihar,Arrah,"New DM Office, Arrah - BSPCB",19-08-2024 22:00:00,25.5626095,84.663264,PM10,NA,NA,NA
India,Bihar,Arrah,"New DM Office, Arrah - BSPCB",19-08-2024 22:00:00,25.5626095,84.663264,CO,10,24,17
India,Bihar,Aurangabad,"Gurdeo Nagar, Aurangabad - BSPCB",19-08-2024 22:00:00,24.75746,84.366208,PM2.5,7,80,26
India,Bihar,Aurangabad,"Gurdeo Nagar, Aurangabad - BSPCB",19-08-2024 22:00:00,24.75746,84.366208,NH3,3,3,3
India,Bihar,Aurangabad,"Gurdeo Nagar, Aurangabad - BSPCB",19-08-2024 22:00:00,24.75746,84.366208,CO,10,44,41
India,Bihar,Begusarai,"Lohiyanagar, Begusarai - BSPCB (Formerly known as DRCC Anandpur)",19-08-2024 22:00:00,25.42742023,86.13886079,PM2.5,2,86,18
India,Bihar,Begusarai,"Lohiyanagar, Begusarai - BSPCB (Formerly known as DRCC Anandpur)",19-08-2024 22:00:00,25.42742023,86.13886079,PM10,1,76,19
India,Bihar,Begusarai,"Lohiyanagar, Begusarai - BSPCB (Formerly known as DRCC Anandpur)",19-08-2024 22:00:00,25.42742023,86.13886079,SO2,7,36,27
India,Bihar,Bhagalpur,"Mayaganj, Bhagalpur - BSPCB",19-08-2024 22:00:00,25.265194,87.012947,NO2,4,11,9
India,Bihar,Bihar Sharif,"D M Colony, Bihar Sharif - BSPCB",19-08-2024 22:00:00,25.204762,85.514960,CO,22,82,43
India,Bihar,Chhapra,"Darshan Nagar, Chhapra - BSPCB",19-08-2024 22:00:00,25.7808257,84.7446768,PM2.5,10,157,40
India,Bihar,Chhapra,"Darshan Nagar, Chhapra - BSPCB",19-08-2024 22:00:00,25.7808257,84.7446768,PM10,9,119,38
India,Bihar,Chhapra,"Darshan Nagar, Chhapra - BSPCB",19-08-2024 22:00:00,25.7808257,84.7446768,NH3,11,28,17
India,Bihar,Chhapra,"Darshan Nagar, Chhapra - BSPCB",19-08-2024 22:00:00,25.7808257,84.7446768,SO2,1,8,3
India,Bihar,Chhapra,"Darshan Nagar, Chhapra - BSPCB",19-08-2024 22:00:00,25.7808257,84.7446768,CO,16,26,22
India,Bihar,Chhapra,"Darshan Nagar, Chhapra - BSPCB",19-08-2024 22:00:00,25.7808257,84.7446768,OZONE,1,6,2
India,Bihar,Gaya,"Collectorate, Gaya - BSPCB",19-08-2024 22:00:00,24.7955,84.9994,NO2,4,7,5
India,Bihar,Gaya,"Collectorate, Gaya - BSPCB",19-08-2024 22:00:00,24.7955,84.9994,SO2,8,14,10
India,Bihar,Gaya,"SFTI Kusdihra, Gaya - BSPCB",19-08-2024 22:00:00,24.762518,84.982348,NH3,2,5,4
India,Bihar,Hajipur,"Industrial Area, Hajipur - BSPCB",19-08-2024 22:00:00,25.697189,85.245900,PM2.5,19,61,43
India,Bihar,Hajipur,"Industrial Area, Hajipur - BSPCB",19-08-2024 22:00:00,25.697189,85.245900,CO,18,26,19
India,Bihar,Hajipur,"Industrial Area, Hajipur - BSPCB",19-08-2024 22:00:00,25.697189,85.245900,OZONE,37,76,55
India,Bihar,Katihar,"Mirchaibari, Katihar - BSPCB",19-08-2024 22:00:00,25.560083,87.553265,CO,36,36,36
India,Bihar,Manguraha,"Forest Rest House, Manguraha - BSPCB",19-08-2024 22:00:00,27.308328,84.531742,PM10,NA,NA,NA
India,Bihar,Motihari,"Gandak Colony, Motihari - BSPCB",19-08-2024 22:00:00,26.63086,84.90051,PM2.5,7,167,43
India,Bihar,Motihari,"Gandak Colony, Motihari - BSPCB",19-08-2024 22:00:00,26.63086,84.90051,SO2,3,48,18
India,Bihar,Munger,"Town Hall, Munger - BSPCB",19-08-2024 22:00:00,25.376776,86.471523,NO2,NA,NA,NA
India,Bihar,Munger,"Town Hall, Munger - BSPCB",19-08-2024 22:00:00,25.376776,86.471523,SO2,NA,NA,NA
India,Bihar,Muzaffarpur,"Buddha Colony, Muzaffarpur - BSPCB",19-08-2024 22:00:00,26.11442,85.39813,NH3,5,13,10
India,Bihar,Muzaffarpur,"Buddha Colony, Muzaffarpur - BSPCB",19-08-2024 22:00:00,26.11442,85.39813,SO2,3,5,4
India,Bihar,Muzaffarpur,"Buddha Colony, Muzaffarpur - BSPCB",19-08-2024 22:00:00,26.11442,85.39813,OZONE,24,44,34
India,Bihar,Muzaffarpur,"Muzaffarpur Collectorate, Muzaffarpur - BSPCB",19-08-2024 22:00:00,26.1209,85.3647,OZONE,20,53,29
India,Bihar,Patna,"DRM Office Danapur, Patna - BSPCB",19-08-2024 22:00:00,25.586562,85.043586,NO2,9,61,20
India,Bihar,Patna,"Govt. High School Shikarpur, Patna - BSPCB",19-08-2024 22:00:00,25.592539,85.227158,NO2,31,34,33
India,Bihar,Patna,"Govt. High School Shikarpur, Patna - BSPCB",19-08-2024 22:00:00,25.592539,85.227158,OZONE,34,39,36
India,Bihar,Patna,"IGSC Planetarium Complex, Patna - BSPCB",19-08-2024 22:00:00,25.610369,85.132568,NO2,13,13,13
India,Bihar,Patna,"Muradpur, Patna - BSPCB",19-08-2024 22:00:00,25.619651,85.147382,PM2.5,17,76,46
India,Bihar,Patna,"Muradpur, Patna - BSPCB",19-08-2024 22:00:00,25.619651,85.147382,PM10,33,99,64
India,Bihar,Patna,"Rajbansi Nagar, Patna - BSPCB",19-08-2024 22:00:00,25.599486,85.113666,NH3,3,6,4
India,Bihar,Patna,"Samanpura, Patna - BSPCB",19-08-2024 22:00:00,25.596727,85.085624,PM10,36,243,70
India,Bihar,Saharsa,"Police Line, Saharsa - BSPCB",19-08-2024 22:00:00,25.892357,86.590325,CO,52,61,56
India,Bihar,Saharsa,"Police Line, Saharsa - BSPCB",19-08-2024 22:00:00,25.892357,86.590325,OZONE,9,148,73
India,Chandigarh,Chandigarh,"Sector 22, Chandigarh - CPCC",19-08-2024 22:00:00,30.735567,76.775714,NO2,9,28,18
India,Chandigarh,Chandigarh,"Sector-25, Chandigarh - CPCC",19-08-2024 22:00:00,30.751462,76.762879,SO2,NA,NA,NA
India,Chhattisgarh,Bhilai,"32Bungalows, Bhilai - CECB",19-08-2024 22:00:00,21.194815,81.314770,PM2.5,20,50,31
India,Chhattisgarh,Bhilai,"32Bungalows, Bhilai - CECB",19-08-2024 22:00:00,21.194815,81.314770,NO2,5,8,7
India,Chhattisgarh,Bhilai,"32Bungalows, Bhilai - CECB",19-08-2024 22:00:00,21.194815,81.314770,NH3,7,8,8
India,Chhattisgarh,Bhilai,"32Bungalows, Bhilai - CECB",19-08-2024 22:00:00,21.194815,81.314770,OZONE,6,11,7
India,Chhattisgarh,Bhilai,"Civic Center, Bhilai - Bhilai Steel Plant",19-08-2024 22:00:00,21.185571,81.343175,NO2,7,8,8
India,Chhattisgarh,Bhilai,"Civic Center, Bhilai - Bhilai Steel Plant",19-08-2024 22:00:00,21.185571,81.343175,SO2,9,11,10
India,Chhattisgarh,Korba,"Rampur, Korba - CECB",19-08-2024 22:00:00,22.368195,82.746431,CO,22,30,29
India,Chhattisgarh,Korba,"Rampur, Korba - CECB",19-08-2024 22:00:00,22.368195,82.746431,OZONE,NA,NA,NA
India,Chhattisgarh,Kunjemura,"OP Jindal School, Kunjemura - CECB",19-08-2024 22:00:00,22.126650,83.483212,NH3,2,2,2
India,Chhattisgarh,Kunjemura,"OP Jindal School, Kunjemura - CECB",19-08-2024 22:00:00,22.126650,83.483212,SO2,4,9,5
India,Chhattisgarh,Kunjemura,"OP Jindal School, Kunjemura - CECB",19-08-2024 22:00:00,22.126650,83.483212,CO,20,42,29
India,Chhattisgarh,Raipur,"AIIMS, Raipur - CECB",19-08-2024 22:00:00,21.258815,81.578979,PM10,26,64,39
India,Chhattisgarh,Raipur,"Bhatagaon New ISBT, Raipur - CECB",19-08-2024 22:00:00,21.219665,81.630094,PM2.5,NA,NA,NA
India,Chhattisgarh,Raipur,"Bhatagaon New ISBT, Raipur - CECB",19-08-2024 22:00:00,21.219665,81.630094,NO2,4,4,4
India,Chhattisgarh,Raipur,"Krishak Nagar, Raipur - CECB",19-08-2024 22:00:00,21.237755,81.705301,PM2.5,9,77,42
India,Chhattisgarh,Raipur,"Krishak Nagar, Raipur - CECB",19-08-2024 22:00:00,21.237755,81.705301,CO,24,33,26
India,Chhattisgarh,Raipur,"Siltara Phase-II, Raipur - CECB",19-08-2024 22:00:00,21.371751,81.664929,NO2,7,23,10
India,Delhi,Delhi,"Alipur, Delhi - DPCC",19-08-2024 22:00:00,28.815329,77.153010,PM10,12,148,59
India,Delhi,Delhi,"Alipur, Delhi - DPCC",19-08-2024 22:00:00,28.815329,77.153010,OZONE,19,26,24
India,Delhi,Delhi,"Anand Vihar, Delhi - DPCC",19-08-2024 22:00:00,28.647622,77.3158090,NO2,14,389,94
India,Delhi,Delhi,"Anand Vihar, Delhi - DPCC",19-08-2024 22:00:00,28.647622,77.3158090,CO,29,107,42
India,Delhi,Delhi,"Ashok Vihar, Delhi - DPCC",19-08-2024 22:00:00,28.695381,77.181665,NO2,9,59,28
India,Delhi,Delhi,"Ashok Vihar, Delhi - DPCC",19-08-2024 22:00:00,28.695381,77.181665,OZONE,8,61,32
India,Delhi,Delhi,"Burari Crossing, Delhi - IMD",19-08-2024 22:00:00,28.7256504,77.2011573,NO2,8,19,17
India,Delhi,Delhi,"Chandni Chowk, Delhi - IITM",19-08-2024 22:00:00,28.656756,77.227234,NO2,79,84,81
India,Delhi,Delhi,"Chandni Chowk, Delhi - IITM",19-08-2024 22:00:00,28.656756,77.227234,NH3,10,11,11
India,Delhi,Delhi,"Chandni Chowk, Delhi - IITM",19-08-2024 22:00:00,28.656756,77.227234,CO,6,99,41
India,Delhi,Delhi,"Dr. Karni Singh Shooting Range, Delhi - DPCC",19-08-2024 22:00:00,28.498571,77.264840,PM2.5,28,58,44
India,Delhi,Delhi,"Dr. Karni Singh Shooting Range, Delhi - DPCC",19-08-2024 22:00:00,28.498571,77.264840,SO2,4,7,5
India,Delhi,Delhi,"Dr. Karni Singh Shooting Range, Delhi - DPCC",19-08-2024 22:00:00,28.498571,77.264840,OZONE,12,75,40
India,Delhi,Delhi,"Dwarka-Sector 8, Delhi - DPCC ",19-08-2024 22:00:00,28.5710274,77.0719006,NO2,24,74,41
India,Delhi,Delhi,"Dwarka-Sector 8, Delhi - DPCC ",19-08-2024 22:00:00,28.5710274,77.0719006,SO2,9,13,10
India,Delhi,Delhi,"IHBAS, Dilshad Garden, Delhi - CPCB",19-08-2024 22:00:00,28.6811736,77.3025234,NO2,43,96,73
India,Delhi,Delhi,"IHBAS, Dilshad Garden, Delhi - CPCB",19-08-2024 22:00:00,28.6811736,77.3025234,SO2,14,19,16
India,Delhi,Delhi,"IHBAS, Dilshad Garden, Delhi - CPCB",19-08-2024 22:00:00,28.6811736,77.3025234,OZONE,10,19,17
India,Delhi,Delhi,"ITO, Delhi - CPCB",19-08-2024 22:00:00,28.628624,77.241060,SO2,9,24,16
India,Delhi,Delhi,"ITO, Delhi - CPCB",19-08-2024 22:00:00,28.628624,77.241060,OZONE,9,15,12
India,Delhi,Delhi,"Jahangirpuri, Delhi - DPCC",19-08-2024 22:00:00,28.732820,77.170633,PM10,57,274,129
India,Delhi,Delhi,"Jawaharlal Nehru Stadium, Delhi - DPCC",19-08-2024 22:00:00,28.580280,77.233829,CO,19,91,29
India,Delhi,Delhi,"Jawaharlal Nehru Stadium, Delhi - DPCC",19-08-2024 22:00:00,28.580280,77.233829,OZONE,2,82,12
India,Delhi,Delhi,"Lodhi Road, Delhi - IMD",19-08-2024 22:00:00,28.5918245,77.2273074,PM10,31,71,48
India,Delhi,Delhi,"Lodhi Road, Delhi - IMD",19-08-2024 22:00:00,28.5918245,77.2273074,OZONE,25,53,36
India,Delhi,Delhi,"Major Dhyan Chand National Stadium, Delhi - DPCC",19-08-2024 22:00:00,28.611281,77.237738,CO,22,98,32
India,Delhi,Delhi,"Mandir Marg, Delhi - DPCC",19-08-2024 22:00:00,28.636429,77.201067,SO2,NA,NA,NA
India,Delhi,Delhi,"Najafgarh, Delhi - DPCC",19-08-2024 22:00:00,28.570173,76.933762,SO2,11,19,16
India,Delhi,Delhi,"Najafgarh, Delhi - DPCC",19-08-2024 22:00:00,28.570173,76.933762,OZONE,25,52,41
India,Delhi,Delhi,"Narela, Delhi - DPCC",19-08-2024 22:00:00,28.822836,77.101981,OZONE,16,35,24
India,Delhi,Delhi,"Nehru Nagar, Delhi - DPCC",19-08-2024 22:00:00,28.567890,77.250515,PM10,46,102,70
India,Delhi,Delhi,"North Campus, DU, Delhi - IMD",19-08-2024 22:00:00,28.6573814,77.1585447,OZONE,13,148,76
India,Delhi,Delhi,"Patparganj, Delhi - DPCC",19-08-2024 22:00:00,28.623763,77.287209,NH3,5,8,6
India,Delhi,Delhi,"Punjabi Bagh, Delhi - DPCC",19-08-2024 22:00:00,28.674045,77.131023,PM10,46,155,92
India,Delhi,Delhi,"Punjabi Bagh, Delhi - DPCC",19-08-2024 22:00:00,28.674045,77.131023,NO2,2,52,15
India,Delhi,Delhi,"Pusa, Delhi - DPCC",19-08-2024 22:00:00,28.639652,77.146275,OZONE,6,7,7
India,Delhi,Delhi,"Rohini, Delhi - DPCC",19-08-2024 22:00:00,28.732528,77.119920,NH3,9,16,12
India,Delhi,Delhi,"Sirifort, Delhi - CPCB",19-08-2024 22:00:00,28.5504249,77.2159377,CO,14,52,20
India,Delhi,Delhi,"Sirifort, Delhi - CPCB",19-08-2024 22:00:00,28.5504249,77.2159377,OZONE,41,75,45
India,Delhi,Delhi,"Sonia Vihar, Delhi - DPCC",19-08-2024 22:00:00,28.710508,77.249485,NO2,13,40,24
India,Delhi,Delhi,"Sonia Vihar, Delhi - DPCC",19-08-2024 22:00:00,28.710508,77.249485,SO2,3,7,5
India,Delhi,Delhi,"Sri Aurobindo Marg, Delhi - DPCC",19-08-2024 22:00:00,28.531346,77.190156,PM10,38,86,61
India,Delhi,Delhi,"Sri Aurobindo Marg, Delhi - DPCC",19-08-2024 22:00:00,28.531346,77.190156,NO2,8,32,16
India,Delhi,Delhi,"Vivek Vihar, Delhi - DPCC",19-08-2024 22:00:00,28.672342,77.315260,CO,48,108,61
India,Delhi,Delhi,"Wazirpur, Delhi - DPCC",19-08-2024 22:00:00,28.699793,77.165453,PM10,49,184,103
India,Delhi,Delhi,"Wazirpur, Delhi - DPCC",19-08-2024 22:00:00,28.699793,77.165453,NH3,8,9,8
India,Delhi,Delhi,"Wazirpur, Delhi - DPCC",19-08-2024 22:00:00,28.699793,77.165453,OZONE,11,39,21
India,Gujarat,Ahmedabad,"Gyaspur, Ahmedabad - IITM",19-08-2024 22:00:00,22.977134,72.553024,CO,24,40,31
India,Gujarat,Ahmedabad,"Maninagar, Ahmedabad - GPCB",19-08-2024 22:00:00,23.002657,72.591912,PM2.5,21,87,45
India,Gujarat,Ahmedabad,"SAC ISRO Satellite, Ahmedabad - IITM",19-08-2024 22:00:00,23.023389,72.515201,SO2,3,5,4
India,Gujarat,Ahmedabad,"SVPI Airport Hansol, Ahmedabad - IITM",19-08-2024 22:00:00,23.076793,72.627874,PM2.5,41,68,52
India,Gujarat,Ahmedabad,"SVPI Airport Hansol, Ahmedabad - IITM",19-08-2024 22:00:00,23.076793,72.627874,NH3,5,5,5
India,Gujarat,Ankleshwar,"GIDC, Ankleshwar - GPCB",19-08-2024 22:00:00,21.613267,73.010555,PM2.5,20,65,39
India,Gujarat,Ankleshwar,"GIDC, Ankleshwar - GPCB",19-08-2024 22:00:00,21.613267,73.010555,NO2,24,31,27
India,Gujarat,Gandhinagar,"GIFT City, Gandhinagar - IITM",19-08-2024 22:00:00,23.163798,72.677768,NO2,NA,NA,NA
India,Gujarat,Gandhinagar,"GIFT City, Gandhinagar - IITM",19-08-2024 22:00:00,23.163798,72.677768,CO,28,49,39
India,Gujarat,Surat,"Science Center, Surat - SMC",19-08-2024 22:00:00,21.170046,72.795405,SO2,11,14,13
India,Gujarat,Vatva,"Phase-4 GIDC, Vatva - GPCB",19-08-2024 22:00:00,22.969611,72.643500,NH3,2,4,2
India,Haryana,Ambala,"Patti Mehar, Ambala - HSPCB",19-08-2024 22:00:00,30.379589,76.778328,NO2,7,21,14
India,Haryana,Ambala,"Patti Mehar, Ambala - HSPCB",19-08-2024 22:00:00,30.379589,76.778328,CO,30,62,41
India,Haryana,Bahadurgarh,"Arya Nagar, Bahadurgarh - HSPCB",19-08-2024 22:00:00,28.6701,76.9254,NH3,NA,NA,NA
India,Haryana,Charkhi Dadri,"Mini Secretariat, Charkhi Dadri - HSPCB",19-08-2024 22:00:00,28.593883,76.270653,SO2,11,14,13
India,Haryana,Dharuhera,"Municipal Corporation Office, Dharuhera -  HSPCB",19-08-2024 22:00:00,28.206800,76.799700,PM10,49,91,69
India,Haryana,Dharuhera,"Municipal Corporation Office, Dharuhera -  HSPCB",19-08-2024 22:00:00,28.206800,76.799700,NH3,9,26,18
India,Haryana,Dharuhera,"Municipal Corporation Office, Dharuhera -  HSPCB",19-08-2024 22:00:00,28.206800,76.799700,OZONE,10,69,44
India,Haryana,Faridabad,"New Industrial Town, Faridabad - HSPCB",19-08-2024 22:00:00,28.39072,77.30059,SO2,12,13,12
India,Haryana,Faridabad,"New Industrial Town, Faridabad - HSPCB",19-08-2024 22:00:00,28.39072,77.30059,CO,26,27,26
India,Haryana,Faridabad,"Sector 11, Faridabad - HSPCB",19-08-2024 22:00:00,28.376058,77.315741,PM2.5,60,66,63
India,Haryana,Fatehabad,"Huda Sector, Fatehabad - HSPCB",19-08-2024 22:00:00,29.503664,75.467934,CO,32,34,33
India,Haryana,Gurugram,"Sector-51, Gurugram - HSPCB",19-08-2024 22:00:00,28.4227,77.0667,NO2,13,29,23
India,Haryana,Gurugram,"Teri Gram, Gurugram - HSPCB",19-08-2024 22:00:00,28.4275,77.1465,PM10,11,256,91
India,Haryana,Gurugram,"Vikas Sadan, Gurugram - HSPCB",19-08-2024 22:00:00,28.4501238,77.0263051,CO,49,130,109
India,Haryana,Jind,"Police Lines, Jind - HSPCB",19-08-2024 22:00:00,29.307814,76.337619,PM10,17,53,35
India,Haryana,Jind,"Police Lines, Jind - HSPCB",19-08-2024 22:00:00,29.307814,76.337619,NO2,6,18,11
India,Haryana,Jind,"Police Lines, Jind - HSPCB",19-08-2024 22:00:00,29.307814,76.337619,CO,28,134,92
India,Haryana,Jind,"Police Lines, Jind - HSPCB",19-08-2024 22:00:00,29.307814,76.337619,OZONE,27,89,52
India,Haryana,Kaithal,"Rishi Nagar, Kaithal - HSPCB",19-08-2024 22:00:00,29.8006,76.4155,NO2,24,26,25
India,Haryana,Kaithal,"Rishi Nagar, Kaithal - HSPCB",19-08-2024 22:00:00,29.8006,76.4155,CO,14,29,25
India,Haryana,Karnal,"Sector-12, Karnal - HSPCB",19-08-2024 22:00:00,29.695300,77.002700,NO2,7,12,10
India,Haryana,Kurukshetra,"Sector-7, Kurukshetra - HSPCB",19-08-2024 22:00:00,29.966942,76.875879,PM10,21,45,33
India,Haryana,Kurukshetra,"Sector-7, Kurukshetra - HSPCB",19-08-2024 22:00:00,29.966942,76.875879,CO,14,20,17
India,Haryana,Mandikhera,"General Hospital, Mandikhera - HSPCB",19-08-2024 22:00:00,27.9002,76.9938,NO2,19,23,21
India,Haryana,Mandikhera,"General Hospital, Mandikhera - HSPCB",19-08-2024 22:00:00,27.9002,76.9938,OZONE,21,33,28
India,Haryana,Manesar,"Sector-2 IMT, Manesar - HSPCB",19-08-2024 22:00:00,28.360699,76.936090,NH3,5,5,5
India,Haryana,Manesar,"Sector-2 IMT, Manesar - HSPCB",19-08-2024 22:00:00,28.360699,76.936090,SO2,4,22,15
India,Haryana,Narnaul,"Shastri Nagar, Narnaul - HSPCB",19-08-2024 22:00:00,28.060249,76.113115,OZONE,15,42,33
India,Haryana,Palwal,"Shyam Nagar, Palwal - HSPCB",19-08-2024 22:00:00,28.1485564,77.3320667,NH3,8,9,9
India,Haryana,Panchkula,"Sector-6, Panchkula - HSPCB ",19-08-2024 22:00:00,30.7057778,76.8531805555555,PM2.5,NA,NA,NA
India,Haryana,Rohtak,"MD University, Rohtak - HSPCB",19-08-2024 22:00:00,28.52123,76.37138,PM2.5,12,49,27
India,Haryana,Sonipat,"Murthal, Sonipat - HSPCB",19-08-2024 22:00:00,29.027200,77.062100,PM10,86,88,87
India,Himachal Pradesh,Baddi,"HIMUDA Complex Phase-1, Baddi - HPPCB",19-08-2024 22:00:00,30.943887,76.801991,NH3,5,5,5
India,Himachal Pradesh,Baddi,"HIMUDA Complex Phase-1, Baddi - HPPCB",19-08-2024 22:00:00,30.943887,76.801991,OZONE,1,42,26
India,Jammu_and_Kashmir,Srinagar,"Rajbagh, Srinagar - JKSPCB",19-08-2024 22:00:00,34.066206,74.819820,PM2.5,28,60,43
India,Jammu_and_Kashmir,Srinagar,"Rajbagh, Srinagar - JKSPCB",19-08-2024 22:00:00,34.066206,74.819820,SO2,12,96,25
India,Jharkhand,Jorapokhar,"Tata Stadium, Jorapokhar - JSPCB",19-08-2024 22:00:00,23.707909,86.414670,CO,10,10,10
India,Karnataka,Belgaum,"Ramteerth Nagar, Belgaum - KSPCB",19-08-2024 22:00:00,15.888653,74.541751,SO2,10,10,10
India,Karnataka,Belgaum,"Ramteerth Nagar, Belgaum - KSPCB",19-08-2024 22:00:00,15.888653,74.541751,CO,53,72,58
India,Karnataka,Bengaluru,"BTM Layout, Bengaluru - CPCB",19-08-2024 22:00:00,12.9135218,77.5950804,PM10,NA,NA,NA
India,Karnataka,Bengaluru,"BTM Layout, Bengaluru - CPCB",19-08-2024 22:00:00,12.9135218,77.5950804,NH3,NA,NA,NA
India,Karnataka,Bengaluru,"BTM Layout, Bengaluru - CPCB",19-08-2024 22:00:00,12.9135218,77.5950804,CO,27,36,30
India,Karnataka,Bengaluru,"Bapuji Nagar, Bengaluru - KSPCB",19-08-2024 22:00:00,12.951913,77.539784,SO2,6,7,6
India,Karnataka,Bengaluru,"Hebbal, Bengaluru - KSPCB",19-08-2024 22:00:00,13.029152,77.585901,NO2,5,9,7
India,Karnataka,Bengaluru,"Hombegowda Nagar, Bengaluru - KSPCB",19-08-2024 22:00:00,12.938539,77.590100,NH3,1,2,1
India,Karnataka,Bengaluru,"Jayanagar 5th Block, Bengaluru - KSPCB",19-08-2024 22:00:00,12.920984,77.584908,NH3,1,1,1
India,Karnataka,Bengaluru,"Jayanagar 5th Block, Bengaluru - KSPCB",19-08-2024 22:00:00,12.920984,77.584908,OZONE,21,26,24
India,Karnataka,Bengaluru,"Jigani, Bengaluru - KSPCB",19-08-2024 22:00:00,12.7816279,77.6299145,NH3,5,6,5
India,Karnataka,Bengaluru,"Jigani, Bengaluru - KSPCB",19-08-2024 22:00:00,12.7816279,77.6299145,CO,28,38,31
India,Karnataka,Bengaluru,"Kasturi Nagar, Bengaluru - KSPCB",19-08-2024 22:00:00,13.003872,77.664217,NO2,14,18,16
India,Karnataka,Bengaluru,"Kasturi Nagar, Bengaluru - KSPCB",19-08-2024 22:00:00,13.003872,77.664217,NH3,3,3,3
India,Karnataka,Bengaluru,"Kasturi Nagar, Bengaluru - KSPCB",19-08-2024 22:00:00,13.003872,77.664217,OZONE,39,41,40
India,Karnataka,Bengaluru,"Peenya, Bengaluru - CPCB",19-08-2024 22:00:00,13.0270199,77.494094,PM2.5,46,58,53
India,Karnataka,Bengaluru,"RVCE-Mailasandra, Bengaluru - KSPCB",19-08-2024 22:00:00,12.921418,77.502466,NO2,22,22,22
India,Karnataka,Bengaluru,"Shivapura_Peenya, Bengaluru - KSPCB",19-08-2024 22:00:00,13.0246342,77.5080115,NH3,4,4,4
India,Karnataka,Bengaluru,"Silk Board, Bengaluru - KSPCB",19-08-2024 22:00:00,12.917348,77.622813,OZONE,9,26,19
India,Karnataka,Chamarajanagar,"Urban, Chamarajanagar - KSPCB",19-08-2024 22:00:00,11.55358,76.55521,CO,17,121,22
India,Karnataka,Chamarajanagar,"Urban, Chamarajanagar - KSPCB",19-08-2024 22:00:00,11.55358,76.55521,OZONE,26,40,29
India,Karnataka,Chikkaballapur,"Chikkaballapur Rural, Chikkaballapur - KSPCB",19-08-2024 22:00:00,13.428828,77.731418,NO2,10,18,14
India,Karnataka,Haveri,"Ashwini Nagar, Haveri - KSPCB",19-08-2024 22:00:00,14.791800,75.389600,OZONE,NA,NA,NA
India,Karnataka,Hubballi,"Lingaraj Nagar, Hubballi - KSPCB",19-08-2024 22:00:00,15.3714823,75.1160168,OZONE,4,15,8
India,Karnataka,Kolar,"Tamaka Ind. Area, Kolar - KSPCB",19-08-2024 22:00:00,13.1276288,78.1570122,NO2,6,9,7
India,Karnataka,Mysuru,"Hebbal 1st Stage, Mysuru - KSPCB",19-08-2024 22:00:00,12.21041,76.37376,PM2.5,13,36,22
India,Karnataka,Mysuru,"Hebbal 1st Stage, Mysuru - KSPCB",19-08-2024 22:00:00,12.21041,76.37376,NO2,10,61,27
India,Karnataka,Ramanagara,"Vijay Nagar, Ramanagara - KSPCB",19-08-2024 22:00:00,12.733409,77.298051,NO2,1,7,3
India,Karnataka,Ramanagara,"Vijay Nagar, Ramanagara - KSPCB",19-08-2024 22:00:00,12.733409,77.298051,SO2,12,20,15
India,Karnataka,Shivamogga,"Vinoba Nagara, Shivamogga - KSPCB",19-08-2024 22:00:00,13.940000,75.555917,PM10,25,50,32
India,Karnataka,Shivamogga,"Vinoba Nagara, Shivamogga - KSPCB",19-08-2024 22:00:00,13.940000,75.555917,SO2,2,11,6
India,Karnataka,Shivamogga,"Vinoba Nagara, Shivamogga - KSPCB",19-08-2024 22:00:00,13.940000,75.555917,CO,10,40,24
India,Karnataka,Tumakuru,"Thimmalapura, Tumakuru - KSPCB",19-08-2024 22:00:00,13.377516,77.099072,SO2,7,11,8
India,Karnataka,Udupi,"Brahmagiri, Udupi - KSPCB",19-08-2024 22:00:00,13.34194444,74.74694444,NH3,1,4,2
India,Kerala,Eloor,"Udyogamandal, Eloor - Kerala PCB",19-08-2024 22:00:00,10.073232,76.302765,CO,10,95,40
India,Kerala,Kollam,"Polayathode, Kollam - Kerala PCB",19-08-2024 22:00:00,8.8787,76.6073,CO,14,17,16
India,Kerala,Thiruvananthapuram,"Kariavattom, Thiruvananthapuram - Kerala PCB",19-08-2024 22:00:00,8.563700,76.886500,OZONE,36,36,36
India,Madhya Pradesh,Bhopal,"T T Nagar, Bhopal - MPPCB",19-08-2024 22:00:00,23.233584,77.400574,CO,21,85,32
India,Madhya Pradesh,Bhopal,"T T Nagar, Bhopal - MPPCB",19-08-2024 22:00:00,23.233584,77.400574,OZONE,25,59,55
India,Madhya Pradesh,Dewas,"Bhopal Chauraha, Dewas - MPPCB",19-08-2024 22:00:00,22.9682591,76.064118,CO,14,24,19
India,Madhya Pradesh,Gwalior,"Deen Dayal Nagar, Gwalior - MPPCB",19-08-2024 22:00:00,26.259242,78.216432,NO2,2,21,7
India,Madhya Pradesh,Gwalior,"Maharaj Bada, Gwalior - MPPCB",19-08-2024 22:00:00,26.200388,78.147714,PM2.5,17,38,25
India,Madhya Pradesh,Gwalior,"Maharaj Bada, Gwalior - MPPCB",19-08-2024 22:00:00,26.200388,78.147714,SO2,3,20,12
India,Madhya Pradesh,Gwalior,"Phool Bagh, Gwalior - Mondelez Ind. Food",19-08-2024 22:00:00,26.210536,78.171,PM2.5,NA,NA,NA
India,Madhya Pradesh,Gwalior,"Phool Bagh, Gwalior - Mondelez Ind. Food",19-08-2024 22:00:00,26.210536,78.171,PM10,NA,NA,NA
India,Madhya Pradesh,Gwalior,"Phool Bagh, Gwalior - Mondelez Ind. Food",19-08-2024 22:00:00,26.210536,78.171,NO2,3,5,4
India,Madhya Pradesh,Indore,"Chhoti Gwaltoli, Indore - MPPCB",19-08-2024 22:00:00,22.4310,75.5213,SO2,12,15,13
India,Madhya Pradesh,Indore,"Chhoti Gwaltoli, Indore - MPPCB",19-08-2024 22:00:00,22.4310,75.5213,CO,28,107,82
India,Madhya Pradesh,Indore,"Maguda Nagar, Indore - IMC",19-08-2024 22:00:00,22.7524,75.8872,PM10,NA,NA,NA
India,Madhya Pradesh,Indore,"Maguda Nagar, Indore - IMC",19-08-2024 22:00:00,22.7524,75.8872,OZONE,1,3,2
India,Madhya Pradesh,Indore,"Regional Park, Indore - IMC",19-08-2024 22:00:00,22.6780,75.8559,PM10,42,113,68
India,Madhya Pradesh,Jabalpur,"Govindh Bhavan Colony, Jabalpur - JMC",19-08-2024 22:00:00,23.163174,79.973061,NO2,5,11,8
India,Madhya Pradesh,Jabalpur,"Gupteshwar, Jabalpur - JMC",19-08-2024 22:00:00,23.142888,79.916147,PM10,22,75,37
India,Madhya Pradesh,Jabalpur,"Gupteshwar, Jabalpur - JMC",19-08-2024 22:00:00,23.142888,79.916147,NH3,4,5,4
India,Madhya Pradesh,Jabalpur,"Suhagi, Jabalpur - JMC",19-08-2024 22:00:00,23.218135,79.957770,OZONE,4,5,4
India,Madhya Pradesh,Katni,"Gole Bazar, Katni - MPPCB",19-08-2024 22:00:00,23.50016,80.23284,NO2,21,28,23
India,Madhya Pradesh,Katni,"Gole Bazar, Katni - MPPCB",19-08-2024 22:00:00,23.50016,80.23284,CO,28,50,33
India,Madhya Pradesh,Mandideep,"Sector-D Industrial Area, Mandideep - MPPCB",19-08-2024 22:00:00,23.108440,77.511428,PM10,41,104,60
India,Madhya Pradesh,Mandideep,"Sector-D Industrial Area, Mandideep - MPPCB",19-08-2024 22:00:00,23.108440,77.511428,SO2,4,26,9
India,Madhya Pradesh,Mandideep,"Sector-D Industrial Area, Mandideep - MPPCB",19-08-2024 22:00:00,23.108440,77.511428,OZONE,23,26,25
India,Madhya Pradesh,Pithampur,"Sector-2 Industrial Area, Pithampur - MPPCB",19-08-2024 22:00:00,22.624758,75.675238,PM10,63,124,92
India,Madhya Pradesh,Sagar,"Civil Lines, Sagar - MPPCB",19-08-2024 22:00:00,23.838586,78.759431,NH3,4,5,4
India,Madhya Pradesh,Satna,"Bandhavgar Colony, Satna - Birla Cement",19-08-2024 22:00:00,24.58434363,80.8549414,PM2.5,2,11,4
India,Madhya Pradesh,Singrauli,"Suryakiran Bhawan NCL, Singrauli - MPPCB",19-08-2024 22:00:00,24.108970,82.645580,SO2,NA,NA,NA
India,Maharashtra,Akola,"Ramdaspeth, Akola - MPCB",19-08-2024 22:00:00,20.719516,77.000253,PM10,32,99,64
India,Maharashtra,Amravati,"Shivneri Colony, Amravati - MPCB",19-08-2024 22:00:00,20.9402359,77.7895248,PM2.5,20,49,33
India,Maharashtra,Amravati,"Shri Shivaji Science College, Amaravati - MPCB",19-08-2024 22:00:00,20.939198,77.765701,NO2,2,30,6
India,Maharashtra,Amravati,"Shri Shivaji Science College, Amaravati - MPCB",19-08-2024 22:00:00,20.939198,77.765701,OZONE,1,31,23
India,Maharashtra,Aurangabad,"MIDC Chilkalthana, Aurangabad - MPCB",19-08-2024 22:00:00,19.875620,75.387310,CO,7,31,20
India,Maharashtra,Aurangabad,"More Chowk Waluj, Aurangabad - MPCB",19-08-2024 22:00:00,19.8389439,75.244448,SO2,8,20,16
India,Maharashtra,Badlapur,"Katrap, Badlapur - MPCB",19-08-2024 22:00:00,19.16485,73.23409,CO,36,86,66
India,Maharashtra,Badlapur,"Katrap, Badlapur - MPCB",19-08-2024 22:00:00,19.16485,73.23409,OZONE,5,34,26
India,Maharashtra,Belapur,"CBD Belapur, Belapur - MPCB",19-08-2024 22:00:00,19.0243902,73.0406721,PM10,45,70,56
India,Maharashtra,Belapur,"CBD Belapur, Belapur - MPCB",19-08-2024 22:00:00,19.0243902,73.0406721,SO2,3,5,4
India,Maharashtra,Belapur,"CBD Belapur, Belapur - MPCB",19-08-2024 22:00:00,19.0243902,73.0406721,OZONE,12,36,23
India,Maharashtra,Boisar,"Khaira, Boisar - MPCB",19-08-2024 22:00:00,19.786089,72.757971,PM2.5,34,70,50
India,Maharashtra,Boisar,"Khaira, Boisar - MPCB",19-08-2024 22:00:00,19.786089,72.757971,CO,10,46,31
India,Maharashtra,Boisar,"Khaira, Boisar - MPCB",19-08-2024 22:00:00,19.786089,72.757971,OZONE,7,49,33
India,Maharashtra,Chandrapur,"Chauhan Colony, Chandrapur - MPCB",19-08-2024 22:00:00,19.962900,79.298714,PM10,42,92,63
India,Maharashtra,Chandrapur,"Chauhan Colony, Chandrapur - MPCB",19-08-2024 22:00:00,19.962900,79.298714,NH3,2,3,3
India,Maharashtra,Chandrapur,"MIDC Khutala, Chandrapur - MPCB",19-08-2024 22:00:00,19.9775302,79.2337086,PM10,NA,NA,NA
India,Maharashtra,Chandrapur,"MIDC Khutala, Chandrapur - MPCB",19-08-2024 22:00:00,19.9775302,79.2337086,SO2,NA,NA,NA
India,Maharashtra,Dhule,"Deopur, Dhule - MPCB",19-08-2024 22:00:00,20.918946,74.776388,PM2.5,27,73,44
India,Maharashtra,Dhule,"Deopur, Dhule - MPCB",19-08-2024 22:00:00,20.918946,74.776388,SO2,1,14,2
India,Maharashtra,Dhule,"Deopur, Dhule - MPCB",19-08-2024 22:00:00,20.918946,74.776388,OZONE,6,25,22
India,Maharashtra,Jalgaon,"Prabhat Colony, Jalgaon - MPCB",19-08-2024 22:00:00,21.001264,75.565602,PM10,NA,NA,NA
India,Maharashtra,Kalyan,"Khadakpada, Kalyan - MPCB",19-08-2024 22:00:00,19.25292,73.142019,PM2.5,8,31,16
India,Maharashtra,Kalyan,"Khadakpada, Kalyan - MPCB",19-08-2024 22:00:00,19.25292,73.142019,PM10,7,101,56
India,Maharashtra,Kalyan,"Khadakpada, Kalyan - MPCB",19-08-2024 22:00:00,19.25292,73.142019,CO,13,20,15
India,Maharashtra,Kalyan,"Khadakpada, Kalyan - MPCB",19-08-2024 22:00:00,19.25292,73.142019,OZONE,4,5,5
India,Maharashtra,Kolhapur,"Shivaji University, Kolhapur - MPCB",19-08-2024 22:00:00,16.6870449,74.2505872,NH3,2,3,2
India,Maharashtra,Kolhapur,"Shivaji University, Kolhapur - MPCB",19-08-2024 22:00:00,16.6870449,74.2505872,OZONE,2,41,28
India,Maharashtra,Kolhapur,"Sinchan Bhavan, Kolhapur - MPCB",19-08-2024 22:00:00,16.7143745,74.2426398,PM2.5,18,37,28
India,Maharashtra,Kolhapur,"Sinchan Bhavan, Kolhapur - MPCB",19-08-2024 22:00:00,16.7143745,74.2426398,PM10,23,83,46
India,Maharashtra,Kolhapur,"Sinchan Bhavan, Kolhapur - MPCB",19-08-2024 22:00:00,16.7143745,74.2426398,NH3,NA,NA,NA
India,Maharashtra,Kolhapur,"Sinchan Bhavan, Kolhapur - MPCB",19-08-2024 22:00:00,16.7143745,74.2426398,SO2,1,2,2
India,Maharashtra,Kolhapur,"Sinchan Bhavan, Kolhapur - MPCB",19-08-2024 22:00:00,16.7143745,74.2426398,OZONE,3,68,34
India,Maharashtra,Latur,"Sawe Wadi, Latur - MPCB",19-08-2024 22:00:00,18.39963,76.57452,NO2,5,29,15
India,Maharashtra,Mira-Bhayandar,"Bhayandar West, Mira-Bhayandar - MPCB",19-08-2024 22:00:00,19.296481,72.840923,PM10,38,65,51
India,Maharashtra,Mira-Bhayandar,"Bhayandar West, Mira-Bhayandar - MPCB",19-08-2024 22:00:00,19.296481,72.840923,OZONE,1,23,17
India,Maharashtra,Mumbai,"Bandra Kurla Complex, Mumbai - MPCB",19-08-2024 22:00:00,19.065931,72.862131,PM10,49,86,71
India,Maharashtra,Mumbai,"Bandra Kurla Complex, Mumbai - MPCB",19-08-2024 22:00:00,19.065931,72.862131,NO2,7,23,14
India,Maharashtra,Mumbai,"Borivali East, Mumbai - IITM",19-08-2024 22:00:00,19.23241,72.86895,OZONE,25,25,25
India,Maharashtra,Mumbai,"Borivali East, Mumbai - MPCB",19-08-2024 22:00:00,19.2243333,72.8658113,PM2.5,8,39,21
India,Maharashtra,Mumbai,"Borivali East, Mumbai - MPCB",19-08-2024 22:00:00,19.2243333,72.8658113,NO2,1,8,4
India,Maharashtra,Mumbai,"Borivali East, Mumbai - MPCB",19-08-2024 22:00:00,19.2243333,72.8658113,CO,16,22,18
India,Maharashtra,Mumbai,"Byculla, Mumbai - BMC",19-08-2024 22:00:00,18.9767,72.8380,NH3,2,3,3
India,Maharashtra,Mumbai,"Byculla, Mumbai - BMC",19-08-2024 22:00:00,18.9767,72.8380,OZONE,7,21,16
India,Maharashtra,Mumbai,"Chembur, Mumbai - MPCB",19-08-2024 22:00:00,19.0364585,72.8954371,NO2,NA,NA,NA
India,Maharashtra,Mumbai,"Chembur, Mumbai - MPCB",19-08-2024 22:00:00,19.0364585,72.8954371,SO2,NA,NA,NA
India,Maharashtra,Mumbai,"Chhatrapati Shivaji Intl. Airport (T2), Mumbai - MPCB",19-08-2024 22:00:00,19.10078,72.87462,PM10,52,115,86
India,Maharashtra,Mumbai,"Chhatrapati Shivaji Intl. Airport (T2), Mumbai - MPCB",19-08-2024 22:00:00,19.10078,72.87462,SO2,21,60,33
India,Maharashtra,Mumbai,"Deonar, Mumbai - IITM",19-08-2024 22:00:00,19.04946,72.9230,PM2.5,10,70,32
India,Maharashtra,Mumbai,"Ghatkopar, Mumbai - BMC",19-08-2024 22:00:00,19.083694,72.920967,PM10,16,46,33
India,Maharashtra,Mumbai,"Kandivali East, Mumbai - MPCB",19-08-2024 22:00:00,19.205800,72.868200,PM2.5,NA,NA,NA
India,Maharashtra,Mumbai,"Kandivali East, Mumbai - MPCB",19-08-2024 22:00:00,19.205800,72.868200,PM10,NA,NA,NA
India,Maharashtra,Mumbai,"Kandivali West, Mumbai - BMC",19-08-2024 22:00:00,19.215859,72.831718,PM10,19,36,28
India,Maharashtra,Mumbai,"Kherwadi_Bandra East, Mumbai - MPCB",19-08-2024 22:00:00,19.0632143,72.8456324,NO2,10,10,10
India,Maharashtra,Mumbai,"Kurla, Mumbai - MPCB",19-08-2024 22:00:00,19.0863,72.8888,SO2,19,19,19
India,Maharashtra,Mumbai,"Malad West, Mumbai - IITM",19-08-2024 22:00:00,19.19709,72.82204,NO2,20,30,26
India,Maharashtra,Mumbai,"Malad West, Mumbai - IITM",19-08-2024 22:00:00,19.19709,72.82204,NH3,2,3,3
India,Maharashtra,Mumbai,"Mindspace-Malad West, Mumbai - MPCB",19-08-2024 22:00:00,19.1878657,72.8304069,OZONE,7,38,25
India,Maharashtra,Mumbai,"Mulund West, Mumbai - MPCB",19-08-2024 22:00:00,19.1750,72.9419,SO2,17,18,17
India,Maharashtra,Mumbai,"Mulund West, Mumbai - MPCB",19-08-2024 22:00:00,19.1750,72.9419,CO,28,29,28
India,Maharashtra,Mumbai,"Powai, Mumbai - MPCB",19-08-2024 22:00:00,19.137500,72.915056,PM10,33,71,54
India,Maharashtra,Mumbai,"Powai, Mumbai - MPCB",19-08-2024 22:00:00,19.137500,72.915056,NH3,2,2,2
India,Maharashtra,Mumbai,"Powai, Mumbai - MPCB",19-08-2024 22:00:00,19.137500,72.915056,SO2,14,15,15
India,Maharashtra,Mumbai,"Sewri, Mumbai - BMC",19-08-2024 22:00:00,19.000084,72.856730,NH3,2,7,4
India,Maharashtra,Mumbai,"Sewri, Mumbai - BMC",19-08-2024 22:00:00,19.000084,72.856730,SO2,NA,NA,NA
India,Maharashtra,Mumbai,"Shivaji Nagar, Mumbai - BMC",19-08-2024 22:00:00,19.060498,72.923356,SO2,1,3,2
India,Maharashtra,Mumbai,"Sion, Mumbai - MPCB",19-08-2024 22:00:00,19.047000,72.874600,PM2.5,17,58,33
India,Maharashtra,Mumbai,"Sion, Mumbai - MPCB",19-08-2024 22:00:00,19.047000,72.874600,PM10,25,87,50
India,Maharashtra,Mumbai,"Vile Parle West, Mumbai - MPCB",19-08-2024 22:00:00,19.10861,72.83622,PM2.5,7,36,20
India,Maharashtra,Mumbai,"Vile Parle West, Mumbai - MPCB",19-08-2024 22:00:00,19.10861,72.83622,PM10,36,452,247
India,Maharashtra,Mumbai,"Vile Parle West, Mumbai - MPCB",19-08-2024 22:00:00,19.10861,72.83622,NO2,NA,NA,NA
India,Maharashtra,Nagpur,"Ambazari, Nagpur - MPCB",19-08-2024 22:00:00,21.121801,79.04952,CO,11,40,26
India,Maharashtra,Nagpur,"Mahal, Nagpur - MPCB",19-08-2024 22:00:00,21.14472,79.107595,OZONE,2,27,12
India,Maharashtra,Nagpur,"Opp GPO Civil Lines, Nagpur - MPCB",19-08-2024 22:00:00,21.152875,79.0517531,NH3,NA,NA,NA
India,Maharashtra,Nagpur,"Opp GPO Civil Lines, Nagpur - MPCB",19-08-2024 22:00:00,21.152875,79.0517531,CO,10,68,39
India,Maharashtra,Nagpur,"Ram Nagar, Nagpur - MPCB",19-08-2024 22:00:00,21.143383,79.048912,NO2,NA,NA,NA
India,Maharashtra,Nagpur,"Ram Nagar, Nagpur - MPCB",19-08-2024 22:00:00,21.143383,79.048912,OZONE,4,9,7
India,Maharashtra,Nashik,"Hirawadi, Nashik - MPCB",19-08-2024 22:00:00,20.021503,73.813844,NH3,1,9,4
India,Maharashtra,Nashik,"MIDC Ambad, Nashik - MPCB",19-08-2024 22:00:00,19.950220,73.731480,PM2.5,20,86,46
India,Maharashtra,Nashik,"Pandav Nagari, Nashik - MPCB",19-08-2024 22:00:00,19.9591346,73.7788008,PM2.5,25,48,35
India,Maharashtra,Nashik,"Pandav Nagari, Nashik - MPCB",19-08-2024 22:00:00,19.9591346,73.7788008,NO2,18,130,62
India,Maharashtra,Nashik,"Pandav Nagari, Nashik - MPCB",19-08-2024 22:00:00,19.9591346,73.7788008,NH3,3,9,5
India,Maharashtra,Navi Mumbai,"Nerul, Navi Mumbai - MPCB",19-08-2024 22:00:00,19.008751,73.016620,PM10,26,500,137
India,Maharashtra,Navi Mumbai,"Nerul, Navi Mumbai - MPCB",19-08-2024 22:00:00,19.008751,73.016620,NO2,14,19,17
India,Maharashtra,Navi Mumbai,"Nerul, Navi Mumbai - MPCB",19-08-2024 22:00:00,19.008751,73.016620,OZONE,16,21,19
India,Maharashtra,Navi Mumbai,"Sanpada, Navi Mumbai - MPCB",19-08-2024 22:00:00,19.0575752,73.0151367,SO2,1,13,5
India,Maharashtra,Navi Mumbai,"Sanpada, Navi Mumbai - MPCB",19-08-2024 22:00:00,19.0575752,73.0151367,OZONE,1,90,37
India,Maharashtra,Navi Mumbai,"Sector-2E Kalamboli, Navi Mumbai - MPCB",19-08-2024 22:00:00,19.02579,73.10297,PM10,48,75,62
India,Maharashtra,Parbhani,"Masoom Colony, Parbhani - MPCB",19-08-2024 22:00:00,19.265594,76.761463,CO,9,26,26
India,Maharashtra,Pimpri-Chinchwad,"Savta Mali Nagar, Pimpri-Chinchwad - IITM",19-08-2024 22:00:00,18.614767,73.799516,PM10,11,50,19
India,Maharashtra,Pimpri-Chinchwad,"Thergaon, Pimpri Chinchwad - MPCB",19-08-2024 22:00:00,18.616318,73.765797,CO,18,70,42
India,Maharashtra,Pimpri-Chinchwad,"Thergaon, Pimpri Chinchwad - MPCB",19-08-2024 22:00:00,18.616318,73.765797,OZONE,3,37,13
India,Maharashtra,Pune,"Bhumkar Nagar, Pune - IITM",19-08-2024 22:00:00,18.605770,73.749976,PM2.5,6,159,45
India,Maharashtra,Pune,"Bhumkar Nagar, Pune - IITM",19-08-2024 22:00:00,18.605770,73.749976,PM10,30,131,51
India,Maharashtra,Pune,"Karve Road, Pune - MPCB",19-08-2024 22:00:00,18.5011743,73.8165527,PM2.5,22,40,32
India,Maharashtra,Pune,"Karve Road, Pune - MPCB",19-08-2024 22:00:00,18.5011743,73.8165527,PM10,38,70,55
India,Maharashtra,Pune,"Karve Road, Pune - MPCB",19-08-2024 22:00:00,18.5011743,73.8165527,NO2,4,7,6
India,Maharashtra,Pune,"Katraj Dairy, Pune - MPCB",19-08-2024 22:00:00,18.454450,73.854155,NO2,13,26,19
India,Maharashtra,Pune,"Katraj Dairy, Pune - MPCB",19-08-2024 22:00:00,18.454450,73.854155,NH3,1,3,2
India,Maharashtra,Pune,"Katraj Dairy, Pune - MPCB",19-08-2024 22:00:00,18.454450,73.854155,OZONE,11,74,28
India,Maharashtra,Pune,"Mhada Colony, Pune - IITM",19-08-2024 22:00:00,18.573040,73.927715,PM10,26,55,35
India,Maharashtra,Pune,"Revenue Colony-Shivajinagar, Pune - IITM",19-08-2024 22:00:00,18.530085,73.849598,OZONE,15,161,60
India,Maharashtra,Pune,"Savitribai Phule Pune University, Pune - MPCB",19-08-2024 22:00:00,18.547056,73.826908,NO2,NA,NA,NA
India,Maharashtra,Pune,"Savitribai Phule Pune University, Pune - MPCB",19-08-2024 22:00:00,18.547056,73.826908,NH3,NA,NA,NA
India,Maharashtra,Pune,"Savitribai Phule Pune University, Pune - MPCB",19-08-2024 22:00:00,18.547056,73.826908,CO,30,100,36
India,Maharashtra,Sangli,"Vijay Nagar, Sangli - MPCB",19-08-2024 22:00:00, 16.5038,74.3623,NH3,NA,NA,NA
India,Maharashtra,Sangli,"Vijay Nagar, Sangli - MPCB",19-08-2024 22:00:00, 16.5038,74.3623,CO,5,24,12
India,Maharashtra,Solapur,"Dnyaneshwar Nagar, Solapur - MPCB",19-08-2024 22:00:00,17.6336264,75.9132495,PM10,NA,NA,NA
India,Maharashtra,Solapur,"Dnyaneshwar Nagar, Solapur - MPCB",19-08-2024 22:00:00,17.6336264,75.9132495,CO,20,32,22
India,Maharashtra,Thane,"Kasarvadavali, Thane - MPCB",19-08-2024 22:00:00,19.26777,72.97182,CO,3,18,11
India,Maharashtra,Thane,"Upvan Fort, Thane - MPCB",19-08-2024 22:00:00,19.222279,72.957979,PM2.5,8,49,20
India,Maharashtra,Thane,"Upvan Fort, Thane - MPCB",19-08-2024 22:00:00,19.222279,72.957979,NO2,5,25,10
India,Maharashtra,Thane,"Upvan Fort, Thane - MPCB",19-08-2024 22:00:00,19.222279,72.957979,OZONE,1,23,13
India,Manipur,Imphal,"DM College of Science, Imphal - Manipur PCB",19-08-2024 22:00:00,24.8207389,93.9423085,NH3,NA,NA,NA
India,Meghalaya,Shillong,"Lumpyngngad, Shillong - Meghalaya PCB",19-08-2024 22:00:00,25.5586,91.8985,NO2,1,1,1
India,Meghalaya,Shillong,"Lumpyngngad, Shillong - Meghalaya PCB",19-08-2024 22:00:00,25.5586,91.8985,OZONE,10,35,21
India,Mizoram,Aizawl,"Sikulpuikawn, Aizawl - Mizoram PCB",19-08-2024 22:00:00,23.7176342,92.7192841,SO2,3,3,3
India,Nagaland,Kohima,"PWD Juction, Kohima - NPCB",19-08-2024 22:00:00,25.6635413,94.0989878,PM10,1,53,17
India,Nagaland,Kohima,"PWD Juction, Kohima - NPCB",19-08-2024 22:00:00,25.6635413,94.0989878,NO2,3,7,4
India,Nagaland,Kohima,"PWD Juction, Kohima - NPCB",19-08-2024 22:00:00,25.6635413,94.0989878,CO,2,22,15
India,Odisha,Angul,"Hakimapada, Angul - OSPCB",19-08-2024 22:00:00,20.832874,85.104082,PM2.5,32,177,61
India,Odisha,Angul,"Hakimapada, Angul - OSPCB",19-08-2024 22:00:00,20.832874,85.104082,PM10,22,103,55
India,Odisha,Angul,"Hakimapada, Angul - OSPCB",19-08-2024 22:00:00,20.832874,85.104082,OZONE,12,83,57
India,Odisha,Balasore,"Kalidaspur, Balasore - OSPCB",19-08-2024 22:00:00,21.51161,86.89088,NH3,NA,NA,NA
India,Odisha,Bhubaneswar,"Lingraj Mandir, Bhubaneswar - OSPCB",19-08-2024 22:00:00,20.240790,85.836784,NO2,4,11,7
India,Odisha,Bileipada,"Tata Township, Bileipada - OSPCB",19-08-2024 22:00:00,22.06156703,85.47409613,NO2,16,21,18
India,Odisha,Brajrajnagar,"GM Office, Brajrajnagar - OSPCB",19-08-2024 22:00:00,21.8004996,83.8396977,PM2.5,1,53,23
India,Odisha,Byasanagar,"Ferro Chrome Colony, Byasanagar - OSPCB",19-08-2024 22:00:00,20.94185,86.11510,PM2.5,5,65,25
India,Odisha,Byasanagar,"Ferro Chrome Colony, Byasanagar - OSPCB",19-08-2024 22:00:00,20.94185,86.11510,NH3,1,2,1
India,Odisha,Cuttack,"CDA Area, Cuttack - OSPCB",19-08-2024 22:00:00,20.48891     ,85.84768     ,OZONE,14,79,49
India,Odisha,Keonjhar,"Jagamohanpur, Keonjhar - OSPCB",19-08-2024 22:00:00,21.643900,85.599355,PM2.5,33,69,58
India,Odisha,Keonjhar,"Jagamohanpur, Keonjhar - OSPCB",19-08-2024 22:00:00,21.643900,85.599355,NO2,NA,NA,NA
India,Odisha,Keonjhar,"Jagamohanpur, Keonjhar - OSPCB",19-08-2024 22:00:00,21.643900,85.599355,NH3,NA,NA,NA
India,Odisha,Keonjhar,"Jagamohanpur, Keonjhar - OSPCB",19-08-2024 22:00:00,21.643900,85.599355,CO,110,159,157
India,Odisha,Rairangpur,"Divisional Forest Office, Rairangpur - OSPCB",19-08-2024 22:00:00,22.265816,86.174829,SO2,8,9,9
India,Odisha,Rourkela,"Fertilizer Township, Rourkela - OSPCB",19-08-2024 22:00:00,22.18972222,84.86277778,PM10,17,58,34
India,Odisha,Rourkela,"Fertilizer Township, Rourkela - OSPCB",19-08-2024 22:00:00,22.18972222,84.86277778,NO2,NA,NA,NA
India,Odisha,Rourkela,"Raghunathpali, Rourkela - OSPCB",19-08-2024 22:00:00,22.220833,84.809444,OZONE,5,14,8
India,Odisha,Suakati,"OMC Colony, Suakati - OSPCB",19-08-2024 22:00:00,21.606865,85.510538,NH3,7,13,8
India,Odisha,Suakati,"OMC Colony, Suakati - OSPCB",19-08-2024 22:00:00,21.606865,85.510538,SO2,3,11,8
India,Odisha,Tensa,"Barsua Iron Ore Mines, Tensa - OSPCB",19-08-2024 22:00:00,21.869985,85.167016,CO,12,27,16
India,Odisha,Tensa,"Barsua Iron Ore Mines, Tensa - OSPCB",19-08-2024 22:00:00,21.869985,85.167016,OZONE,19,32,23
India,Puducherry,Puducherry,"Jawahar Nagar, Puducherry - PPCC",19-08-2024 22:00:00,11.9309,79.8027,SO2,NA,NA,NA
India,Punjab,Amritsar,"Golden Temple, Amritsar - PPCB",19-08-2024 22:00:00,31.620000,74.876512,PM2.5,42,168,82
India,Punjab,Amritsar,"Golden Temple, Amritsar - PPCB",19-08-2024 22:00:00,31.620000,74.876512,SO2,6,8,7
India,Punjab,Amritsar,"Golden Temple, Amritsar - PPCB",19-08-2024 22:00:00,31.620000,74.876512,OZONE,46,60,53
India,Punjab,Bathinda,"Hardev Nagar, Bathinda - PPCB",19-08-2024 22:00:00,30.233011,74.907758,PM2.5,8,37,22
India,Punjab,Bathinda,"Hardev Nagar, Bathinda - PPCB",19-08-2024 22:00:00,30.233011,74.907758,NO2,31,35,33
India,Punjab,Jalandhar,"Civil Line, Jalandhar - PPCB",19-08-2024 22:00:00,31.321907,75.578914,PM2.5,24,26,25
India,Punjab,Jalandhar,"Civil Line, Jalandhar - PPCB",19-08-2024 22:00:00,31.321907,75.578914,SO2,14,15,15
India,Punjab,Jalandhar,"Civil Line, Jalandhar - PPCB",19-08-2024 22:00:00,31.321907,75.578914,OZONE,22,29,27
India,Punjab,Khanna,"Kalal Majra, Khanna - PPCB",19-08-2024 22:00:00,30.736056 ,76.209694,CO,14,22,17
India,Punjab,Ludhiana,"Punjab Agricultural University, Ludhiana - PPCB",19-08-2024 22:00:00,30.9028,75.8086,PM10,14,68,41
India,Punjab,Mandi Gobindgarh,"RIMT University, Mandi Gobindgarh - PPCB",19-08-2024 22:00:00,30.649961,76.331442,NH3,NA,NA,NA
India,Punjab,Patiala,"Model Town, Patiala - PPCB",19-08-2024 22:00:00,30.349388,76.366642,OZONE,17,34,27
India,Punjab,Rupnagar,"Ratanpura, Rupnagar - Ambuja Cements",19-08-2024 22:00:00,31.0325454,76.5623046,SO2,6,7,7
India,Rajasthan,Ajmer,"Civil Lines,  Ajmer - RSPCB",19-08-2024 22:00:00,26.470859,74.646594,NO2,3,34,16
India,Rajasthan,Ajmer,"Civil Lines,  Ajmer - RSPCB",19-08-2024 22:00:00,26.470859,74.646594,CO,14,30,23
India,Rajasthan,Alwar,"Moti Doongri, Alwar - RSPCB",19-08-2024 22:00:00,27.554793,76.611536,NO2,29,36,32
India,Rajasthan,Alwar,"Moti Doongri, Alwar - RSPCB",19-08-2024 22:00:00,27.554793,76.611536,NH3,6,8,7
India,Rajasthan,Banswara,"Rati Talai, Banswara - RSPCB",19-08-2024 22:00:00,23.555190,74.440010,PM10,81,122,106
India,Rajasthan,Banswara,"Rati Talai, Banswara - RSPCB",19-08-2024 22:00:00,23.555190,74.440010,CO,8,16,9
India,Rajasthan,Barmer,"Railway Colony, Barmer - RSPCB",19-08-2024 22:00:00,25.747299,71.393989,NO2,3,11,6
India,Rajasthan,Barmer,"Railway Colony, Barmer - RSPCB",19-08-2024 22:00:00,25.747299,71.393989,CO,19,30,25
India,Rajasthan,Bikaner,"MM Ground, Bikaner - RSPCB",19-08-2024 22:00:00,28.018792,73.292658,CO,10,28,22
India,Rajasthan,Bundi,"New Colony, Bundi - RSPCB",19-08-2024 22:00:00,25.435774,75.644272,NO2,4,24,8
India,Rajasthan,Bundi,"New Colony, Bundi - RSPCB",19-08-2024 22:00:00,25.435774,75.644272,SO2,1,2,1
India,Rajasthan,Bundi,"New Colony, Bundi - RSPCB",19-08-2024 22:00:00,25.435774,75.644272,CO,16,44,24
India,Rajasthan,Chittorgarh,"Shastri Nagar, Chittorgarh - RSPCB",19-08-2024 22:00:00,24.892047,74.623527,NO2,8,35,14
India,Rajasthan,Chittorgarh,"Shastri Nagar, Chittorgarh - RSPCB",19-08-2024 22:00:00,24.892047,74.623527,OZONE,7,57,39
India,Rajasthan,Churu,"Subash Chowk, Churu - RSPCB",19-08-2024 22:00:00,28.296139,74.961696,PM10,23,162,78
India,Rajasthan,Churu,"Subash Chowk, Churu - RSPCB",19-08-2024 22:00:00,28.296139,74.961696,NH3,17,18,17
India,Rajasthan,Dausa,"Khatikan Mohalla, Dausa - RSPCB",19-08-2024 22:00:00,26.895552,76.334753,PM2.5,18,376,121
India,Rajasthan,Dausa,"Khatikan Mohalla, Dausa - RSPCB",19-08-2024 22:00:00,26.895552,76.334753,CO,6,102,51
India,Rajasthan,Dungarpur,"Bhoiwada, Dungarpur - RSPCB",19-08-2024 22:00:00,23.837789,73.714926,CO,14,56,29
India,Rajasthan,Jaipur,"Adarsh Nagar, Jaipur - RSPCB",19-08-2024 22:00:00,26.902909,75.836858,NO2,14,51,24
India,Rajasthan,Jaipur,"Mansarovar Sector-12, Jaipur - RSPCB",19-08-2024 22:00:00,26.843698,75.766894,SO2,1,9,3
India,Rajasthan,Jaipur,"Mansarovar Sector-12, Jaipur - RSPCB",19-08-2024 22:00:00,26.843698,75.766894,OZONE,32,85,69
India,Rajasthan,Jaipur,"Police Commissionerate, Jaipur - RSPCB",19-08-2024 22:00:00,26.9164092,75.7994901,PM2.5,25,64,42
India,Rajasthan,Jaipur,"Police Commissionerate, Jaipur - RSPCB",19-08-2024 22:00:00,26.9164092,75.7994901,NH3,1,2,2
India,Rajasthan,Jaipur,"RIICO Sitapura, Jaipur - RSPCB",19-08-2024 22:00:00,26.786682,75.827928,PM2.5,23,44,35
India,Rajasthan,Jaipur,"RIICO Sitapura, Jaipur - RSPCB",19-08-2024 22:00:00,26.786682,75.827928,SO2,5,6,5
India,Rajasthan,Jaipur,"RIICO Sitapura, Jaipur - RSPCB",19-08-2024 22:00:00,26.786682,75.827928,CO,15,28,20
India,Rajasthan,Jaipur,"RIICO Sitapura, Jaipur - RSPCB",19-08-2024 22:00:00,26.786682,75.827928,OZONE,25,48,33
India,Rajasthan,Jaipur,"Sector-2 Murlipura, Jaipur - RSPCB",19-08-2024 22:00:00,26.960669,75.771817,PM2.5,27,58,38
India,Rajasthan,Jaisalmer,"Sadar Bazar, Jaisalmer - RSPCB",19-08-2024 22:00:00,26.912329,70.909168,PM2.5,12,33,21
India,Rajasthan,Jaisalmer,"Sadar Bazar, Jaisalmer - RSPCB",19-08-2024 22:00:00,26.912329,70.909168,SO2,4,6,4
India,Rajasthan,Jalore,"Mudtra Sili, Jalore - RSPCB",19-08-2024 22:00:00,25.344694,72.626208,CO,7,20,14
India,Rajasthan,Jhalawar,"Rajlaxmi Nagar, Jhalawar - RSPCB",19-08-2024 22:00:00,24.588397,76.172782,OZONE,12,52,41
India,Rajasthan,Jhunjhunu,"Indra Nagar, Jhunjhunu - RSPCB",19-08-2024 22:00:00,28.108988,75.386577,PM2.5,18,59,29
India,Rajasthan,Jhunjhunu,"Indra Nagar, Jhunjhunu - RSPCB",19-08-2024 22:00:00,28.108988,75.386577,PM10,40,134,74
India,Rajasthan,Jhunjhunu,"Indra Nagar, Jhunjhunu - RSPCB",19-08-2024 22:00:00,28.108988,75.386577,NH3,7,10,9
India,Rajasthan,Jhunjhunu,"Indra Nagar, Jhunjhunu - RSPCB",19-08-2024 22:00:00,28.108988,75.386577,OZONE,17,47,34
India,Rajasthan,Jodhpur,"Collectorate, Jodhpur - RSPCB",19-08-2024 22:00:00,26.268249,73.0193853,PM2.5,17,63,35
India,Rajasthan,Jodhpur,"Collectorate, Jodhpur - RSPCB",19-08-2024 22:00:00,26.268249,73.0193853,OZONE,20,22,20
India,Rajasthan,Jodhpur,"Digari Kalan, Jodhpur - RSPCB",19-08-2024 22:00:00,26.295810,73.082283,PM2.5,17,50,33
India,Rajasthan,Jodhpur,"Digari Kalan, Jodhpur - RSPCB",19-08-2024 22:00:00,26.295810,73.082283,CO,14,46,19
India,Rajasthan,Jodhpur,"Jhalamand, Jodhpur - RSPCB",19-08-2024 22:00:00,26.215415,73.070156,NO2,8,32,18
India,Rajasthan,Jodhpur,"Jhalamand, Jodhpur - RSPCB",19-08-2024 22:00:00,26.215415,73.070156,NH3,3,12,5
India,Rajasthan,Jodhpur,"Samrat Ashok Udhyan, Jodhpur - RSPCB",19-08-2024 22:00:00,26.253384,72.976571,NH3,3,4,4
India,Rajasthan,Karauli,"Satyawati Vihar, Karauli - RSPCB",19-08-2024 22:00:00,26.506177,77.025989,PM2.5,11,28,19
India,Rajasthan,Karauli,"Satyawati Vihar, Karauli - RSPCB",19-08-2024 22:00:00,26.506177,77.025989,CO,11,22,16
India,Rajasthan,Kota,"Dhanmandi, Kota - RSPCB",19-08-2024 22:00:00,25.164090,75.858137,CO,2,102,83
India,Rajasthan,Kota,"Nayapura, Kota - RSPCB",19-08-2024 22:00:00,25.196024,75.855668,NO2,8,50,17
India,Rajasthan,Kota,"Nayapura, Kota - RSPCB",19-08-2024 22:00:00,25.196024,75.855668,OZONE,15,28,16
India,Rajasthan,Kota,"Shrinath Puram, Kota - RSPCB",19-08-2024 22:00:00,25.14389,75.821256,CO,34,74,54
India,Rajasthan,Kota,"Shrinath Puram, Kota - RSPCB",19-08-2024 22:00:00,25.14389,75.821256,OZONE,25,42,36
India,Rajasthan,Nagaur,"Karni Colony, Nagaur - RSPCB",19-08-2024 22:00:00,27.213494,73.734444,NH3,3,5,5
India,Rajasthan,Pratapgarh,"Pragati Nagar, Pratapgarh - RSPCB",19-08-2024 22:00:00,24.041198,74.780702,PM10,20,79,37
India,Rajasthan,Rajsamand,"Dhoinda, Rajsamand - RSPCB",19-08-2024 22:00:00,25.036360,73.883502,PM10,25,90,49
India,Rajasthan,Rajsamand,"Dhoinda, Rajsamand - RSPCB",19-08-2024 22:00:00,25.036360,73.883502,NO2,4,20,10
India,Rajasthan,Sawai Madhopur,"Sahu Nagar, Sawai Madhopur - RSPCB",19-08-2024 22:00:00,26.031443,76.359327,PM2.5,24,65,32
India,Rajasthan,Sawai Madhopur,"Sahu Nagar, Sawai Madhopur - RSPCB",19-08-2024 22:00:00,26.031443,76.359327,NH3,3,6,4
India,Rajasthan,Sikar,"Radhakishan Pura, Sikar - RSPCB",19-08-2024 22:00:00,27.608912,75.153302,SO2,2,3,2
India,Rajasthan,Sikar,"Radhakishan Pura, Sikar - RSPCB",19-08-2024 22:00:00,27.608912,75.153302,OZONE,15,28,22
India,Rajasthan,Sirohi,"Vedhaynath Colony, Sirohi - RSPCB",19-08-2024 22:00:00,24.885261,72.857549,NH3,2,3,3
India,Rajasthan,Sirohi,"Vedhaynath Colony, Sirohi - RSPCB",19-08-2024 22:00:00,24.885261,72.857549,SO2,5,10,7
India,Rajasthan,Sri Ganganagar,"Old City, Sri Ganganagar - RSPCB",19-08-2024 22:00:00,29.931624,73.864511,PM2.5,32,336,98
India,Rajasthan,Sri Ganganagar,"Old City, Sri Ganganagar - RSPCB",19-08-2024 22:00:00,29.931624,73.864511,NH3,5,13,7
India,Rajasthan,Tonk,"Shastri Nagar, Tonk - RSPCB",19-08-2024 22:00:00,26.159933,75.780517,PM10,NA,NA,NA
India,Rajasthan,Tonk,"Shastri Nagar, Tonk - RSPCB",19-08-2024 22:00:00,26.159933,75.780517,CO,2,16,6
India,Rajasthan,Udaipur,"Ashok Nagar, Udaipur - RSPCB",19-08-2024 22:00:00,24.5886166,73.6321397,PM10,57,109,71
India,TamilNadu,Ariyalur,"Keelapalur, Ariyalur - TNPCB",19-08-2024 22:00:00,11.06825,79.07033,PM10,8,126,28
India,TamilNadu,Ariyalur,"Keelapalur, Ariyalur - TNPCB",19-08-2024 22:00:00,11.06825,79.07033,NO2,12,16,14
India,TamilNadu,Ariyalur,"Keelapalur, Ariyalur - TNPCB",19-08-2024 22:00:00,11.06825,79.07033,SO2,9,9,9
India,TamilNadu,Chennai,"Alandur Bus Depot, Chennai - CPCB",19-08-2024 22:00:00,12.9099161,80.1076538,SO2,1,21,5
India,TamilNadu,Chennai,"Alandur Bus Depot, Chennai - CPCB",19-08-2024 22:00:00,12.9099161,80.1076538,CO,60,64,63
India,TamilNadu,Chennai,"Manali Village, Chennai - TNPCB",19-08-2024 22:00:00,13.1662,80.2584,NO2,1,5,2
India,TamilNadu,Chennai,"Manali Village, Chennai - TNPCB",19-08-2024 22:00:00,13.1662,80.2584,CO,6,30,18
India,TamilNadu,Chennai,"Manali, Chennai - CPCB",19-08-2024 22:00:00,13.164544,80.26285,PM2.5,11,46,28
India,TamilNadu,Chennai,"Perungudi, Chennai - TNPCB",19-08-2024 22:00:00,12.9533,80.2357,PM10,2,102,40
India,TamilNadu,Chennai,"Perungudi, Chennai - TNPCB",19-08-2024 22:00:00,12.9533,80.2357,SO2,2,8,5
India,TamilNadu,Chennai,"Royapuram, Chennai - TNPCB",19-08-2024 22:00:00,13.1036,80.2909,OZONE,14,21,16
India,TamilNadu,Chennai,"Velachery Res. Area, Chennai - CPCB",19-08-2024 22:00:00,13.0052189,80.2398125,NH3,13,19,16
India,TamilNadu,Chennai,"Velachery Res. Area, Chennai - CPCB",19-08-2024 22:00:00,13.0052189,80.2398125,CO,55,56,55
India,TamilNadu,Gummidipoondi,"Anthoni Pillai Nagar, Gummidipoondi - TNPCB",19-08-2024 22:00:00,13.4127,80.1081,PM10,55,146,82
India,TamilNadu,Gummidipoondi,"Anthoni Pillai Nagar, Gummidipoondi - TNPCB",19-08-2024 22:00:00,13.4127,80.1081,NH3,2,5,3
India,TamilNadu,Palkalaiperur,"Bharathidasan University, Palkalaiperur - TNPCB",19-08-2024 22:00:00,10.681158,78.741746,PM10,NA,NA,NA
India,TamilNadu,Palkalaiperur,"Bharathidasan University, Palkalaiperur - TNPCB",19-08-2024 22:00:00,10.681158,78.741746,SO2,NA,NA,NA
India,TamilNadu,Tirunelveli,"Municipal Corporation Office, Tirunelveli - TNPCB",19-08-2024 22:00:00,8.728442,77.6962,PM10,NA,NA,NA
India,TamilNadu,Tirunelveli,"Municipal Corporation Office, Tirunelveli - TNPCB",19-08-2024 22:00:00,8.728442,77.6962,CO,28,30,30
India,Telangana,Hyderabad,"Central University, Hyderabad - TSPCB",19-08-2024 22:00:00,17.460103,78.334361,NO2,9,30,19
India,Telangana,Hyderabad,"Central University, Hyderabad - TSPCB",19-08-2024 22:00:00,17.460103,78.334361,SO2,2,8,5
India,Telangana,Hyderabad,"ECIL Kapra, Hyderabad - TSPCB",19-08-2024 22:00:00,17.470431,78.566959,CO,16,34,25
India,Telangana,Hyderabad,"ICRISAT Patancheru, Hyderabad - TSPCB",19-08-2024 22:00:00,17.518400,78.278777,CO,22,95,66
India,Telangana,Hyderabad,"IDA Pashamylaram, Hyderabad - TSPCB",19-08-2024 22:00:00,17.5316895,78.218939,SO2,1,46,10
India,Telangana,Hyderabad,"IITH Kandi, Hyderabad - TSPCB",19-08-2024 22:00:00,17.585705,78.126199,NH3,NA,NA,NA
India,Telangana,Hyderabad,"IITH Kandi, Hyderabad - TSPCB",19-08-2024 22:00:00,17.585705,78.126199,OZONE,22,34,31
India,Telangana,Hyderabad,"Kokapet, Hyderabad - TSPCB",19-08-2024 22:00:00,17.393559,78.339194,PM10,67,68,68
India,Telangana,Hyderabad,"Kokapet, Hyderabad - TSPCB",19-08-2024 22:00:00,17.393559,78.339194,NH3,2,2,2
India,Telangana,Hyderabad,"Kokapet, Hyderabad - TSPCB",19-08-2024 22:00:00,17.393559,78.339194,SO2,7,17,12
India,Telangana,Hyderabad,"Kompally Municipal Office, Hyderabad - TSPCB",19-08-2024 22:00:00,17.544899,78.486949,NH3,NA,NA,NA
India,Telangana,Hyderabad,"Nacharam_TSIIC IALA, Hyderabad - TSPCB",19-08-2024 22:00:00,17.429398,78.569354,SO2,12,21,18
India,Telangana,Hyderabad,"Nacharam_TSIIC IALA, Hyderabad - TSPCB",19-08-2024 22:00:00,17.429398,78.569354,CO,30,37,34
India,Telangana,Hyderabad,"Ramachandrapuram, Hyderabad - TSPCB",19-08-2024 22:00:00,17.528544,78.286195,NO2,NA,NA,NA
India,Telangana,Hyderabad,"Ramachandrapuram, Hyderabad - TSPCB",19-08-2024 22:00:00,17.528544,78.286195,CO,18,22,19
India,Telangana,Hyderabad,"Ramachandrapuram, Hyderabad - TSPCB",19-08-2024 22:00:00,17.528544,78.286195,OZONE,18,54,29
India,Telangana,Hyderabad,"Sanathnagar, Hyderabad - TSPCB",19-08-2024 22:00:00,17.4559458,78.4332152,NO2,28,32,30
India,Telangana,Hyderabad,"Sanathnagar, Hyderabad - TSPCB",19-08-2024 22:00:00,17.4559458,78.4332152,OZONE,14,18,15
India,Uttar_Pradesh,Agra,"Rohta, Agra - UPPCB",19-08-2024 22:00:00,27.106972,78.000111,NH3,2,2,2
India,Uttar_Pradesh,Agra,"Rohta, Agra - UPPCB",19-08-2024 22:00:00,27.106972,78.000111,SO2,3,6,4
India,Uttar_Pradesh,Agra,"Sanjay Palace, Agra - UPPCB",19-08-2024 22:00:00,27.19865833,78.00598056,PM2.5,4,13,7
India,Uttar_Pradesh,Agra,"Sector-3B Avas Vikas Colony, Agra - UPPCB",19-08-2024 22:00:00,27.19412,77.96237,PM2.5,3,17,10
India,Uttar_Pradesh,Agra,"Sector-3B Avas Vikas Colony, Agra - UPPCB",19-08-2024 22:00:00,27.19412,77.96237,NH3,1,4,3
India,Uttar_Pradesh,Agra,"Shastripuram, Agra - UPPCB",19-08-2024 22:00:00,27.19862,77.92066,PM2.5,1,27,14
India,Uttar_Pradesh,Agra,"Shastripuram, Agra - UPPCB",19-08-2024 22:00:00,27.19862,77.92066,NH3,2,10,2
India,Uttar_Pradesh,Agra,"Shastripuram, Agra - UPPCB",19-08-2024 22:00:00,27.19862,77.92066,CO,3,11,9
India,Uttar_Pradesh,Baghpat,"Sardar Patel Inter College, Baghpat - UPPCB",19-08-2024 22:00:00,28.964949,77.278761,PM2.5,2,31,13
India,Uttar_Pradesh,Baghpat,"Sardar Patel Inter College, Baghpat - UPPCB",19-08-2024 22:00:00,28.964949,77.278761,CO,32,56,40
India,Uttar_Pradesh,Bareilly,"Civil Lines, Bareilly - UPPCB",19-08-2024 22:00:00,28.359581,79.414455,SO2,26,29,27
India,Uttar_Pradesh,Bareilly,"Civil Lines, Bareilly - UPPCB",19-08-2024 22:00:00,28.359581,79.414455,CO,12,24,15
India,Uttar_Pradesh,Bareilly,"Civil Lines, Bareilly - UPPCB",19-08-2024 22:00:00,28.359581,79.414455,OZONE,4,61,5
India,Uttar_Pradesh,Bareilly,"Rajendra Nagar, Bareilly - UPPCB",19-08-2024 22:00:00,28.38910936,79.42963708,NH3,1,6,1
India,Uttar_Pradesh,Bulandshahr,"Yamunapuram, Bulandshahr - UPPCB",19-08-2024 22:00:00,28.406963,77.849831,PM10,27,101,73
India,Uttar_Pradesh,Bulandshahr,"Yamunapuram, Bulandshahr - UPPCB",19-08-2024 22:00:00,28.406963,77.849831,NH3,3,10,6
India,Uttar_Pradesh,Bulandshahr,"Yamunapuram, Bulandshahr - UPPCB",19-08-2024 22:00:00,28.406963,77.849831,SO2,1,21,12
India,Uttar_Pradesh,Firozabad,"Nagla Bhau, Firozabad - UPPCB",19-08-2024 22:00:00,27.168897,78.376960,CO,22,29,23
India,Uttar_Pradesh,Firozabad,"Nagla Bhau, Firozabad - UPPCB",19-08-2024 22:00:00,27.168897,78.376960,OZONE,16,18,17
India,Uttar_Pradesh,Ghaziabad,"Indirapuram, Ghaziabad - UPPCB",19-08-2024 22:00:00,28.646233,77.358075,PM10,48,134,84
India,Uttar_Pradesh,Ghaziabad,"Indirapuram, Ghaziabad - UPPCB",19-08-2024 22:00:00,28.646233,77.358075,SO2,18,22,20
India,Uttar_Pradesh,Ghaziabad,"Loni, Ghaziabad - UPPCB",19-08-2024 22:00:00,28.757294,77.278792,PM2.5,16,157,70
India,Uttar_Pradesh,Ghaziabad,"Loni, Ghaziabad - UPPCB",19-08-2024 22:00:00,28.757294,77.278792,SO2,2,6,4
India,Uttar_Pradesh,Ghaziabad,"Vasundhara, Ghaziabad - UPPCB",19-08-2024 22:00:00,28.6603346,77.3572563,NO2,13,45,27
India,Uttar_Pradesh,Ghaziabad,"Vasundhara, Ghaziabad - UPPCB",19-08-2024 22:00:00,28.6603346,77.3572563,NH3,3,5,4
India,Uttar_Pradesh,Ghaziabad,"Vasundhara, Ghaziabad - UPPCB",19-08-2024 22:00:00,28.6603346,77.3572563,OZONE,18,30,29
India,Uttar_Pradesh,Greater Noida,"Knowledge Park - III, Greater Noida - UPPCB",19-08-2024 22:00:00,28.47272,77.482000,PM2.5,7,75,48
India,Uttar_Pradesh,Hapur,"Anand Vihar, Hapur - UPPCB",19-08-2024 22:00:00,28.725645,77.749675,PM10,23,105,54
India,Uttar_Pradesh,Jhansi,"Shivaji Nagar, Jhansi - UPPCB",19-08-2024 22:00:00,25.4547,78.6039,PM2.5,23,73,52
India,Uttar_Pradesh,Jhansi,"Shivaji Nagar, Jhansi - UPPCB",19-08-2024 22:00:00,25.4547,78.6039,NO2,12,35,22
India,Uttar_Pradesh,Kanpur,"FTI Kidwai Nagar, Kanpur - UPPCB",19-08-2024 22:00:00,26.428282,80.327067,NO2,23,23,23
India,Uttar_Pradesh,Kanpur,"FTI Kidwai Nagar, Kanpur - UPPCB",19-08-2024 22:00:00,26.428282,80.327067,SO2,19,20,20
India,Uttar_Pradesh,Kanpur,"FTI Kidwai Nagar, Kanpur - UPPCB",19-08-2024 22:00:00,26.428282,80.327067,OZONE,11,28,21
India,Uttar_Pradesh,Kanpur,"Nehru Nagar, Kanpur - UPPCB",19-08-2024 22:00:00,26.4703136,80.3229863,SO2,2,10,7
India,Uttar_Pradesh,Khurja,"Kalindi Kunj, Khurja - UPPCB",19-08-2024 22:00:00,28.2348927,77.8683002,PM10,38,190,98
India,Uttar_Pradesh,Khurja,"Kalindi Kunj, Khurja - UPPCB",19-08-2024 22:00:00,28.2348927,77.8683002,NH3,1,1,1
India,Uttar_Pradesh,Khurja,"Kalindi Kunj, Khurja - UPPCB",19-08-2024 22:00:00,28.2348927,77.8683002,CO,16,28,21
India,Uttar_Pradesh,Lucknow,"B R Ambedkar University, Lucknow - UPPCB",19-08-2024 22:00:00,26.766433,80.927299,PM2.5,20,70,42
India,Uttar_Pradesh,Lucknow,"B R Ambedkar University, Lucknow - UPPCB",19-08-2024 22:00:00,26.766433,80.927299,NO2,6,7,7
India,Uttar_Pradesh,Lucknow,"B R Ambedkar University, Lucknow - UPPCB",19-08-2024 22:00:00,26.766433,80.927299,SO2,14,14,14
India,Uttar_Pradesh,Lucknow,"Gomti Nagar, Lucknow - UPPCB",19-08-2024 22:00:00,26.868120,81.005119,SO2,6,21,11
India,Uttar_Pradesh,Lucknow,"Kendriya Vidyalaya, Lucknow - CPCB",19-08-2024 22:00:00,26.906111,80.948222,PM2.5,12,41,24
India,Uttar_Pradesh,Lucknow,"Kendriya Vidyalaya, Lucknow - CPCB",19-08-2024 22:00:00,26.906111,80.948222,NO2,9,26,15
India,Uttar_Pradesh,Lucknow,"Kukrail Picnic Spot-1, Lucknow - UPPCB",19-08-2024 22:00:00,26.90723,80.98579,PM2.5,22,49,31
India,Uttar_Pradesh,Lucknow,"Lalbagh, Lucknow - CPCB",19-08-2024 22:00:00,26.8458805,80.9365541,PM2.5,7,50,29
India,Uttar_Pradesh,Lucknow,"Lalbagh, Lucknow - CPCB",19-08-2024 22:00:00,26.8458805,80.9365541,OZONE,16,44,31
India,Uttar_Pradesh,Lucknow,"Talkatora District Industries Center, Lucknow - CPCB",19-08-2024 22:00:00,26.83399722,80.8917361,PM2.5,27,48,35
India,Uttar_Pradesh,Meerut,"Jai Bhim Nagar, Meerut - UPPCB",19-08-2024 22:00:00,28.9535882,77.7622941,PM2.5,18,141,68
India,Uttar_Pradesh,Meerut,"Pallavpuram Phase 2, Meerut - UPPCB",19-08-2024 22:00:00,29.063510,77.709723,PM10,39,112,83
India,Uttar_Pradesh,Meerut,"Pallavpuram Phase 2, Meerut - UPPCB",19-08-2024 22:00:00,29.063510,77.709723,NO2,19,57,33
India,Uttar_Pradesh,Meerut,"Pallavpuram Phase 2, Meerut - UPPCB",19-08-2024 22:00:00,29.063510,77.709723,OZONE,2,55,18
India,Uttar_Pradesh,Moradabad,"Buddhi Vihar, Moradabad - UPPCB",19-08-2024 22:00:00,28.83526,78.74460,PM10,18,61,34
India,Uttar_Pradesh,Moradabad,"Employment Office, Moradabad - UPPCB",19-08-2024 22:00:00,28.88528,78.73880,SO2,18,19,18
India,Uttar_Pradesh,Moradabad,"Jigar Colony, Moradabad - UPPCB",19-08-2024 22:00:00,28.856664,78.772638,OZONE,7,13,10
India,Uttar_Pradesh,Moradabad,"Kashiram Nagar, Moradabad - UPPCB",19-08-2024 22:00:00,28.849399,78.742362,PM2.5,18,74,39
India,Uttar_Pradesh,Moradabad,"Transport Nagar, Moradabad - UPPCB",19-08-2024 22:00:00,28.802625,78.753728,PM10,19,53,33
India,Uttar_Pradesh,Moradabad,"Transport Nagar, Moradabad - UPPCB",19-08-2024 22:00:00,28.802625,78.753728,CO,38,40,39
India,Uttar_Pradesh,Muzaffarnagar,"New Mandi, Muzaffarnagar - UPPCB",19-08-2024 22:00:00,29.4723508,77.7194031,NO2,14,20,17
India,Uttar_Pradesh,Muzaffarnagar,"New Mandi, Muzaffarnagar - UPPCB",19-08-2024 22:00:00,29.4723508,77.7194031,NH3,8,8,8
India,Uttar_Pradesh,Noida,"Sector - 125, Noida - UPPCB",19-08-2024 22:00:00,28.5447608,77.3231257,NO2,4,30,14
India,Uttar_Pradesh,Noida,"Sector - 125, Noida - UPPCB",19-08-2024 22:00:00,28.5447608,77.3231257,CO,20,45,24
India,Uttar_Pradesh,Noida,"Sector - 62, Noida - IMD",19-08-2024 22:00:00,28.6245479,77.3577104,NO2,10,12,11
India,Uttar_Pradesh,Noida,"Sector-1, Noida - UPPCB",19-08-2024 22:00:00,28.5898,77.3101,CO,2,72,8
India,Uttar_Pradesh,Noida,"Sector-116, Noida - UPPCB",19-08-2024 22:00:00,28.569230,77.393848,PM2.5,30,106,58
India,Uttar_Pradesh,Noida,"Sector-116, Noida - UPPCB",19-08-2024 22:00:00,28.569230,77.393848,CO,20,56,39
India,Uttar_Pradesh,Prayagraj,"Jhunsi, Prayagraj - UPPCB",19-08-2024 22:00:00,25.425602,81.917152,OZONE,2,16,12
India,Uttar_Pradesh,Prayagraj,"Motilal Nehru NIT, Prayagraj - UPPCB",19-08-2024 22:00:00,25.494,81.863,NO2,11,12,12
India,Uttar_Pradesh,Prayagraj,"Nagar Nigam, Prayagraj - UPPCB",19-08-2024 22:00:00,25.44919916 ,81.82735986 ,OZONE,11,12,11
India,Uttar_Pradesh,Varanasi,"Ardhali Bazar, Varanasi - UPPCB",19-08-2024 22:00:00,25.3505986,82.9083074,PM10,NA,NA,NA
India,Uttar_Pradesh,Varanasi,"Bhelupur, Varanasi - UPPCB",19-08-2024 22:00:00,25.301778,82.996789,CO,8,38,20
India,Uttar_Pradesh,Varanasi,"Bhelupur, Varanasi - UPPCB",19-08-2024 22:00:00,25.301778,82.996789,OZONE,2,17,11
India,Uttar_Pradesh,Varanasi,"Maldahiya, Varanasi - UPPCB",19-08-2024 22:00:00,25.32393,82.99687,NH3,NA,NA,NA
India,Uttar_Pradesh,Varanasi,"Maldahiya, Varanasi - UPPCB",19-08-2024 22:00:00,25.32393,82.99687,SO2,29,30,29
India,Uttar_Pradesh,Vrindavan,"Omex Eternity, Vrindavan - UPPCB",19-08-2024 22:00:00,27.5714090,77.6557570,NO2,12,12,12
India,Uttarakhand,Dehradun,"Doon University, Dehradun - UKPCB",19-08-2024 22:00:00,30.269444,78.044167,PM2.5,10,55,37
India,Uttarakhand,Dehradun,"Doon University, Dehradun - UKPCB",19-08-2024 22:00:00,30.269444,78.044167,SO2,1,1,1
India,Uttarakhand,Kashipur,"Govt. Girls Inter College, Kashipur - UKPCB",19-08-2024 22:00:00,29.2124114,78.9611753,CO,14,45,34
India,West_Bengal,Asansol,"Asansol Court Area, Asansol - WBPCB",19-08-2024 22:00:00,23.685297,86.945968,NH3,6,10,7
India,West_Bengal,Asansol,"Asansol Court Area, Asansol - WBPCB",19-08-2024 22:00:00,23.685297,86.945968,CO,2,50,34
India,West_Bengal,Asansol,"Evelyn Lodge, Asansol - WBPCB",19-08-2024 22:00:00,23.6979360,86.9443950,PM2.5,14,70,32
India,West_Bengal,Asansol,"Evelyn Lodge, Asansol - WBPCB",19-08-2024 22:00:00,23.6979360,86.9443950,PM10,12,73,35
India,West_Bengal,Asansol,"Trivenidevi Bhalotia College, Asansol - WBPCB",19-08-2024 22:00:00,23.616515,87.119133,PM10,30,97,56
India,West_Bengal,Durgapur,"PCBL Residential Complex, Durgapur - WBPCB",19-08-2024 22:00:00,23.5087640,87.3544400,SO2,3,4,4
India,West_Bengal,Durgapur,"Sidhu Kanhu Indoor Stadium, Durgapur - WBPCB",19-08-2024 22:00:00,23.5404352,87.2892225,NO2,15,34,20
India,West_Bengal,Durgapur,"Sidhu Kanhu Indoor Stadium, Durgapur - WBPCB",19-08-2024 22:00:00,23.5404352,87.2892225,CO,14,52,28
India,West_Bengal,Haldia,"Priyambada Housing Estate, Haldia - WBPCB",19-08-2024 22:00:00,22.06047,88.109737,PM10,20,65,37
India,West_Bengal,Haldia,"Priyambada Housing Estate, Haldia - WBPCB",19-08-2024 22:00:00,22.06047,88.109737,NO2,10,11,11
India,West_Bengal,Haldia,"Priyambada Housing Estate, Haldia - WBPCB",19-08-2024 22:00:00,22.06047,88.109737,SO2,7,29,14
India,West_Bengal,Howrah,"Belur Math, Howrah - WBPCB",19-08-2024 22:00:00,22.629801,88.352017,PM10,28,80,36
India,West_Bengal,Howrah,"Belur Math, Howrah - WBPCB",19-08-2024 22:00:00,22.629801,88.352017,NH3,5,6,5
India,West_Bengal,Howrah,"Botanical Garden, Howrah - WBPCB",19-08-2024 22:00:00,22.554954,88.292568,NH3,1,2,1
India,West_Bengal,Howrah,"Padmapukur, Howrah - WBPCB",19-08-2024 22:00:00,22.5687319,88.2797276,PM10,41,104,56
India,West_Bengal,Howrah,"Padmapukur, Howrah - WBPCB",19-08-2024 22:00:00,22.5687319,88.2797276,NH3,2,5,4
India,West_Bengal,Kolkata,"Bidhannagar, Kolkata - WBPCB",19-08-2024 22:00:00,22.58157048,88.41002457,SO2,11,18,15
India,West_Bengal,Kolkata,"Fort William, Kolkata - WBPCB",19-08-2024 22:00:00,22.556640,88.342674,PM2.5,27,75,53
India,West_Bengal,Kolkata,"Fort William, Kolkata - WBPCB",19-08-2024 22:00:00,22.556640,88.342674,NO2,42,76,52
India,West_Bengal,Kolkata,"Fort William, Kolkata - WBPCB",19-08-2024 22:00:00,22.556640,88.342674,OZONE,30,45,41
India,West_Bengal,Kolkata,"Jadavpur, Kolkata - WBPCB",19-08-2024 22:00:00,22.49929,88.36917,PM10,NA,NA,NA
India,West_Bengal,Kolkata,"Jadavpur, Kolkata - WBPCB",19-08-2024 22:00:00,22.49929,88.36917,NO2,18,24,19
India,Andhra_Pradesh,Amaravati,"Secretariat, Amaravati - APPCB",19-08-2024 22:00:00,16.5150833,80.5181667,PM2.5,6,37,19
India,Andhra_Pradesh,Amaravati,"Secretariat, Amaravati - APPCB",19-08-2024 22:00:00,16.5150833,80.5181667,NO2,34,45,38
India,Andhra_Pradesh,Anantapur,"Gulzarpet, Anantapur - APPCB",19-08-2024 22:00:00,14.675886,77.593027,CO,12,56,42
India,Andhra_Pradesh,Kadapa,"Yerramukkapalli, Kadapa - APPCB",19-08-2024 22:00:00,14.465052,78.824187,PM10,NA,NA,NA
India,Andhra_Pradesh,Rajamahendravaram,"Anand Kala Kshetram, Rajamahendravaram - APPCB",19-08-2024 22:00:00,16.9872867,81.7363176,PM2.5,5,25,13
India,Andhra_Pradesh,Rajamahendravaram,"Anand Kala Kshetram, Rajamahendravaram - APPCB",19-08-2024 22:00:00,16.9872867,81.7363176,PM10,12,40,24
India,Andhra_Pradesh,Tirupati,"Vaikuntapuram, Tirupati - APPCB",19-08-2024 22:00:00,13.615387,79.409230,PM2.5,42,45,42
India,Andhra_Pradesh,Vijayawada,"HB Colony, Vijayawada - APPCB",19-08-2024 22:00:00,16.536107,80.594233,NO2,3,11,6
India,Andhra_Pradesh,Vijayawada,"HB Colony, Vijayawada - APPCB",19-08-2024 22:00:00,16.536107,80.594233,CO,34,34,34
India,Andhra_Pradesh,Vijayawada,"Kanuru, Vijayawada - APPCB",19-08-2024 22:00:00,16.486692,80.699436,NO2,13,13,13
India,Andhra_Pradesh,Vijayawada,"Kanuru, Vijayawada - APPCB",19-08-2024 22:00:00,16.486692,80.699436,CO,8,17,12
India,Andhra_Pradesh,Vijayawada,"Rajiv Gandhi Park, Vijayawada - APPCB",19-08-2024 22:00:00,16.509717,80.612222,PM2.5,35,82,55
India,Andhra_Pradesh,Vijayawada,"Rajiv Gandhi Park, Vijayawada - APPCB",19-08-2024 22:00:00,16.509717,80.612222,OZONE,27,46,37
India,Andhra_Pradesh,Visakhapatnam,"GVM Corporation, Visakhapatnam - APPCB",19-08-2024 22:00:00,17.72,83.3,PM2.5,11,71,38
India,Arunachal_Pradesh,Naharlagun,"Naharlagun, Naharlagun - APSPCB",19-08-2024 22:00:00,27.103358,93.679645,CO,6,15,11
India,Assam,Byrnihat,"Central Academy for SFS, Byrnihat - PCBA",19-08-2024 22:00:00,26.071318,91.87488,PM2.5,46,179,59
India,Assam,Byrnihat,"Central Academy for SFS, Byrnihat - PCBA",19-08-2024 22:00:00,26.071318,91.87488,CO,NA,NA,NA
India,Assam,Guwahati,"IITG, Guwahati - PCBA",19-08-2024 22:00:00,26.2028636,91.70046436,PM10,NA,NA,NA
India,Assam,Guwahati,"LGBI Airport, Guwahati - PCBA",19-08-2024 22:00:00,26.10887,91.589544,NO2,9,43,15
India,Assam,Guwahati,"LGBI Airport, Guwahati - PCBA",19-08-2024 22:00:00,26.10887,91.589544,OZONE,11,20,17
India,Assam,Guwahati,"Pan Bazaar, Guwahati - PCBA",19-08-2024 22:00:00,26.187500,91.744194,CO,16,28,18
India,Assam,Guwahati,"Railway Colony, Guwahati - PCBA",19-08-2024 22:00:00,26.181742,91.78063,NO2,3,3,3
India,Assam,Guwahati,"Railway Colony, Guwahati - PCBA",19-08-2024 22:00:00,26.181742,91.78063,CO,20,35,21
India,Assam,Nagaon,"Christianpatty, Nagaon - PCBA",19-08-2024 22:00:00,26.349082,92.68449,CO,42,69,58
India,Assam,Nalbari,"Bata Chowk, Nalbari - PCBA",19-08-2024 22:00:00,26.446912,91.439057,CO,4,59,47
India,Assam,Silchar,"Tarapur, Silchar - PCBA",19-08-2024 22:00:00,24.82827,92.79525,PM10,39,57,51
India,Assam,Sivasagar,"Girls College, Sivasagar - PCBA",19-08-2024 22:00:00,26.987634,94.636574,PM2.5,31,56,39
India,Assam,Sivasagar,"Girls College, Sivasagar - PCBA",19-08-2024 22:00:00,26.987634,94.636574,SO2,2,10,7
India,Bihar,Araria,"Kharahiya Basti, Araria - BSPCB",19-08-2024 22:00:00,26.146529,87.454184,PM10,53,105,74
India,Bihar,Araria,"Kharahiya Basti, Araria - BSPCB",19-08-2024 22:00:00,26.146529,87.454184,SO2,9,17,15
India,Bihar,Araria,"Kharahiya Basti, Araria - BSPCB",19-08-2024 22:00:00,26.146529,87.454184,CO,4,41,21
India,Bihar,Aurangabad,"Gurdeo Nagar, Aurangabad - BSPCB",19-08-2024 22:00:00,24.75746,84.366208,PM10,12,125,43
India,Bihar,Begusarai,"Lohiyanagar, Begusarai - BSPCB (Formerly known as DRCC Anandpur)",19-08-2024 22:00:00,25.42742023,86.13886079,NO2,35,52,45
India,Bihar,Begusarai,"Lohiyanagar, Begusarai - BSPCB (Formerly known as DRCC Anandpur)",19-08-2024 22:00:00,25.42742023,86.13886079,CO,44,67,48
India,Bihar,Bhagalpur,"DM Office_Kachari Chowk, Bhagalpur - BSPCB",19-08-2024 22:00:00,25.251013,86.989001,SO2,5,66,24
India,Bihar,Bhagalpur,"Mayaganj, Bhagalpur - BSPCB",19-08-2024 22:00:00,25.265194,87.012947,PM2.5,7,53,17
India,Bihar,Bhagalpur,"Mayaganj, Bhagalpur - BSPCB",19-08-2024 22:00:00,25.265194,87.012947,OZONE,8,27,21
India,Bihar,Buxar,"Charitra Van, Buxar - BSPCB (Formerly known as Central Jail)",19-08-2024 22:00:00,25.567520,83.966379,CO,38,74,59
India,Bihar,Gaya,"SFTI Kusdihra, Gaya - BSPCB",19-08-2024 22:00:00,24.762518,84.982348,CO,16,33,27
India,Bihar,Hajipur,"Industrial Area, Hajipur - BSPCB",19-08-2024 22:00:00,25.697189,85.245900,PM10,37,97,62
India,Bihar,Hajipur,"Industrial Area, Hajipur - BSPCB",19-08-2024 22:00:00,25.697189,85.245900,NH3,12,15,14
India,Bihar,Hajipur,"Industrial Area, Hajipur - BSPCB",19-08-2024 22:00:00,25.697189,85.245900,SO2,5,6,5
India,Bihar,Katihar,"Mirchaibari, Katihar - BSPCB",19-08-2024 22:00:00,25.560083,87.553265,NH3,NA,NA,NA
India,Bihar,Kishanganj,"SDM Office_Khagra, Kishanganj - BSPCB",19-08-2024 22:00:00,26.0881305,87.93840336,PM2.5,NA,NA,NA
India,Bihar,Kishanganj,"SDM Office_Khagra, Kishanganj - BSPCB",19-08-2024 22:00:00,26.0881305,87.93840336,NH3,7,11,8
India,Bihar,Manguraha,"Forest Rest House, Manguraha - BSPCB",19-08-2024 22:00:00,27.308328,84.531742,NO2,NA,NA,NA
India,Bihar,Manguraha,"Forest Rest House, Manguraha - BSPCB",19-08-2024 22:00:00,27.308328,84.531742,CO,NA,NA,NA
India,Bihar,Motihari,"Gandak Colony, Motihari - BSPCB",19-08-2024 22:00:00,26.63086,84.90051,PM10,7,140,47
India,Bihar,Motihari,"Gandak Colony, Motihari - BSPCB",19-08-2024 22:00:00,26.63086,84.90051,NO2,1,5,3
India,Bihar,Motihari,"Gandak Colony, Motihari - BSPCB",19-08-2024 22:00:00,26.63086,84.90051,NH3,1,7,2
India,Bihar,Motihari,"Gandak Colony, Motihari - BSPCB",19-08-2024 22:00:00,26.63086,84.90051,CO,26,78,36
India,Bihar,Munger,"Town Hall, Munger - BSPCB",19-08-2024 22:00:00,25.376776,86.471523,CO,NA,NA,NA
India,Bihar,Muzaffarpur,"Buddha Colony, Muzaffarpur - BSPCB",19-08-2024 22:00:00,26.11442,85.39813,PM10,21,52,32
India,Bihar,Patna,"DRM Office Danapur, Patna - BSPCB",19-08-2024 22:00:00,25.586562,85.043586,PM2.5,3,67,24
India,Bihar,Patna,"DRM Office Danapur, Patna - BSPCB",19-08-2024 22:00:00,25.586562,85.043586,SO2,2,14,8
India,Bihar,Patna,"Govt. High School Shikarpur, Patna - BSPCB",19-08-2024 22:00:00,25.592539,85.227158,SO2,6,8,7
India,Bihar,Patna,"Govt. High School Shikarpur, Patna - BSPCB",19-08-2024 22:00:00,25.592539,85.227158,CO,39,76,58
India,Bihar,Patna,"IGSC Planetarium Complex, Patna - BSPCB",19-08-2024 22:00:00,25.610369,85.132568,PM2.5,29,82,50
India,Bihar,Patna,"IGSC Planetarium Complex, Patna - BSPCB",19-08-2024 22:00:00,25.610369,85.132568,SO2,8,10,10
India,Bihar,Patna,"IGSC Planetarium Complex, Patna - BSPCB",19-08-2024 22:00:00,25.610369,85.132568,OZONE,6,64,48
India,Bihar,Patna,"Muradpur, Patna - BSPCB",19-08-2024 22:00:00,25.619651,85.147382,NH3,6,6,6
India,Bihar,Patna,"Rajbansi Nagar, Patna - BSPCB",19-08-2024 22:00:00,25.599486,85.113666,PM2.5,26,55,39
India,Bihar,Patna,"Rajbansi Nagar, Patna - BSPCB",19-08-2024 22:00:00,25.599486,85.113666,SO2,2,13,6
India,Bihar,Patna,"Rajbansi Nagar, Patna - BSPCB",19-08-2024 22:00:00,25.599486,85.113666,CO,20,93,52
India,Bihar,Patna,"Rajbansi Nagar, Patna - BSPCB",19-08-2024 22:00:00,25.599486,85.113666,OZONE,2,17,6
India,Bihar,Purnia,"Mariam Nagar, Purnia - BSPCB",19-08-2024 22:00:00,25.366336,87.117468,PM10,NA,NA,NA
India,Bihar,Purnia,"Mariam Nagar, Purnia - BSPCB",19-08-2024 22:00:00,25.366336,87.117468,CO,13,76,54
India,Bihar,Rajgir,"Dangi Tola, Rajgir - BSPCB",19-08-2024 22:00:00,25.03280,85.41948,NH3,2,2,2
India,Bihar,Samastipur,"DM Office_Kasipur, Samastipur - BSPCB",19-08-2024 22:00:00,25.859655,85.77944,NH3,1,1,1
India,Bihar,Samastipur,"DM Office_Kasipur, Samastipur - BSPCB",19-08-2024 22:00:00,25.859655,85.77944,OZONE,7,23,15
India,Bihar,Sasaram,"Dada Peer, Sasaram - BSPCB",19-08-2024 22:00:00,24.952822,84.002396,OZONE,7,20,12
India,Chandigarh,Chandigarh,"Sector 22, Chandigarh - CPCC",19-08-2024 22:00:00,30.735567,76.775714,OZONE,8,37,25
India,Chandigarh,Chandigarh,"Sector-53, Chandigarh - CPCC",19-08-2024 22:00:00,30.719859,76.738637,PM2.5,7,48,26
India,Chandigarh,Chandigarh,"Sector-53, Chandigarh - CPCC",19-08-2024 22:00:00,30.719859,76.738637,PM10,17,186,55
India,Chandigarh,Chandigarh,"Sector-53, Chandigarh - CPCC",19-08-2024 22:00:00,30.719859,76.738637,SO2,4,11,7
India,Chandigarh,Chandigarh,"Sector-53, Chandigarh - CPCC",19-08-2024 22:00:00,30.719859,76.738637,OZONE,6,33,23
India,Chhattisgarh,Bhilai,"Civic Center, Bhilai - Bhilai Steel Plant",19-08-2024 22:00:00,21.185571,81.343175,PM2.5,14,47,25
India,Chhattisgarh,Bhilai,"Civic Center, Bhilai - Bhilai Steel Plant",19-08-2024 22:00:00,21.185571,81.343175,NH3,3,4,4
India,Chhattisgarh,Bhilai,"Civic Center, Bhilai - Bhilai Steel Plant",19-08-2024 22:00:00,21.185571,81.343175,OZONE,7,27,19
India,Chhattisgarh,Bhilai,"Hathkhoj, Bhilai - CECB",19-08-2024 22:00:00,21.224231,81.408350,PM2.5,4,55,40
India,Chhattisgarh,Bilaspur,"Mangala, Bilaspur - NTPC",19-08-2024 22:00:00,22.08815,82.13737,PM10,6,70,24
India,Chhattisgarh,Bilaspur,"Mangala, Bilaspur - NTPC",19-08-2024 22:00:00,22.08815,82.13737,SO2,13,22,18
India,Chhattisgarh,Bilaspur,"Mangala, Bilaspur - NTPC",19-08-2024 22:00:00,22.08815,82.13737,CO,44,51,49
India,Chhattisgarh,Chhal,"Nawapara SECL Colony, Chhal - CECB",19-08-2024 22:00:00,22.118125,83.140608,PM10,13,93,48
India,Chhattisgarh,Chhal,"Nawapara SECL Colony, Chhal - CECB",19-08-2024 22:00:00,22.118125,83.140608,OZONE,5,67,42
India,Chhattisgarh,Korba,"Rampur, Korba - CECB",19-08-2024 22:00:00,22.368195,82.746431,NH3,1,1,1
India,Chhattisgarh,Kunjemura,"OP Jindal School, Kunjemura - CECB",19-08-2024 22:00:00,22.126650,83.483212,PM2.5,3,52,17
India,Chhattisgarh,Raipur,"AIIMS, Raipur - CECB",19-08-2024 22:00:00,21.258815,81.578979,NO2,7,15,10
India,Chhattisgarh,Raipur,"Bhatagaon New ISBT, Raipur - CECB",19-08-2024 22:00:00,21.219665,81.630094,CO,25,52,34
India,Chhattisgarh,Raipur,"Krishak Nagar, Raipur - CECB",19-08-2024 22:00:00,21.237755,81.705301,PM10,40,119,82
India,Chhattisgarh,Raipur,"Siltara Phase-II, Raipur - CECB",19-08-2024 22:00:00,21.371751,81.664929,PM2.5,6,46,26
India,Delhi,Delhi,"Anand Vihar, Delhi - DPCC",19-08-2024 22:00:00,28.647622,77.3158090,PM2.5,30,183,86
India,Delhi,Delhi,"Anand Vihar, Delhi - DPCC",19-08-2024 22:00:00,28.647622,77.3158090,SO2,4,11,7
India,Delhi,Delhi,"Anand Vihar, Delhi - DPCC",19-08-2024 22:00:00,28.647622,77.3158090,OZONE,86,101,93
India,Delhi,Delhi,"Ashok Vihar, Delhi - DPCC",19-08-2024 22:00:00,28.695381,77.181665,PM10,38,157,79
India,Delhi,Delhi,"Ashok Vihar, Delhi - DPCC",19-08-2024 22:00:00,28.695381,77.181665,NH3,7,15,10
India,Delhi,Delhi,"Ashok Vihar, Delhi - DPCC",19-08-2024 22:00:00,28.695381,77.181665,SO2,7,13,11
India,Delhi,Delhi,"Bawana, Delhi - DPCC",19-08-2024 22:00:00,28.776200,77.051074,PM10,37,110,68
India,Delhi,Delhi,"Bawana, Delhi - DPCC",19-08-2024 22:00:00,28.776200,77.051074,NO2,4,32,12
India,Delhi,Delhi,"Burari Crossing, Delhi - IMD",19-08-2024 22:00:00,28.7256504,77.2011573,OZONE,16,25,22
India,Delhi,Delhi,"Chandni Chowk, Delhi - IITM",19-08-2024 22:00:00,28.656756,77.227234,SO2,6,69,36
India,Delhi,Delhi,"Dr. Karni Singh Shooting Range, Delhi - DPCC",19-08-2024 22:00:00,28.498571,77.264840,PM10,48,98,77
India,Delhi,Delhi,"Dr. Karni Singh Shooting Range, Delhi - DPCC",19-08-2024 22:00:00,28.498571,77.264840,NO2,26,43,31
India,Delhi,Delhi,"Dr. Karni Singh Shooting Range, Delhi - DPCC",19-08-2024 22:00:00,28.498571,77.264840,CO,34,80,51
India,Delhi,Delhi,"IGI Airport (T3), Delhi - IMD",19-08-2024 22:00:00,28.5627763,77.1180053,CO,18,28,22
India,Delhi,Delhi,"Jahangirpuri, Delhi - DPCC",19-08-2024 22:00:00,28.732820,77.170633,PM2.5,20,230,79
India,Delhi,Delhi,"Jahangirpuri, Delhi - DPCC",19-08-2024 22:00:00,28.732820,77.170633,CO,36,106,65
India,Delhi,Delhi,"Jawaharlal Nehru Stadium, Delhi - DPCC",19-08-2024 22:00:00,28.580280,77.233829,PM2.5,12,47,27
India,Delhi,Delhi,"Lodhi Road, Delhi - IMD",19-08-2024 22:00:00,28.5918245,77.2273074,CO,20,38,23
India,Delhi,Delhi,"Major Dhyan Chand National Stadium, Delhi - DPCC",19-08-2024 22:00:00,28.611281,77.237738,NO2,17,78,34
India,Delhi,Delhi,"Major Dhyan Chand National Stadium, Delhi - DPCC",19-08-2024 22:00:00,28.611281,77.237738,SO2,1,11,7
India,Delhi,Delhi,"Mandir Marg, Delhi - DPCC",19-08-2024 22:00:00,28.636429,77.201067,PM10,NA,NA,NA
India,Delhi,Delhi,"Mandir Marg, Delhi - DPCC",19-08-2024 22:00:00,28.636429,77.201067,CO,NA,NA,NA
India,Delhi,Delhi,"Mundka, Delhi - DPCC",19-08-2024 22:00:00,28.684678,77.076574,CO,28,68,37
India,Delhi,Delhi,"Mundka, Delhi - DPCC",19-08-2024 22:00:00,28.684678,77.076574,OZONE,20,71,45
India,Delhi,Delhi,"NSIT Dwarka, Delhi - CPCB",19-08-2024 22:00:00,28.60909,77.0325413,PM10,70,134,94
India,Delhi,Delhi,"NSIT Dwarka, Delhi - CPCB",19-08-2024 22:00:00,28.60909,77.0325413,NH3,10,10,10
India,Delhi,Delhi,"NSIT Dwarka, Delhi - CPCB",19-08-2024 22:00:00,28.60909,77.0325413,CO,30,74,53
India,Delhi,Delhi,"Najafgarh, Delhi - DPCC",19-08-2024 22:00:00,28.570173,76.933762,PM2.5,2,47,27
India,Delhi,Delhi,"Najafgarh, Delhi - DPCC",19-08-2024 22:00:00,28.570173,76.933762,NO2,8,12,11
India,Delhi,Delhi,"Narela, Delhi - DPCC",19-08-2024 22:00:00,28.822836,77.101981,PM10,28,113,59
India,Delhi,Delhi,"Narela, Delhi - DPCC",19-08-2024 22:00:00,28.822836,77.101981,NO2,7,39,20
India,Delhi,Delhi,"Nehru Nagar, Delhi - DPCC",19-08-2024 22:00:00,28.567890,77.250515,PM2.5,28,80,50
India,Delhi,Delhi,"North Campus, DU, Delhi - IMD",19-08-2024 22:00:00,28.6573814,77.1585447,NO2,8,35,16
India,Delhi,Delhi,"Okhla Phase-2, Delhi - DPCC",19-08-2024 22:00:00,28.530785,77.271255,NH3,9,17,13
India,Delhi,Delhi,"Okhla Phase-2, Delhi - DPCC",19-08-2024 22:00:00,28.530785,77.271255,OZONE,11,44,24
India,Delhi,Delhi,"Patparganj, Delhi - DPCC",19-08-2024 22:00:00,28.623763,77.287209,OZONE,1,46,13
India,Delhi,Delhi,"Pusa, Delhi - DPCC",19-08-2024 22:00:00,28.639652,77.146275,NH3,1,7,4
India,Delhi,Delhi,"Pusa, Delhi - DPCC",19-08-2024 22:00:00,28.639652,77.146275,SO2,12,21,15
India,Delhi,Delhi,"Pusa, Delhi - DPCC",19-08-2024 22:00:00,28.639652,77.146275,CO,30,84,53
India,Delhi,Delhi,"Pusa, Delhi - IMD",19-08-2024 22:00:00,28.636110,77.173332,PM2.5,21,73,42
India,Delhi,Delhi,"Pusa, Delhi - IMD",19-08-2024 22:00:00,28.636110,77.173332,PM10,29,87,54
India,Delhi,Delhi,"Pusa, Delhi - IMD",19-08-2024 22:00:00,28.636110,77.173332,OZONE,13,182,29
India,Delhi,Delhi,"R K Puram, Delhi - DPCC",19-08-2024 22:00:00,28.563262,77.186937,PM2.5,32,76,55
India,Delhi,Delhi,"R K Puram, Delhi - DPCC",19-08-2024 22:00:00,28.563262,77.186937,PM10,33,103,64
India,Delhi,Delhi,"Rohini, Delhi - DPCC",19-08-2024 22:00:00,28.732528,77.119920,SO2,4,9,6
India,Delhi,Delhi,"Rohini, Delhi - DPCC",19-08-2024 22:00:00,28.732528,77.119920,CO,14,88,33
India,Delhi,Delhi,"Rohini, Delhi - DPCC",19-08-2024 22:00:00,28.732528,77.119920,OZONE,10,19,14
India,Delhi,Delhi,"Shadipur, Delhi - CPCB",19-08-2024 22:00:00,28.6514781,77.1473105,PM10,59,156,97
India,Delhi,Delhi,"Shadipur, Delhi - CPCB",19-08-2024 22:00:00,28.6514781,77.1473105,SO2,12,27,19
India,Delhi,Delhi,"Shadipur, Delhi - CPCB",19-08-2024 22:00:00,28.6514781,77.1473105,CO,12,54,29
India,Delhi,Delhi,"Sirifort, Delhi - CPCB",19-08-2024 22:00:00,28.5504249,77.2159377,PM10,48,127,73
India,Delhi,Delhi,"Sri Aurobindo Marg, Delhi - DPCC",19-08-2024 22:00:00,28.531346,77.190156,CO,40,80,55
India,Delhi,Delhi,"Sri Aurobindo Marg, Delhi - DPCC",19-08-2024 22:00:00,28.531346,77.190156,OZONE,14,22,17
India,Delhi,Delhi,"Vivek Vihar, Delhi - DPCC",19-08-2024 22:00:00,28.672342,77.315260,PM10,24,115,69
India,Delhi,Delhi,"Vivek Vihar, Delhi - DPCC",19-08-2024 22:00:00,28.672342,77.315260,NH3,14,18,17
India,Gujarat,Ahmedabad,"Chandkheda, Ahmedabad - IITM",19-08-2024 22:00:00,23.107969,72.574648,NH3,7,10,9
India,Gujarat,Ahmedabad,"Gyaspur, Ahmedabad - IITM",19-08-2024 22:00:00,22.977134,72.553024,SO2,NA,NA,NA
India,Gujarat,Ahmedabad,"Maninagar, Ahmedabad - GPCB",19-08-2024 22:00:00,23.002657,72.591912,CO,8,30,23
India,Gujarat,Ahmedabad,"Rakhial, Ahmedabad - IITM",19-08-2024 22:00:00,23.016834,72.625775,OZONE,14,30,25
India,Gujarat,Ahmedabad,"SAC ISRO Satellite, Ahmedabad - IITM",19-08-2024 22:00:00,23.023389,72.515201,PM2.5,23,55,36
India,Gujarat,Ahmedabad,"SAC ISRO Satellite, Ahmedabad - IITM",19-08-2024 22:00:00,23.023389,72.515201,NO2,9,13,11
India,Gujarat,Ahmedabad,"SVPI Airport Hansol, Ahmedabad - IITM",19-08-2024 22:00:00,23.076793,72.627874,CO,10,28,14
India,Gujarat,Ahmedabad,"Sardar Vallabhbhai Patel Stadium, Ahmedabad - IITM",19-08-2024 22:00:00,23.043070,72.562968,OZONE,11,38,29
India,Gujarat,Ankleshwar,"GIDC, Ankleshwar - GPCB",19-08-2024 22:00:00,21.613267,73.010555,NH3,4,5,5
India,Gujarat,Ankleshwar,"GIDC, Ankleshwar - GPCB",19-08-2024 22:00:00,21.613267,73.010555,OZONE,21,31,28
India,Gujarat,Gandhinagar,"GIFT City, Gandhinagar - IITM",19-08-2024 22:00:00,23.163798,72.677768,PM2.5,26,80,45
India,Gujarat,Gandhinagar,"Sector-10, Gandhinagar - GPCB",19-08-2024 22:00:00,23.221714,72.654328,NO2,15,19,17
India,Gujarat,Gandhinagar,"Sector-10, Gandhinagar - GPCB",19-08-2024 22:00:00,23.221714,72.654328,OZONE,2,25,17
India,Gujarat,Vatva,"Phase-4 GIDC, Vatva - GPCB",19-08-2024 22:00:00,22.969611,72.643500,PM10,NA,NA,NA
India,Gujarat,Vatva,"Phase-4 GIDC, Vatva - GPCB",19-08-2024 22:00:00,22.969611,72.643500,CO,34,36,35
India,Haryana,Ambala,"Patti Mehar, Ambala - HSPCB",19-08-2024 22:00:00,30.379589,76.778328,NH3,5,12,8
India,Haryana,Ambala,"Patti Mehar, Ambala - HSPCB",19-08-2024 22:00:00,30.379589,76.778328,SO2,1,30,8
India,Haryana,Ballabgarh,"Nathu Colony, Ballabgarh - HSPCB",19-08-2024 22:00:00,28.3419248,77.319699,SO2,3,4,4
India,Haryana,Bhiwani,"H.B. Colony, Bhiwani - HSPCB",19-08-2024 22:00:00,28.806223,76.141105,PM2.5,50,86,66
India,Haryana,Bhiwani,"H.B. Colony, Bhiwani - HSPCB",19-08-2024 22:00:00,28.806223,76.141105,PM10,69,72,70
India,Haryana,Charkhi Dadri,"Mini Secretariat, Charkhi Dadri - HSPCB",19-08-2024 22:00:00,28.593883,76.270653,PM2.5,48,201,89
India,Haryana,Charkhi Dadri,"Mini Secretariat, Charkhi Dadri - HSPCB",19-08-2024 22:00:00,28.593883,76.270653,NO2,14,23,18
India,Haryana,Faridabad,"New Industrial Town, Faridabad - HSPCB",19-08-2024 22:00:00,28.39072,77.30059,NO2,34,38,35
India,Haryana,Faridabad,"New Industrial Town, Faridabad - HSPCB",19-08-2024 22:00:00,28.39072,77.30059,NH3,10,11,10
India,Haryana,Faridabad,"New Industrial Town, Faridabad - HSPCB",19-08-2024 22:00:00,28.39072,77.30059,OZONE,14,15,15
India,Haryana,Faridabad,"Sector 11, Faridabad - HSPCB",19-08-2024 22:00:00,28.376058,77.315741,OZONE,5,36,15
India,Haryana,Gurugram,"Vikas Sadan, Gurugram - HSPCB",19-08-2024 22:00:00,28.4501238,77.0263051,SO2,NA,NA,NA
India,Haryana,Jind,"Police Lines, Jind - HSPCB",19-08-2024 22:00:00,29.307814,76.337619,NH3,2,6,4
India,Haryana,Kaithal,"Rishi Nagar, Kaithal - HSPCB",19-08-2024 22:00:00,29.8006,76.4155,NH3,10,10,10
India,Haryana,Kaithal,"Rishi Nagar, Kaithal - HSPCB",19-08-2024 22:00:00,29.8006,76.4155,OZONE,24,56,27
India,Haryana,Karnal,"Sector-12, Karnal - HSPCB",19-08-2024 22:00:00,29.695300,77.002700,PM10,20,49,32
India,Haryana,Karnal,"Sector-12, Karnal - HSPCB",19-08-2024 22:00:00,29.695300,77.002700,NH3,10,13,11
India,Haryana,Mandikhera,"General Hospital, Mandikhera - HSPCB",19-08-2024 22:00:00,27.9002,76.9938,CO,15,24,20
India,Haryana,Manesar,"Sector-2 IMT, Manesar - HSPCB",19-08-2024 22:00:00,28.360699,76.936090,CO,26,44,28
India,Haryana,Manesar,"Sector-2 IMT, Manesar - HSPCB",19-08-2024 22:00:00,28.360699,76.936090,OZONE,42,126,119
India,Haryana,Palwal,"Shyam Nagar, Palwal - HSPCB",19-08-2024 22:00:00,28.1485564,77.3320667,PM10,22,57,49
India,Haryana,Panchkula,"Sector-6, Panchkula - HSPCB ",19-08-2024 22:00:00,30.7057778,76.8531805555555,NO2,NA,NA,NA
India,Haryana,Panipat,"Sector-18, Panipat - HSPCB",19-08-2024 22:00:00,29.432304,76.972765,PM2.5,80,85,82
India,Haryana,Panipat,"Sector-18, Panipat - HSPCB",19-08-2024 22:00:00,29.432304,76.972765,OZONE,30,30,30
India,Haryana,Rohtak,"MD University, Rohtak - HSPCB",19-08-2024 22:00:00,28.52123,76.37138,CO,34,50,42
India,Haryana,Sirsa,"F-Block, Sirsa - HSPCB",19-08-2024 22:00:00,29.536400,75.015800,PM2.5,2,85,25
India,Haryana,Sirsa,"F-Block, Sirsa - HSPCB",19-08-2024 22:00:00,29.536400,75.015800,OZONE,9,31,19
India,Haryana,Sonipat,"Murthal, Sonipat - HSPCB",19-08-2024 22:00:00,29.027200,77.062100,NO2,37,44,40
India,Haryana,Sonipat,"Murthal, Sonipat - HSPCB",19-08-2024 22:00:00,29.027200,77.062100,NH3,7,10,9
India,Haryana,Sonipat,"Murthal, Sonipat - HSPCB",19-08-2024 22:00:00,29.027200,77.062100,CO,24,26,25
India,Himachal Pradesh,Baddi,"HIMUDA Complex Phase-1, Baddi - HPPCB",19-08-2024 22:00:00,30.943887,76.801991,SO2,5,6,5
India,Jammu_and_Kashmir,Srinagar,"Rajbagh, Srinagar - JKSPCB",19-08-2024 22:00:00,34.066206,74.819820,NO2,7,7,7
India,Jammu_and_Kashmir,Srinagar,"Rajbagh, Srinagar - JKSPCB",19-08-2024 22:00:00,34.066206,74.819820,NH3,1,2,1
India,Jharkhand,Jorapokhar,"Tata Stadium, Jorapokhar - JSPCB",19-08-2024 22:00:00,23.707909,86.414670,PM10,NA,NA,NA
India,Jharkhand,Jorapokhar,"Tata Stadium, Jorapokhar - JSPCB",19-08-2024 22:00:00,23.707909,86.414670,NH3,NA,NA,NA
India,Jharkhand,Jorapokhar,"Tata Stadium, Jorapokhar - JSPCB",19-08-2024 22:00:00,23.707909,86.414670,SO2,NA,NA,NA
India,Karnataka,Belgaum,"Ramteerth Nagar, Belgaum - KSPCB",19-08-2024 22:00:00,15.888653,74.541751,PM2.5,7,42,13
India,Karnataka,Belgaum,"Ramteerth Nagar, Belgaum - KSPCB",19-08-2024 22:00:00,15.888653,74.541751,PM10,6,38,12
India,Karnataka,Bengaluru,"BTM Layout, Bengaluru - CPCB",19-08-2024 22:00:00,12.9135218,77.5950804,OZONE,20,30,29
India,Karnataka,Bengaluru,"Bapuji Nagar, Bengaluru - KSPCB",19-08-2024 22:00:00,12.951913,77.539784,PM10,NA,NA,NA
India,Karnataka,Bengaluru,"Bapuji Nagar, Bengaluru - KSPCB",19-08-2024 22:00:00,12.951913,77.539784,CO,21,108,43
India,Karnataka,Bengaluru,"City Railway Station, Bengaluru - KSPCB",19-08-2024 22:00:00,12.9756843,77.5660749,PM10,54,108,86
India,Karnataka,Bengaluru,"Hebbal, Bengaluru - KSPCB",19-08-2024 22:00:00,13.029152,77.585901,CO,6,52,19
India,Karnataka,Bengaluru,"Hombegowda Nagar, Bengaluru - KSPCB",19-08-2024 22:00:00,12.938539,77.590100,CO,6,60,25
India,Karnataka,Bengaluru,"Jayanagar 5th Block, Bengaluru - KSPCB",19-08-2024 22:00:00,12.920984,77.584908,PM2.5,10,62,26
India,Karnataka,Bengaluru,"Jayanagar 5th Block, Bengaluru - KSPCB",19-08-2024 22:00:00,12.920984,77.584908,SO2,9,33,14
India,Karnataka,Bengaluru,"Jayanagar 5th Block, Bengaluru - KSPCB",19-08-2024 22:00:00,12.920984,77.584908,CO,6,64,14
India,Karnataka,Bengaluru,"Kasturi Nagar, Bengaluru - KSPCB",19-08-2024 22:00:00,13.003872,77.664217,PM10,56,62,59
India,Karnataka,Bengaluru,"Kasturi Nagar, Bengaluru - KSPCB",19-08-2024 22:00:00,13.003872,77.664217,CO,24,26,26
India,Karnataka,Bengaluru,"Sanegurava Halli, Bengaluru - KSPCB",19-08-2024 22:00:00,12.990328,77.5431385,PM10,33,63,39
India,Karnataka,Bengaluru,"Sanegurava Halli, Bengaluru - KSPCB",19-08-2024 22:00:00,12.990328,77.5431385,CO,5,55,24
India,Karnataka,Bengaluru,"Shivapura_Peenya, Bengaluru - KSPCB",19-08-2024 22:00:00,13.0246342,77.5080115,SO2,NA,NA,NA
India,Karnataka,Bengaluru,"Silk Board, Bengaluru - KSPCB",19-08-2024 22:00:00,12.917348,77.622813,NH3,1,1,1
India,Karnataka,Chamarajanagar,"Urban, Chamarajanagar - KSPCB",19-08-2024 22:00:00,11.55358,76.55521,PM2.5,NA,NA,NA
India,Karnataka,Chamarajanagar,"Urban, Chamarajanagar - KSPCB",19-08-2024 22:00:00,11.55358,76.55521,SO2,NA,NA,NA
India,Karnataka,Chikkaballapur,"Chikkaballapur Rural, Chikkaballapur - KSPCB",19-08-2024 22:00:00,13.428828,77.731418,SO2,9,14,12
India,Karnataka,Davanagere,"Devaraj Urs Badavane, Davanagere - KSPCB",19-08-2024 22:00:00,14.475800,75.905200,PM2.5,NA,NA,NA
India,Karnataka,Davanagere,"Devaraj Urs Badavane, Davanagere - KSPCB",19-08-2024 22:00:00,14.475800,75.905200,NO2,NA,NA,NA
India,Karnataka,Davanagere,"Devaraj Urs Badavane, Davanagere - KSPCB",19-08-2024 22:00:00,14.475800,75.905200,NH3,NA,NA,NA
India,Karnataka,Davanagere,"Devaraj Urs Badavane, Davanagere - KSPCB",19-08-2024 22:00:00,14.475800,75.905200,OZONE,NA,NA,NA
India,Karnataka,Hassan,"B.Katihalli, Hassan - KSPCB",19-08-2024 22:00:00,13.008556,76.125258,PM10,4,34,19
India,Karnataka,Haveri,"Ashwini Nagar, Haveri - KSPCB",19-08-2024 22:00:00,14.791800,75.389600,NH3,NA,NA,NA
India,Karnataka,Hubballi,"Lingaraj Nagar, Hubballi - KSPCB",19-08-2024 22:00:00,15.3714823,75.1160168,PM2.5,26,49,34
India,Karnataka,Hubballi,"Lingaraj Nagar, Hubballi - KSPCB",19-08-2024 22:00:00,15.3714823,75.1160168,NH3,2,3,3
India,Karnataka,Kalaburagi,"Lal Bahadur Shastri Nagar, Kalaburagi - KSPCB",19-08-2024 22:00:00,17.321993,76.822628,SO2,19,32,22
India,Karnataka,Kalaburagi,"Lal Bahadur Shastri Nagar, Kalaburagi - KSPCB",19-08-2024 22:00:00,17.321993,76.822628,OZONE,2,9,5
India,Karnataka,Kalaburagi,"Mahatma Basaveswar Colony, Kalaburgi - KSPCB",19-08-2024 22:00:00,17.336318,76.847397,NH3,NA,NA,NA
India,Karnataka,Kalaburagi,"Mahatma Basaveswar Colony, Kalaburgi - KSPCB",19-08-2024 22:00:00,17.336318,76.847397,SO2,NA,NA,NA
India,Karnataka,Karwar,"KHB Colony, Karwar - KSPCB",19-08-2024 22:00:00,14.816666,74.141003,PM10,14,47,21
India,Karnataka,Karwar,"KHB Colony, Karwar - KSPCB",19-08-2024 22:00:00,14.816666,74.141003,NH3,NA,NA,NA
India,Karnataka,Karwar,"KHB Colony, Karwar - KSPCB",19-08-2024 22:00:00,14.816666,74.141003,OZONE,21,23,22
India,Karnataka,Kolar,"Tamaka Ind. Area, Kolar - KSPCB",19-08-2024 22:00:00,13.1276288,78.1570122,PM2.5,12,57,21
India,Karnataka,Madikeri,"Stuart Hill, Madikeri - KSPCB",19-08-2024 22:00:00,12.415911,75.735050,PM2.5,20,29,24
India,Karnataka,Madikeri,"Stuart Hill, Madikeri - KSPCB",19-08-2024 22:00:00,12.415911,75.735050,SO2,4,4,4
India,Karnataka,Madikeri,"Stuart Hill, Madikeri - KSPCB",19-08-2024 22:00:00,12.415911,75.735050,CO,8,22,17
India,Karnataka,Mysuru,"Hebbal 1st Stage, Mysuru - KSPCB",19-08-2024 22:00:00,12.21041,76.37376,PM10,24,42,33
India,Karnataka,Mysuru,"Hebbal 1st Stage, Mysuru - KSPCB",19-08-2024 22:00:00,12.21041,76.37376,OZONE,4,61,39
India,Karnataka,Ramanagara,"Vijay Nagar, Ramanagara - KSPCB",19-08-2024 22:00:00,12.733409,77.298051,NH3,3,5,3
India,Karnataka,Shivamogga,"Vinoba Nagara, Shivamogga - KSPCB",19-08-2024 22:00:00,13.940000,75.555917,OZONE,28,52,36
India,Karnataka,Tumakuru,"Thimmalapura, Tumakuru - KSPCB",19-08-2024 22:00:00,13.377516,77.099072,CO,28,34,31
India,Karnataka,Udupi,"Brahmagiri, Udupi - KSPCB",19-08-2024 22:00:00,13.34194444,74.74694444,PM10,1,41,15
India,Karnataka,Udupi,"Brahmagiri, Udupi - KSPCB",19-08-2024 22:00:00,13.34194444,74.74694444,SO2,12,17,15
India,Karnataka,Vijayapura,"Ibrahimpur, Vijayapura - KSPCB",19-08-2024 22:00:00,16.802639,75.722694,PM2.5,22,26,25
India,Karnataka,Yadgir,"Collector Office, Yadgir - KSPCB",19-08-2024 22:00:00,16.7602,77.1428,CO,14,35,31
India,Kerala,Eloor,"Udyogamandal, Eloor - Kerala PCB",19-08-2024 22:00:00,10.073232,76.302765,PM2.5,43,52,47
India,Kerala,Eloor,"Udyogamandal, Eloor - Kerala PCB",19-08-2024 22:00:00,10.073232,76.302765,NO2,5,6,5
India,Kerala,Thiruvananthapuram,"Kariavattom, Thiruvananthapuram - Kerala PCB",19-08-2024 22:00:00,8.563700,76.886500,PM2.5,46,51,48
India,Kerala,Thrissur,"Corporation Ground, Thrissur - Kerala PCB",19-08-2024 22:00:00,10.532400,76.215900,CO,39,44,42
India,Madhya Pradesh,Bhopal,"Idgah Hills, Bhopal - MPPCB",19-08-2024 22:00:00,23.264759,77.381568,PM2.5,40,157,74
India,Madhya Pradesh,Bhopal,"Paryavaran Parisar, Bhopal - MPPCB",19-08-2024 22:00:00,23.210494,77.425409,CO,16,39,19
India,Madhya Pradesh,Gwalior,"City Center, Gwalior - MPPCB",19-08-2024 22:00:00,26.203442,78.193251,PM10,38,57,47
India,Madhya Pradesh,Gwalior,"City Center, Gwalior - MPPCB",19-08-2024 22:00:00,26.203442,78.193251,SO2,15,19,17
India,Madhya Pradesh,Gwalior,"Deen Dayal Nagar, Gwalior - MPPCB",19-08-2024 22:00:00,26.259242,78.216432,PM10,28,90,57
India,Madhya Pradesh,Gwalior,"Deen Dayal Nagar, Gwalior - MPPCB",19-08-2024 22:00:00,26.259242,78.216432,NH3,3,9,5
India,Madhya Pradesh,Gwalior,"Deen Dayal Nagar, Gwalior - MPPCB",19-08-2024 22:00:00,26.259242,78.216432,OZONE,16,64,57
India,Madhya Pradesh,Gwalior,"Maharaj Bada, Gwalior - MPPCB",19-08-2024 22:00:00,26.200388,78.147714,PM10,25,240,56
India,Madhya Pradesh,Indore,"Maguda Nagar, Indore - IMC",19-08-2024 22:00:00,22.7524,75.8872,NO2,3,3,3
India,Madhya Pradesh,Indore,"Regional Park, Indore - IMC",19-08-2024 22:00:00,22.6780,75.8559,NH3,NA,NA,NA
India,Madhya Pradesh,Indore,"Regional Park, Indore - IMC",19-08-2024 22:00:00,22.6780,75.8559,SO2,34,36,35
India,Madhya Pradesh,Indore,"Residency Area, Indore - IMC",19-08-2024 22:00:00,22.7084,75.8815,SO2,23,26,25
India,Madhya Pradesh,Indore,"Residency Area, Indore - IMC",19-08-2024 22:00:00,22.7084,75.8815,CO,9,12,9
India,Madhya Pradesh,Indore,"Residency Area, Indore - IMC",19-08-2024 22:00:00,22.7084,75.8815,OZONE,10,12,12
India,Madhya Pradesh,Jabalpur,"Govindh Bhavan Colony, Jabalpur - JMC",19-08-2024 22:00:00,23.163174,79.973061,NH3,5,6,6
India,Madhya Pradesh,Jabalpur,"Gupteshwar, Jabalpur - JMC",19-08-2024 22:00:00,23.142888,79.916147,CO,32,100,56
India,Madhya Pradesh,Jabalpur,"Suhagi, Jabalpur - JMC",19-08-2024 22:00:00,23.218135,79.957770,PM10,13,27,18
India,Madhya Pradesh,Jabalpur,"Suhagi, Jabalpur - JMC",19-08-2024 22:00:00,23.218135,79.957770,NO2,10,30,12
India,Madhya Pradesh,Maihar,"Sahilara, Maihar - KJS Cements",19-08-2024 22:00:00,24.2613009,80.7231783,PM2.5,NA,NA,NA
India,Madhya Pradesh,Maihar,"Sahilara, Maihar - KJS Cements",19-08-2024 22:00:00,24.2613009,80.7231783,NO2,10,13,11
India,Madhya Pradesh,Pithampur,"Sector-2 Industrial Area, Pithampur - MPPCB",19-08-2024 22:00:00,22.624758,75.675238,NO2,3,23,7
India,Madhya Pradesh,Pithampur,"Sector-2 Industrial Area, Pithampur - MPPCB",19-08-2024 22:00:00,22.624758,75.675238,SO2,13,16,14
India,Madhya Pradesh,Ratlam,"Shasthri Nagar, Ratlam - IPCA Lab",19-08-2024 22:00:00,23.331731,75.045981,NO2,8,8,8
India,Madhya Pradesh,Sagar,"Civil Lines, Sagar - MPPCB",19-08-2024 22:00:00,23.838586,78.759431,OZONE,12,53,41
India,Madhya Pradesh,Singrauli,"Suryakiran Bhawan NCL, Singrauli - MPPCB",19-08-2024 22:00:00,24.108970,82.645580,NO2,NA,NA,NA
India,Madhya Pradesh,Ujjain,"Mahakaleshwar Temple, Ujjain - MPPCB",19-08-2024 22:00:00,23.182719 ,75.768218 ,OZONE,61,64,63
India,Maharashtra,Ahmednagar,"Tarakpur, Ahmednagar - MPCB",19-08-2024 22:00:00,19.10122,74.73339,PM2.5,7,32,19
India,Maharashtra,Ahmednagar,"Tarakpur, Ahmednagar - MPCB",19-08-2024 22:00:00,19.10122,74.73339,SO2,3,30,7
India,Maharashtra,Ahmednagar,"Tarakpur, Ahmednagar - MPCB",19-08-2024 22:00:00,19.10122,74.73339,OZONE,17,44,28
India,Maharashtra,Akola,"Ramdaspeth, Akola - MPCB",19-08-2024 22:00:00,20.719516,77.000253,OZONE,4,26,20
India,Maharashtra,Amravati,"Shivneri Colony, Amravati - MPCB",19-08-2024 22:00:00,20.9402359,77.7895248,NH3,1,3,2
India,Maharashtra,Amravati,"Shivneri Colony, Amravati - MPCB",19-08-2024 22:00:00,20.9402359,77.7895248,OZONE,1,12,10
India,Maharashtra,Amravati,"Shri Shivaji Science College, Amaravati - MPCB",19-08-2024 22:00:00,20.939198,77.765701,PM2.5,18,54,31
India,Maharashtra,Amravati,"Shri Shivaji Science College, Amaravati - MPCB",19-08-2024 22:00:00,20.939198,77.765701,PM10,25,76,41
India,Maharashtra,Amravati,"Shri Shivaji Science College, Amaravati - MPCB",19-08-2024 22:00:00,20.939198,77.765701,NH3,2,3,2
India,Maharashtra,Amravati,"Shri Shivaji Science College, Amaravati - MPCB",19-08-2024 22:00:00,20.939198,77.765701,CO,14,82,18
India,Maharashtra,Aurangabad,"More Chowk Waluj, Aurangabad - MPCB",19-08-2024 22:00:00,19.8389439,75.244448,NO2,40,47,44
India,Maharashtra,Aurangabad,"More Chowk Waluj, Aurangabad - MPCB",19-08-2024 22:00:00,19.8389439,75.244448,OZONE,4,32,15
