country,state,city,station,last_update,latitude,longitude,pollutant_id,pollutant_min,pollutant_max,pollutant_avg
India,Andhra_Pradesh,Amaravati,"Secretariat, Amaravati - APPCB",30-04-2024 20:00:00,16.5150833,80.5181667,NO2,4,12,8
India,Andhra_Pradesh,Amaravati,"Secretariat, Amaravati - APPCB",30-04-2024 20:00:00,16.5150833,80.5181667,NH3,3,4,4
India,Andhra_Pradesh,Amaravati,"Secretariat, Amaravati - APPCB",30-04-2024 20:00:00,16.5150833,80.5181667,CO,3,90,17
India,Andhra_Pradesh,Amaravati,"Secretariat, Amaravati - APPCB",30-04-2024 20:00:00,16.5150833,80.5181667,OZONE,1,36,26
India,Andhra_Pradesh,Anantapur,"Gulzarpet, Anantapur - APPCB",30-04-2024 20:00:00,14.675886,77.593027,PM2.5,26,71,51
India,Andhra_Pradesh,Anantapur,"Gulzarpet, Anantapur - APPCB",30-04-2024 20:00:00,14.675886,77.593027,NH3,4,4,4
India,Andhra_Pradesh,Anantapur,"Gulzarpet, Anantapur - APPCB",30-04-2024 20:00:00,14.675886,77.593027,SO2,NA,NA,NA
India,Andhra_Pradesh,Anantapur,"Gulzarpet, Anantapur - APPCB",30-04-2024 20:00:00,14.675886,77.593027,CO,31,88,48
India,Andhra_Pradesh,Chittoor,"Gangineni Cheruvu, Chittoor - APPCB",30-04-2024 20:00:00,13.204880,79.097889,CO,28,70,38
India,Andhra_Pradesh,Kadapa,"Yerramukkapalli, Kadapa - APPCB",30-04-2024 20:00:00,14.465052,78.824187,OZONE,20,82,76
India,Andhra_Pradesh,Rajamahendravaram,"Anand Kala Kshetram, Rajamahendravaram - APPCB",30-04-2024 20:00:00,16.9872867,81.7363176,PM2.5,2,14,9
India,Andhra_Pradesh,Rajamahendravaram,"Anand Kala Kshetram, Rajamahendravaram - APPCB",30-04-2024 20:00:00,16.9872867,81.7363176,SO2,11,12,12
India,Andhra_Pradesh,Tirupati,"Tirumala, Tirupati - APPCB",30-04-2024 20:00:00,13.67,79.35,PM2.5,13,90,41
India,Andhra_Pradesh,Vijayawada,"HB Colony, Vijayawada - APPCB",30-04-2024 20:00:00,16.536107,80.594233,NO2,NA,NA,NA
India,Andhra_Pradesh,Vijayawada,"HB Colony, Vijayawada - APPCB",30-04-2024 20:00:00,16.536107,80.594233,NH3,NA,NA,NA
India,Andhra_Pradesh,Vijayawada,"Rajiv Gandhi Park, Vijayawada - APPCB",30-04-2024 20:00:00,16.509717,80.612222,PM2.5,37,91,63
India,Andhra_Pradesh,Vijayawada,"Rajiv Nagar, Vijayawada - APPCB",30-04-2024 20:00:00,16.554731,80.649110,PM10,59,104,65
India,Andhra_Pradesh,Vijayawada,"Rajiv Nagar, Vijayawada - APPCB",30-04-2024 20:00:00,16.554731,80.649110,OZONE,3,29,16
India,Andhra_Pradesh,Visakhapatnam,"GVM Corporation, Visakhapatnam - APPCB",30-04-2024 20:00:00,17.72,83.3,NH3,3,5,3
India,Andhra_Pradesh,Visakhapatnam,"GVM Corporation, Visakhapatnam - APPCB",30-04-2024 20:00:00,17.72,83.3,CO,2,68,37
India,Arunachal_Pradesh,Naharlagun,"Naharlagun, Naharlagun - APSPCB",30-04-2024 20:00:00,27.103358,93.679645,PM2.5,NA,NA,NA
India,Assam,Byrnihat,"Central Academy for SFS, Byrnihat - PCBA",30-04-2024 20:00:00,26.071318,91.87488,PM2.5,53,475,169
India,Assam,Byrnihat,"Central Academy for SFS, Byrnihat - PCBA",30-04-2024 20:00:00,26.071318,91.87488,PM10,56,479,143
India,Assam,Byrnihat,"Central Academy for SFS, Byrnihat - PCBA",30-04-2024 20:00:00,26.071318,91.87488,OZONE,23,123,28
India,Assam,Guwahati,"IITG, Guwahati - PCBA",30-04-2024 20:00:00,26.2028636,91.70046436,PM2.5,16,79,46
India,Assam,Guwahati,"LGBI Airport, Guwahati - PCBA",30-04-2024 20:00:00,26.10887,91.589544,NH3,3,6,4
India,Assam,Guwahati,"LGBI Airport, Guwahati - PCBA",30-04-2024 20:00:00,26.10887,91.589544,CO,46,62,49
India,Assam,Guwahati,"Pan Bazaar, Guwahati - PCBA",30-04-2024 20:00:00,26.187500,91.744194,PM2.5,10,54,31
India,Assam,Guwahati,"Pan Bazaar, Guwahati - PCBA",30-04-2024 20:00:00,26.187500,91.744194,NH3,2,4,3
India,Assam,Guwahati,"Pan Bazaar, Guwahati - PCBA",30-04-2024 20:00:00,26.187500,91.744194,CO,21,26,23
India,Assam,Nagaon,"Christianpatty, Nagaon - PCBA",30-04-2024 20:00:00,26.349082,92.68449,PM2.5,60,92,71
India,Assam,Nagaon,"Christianpatty, Nagaon - PCBA",30-04-2024 20:00:00,26.349082,92.68449,SO2,1,54,14
India,Assam,Nagaon,"Christianpatty, Nagaon - PCBA",30-04-2024 20:00:00,26.349082,92.68449,CO,44,56,54
India,Assam,Nalbari,"Bata Chowk, Nalbari - PCBA",30-04-2024 20:00:00,26.446912,91.439057,PM2.5,25,75,45
India,Assam,Sivasagar,"Girls College, Sivasagar - PCBA",30-04-2024 20:00:00,26.987634,94.636574,NO2,8,16,12
India,Bihar,Araria,"Kharahiya Basti, Araria - BSPCB",30-04-2024 20:00:00,26.146529,87.454184,CO,22,30,28
India,Bihar,Arrah,"New DM Office, Arrah - BSPCB",30-04-2024 20:00:00,25.5626095,84.663264,PM2.5,57,160,91
India,Bihar,Arrah,"New DM Office, Arrah - BSPCB",30-04-2024 20:00:00,25.5626095,84.663264,NO2,2,24,14
India,Bihar,Aurangabad,"Gurdeo Nagar, Aurangabad - BSPCB",30-04-2024 20:00:00,24.75746,84.366208,NH3,4,58,15
India,Bihar,Bettiah,"Kamalnath Nagar, Bettiah - BSPCB",30-04-2024 20:00:00,26.80365,84.51954,NH3,3,5,4
India,Bihar,Bettiah,"Kamalnath Nagar, Bettiah - BSPCB",30-04-2024 20:00:00,26.80365,84.51954,OZONE,14,51,18
India,Bihar,Bhagalpur,"Mayaganj, Bhagalpur - BSPCB",30-04-2024 20:00:00,25.265194,87.012947,PM2.5,NA,NA,NA
India,Bihar,Bhagalpur,"Mayaganj, Bhagalpur - BSPCB",30-04-2024 20:00:00,25.265194,87.012947,NH3,NA,NA,NA
India,Bihar,Bhagalpur,"Mayaganj, Bhagalpur - BSPCB",30-04-2024 20:00:00,25.265194,87.012947,OZONE,47,97,79
India,Bihar,Bihar Sharif,"D M Colony, Bihar Sharif - BSPCB",30-04-2024 20:00:00,25.204762,85.514960,PM10,62,116,88
India,Bihar,Chhapra,"Darshan Nagar, Chhapra - BSPCB",30-04-2024 20:00:00,25.7808257,84.7446768,PM10,119,167,141
India,Bihar,Gaya,"Collectorate, Gaya - BSPCB",30-04-2024 20:00:00,24.7955,84.9994,OZONE,40,79,55
India,Bihar,Katihar,"Mirchaibari, Katihar - BSPCB",30-04-2024 20:00:00,25.560083,87.553265,NH3,1,14,7
India,Bihar,Kishanganj,"SDM Office_Khagra, Kishanganj - BSPCB",30-04-2024 20:00:00,26.0881305,87.93840336,OZONE,33,74,61
India,Bihar,Manguraha,"Forest Rest House, Manguraha - BSPCB",30-04-2024 20:00:00,27.308328,84.531742,NH3,NA,NA,NA
India,Bihar,Munger,"Town Hall, Munger - BSPCB",30-04-2024 20:00:00,25.376776,86.471523,SO2,19,34,28
India,Bihar,Munger,"Town Hall, Munger - BSPCB",30-04-2024 20:00:00,25.376776,86.471523,CO,50,94,56
India,Bihar,Munger,"Town Hall, Munger - BSPCB",30-04-2024 20:00:00,25.376776,86.471523,OZONE,26,145,82
India,Bihar,Muzaffarpur,"Buddha Colony, Muzaffarpur - BSPCB",30-04-2024 20:00:00,26.11442,85.39813,PM2.5,216,339,299
India,Bihar,Muzaffarpur,"MIT-Daudpur Kothi, Muzaffarpur - BSPCB",30-04-2024 20:00:00,26.1403345,85.3650192,NO2,3,7,5
India,Bihar,Muzaffarpur,"Muzaffarpur Collectorate, Muzaffarpur - BSPCB",30-04-2024 20:00:00,26.1209,85.3647,NO2,11,54,25
India,Bihar,Patna,"DRM Office Danapur, Patna - BSPCB",30-04-2024 20:00:00,25.586562,85.043586,PM2.5,NA,NA,NA
India,Bihar,Patna,"DRM Office Danapur, Patna - BSPCB",30-04-2024 20:00:00,25.586562,85.043586,NO2,7,75,38
India,Bihar,Patna,"DRM Office Danapur, Patna - BSPCB",30-04-2024 20:00:00,25.586562,85.043586,CO,4,95,19
India,Bihar,Patna,"Govt. High School Shikarpur, Patna - BSPCB",30-04-2024 20:00:00,25.592539,85.227158,PM2.5,198,343,281
India,Bihar,Patna,"Govt. High School Shikarpur, Patna - BSPCB",30-04-2024 20:00:00,25.592539,85.227158,CO,28,99,34
India,Bihar,Patna,"Govt. High School Shikarpur, Patna - BSPCB",30-04-2024 20:00:00,25.592539,85.227158,OZONE,1,59,44
India,Bihar,Patna,"IGSC Planetarium Complex, Patna - BSPCB",30-04-2024 20:00:00,25.610369,85.132568,PM2.5,61,341,168
India,Bihar,Patna,"IGSC Planetarium Complex, Patna - BSPCB",30-04-2024 20:00:00,25.610369,85.132568,NO2,11,11,11
India,Bihar,Patna,"IGSC Planetarium Complex, Patna - BSPCB",30-04-2024 20:00:00,25.610369,85.132568,SO2,5,5,5
India,Bihar,Patna,"Muradpur, Patna - BSPCB",30-04-2024 20:00:00,25.619651,85.147382,PM2.5,257,352,313
India,Bihar,Patna,"Muradpur, Patna - BSPCB",30-04-2024 20:00:00,25.619651,85.147382,SO2,7,15,11
India,Bihar,Patna,"Muradpur, Patna - BSPCB",30-04-2024 20:00:00,25.619651,85.147382,OZONE,8,76,67
India,Bihar,Patna,"Rajbansi Nagar, Patna - BSPCB",30-04-2024 20:00:00,25.599486,85.113666,CO,27,78,34
India,Bihar,Patna,"Samanpura, Patna - BSPCB",30-04-2024 20:00:00,25.596727,85.085624,NO2,9,68,35
India,Bihar,Patna,"Samanpura, Patna - BSPCB",30-04-2024 20:00:00,25.596727,85.085624,NH3,12,20,15
India,Bihar,Saharsa,"Police Line, Saharsa - BSPCB",30-04-2024 20:00:00,25.892357,86.590325,NO2,6,8,7
India,Bihar,Sasaram,"Dada Peer, Sasaram - BSPCB",30-04-2024 20:00:00,24.952822,84.002396,OZONE,15,73,65
India,Bihar,Siwan,"Chitragupta Nagar, Siwan - BSPCB",30-04-2024 20:00:00,26.2271665,84.3570427,SO2,1,34,26
India,Bihar,Siwan,"Chitragupta Nagar, Siwan - BSPCB",30-04-2024 20:00:00,26.2271665,84.3570427,OZONE,31,142,84
India,Chandigarh,Chandigarh,"Sector-25, Chandigarh - CPCC",30-04-2024 20:00:00,30.751462,76.762879,NO2,3,31,10
India,Chhattisgarh,Bhilai,"Civic Center, Bhilai - Bhilai Steel Plant",30-04-2024 20:00:00,21.185571,81.343175,PM10,38,82,52
India,Chhattisgarh,Bhilai,"Civic Center, Bhilai - Bhilai Steel Plant",30-04-2024 20:00:00,21.185571,81.343175,SO2,8,11,10
India,Chhattisgarh,Bhilai,"Hathkhoj, Bhilai - CECB",30-04-2024 20:00:00,21.224231,81.408350,NH3,8,9,8
India,Chhattisgarh,Bhilai,"Hathkhoj, Bhilai - CECB",30-04-2024 20:00:00,21.224231,81.408350,OZONE,17,32,29
India,Chhattisgarh,Bilaspur,"Mangala, Bilaspur - NTPC",30-04-2024 20:00:00,22.08815,82.13737,NO2,13,15,14
India,Chhattisgarh,Korba,"Urja Nagar, Korba - CECB",30-04-2024 20:00:00,22.348441,82.549611,NH3,4,14,7
India,Chhattisgarh,Milupara,"Govt. Higher Secondary School, Milupara - CECB",30-04-2024 20:00:00,22.1910172,83.5197009,NH3,NA,NA,NA
India,Chhattisgarh,Milupara,"Govt. Higher Secondary School, Milupara - CECB",30-04-2024 20:00:00,22.1910172,83.5197009,SO2,NA,NA,NA
India,Chhattisgarh,Milupara,"Govt. Higher Secondary School, Milupara - CECB",30-04-2024 20:00:00,22.1910172,83.5197009,CO,20,21,20
India,Chhattisgarh,Raipur,"AIIMS, Raipur - CECB",30-04-2024 20:00:00,21.258815,81.578979,OZONE,6,45,34
India,Chhattisgarh,Raipur,"Bhatagaon New ISBT, Raipur - CECB",30-04-2024 20:00:00,21.219665,81.630094,CO,22,44,28
India,Chhattisgarh,Raipur,"Bhatagaon New ISBT, Raipur - CECB",30-04-2024 20:00:00,21.219665,81.630094,OZONE,4,12,9
India,Chhattisgarh,Raipur,"Krishak Nagar, Raipur - CECB",30-04-2024 20:00:00,21.237755,81.705301,OZONE,4,85,55
India,Chhattisgarh,Raipur,"Siltara Phase-II, Raipur - CECB",30-04-2024 20:00:00,21.371751,81.664929,NH3,3,3,3
India,Chhattisgarh,Raipur,"Siltara Phase-II, Raipur - CECB",30-04-2024 20:00:00,21.371751,81.664929,CO,9,48,18
India,Chhattisgarh,Raipur,"Siltara Phase-II, Raipur - CECB",30-04-2024 20:00:00,21.371751,81.664929,OZONE,4,43,29
India,Chhattisgarh,Tumidih,"OP Jindal Industrial Park, Tumidih - CECB",30-04-2024 20:00:00,22.06631475,83.33820077,PM10,NA,NA,NA
India,Chhattisgarh,Tumidih,"OP Jindal Industrial Park, Tumidih - CECB",30-04-2024 20:00:00,22.06631475,83.33820077,OZONE,59,74,67
India,Delhi,Delhi,"Anand Vihar, Delhi - DPCC",30-04-2024 20:00:00,28.647622,77.3158090,PM10,137,262,197
India,Delhi,Delhi,"Anand Vihar, Delhi - DPCC",30-04-2024 20:00:00,28.647622,77.3158090,SO2,19,80,37
India,Delhi,Delhi,"Ashok Vihar, Delhi - DPCC",30-04-2024 20:00:00,28.695381,77.181665,PM10,128,238,178
India,Delhi,Delhi,"Ashok Vihar, Delhi - DPCC",30-04-2024 20:00:00,28.695381,77.181665,NH3,13,19,16
India,Delhi,Delhi,"Aya Nagar, Delhi - IMD",30-04-2024 20:00:00,28.4706914,77.1099364,PM2.5,20,262,123
India,Delhi,Delhi,"Aya Nagar, Delhi - IMD",30-04-2024 20:00:00,28.4706914,77.1099364,CO,26,61,30
India,Delhi,Delhi,"Bawana, Delhi - DPCC",30-04-2024 20:00:00,28.776200,77.051074,SO2,7,56,23
India,Delhi,Delhi,"Burari Crossing, Delhi - IMD",30-04-2024 20:00:00,28.7256504,77.2011573,PM2.5,36,326,148
India,Delhi,Delhi,"Burari Crossing, Delhi - IMD",30-04-2024 20:00:00,28.7256504,77.2011573,PM10,141,246,177
India,Delhi,Delhi,"Burari Crossing, Delhi - IMD",30-04-2024 20:00:00,28.7256504,77.2011573,NO2,11,14,13
India,Delhi,Delhi,"Chandni Chowk, Delhi - IITM",30-04-2024 20:00:00,28.656756,77.227234,SO2,NA,NA,NA
India,Delhi,Delhi,"DTU, Delhi - CPCB",30-04-2024 20:00:00,28.7500499,77.1112615,PM2.5,84,306,142
India,Delhi,Delhi,"DTU, Delhi - CPCB",30-04-2024 20:00:00,28.7500499,77.1112615,OZONE,29,237,107
India,Delhi,Delhi,"Dr. Karni Singh Shooting Range, Delhi - DPCC",30-04-2024 20:00:00,28.498571,77.264840,PM2.5,45,231,79
India,Delhi,Delhi,"Dr. Karni Singh Shooting Range, Delhi - DPCC",30-04-2024 20:00:00,28.498571,77.264840,NH3,5,9,8
India,Delhi,Delhi,"Dr. Karni Singh Shooting Range, Delhi - DPCC",30-04-2024 20:00:00,28.498571,77.264840,OZONE,29,207,163
India,Delhi,Delhi,"Dwarka-Sector 8, Delhi - DPCC ",30-04-2024 20:00:00,28.5710274,77.0719006,PM10,128,422,195
India,Delhi,Delhi,"IGI Airport (T3), Delhi - IMD",30-04-2024 20:00:00,28.5627763,77.1180053,NO2,3,9,5
India,Delhi,Delhi,"Jahangirpuri, Delhi - DPCC",30-04-2024 20:00:00,28.732820,77.170633,PM2.5,45,338,115
India,Delhi,Delhi,"Jahangirpuri, Delhi - DPCC",30-04-2024 20:00:00,28.732820,77.170633,PM10,142,321,198
India,Delhi,Delhi,"Jahangirpuri, Delhi - DPCC",30-04-2024 20:00:00,28.732820,77.170633,CO,40,82,48
India,Delhi,Delhi,"Jawaharlal Nehru Stadium, Delhi - DPCC",30-04-2024 20:00:00,28.580280,77.233829,PM10,102,182,140
India,Delhi,Delhi,"Jawaharlal Nehru Stadium, Delhi - DPCC",30-04-2024 20:00:00,28.580280,77.233829,NH3,6,12,9
India,Delhi,Delhi,"Jawaharlal Nehru Stadium, Delhi - DPCC",30-04-2024 20:00:00,28.580280,77.233829,OZONE,20,223,176
India,Delhi,Delhi,"Lodhi Road, Delhi - IITM",30-04-2024 20:00:00,28.588333,77.221667,PM10,NA,NA,NA
India,Delhi,Delhi,"Lodhi Road, Delhi - IITM",30-04-2024 20:00:00,28.588333,77.221667,NO2,NA,NA,NA
India,Delhi,Delhi,"Lodhi Road, Delhi - IMD",30-04-2024 20:00:00,28.5918245,77.2273074,PM10,96,169,131
India,Delhi,Delhi,"Major Dhyan Chand National Stadium, Delhi - DPCC",30-04-2024 20:00:00,28.611281,77.237738,NO2,NA,NA,NA
India,Delhi,Delhi,"Major Dhyan Chand National Stadium, Delhi - DPCC",30-04-2024 20:00:00,28.611281,77.237738,CO,64,102,82
India,Delhi,Delhi,"Major Dhyan Chand National Stadium, Delhi - DPCC",30-04-2024 20:00:00,28.611281,77.237738,OZONE,59,204,163
India,Delhi,Delhi,"Mundka, Delhi - DPCC",30-04-2024 20:00:00,28.684678,77.076574,PM10,149,279,192
India,Delhi,Delhi,"Mundka, Delhi - DPCC",30-04-2024 20:00:00,28.684678,77.076574,OZONE,28,154,124
India,Delhi,Delhi,"NSIT Dwarka, Delhi - CPCB",30-04-2024 20:00:00,28.60909,77.0325413,PM2.5,55,239,133
India,Delhi,Delhi,"NSIT Dwarka, Delhi - CPCB",30-04-2024 20:00:00,28.60909,77.0325413,PM10,167,269,214
India,Delhi,Delhi,"NSIT Dwarka, Delhi - CPCB",30-04-2024 20:00:00,28.60909,77.0325413,NH3,11,15,13
India,Delhi,Delhi,"NSIT Dwarka, Delhi - CPCB",30-04-2024 20:00:00,28.60909,77.0325413,SO2,4,24,15
India,Delhi,Delhi,"Narela, Delhi - DPCC",30-04-2024 20:00:00,28.822836,77.101981,NO2,6,75,22
India,Delhi,Delhi,"Narela, Delhi - DPCC",30-04-2024 20:00:00,28.822836,77.101981,SO2,7,50,25
India,Delhi,Delhi,"Nehru Nagar, Delhi - DPCC",30-04-2024 20:00:00,28.567890,77.250515,SO2,4,10,6
India,Delhi,Delhi,"New Moti Bagh, Delhi - MHUA",30-04-2024 20:00:00,28.57834,77.18400,CO,19,52,27
India,Delhi,Delhi,"North Campus, DU, Delhi - IMD",30-04-2024 20:00:00,28.6573814,77.1585447,NO2,10,28,17
India,Delhi,Delhi,"Okhla Phase-2, Delhi - DPCC",30-04-2024 20:00:00,28.530785,77.271255,NO2,34,130,63
India,Delhi,Delhi,"Punjabi Bagh, Delhi - DPCC",30-04-2024 20:00:00,28.674045,77.131023,PM2.5,53,309,136
India,Delhi,Delhi,"Punjabi Bagh, Delhi - DPCC",30-04-2024 20:00:00,28.674045,77.131023,OZONE,4,35,29
India,Delhi,Delhi,"Pusa, Delhi - IMD",30-04-2024 20:00:00,28.636110,77.173332,PM10,145,257,183
India,Delhi,Delhi,"Rohini, Delhi - DPCC",30-04-2024 20:00:00,28.732528,77.119920,PM10,137,260,170
India,Delhi,Delhi,"Rohini, Delhi - DPCC",30-04-2024 20:00:00,28.732528,77.119920,CO,16,41,22
India,Delhi,Delhi,"Shadipur, Delhi - CPCB",30-04-2024 20:00:00,28.6514781,77.1473105,NH3,10,12,10
India,Delhi,Delhi,"Sonia Vihar, Delhi - DPCC",30-04-2024 20:00:00,28.710508,77.249485,NO2,15,64,30
India,Delhi,Delhi,"Sonia Vihar, Delhi - DPCC",30-04-2024 20:00:00,28.710508,77.249485,SO2,8,53,21
India,Delhi,Delhi,"Vivek Vihar, Delhi - DPCC",30-04-2024 20:00:00,28.672342,77.315260,OZONE,19,135,101
India,Delhi,Delhi,"Wazirpur, Delhi - DPCC",30-04-2024 20:00:00,28.699793,77.165453,NO2,6,25,12
India,Delhi,Delhi,"Wazirpur, Delhi - DPCC",30-04-2024 20:00:00,28.699793,77.165453,NH3,12,14,13
India,Delhi,Delhi,"Wazirpur, Delhi - DPCC",30-04-2024 20:00:00,28.699793,77.165453,SO2,8,40,19
India,Gujarat,Ahmedabad,"Chandkheda, Ahmedabad - IITM",30-04-2024 20:00:00,23.107969,72.574648,PM10,91,224,118
India,Gujarat,Ahmedabad,"Gyaspur, Ahmedabad - IITM",30-04-2024 20:00:00,22.977134,72.553024,NH3,3,17,8
India,Gujarat,Ahmedabad,"Raikhad, Ahmedabad - IITM",30-04-2024 20:00:00,23.020509,72.579261,PM2.5,86,325,243
India,Gujarat,Ahmedabad,"Rakhial, Ahmedabad - IITM",30-04-2024 20:00:00,23.016834,72.625775,NH3,2,8,5
India,Gujarat,Ahmedabad,"Sardar Vallabhbhai Patel Stadium, Ahmedabad - IITM",30-04-2024 20:00:00,23.043070,72.562968,PM2.5,69,148,76
India,Gujarat,Ahmedabad,"Sardar Vallabhbhai Patel Stadium, Ahmedabad - IITM",30-04-2024 20:00:00,23.043070,72.562968,PM10,67,130,78
India,Gujarat,Ahmedabad,"Sardar Vallabhbhai Patel Stadium, Ahmedabad - IITM",30-04-2024 20:00:00,23.043070,72.562968,SO2,6,6,6
India,Gujarat,Ahmedabad,"Sardar Vallabhbhai Patel Stadium, Ahmedabad - IITM",30-04-2024 20:00:00,23.043070,72.562968,CO,32,61,41
India,Gujarat,Ankleshwar,"GIDC, Ankleshwar - GPCB",30-04-2024 20:00:00,21.613267,73.010555,PM2.5,NA,NA,NA
India,Gujarat,Ankleshwar,"GIDC, Ankleshwar - GPCB",30-04-2024 20:00:00,21.613267,73.010555,PM10,NA,NA,NA
India,Gujarat,Gandhinagar,"Sector-10, Gandhinagar - GPCB",30-04-2024 20:00:00,23.221714,72.654328,PM10,43,99,66
India,Gujarat,Nandesari,"GIDC, Nandesari - Nandesari Ind. Association",30-04-2024 20:00:00,22.410802,73.097923,NO2,4,92,27
India,Gujarat,Surat,"Science Center, Surat - SMC",30-04-2024 20:00:00,21.170046,72.795405,PM10,10,46,25
India,Gujarat,Surat,"Science Center, Surat - SMC",30-04-2024 20:00:00,21.170046,72.795405,CO,22,52,27
India,Gujarat,Vapi,"Phase-1 GIDC, Vapi - GPCB",30-04-2024 20:00:00,20.362421,72.918013,PM2.5,36,199,68
India,Gujarat,Vapi,"Phase-1 GIDC, Vapi - GPCB",30-04-2024 20:00:00,20.362421,72.918013,SO2,53,54,54
India,Gujarat,Vatva,"Phase-4 GIDC, Vatva - GPCB",30-04-2024 20:00:00,22.969611,72.643500,NH3,6,11,8
India,Haryana,Ballabgarh,"Nathu Colony, Ballabgarh - HSPCB",30-04-2024 20:00:00,28.3419248,77.319699,PM2.5,98,246,153
India,Haryana,Ballabgarh,"Nathu Colony, Ballabgarh - HSPCB",30-04-2024 20:00:00,28.3419248,77.319699,OZONE,8,31,22
India,Haryana,Charkhi Dadri,"Mini Secretariat, Charkhi Dadri - HSPCB",30-04-2024 20:00:00,28.593883,76.270653,CO,7,62,30
India,Haryana,Dharuhera,"Municipal Corporation Office, Dharuhera -  HSPCB",30-04-2024 20:00:00,28.206800,76.799700,PM2.5,NA,NA,NA
India,Haryana,Dharuhera,"Municipal Corporation Office, Dharuhera -  HSPCB",30-04-2024 20:00:00,28.206800,76.799700,PM10,NA,NA,NA
India,Haryana,Faridabad,"New Industrial Town, Faridabad - HSPCB",30-04-2024 20:00:00,28.39072,77.30059,CO,8,21,11
India,Haryana,Faridabad,"New Industrial Town, Faridabad - HSPCB",30-04-2024 20:00:00,28.39072,77.30059,OZONE,33,275,177
India,Haryana,Faridabad,"Sector 30, Faridabad - HSPCB",30-04-2024 20:00:00,28.4417,77.3217,SO2,NA,NA,NA
India,Haryana,Faridabad,"Sector- 16A, Faridabad - HSPCB",30-04-2024 20:00:00,28.4088421,77.3099081,OZONE,14,14,14
India,Haryana,Fatehabad,"Huda Sector, Fatehabad - HSPCB",30-04-2024 20:00:00,29.503664,75.467934,PM10,28,132,78
India,Haryana,Fatehabad,"Huda Sector, Fatehabad - HSPCB",30-04-2024 20:00:00,29.503664,75.467934,NH3,10,10,10
India,Haryana,Fatehabad,"Huda Sector, Fatehabad - HSPCB",30-04-2024 20:00:00,29.503664,75.467934,CO,6,14,7
India,Haryana,Gurugram,"Sector-51, Gurugram - HSPCB",30-04-2024 20:00:00,28.4227,77.0667,OZONE,27,67,56
India,Haryana,Gurugram,"Teri Gram, Gurugram - HSPCB",30-04-2024 20:00:00,28.4275,77.1465,OZONE,11,50,46
India,Haryana,Hisar,"Urban Estate-II, Hisar - HSPCB",30-04-2024 20:00:00,29.140560,75.744941,NO2,22,29,25
India,Haryana,Hisar,"Urban Estate-II, Hisar - HSPCB",30-04-2024 20:00:00,29.140560,75.744941,SO2,NA,NA,NA
India,Haryana,Hisar,"Urban Estate-II, Hisar - HSPCB",30-04-2024 20:00:00,29.140560,75.744941,OZONE,53,162,141
India,Haryana,Jind,"Police Lines, Jind - HSPCB",30-04-2024 20:00:00,29.307814,76.337619,OZONE,13,22,18
India,Haryana,Kaithal,"Rishi Nagar, Kaithal - HSPCB",30-04-2024 20:00:00,29.8006,76.4155,NH3,8,8,8
India,Haryana,Karnal,"Sector-12, Karnal - HSPCB",30-04-2024 20:00:00,29.695300,77.002700,PM10,58,108,86
India,Haryana,Karnal,"Sector-12, Karnal - HSPCB",30-04-2024 20:00:00,29.695300,77.002700,NO2,7,12,10
India,Haryana,Kurukshetra,"Sector-7, Kurukshetra - HSPCB",30-04-2024 20:00:00,29.966942,76.875879,PM2.5,48,87,67
India,Haryana,Kurukshetra,"Sector-7, Kurukshetra - HSPCB",30-04-2024 20:00:00,29.966942,76.875879,NO2,10,10,10
India,Haryana,Kurukshetra,"Sector-7, Kurukshetra - HSPCB",30-04-2024 20:00:00,29.966942,76.875879,SO2,2,3,2
India,Haryana,Palwal,"Shyam Nagar, Palwal - HSPCB",30-04-2024 20:00:00,28.1485564,77.3320667,PM2.5,50,79,62
India,Haryana,Palwal,"Shyam Nagar, Palwal - HSPCB",30-04-2024 20:00:00,28.1485564,77.3320667,NH3,9,9,9
India,Haryana,Palwal,"Shyam Nagar, Palwal - HSPCB",30-04-2024 20:00:00,28.1485564,77.3320667,SO2,2,20,11
India,Haryana,Panchkula,"Sector-6, Panchkula - HSPCB ",30-04-2024 20:00:00,30.7057778,76.8531805555555,CO,8,19,11
India,Haryana,Rohtak,"MD University, Rohtak - HSPCB",30-04-2024 20:00:00,28.52123,76.37138,PM2.5,4,360,86
India,Haryana,Rohtak,"MD University, Rohtak - HSPCB",30-04-2024 20:00:00,28.52123,76.37138,SO2,5,8,7
India,Haryana,Rohtak,"MD University, Rohtak - HSPCB",30-04-2024 20:00:00,28.52123,76.37138,CO,28,67,47
India,Haryana,Sirsa,"F-Block, Sirsa - HSPCB",30-04-2024 20:00:00,29.536400,75.015800,NO2,9,11,10
India,Haryana,Sirsa,"F-Block, Sirsa - HSPCB",30-04-2024 20:00:00,29.536400,75.015800,NH3,12,13,12
India,Haryana,Sonipat,"Murthal, Sonipat - HSPCB",30-04-2024 20:00:00,29.027200,77.062100,NO2,37,44,40
India,Haryana,Sonipat,"Murthal, Sonipat - HSPCB",30-04-2024 20:00:00,29.027200,77.062100,OZONE,17,36,33
India,Haryana,Yamuna Nagar,"Gobind Pura, Yamuna Nagar - HSPCB",30-04-2024 20:00:00,30.1480566,77.2893471,SO2,2,83,10
India,Himachal Pradesh,Baddi,"HIMUDA Complex Phase-1, Baddi - HPPCB",30-04-2024 20:00:00,30.943887,76.801991,PM2.5,25,293,69
India,Himachal Pradesh,Baddi,"HIMUDA Complex Phase-1, Baddi - HPPCB",30-04-2024 20:00:00,30.943887,76.801991,NO2,6,38,17
India,Jharkhand,Dhanbad,"Kalakusuma, Dhanbad - DMC",30-04-2024 20:00:00,23.811548,86.481238,SO2,NA,NA,NA
India,Jharkhand,Dhanbad,"Kalakusuma, Dhanbad - DMC",30-04-2024 20:00:00,23.811548,86.481238,OZONE,32,48,42
India,Karnataka,Bagalkot,"Vidayagiri, Bagalkot - KSPCB",30-04-2024 20:00:00,16.172806,75.659694,PM2.5,19,37,36
India,Karnataka,Bagalkot,"Vidayagiri, Bagalkot - KSPCB",30-04-2024 20:00:00,16.172806,75.659694,PM10,49,50,50
India,Karnataka,Bagalkot,"Vidayagiri, Bagalkot - KSPCB",30-04-2024 20:00:00,16.172806,75.659694,CO,12,50,37
India,Karnataka,Belgaum,"Ramteerth Nagar, Belgaum - KSPCB",30-04-2024 20:00:00,15.888653,74.541751,PM2.5,21,40,29
India,Karnataka,Belgaum,"Ramteerth Nagar, Belgaum - KSPCB",30-04-2024 20:00:00,15.888653,74.541751,PM10,46,98,67
India,Karnataka,Bengaluru,"Bapuji Nagar, Bengaluru - KSPCB",30-04-2024 20:00:00,12.951913,77.539784,CO,15,72,38
India,Karnataka,Bengaluru,"Bapuji Nagar, Bengaluru - KSPCB",30-04-2024 20:00:00,12.951913,77.539784,OZONE,26,34,29
India,Karnataka,Bengaluru,"Hebbal, Bengaluru - KSPCB",30-04-2024 20:00:00,13.029152,77.585901,SO2,5,18,13
India,Karnataka,Bengaluru,"Hebbal, Bengaluru - KSPCB",30-04-2024 20:00:00,13.029152,77.585901,OZONE,6,99,39
India,Karnataka,Bengaluru,"Hombegowda Nagar, Bengaluru - KSPCB",30-04-2024 20:00:00,12.938539,77.590100,NH3,1,1,1
India,Karnataka,Bengaluru,"Hombegowda Nagar, Bengaluru - KSPCB",30-04-2024 20:00:00,12.938539,77.590100,CO,23,76,29
India,Karnataka,Bengaluru,"Jayanagar 5th Block, Bengaluru - KSPCB",30-04-2024 20:00:00,12.920984,77.584908,PM2.5,34,76,53
India,Karnataka,Bengaluru,"Jayanagar 5th Block, Bengaluru - KSPCB",30-04-2024 20:00:00,12.920984,77.584908,CO,5,7,6
India,Karnataka,Bengaluru,"Kasturi Nagar, Bengaluru - KSPCB",30-04-2024 20:00:00,13.003872,77.664217,PM2.5,58,260,98
India,Karnataka,Bengaluru,"Kasturi Nagar, Bengaluru - KSPCB",30-04-2024 20:00:00,13.003872,77.664217,NO2,16,17,17
India,Karnataka,Bengaluru,"Kasturi Nagar, Bengaluru - KSPCB",30-04-2024 20:00:00,13.003872,77.664217,SO2,9,10,10
India,Karnataka,Bengaluru,"Peenya, Bengaluru - CPCB",30-04-2024 20:00:00,13.0270199,77.494094,SO2,10,11,10
India,Karnataka,Chikkaballapur,"Chikkaballapur Rural, Chikkaballapur - KSPCB",30-04-2024 20:00:00,13.428828,77.731418,PM2.5,29,70,47
India,Karnataka,Chikkaballapur,"Chikkaballapur Rural, Chikkaballapur - KSPCB",30-04-2024 20:00:00,13.428828,77.731418,PM10,42,97,62
India,Karnataka,Chikkaballapur,"Chikkaballapur Rural, Chikkaballapur - KSPCB",30-04-2024 20:00:00,13.428828,77.731418,NO2,5,14,9
India,Karnataka,Chikkaballapur,"Chikkaballapur Rural, Chikkaballapur - KSPCB",30-04-2024 20:00:00,13.428828,77.731418,OZONE,24,25,25
India,Karnataka,Chikkamagaluru,"Kalyana Nagara, Chikkamagaluru - KSPCB",30-04-2024 20:00:00,13.328028,75.797056,PM2.5,47,93,64
India,Karnataka,Davanagere,"Devaraj Urs Badavane, Davanagere - KSPCB",30-04-2024 20:00:00,14.475800,75.905200,CO,19,24,22
India,Karnataka,Dharwad,"Kalabhavan, Dharwad - KSPCB",30-04-2024 20:00:00,15.459706,75.008381,PM2.5,52,167,91
India,Karnataka,Dharwad,"Kalabhavan, Dharwad - KSPCB",30-04-2024 20:00:00,15.459706,75.008381,NH3,3,3,3
India,Karnataka,Dharwad,"Kalabhavan, Dharwad - KSPCB",30-04-2024 20:00:00,15.459706,75.008381,SO2,1,5,2
India,Karnataka,Gadag,"Panchal Nagar, Gadag - KSPCB",30-04-2024 20:00:00,15.411456,75.638133,NO2,4,30,15
India,Karnataka,Gadag,"Panchal Nagar, Gadag - KSPCB",30-04-2024 20:00:00,15.411456,75.638133,NH3,1,3,2
India,Karnataka,Gadag,"Panchal Nagar, Gadag - KSPCB",30-04-2024 20:00:00,15.411456,75.638133,CO,48,60,51
India,Karnataka,Hassan,"B.Katihalli, Hassan - KSPCB",30-04-2024 20:00:00,13.008556,76.125258,NO2,1,29,14
India,Karnataka,Haveri,"Ashwini Nagar, Haveri - KSPCB",30-04-2024 20:00:00,14.791800,75.389600,PM2.5,52,87,68
India,Karnataka,Kalaburagi,"Lal Bahadur Shastri Nagar, Kalaburagi - KSPCB",30-04-2024 20:00:00,17.321993,76.822628,PM10,25,127,69
India,Karnataka,Kalaburagi,"Lal Bahadur Shastri Nagar, Kalaburagi - KSPCB",30-04-2024 20:00:00,17.321993,76.822628,OZONE,2,78,68
India,Karnataka,Kalaburagi,"Mahatma Basaveswar Colony, Kalaburgi - KSPCB",30-04-2024 20:00:00,17.336318,76.847397,PM10,43,88,54
India,Karnataka,Kalaburagi,"Mahatma Basaveswar Colony, Kalaburgi - KSPCB",30-04-2024 20:00:00,17.336318,76.847397,NO2,8,17,12
India,Karnataka,Kalaburagi,"Mahatma Basaveswar Colony, Kalaburgi - KSPCB",30-04-2024 20:00:00,17.336318,76.847397,CO,34,100,45
India,Karnataka,Karwar,"KHB Colony, Karwar - KSPCB",30-04-2024 20:00:00,14.816666,74.141003,PM2.5,51,153,66
India,Karnataka,Karwar,"KHB Colony, Karwar - KSPCB",30-04-2024 20:00:00,14.816666,74.141003,OZONE,21,22,21
India,Karnataka,Kolar,"Tamaka Ind. Area, Kolar - KSPCB",30-04-2024 20:00:00,13.1276288,78.1570122,PM10,NA,NA,NA
India,Karnataka,Kolar,"Tamaka Ind. Area, Kolar - KSPCB",30-04-2024 20:00:00,13.1276288,78.1570122,CO,6,7,6
India,Karnataka,Kolar,"Tamaka Ind. Area, Kolar - KSPCB",30-04-2024 20:00:00,13.1276288,78.1570122,OZONE,14,18,16
India,Karnataka,Madikeri,"Stuart Hill, Madikeri - KSPCB",30-04-2024 20:00:00,12.415911,75.735050,CO,4,78,28
India,Karnataka,Mangalore,"Kadri, Mangalore - KSPCB",30-04-2024 20:00:00,12.889250,74.853000,NH3,1,4,2
India,Karnataka,Mangalore,"Kadri, Mangalore - KSPCB",30-04-2024 20:00:00,12.889250,74.853000,CO,34,40,36
India,Karnataka,Mysuru,"Hebbal 1st Stage, Mysuru - KSPCB",30-04-2024 20:00:00,12.21041,76.37376,PM2.5,23,41,33
India,Karnataka,Mysuru,"Hebbal 1st Stage, Mysuru - KSPCB",30-04-2024 20:00:00,12.21041,76.37376,CO,8,58,21
India,Karnataka,Raichur,"Haji Colony, Raichur - KSPCB",30-04-2024 20:00:00,16.208139,77.348417,PM10,NA,NA,NA
India,Karnataka,Ramanagara,"Vijay Nagar, Ramanagara - KSPCB",30-04-2024 20:00:00,12.733409,77.298051,NH3,1,2,1
India,Karnataka,Shivamogga,"Vinoba Nagara, Shivamogga - KSPCB",30-04-2024 20:00:00,13.940000,75.555917,NO2,10,24,14
India,Karnataka,Shivamogga,"Vinoba Nagara, Shivamogga - KSPCB",30-04-2024 20:00:00,13.940000,75.555917,OZONE,37,97,82
India,Karnataka,Tumakuru,"Thimmalapura, Tumakuru - KSPCB",30-04-2024 20:00:00,13.377516,77.099072,SO2,7,15,9
India,Karnataka,Yadgir,"Collector Office, Yadgir - KSPCB",30-04-2024 20:00:00,16.7602,77.1428,OZONE,18,19,19
India,Kerala,Eloor,"Udyogamandal, Eloor - Kerala PCB",30-04-2024 20:00:00,10.073232,76.302765,PM2.5,34,63,47
India,Kerala,Eloor,"Udyogamandal, Eloor - Kerala PCB",30-04-2024 20:00:00,10.073232,76.302765,NH3,1,1,1
India,Kerala,Kollam,"Polayathode, Kollam - Kerala PCB",30-04-2024 20:00:00,8.8787,76.6073,PM2.5,NA,NA,NA
India,Kerala,Thiruvananthapuram,"Kariavattom, Thiruvananthapuram - Kerala PCB",30-04-2024 20:00:00,8.563700,76.886500,NH3,1,1,1
India,Kerala,Thiruvananthapuram,"Kariavattom, Thiruvananthapuram - Kerala PCB",30-04-2024 20:00:00,8.563700,76.886500,OZONE,28,31,30
India,Kerala,Thiruvananthapuram,"Plammoodu, Thiruvananthapuram - Kerala PCB",30-04-2024 20:00:00,8.5149093,76.9435879,OZONE,7,55,15
India,Madhya Pradesh,Bhopal,"Idgah Hills, Bhopal - MPPCB",30-04-2024 20:00:00,23.264759,77.381568,PM2.5,22,67,36
India,Madhya Pradesh,Bhopal,"Paryavaran Parisar, Bhopal - MPPCB",30-04-2024 20:00:00,23.210494,77.425409,PM2.5,NA,NA,NA
India,Madhya Pradesh,Bhopal,"T T Nagar, Bhopal - MPPCB",30-04-2024 20:00:00,23.233584,77.400574,CO,18,64,34
India,Madhya Pradesh,Gwalior,"City Center, Gwalior - MPPCB",30-04-2024 20:00:00,26.203442,78.193251,NH3,NA,NA,NA
India,Madhya Pradesh,Gwalior,"Deen Dayal Nagar, Gwalior - MPPCB",30-04-2024 20:00:00,26.259242,78.216432,PM2.5,40,168,79
India,Madhya Pradesh,Gwalior,"Deen Dayal Nagar, Gwalior - MPPCB",30-04-2024 20:00:00,26.259242,78.216432,PM10,120,252,168
India,Madhya Pradesh,Gwalior,"Maharaj Bada, Gwalior - MPPCB",30-04-2024 20:00:00,26.200388,78.147714,NH3,2,17,4
India,Madhya Pradesh,Gwalior,"Maharaj Bada, Gwalior - MPPCB",30-04-2024 20:00:00,26.200388,78.147714,CO,10,115,15
India,Madhya Pradesh,Gwalior,"Maharaj Bada, Gwalior - MPPCB",30-04-2024 20:00:00,26.200388,78.147714,OZONE,29,133,115
India,Madhya Pradesh,Indore,"Chhoti Gwaltoli, Indore - MPPCB",30-04-2024 20:00:00,22.4310,75.5213,PM10,85,165,125
India,Madhya Pradesh,Indore,"Chhoti Gwaltoli, Indore - MPPCB",30-04-2024 20:00:00,22.4310,75.5213,SO2,13,46,19
India,Madhya Pradesh,Indore,"Maguda Nagar, Indore - IMC",30-04-2024 20:00:00,22.7524,75.8872,PM10,NA,NA,NA
India,Madhya Pradesh,Indore,"Maguda Nagar, Indore - IMC",30-04-2024 20:00:00,22.7524,75.8872,NO2,NA,NA,NA
India,Madhya Pradesh,Indore,"Residency Area, Indore - IMC",30-04-2024 20:00:00,22.7084,75.8815,SO2,26,30,28
India,Madhya Pradesh,Jabalpur,"Govindh Bhavan Colony, Jabalpur - JMC",30-04-2024 20:00:00,23.163174,79.973061,CO,8,26,18
India,Madhya Pradesh,Jabalpur,"Gupteshwar, Jabalpur - JMC",30-04-2024 20:00:00,23.142888,79.916147,PM2.5,22,65,43
India,Madhya Pradesh,Jabalpur,"Gupteshwar, Jabalpur - JMC",30-04-2024 20:00:00,23.142888,79.916147,NO2,14,40,20
India,Madhya Pradesh,Jabalpur,"Marhatal, Jabalpur - MPPCB",30-04-2024 20:00:00,23.168606,79.932247,OZONE,43,86,77
India,Madhya Pradesh,Jabalpur,"Suhagi, Jabalpur - JMC",30-04-2024 20:00:00,23.218135,79.957770,NO2,39,44,41
India,Madhya Pradesh,Katni,"Gole Bazar, Katni - MPPCB",30-04-2024 20:00:00,23.50016,80.23284,PM2.5,24,97,59
India,Madhya Pradesh,Katni,"Gole Bazar, Katni - MPPCB",30-04-2024 20:00:00,23.50016,80.23284,NO2,31,109,64
India,Madhya Pradesh,Pithampur,"Sector-2 Industrial Area, Pithampur - MPPCB",30-04-2024 20:00:00,22.624758,75.675238,PM2.5,15,60,30
India,Madhya Pradesh,Sagar,"Civil Lines, Sagar - MPPCB",30-04-2024 20:00:00,23.838586,78.759431,NO2,5,46,19
India,Madhya Pradesh,Sagar,"Deen Dayal Nagar, Sagar - MPPCB",30-04-2024 20:00:00,23.8640158,78.80289321,PM10,20,106,59
India,Madhya Pradesh,Sagar,"Deen Dayal Nagar, Sagar - MPPCB",30-04-2024 20:00:00,23.8640158,78.80289321,CO,7,68,52
India,Madhya Pradesh,Satna,"Bandhavgar Colony, Satna - Birla Cement",30-04-2024 20:00:00,24.58434363,80.8549414,PM2.5,7,102,27
India,Madhya Pradesh,Satna,"Bandhavgar Colony, Satna - Birla Cement",30-04-2024 20:00:00,24.58434363,80.8549414,PM10,67,111,90
India,Madhya Pradesh,Satna,"Bandhavgar Colony, Satna - Birla Cement",30-04-2024 20:00:00,24.58434363,80.8549414,SO2,4,5,4
India,Madhya Pradesh,Singrauli,"Suryakiran Bhawan NCL, Singrauli - MPPCB",30-04-2024 20:00:00,24.108970,82.645580,NH3,3,4,3
India,Madhya Pradesh,Ujjain,"Mahakaleshwar Temple, Ujjain - MPPCB",30-04-2024 20:00:00,23.182719 ,75.768218 ,PM2.5,13,42,25
India,Maharashtra,Ahmednagar,"Tarakpur, Ahmednagar - MPCB",30-04-2024 20:00:00,19.10122,74.73339,PM10,91,188,129
India,Maharashtra,Amravati,"Shivneri Colony, Amravati - MPCB",30-04-2024 20:00:00,20.9402359,77.7895248,PM2.5,31,105,67
India,Maharashtra,Amravati,"Shivneri Colony, Amravati - MPCB",30-04-2024 20:00:00,20.9402359,77.7895248,SO2,1,20,3
India,Maharashtra,Amravati,"Shri Shivaji Science College, Amaravati - MPCB",30-04-2024 20:00:00,20.939198,77.765701,NO2,3,150,21
India,Maharashtra,Aurangabad,"MIDC Chilkalthana, Aurangabad - MPCB",30-04-2024 20:00:00,19.875620,75.387310,SO2,25,80,39
India,Maharashtra,Aurangabad,"MIDC Chilkalthana, Aurangabad - MPCB",30-04-2024 20:00:00,19.875620,75.387310,CO,21,56,30
India,Maharashtra,Aurangabad,"More Chowk Waluj, Aurangabad - MPCB",30-04-2024 20:00:00,19.8389439,75.244448,NH3,9,10,9
India,Maharashtra,Badlapur,"Katrap, Badlapur - MPCB",30-04-2024 20:00:00,19.16485,73.23409,NH3,1,3,2
India,Maharashtra,Belapur,"CBD Belapur, Belapur - MPCB",30-04-2024 20:00:00,19.0243902,73.0406721,NH3,2,5,4
India,Maharashtra,Boisar,"Khaira, Boisar - MPCB",30-04-2024 20:00:00,19.786089,72.757971,CO,7,103,23
India,Maharashtra,Chandrapur,"Chauhan Colony, Chandrapur - MPCB",30-04-2024 20:00:00,19.962900,79.298714,CO,24,28,26
India,Maharashtra,Jalgaon,"Prabhat Colony, Jalgaon - MPCB",30-04-2024 20:00:00,21.001264,75.565602,NO2,13,36,23
India,Maharashtra,Jalgaon,"Prabhat Colony, Jalgaon - MPCB",30-04-2024 20:00:00,21.001264,75.565602,SO2,3,22,11
India,Maharashtra,Jalna,"Old MIDC, Jalna - MPCB",30-04-2024 20:00:00,19.854616,75.905894,PM10,NA,NA,NA
India,Maharashtra,Kalyan,"Khadakpada, Kalyan - MPCB",30-04-2024 20:00:00,19.25292,73.142019,SO2,28,65,38
India,Maharashtra,Kolhapur,"Shivaji University, Kolhapur - MPCB",30-04-2024 20:00:00,16.6870449,74.2505872,NO2,19,84,37
India,Maharashtra,Kolhapur,"Shivaji University, Kolhapur - MPCB",30-04-2024 20:00:00,16.6870449,74.2505872,NH3,3,10,5
India,Maharashtra,Kolhapur,"Shivaji University, Kolhapur - MPCB",30-04-2024 20:00:00,16.6870449,74.2505872,SO2,2,14,6
India,Maharashtra,Kolhapur,"Shivaji University, Kolhapur - MPCB",30-04-2024 20:00:00,16.6870449,74.2505872,OZONE,20,166,117
India,Maharashtra,Kolhapur,"Sinchan Bhavan, Kolhapur - MPCB",30-04-2024 20:00:00,16.7143745,74.2426398,CO,15,44,33
India,Maharashtra,Latur,"Sawe Wadi, Latur - MPCB",30-04-2024 20:00:00,18.39963,76.57452,OZONE,21,152,137
India,Maharashtra,Mahad,"Kamble Tarf Birwadi, Mahad - MPCB",30-04-2024 20:00:00,18.1023399,73.4783687,PM2.5,74,194,105
India,Maharashtra,Mahad,"Kamble Tarf Birwadi, Mahad - MPCB",30-04-2024 20:00:00,18.1023399,73.4783687,PM10,97,126,112
India,Maharashtra,Mahad,"Kamble Tarf Birwadi, Mahad - MPCB",30-04-2024 20:00:00,18.1023399,73.4783687,NO2,23,87,39
India,Maharashtra,Malegaon,"Mahesh Nagar, Malegaon - MPCB",30-04-2024 20:00:00,20.555712,74.529236,PM10,108,148,127
India,Maharashtra,Malegaon,"Mahesh Nagar, Malegaon - MPCB",30-04-2024 20:00:00,20.555712,74.529236,CO,11,50,25
India,Maharashtra,Mira-Bhayandar,"Bhayandar West, Mira-Bhayandar - MPCB",30-04-2024 20:00:00,19.296481,72.840923,NH3,2,4,3
India,Maharashtra,Mira-Bhayandar,"Bhayandar West, Mira-Bhayandar - MPCB",30-04-2024 20:00:00,19.296481,72.840923,SO2,1,17,4
India,Maharashtra,Mumbai,"Bandra Kurla Complex, Mumbai - MPCB",30-04-2024 20:00:00,19.065931,72.862131,PM10,111,136,125
India,Maharashtra,Mumbai,"Borivali East, Mumbai - IITM",30-04-2024 20:00:00,19.23241,72.86895,OZONE,36,191,144
India,Maharashtra,Mumbai,"Borivali East, Mumbai - MPCB",30-04-2024 20:00:00,19.2243333,72.8658113,PM10,43,139,97
India,Maharashtra,Mumbai,"Borivali East, Mumbai - MPCB",30-04-2024 20:00:00,19.2243333,72.8658113,NO2,10,39,19
India,Maharashtra,Mumbai,"Byculla, Mumbai - BMC",30-04-2024 20:00:00,18.9767,72.8380,PM2.5,14,48,27
India,Maharashtra,Mumbai,"Chakala-Andheri East, Mumbai - IITM",30-04-2024 20:00:00,19.11074,72.86084,CO,1,100,20
India,Maharashtra,Mumbai,"Chembur, Mumbai - MPCB",30-04-2024 20:00:00,19.0364585,72.8954371,CO,29,70,41
India,Maharashtra,Mumbai,"Chhatrapati Shivaji Intl. Airport (T2), Mumbai - MPCB",30-04-2024 20:00:00,19.10078,72.87462,SO2,19,27,22
India,Maharashtra,Mumbai,"Colaba, Mumbai - MPCB",30-04-2024 20:00:00,18.910000,72.820000,SO2,11,13,12
India,Maharashtra,Mumbai,"Colaba, Mumbai - MPCB",30-04-2024 20:00:00,18.910000,72.820000,CO,14,16,15
India,Maharashtra,Mumbai,"Ghatkopar, Mumbai - BMC",30-04-2024 20:00:00,19.083694,72.920967,CO,1,30,11
India,Maharashtra,Mumbai,"Kandivali East, Mumbai - MPCB",30-04-2024 20:00:00,19.205800,72.868200,CO,28,33,31
India,Maharashtra,Mumbai,"Kherwadi_Bandra East, Mumbai - MPCB",30-04-2024 20:00:00,19.0632143,72.8456324,PM2.5,36,103,58
India,Maharashtra,Mumbai,"Khindipada-Bhandup West, Mumbai - IITM",30-04-2024 20:00:00,19.1653323,72.922099,NO2,8,20,11
India,Maharashtra,Mumbai,"Khindipada-Bhandup West, Mumbai - IITM",30-04-2024 20:00:00,19.1653323,72.922099,SO2,2,27,9
India,Maharashtra,Mumbai,"Kurla, Mumbai - MPCB",30-04-2024 20:00:00,19.0863,72.8888,PM10,57,261,118
India,Maharashtra,Mumbai,"Kurla, Mumbai - MPCB",30-04-2024 20:00:00,19.0863,72.8888,CO,4,32,12
India,Maharashtra,Mumbai,"Mazgaon, Mumbai - IITM",30-04-2024 20:00:00,18.96702,72.84214,NO2,27,92,57
India,Maharashtra,Mumbai,"Mazgaon, Mumbai - IITM",30-04-2024 20:00:00,18.96702,72.84214,OZONE,41,160,94
India,Maharashtra,Mumbai,"Mindspace-Malad West, Mumbai - MPCB",30-04-2024 20:00:00,19.1878657,72.8304069,SO2,6,13,10
India,Maharashtra,Mumbai,"Mindspace-Malad West, Mumbai - MPCB",30-04-2024 20:00:00,19.1878657,72.8304069,CO,7,26,13
India,Maharashtra,Mumbai,"Mulund West, Mumbai - MPCB",30-04-2024 20:00:00,19.1750,72.9419,NH3,11,11,11
India,Maharashtra,Mumbai,"Powai, Mumbai - MPCB",30-04-2024 20:00:00,19.137500,72.915056,PM10,76,142,104
India,Maharashtra,Mumbai,"Powai, Mumbai - MPCB",30-04-2024 20:00:00,19.137500,72.915056,NO2,21,45,27
India,Maharashtra,Mumbai,"Powai, Mumbai - MPCB",30-04-2024 20:00:00,19.137500,72.915056,NH3,1,2,1
India,Maharashtra,Mumbai,"Powai, Mumbai - MPCB",30-04-2024 20:00:00,19.137500,72.915056,CO,34,42,38
India,Maharashtra,Mumbai,"Powai, Mumbai - MPCB",30-04-2024 20:00:00,19.137500,72.915056,OZONE,23,87,84
India,Maharashtra,Mumbai,"Sewri, Mumbai - BMC",30-04-2024 20:00:00,19.000084,72.856730,NH3,1,4,3
India,Maharashtra,Mumbai,"Sewri, Mumbai - BMC",30-04-2024 20:00:00,19.000084,72.856730,CO,8,26,19
India,Maharashtra,Mumbai,"Shivaji Nagar, Mumbai - BMC",30-04-2024 20:00:00,19.060498,72.923356,NO2,22,118,57
India,Maharashtra,Mumbai,"Siddharth Nagar-Worli, Mumbai - IITM",30-04-2024 20:00:00,19.000083,72.813993,OZONE,36,195,124
India,Maharashtra,Mumbai,"Sion, Mumbai - MPCB",30-04-2024 20:00:00,19.047000,72.874600,PM2.5,42,76,57
India,Maharashtra,Mumbai,"Vile Parle West, Mumbai - MPCB",30-04-2024 20:00:00,19.10861,72.83622,PM2.5,22,78,54
India,Maharashtra,Mumbai,"Worli, Mumbai - MPCB",30-04-2024 20:00:00,18.9936162,72.8128113,PM10,109,286,158
India,Maharashtra,Mumbai,"Worli, Mumbai - MPCB",30-04-2024 20:00:00,18.9936162,72.8128113,SO2,12,12,12
India,Maharashtra,Nagpur,"Ambazari, Nagpur - MPCB",30-04-2024 20:00:00,21.121801,79.04952,NO2,8,109,32
India,Maharashtra,Nagpur,"Ambazari, Nagpur - MPCB",30-04-2024 20:00:00,21.121801,79.04952,OZONE,8,114,82
India,Maharashtra,Nagpur,"Mahal, Nagpur - MPCB",30-04-2024 20:00:00,21.14472,79.107595,SO2,15,97,46
India,Maharashtra,Nagpur,"Opp GPO Civil Lines, Nagpur - MPCB",30-04-2024 20:00:00,21.152875,79.0517531,PM10,50,189,97
India,Maharashtra,Nashik,"Gangapur Road, Nashik - MPCB",30-04-2024 20:00:00,20.0073285,73.7762427,NH3,1,2,1
India,Maharashtra,Nashik,"Gangapur Road, Nashik - MPCB",30-04-2024 20:00:00,20.0073285,73.7762427,SO2,2,17,11
India,Maharashtra,Nashik,"MIDC Ambad, Nashik - MPCB",30-04-2024 20:00:00,19.950220,73.731480,NH3,2,4,3
India,Maharashtra,Nashik,"Pandav Nagari, Nashik - MPCB",30-04-2024 20:00:00,19.9591346,73.7788008,NO2,4,23,12
India,Maharashtra,Nashik,"Pandav Nagari, Nashik - MPCB",30-04-2024 20:00:00,19.9591346,73.7788008,NH3,1,3,2
India,Maharashtra,Nashik,"Pandav Nagari, Nashik - MPCB",30-04-2024 20:00:00,19.9591346,73.7788008,CO,11,30,18
India,Maharashtra,Navi Mumbai,"Kopripada-Vashi, Navi Mumbai - MPCB",30-04-2024 20:00:00,19.090337,73.014232,NO2,26,119,59
India,Maharashtra,Navi Mumbai,"Kopripada-Vashi, Navi Mumbai - MPCB",30-04-2024 20:00:00,19.090337,73.014232,NH3,4,59,11
India,Maharashtra,Navi Mumbai,"Nerul, Navi Mumbai - MPCB",30-04-2024 20:00:00,19.008751,73.016620,PM2.5,52,174,94
India,Maharashtra,Navi Mumbai,"Nerul, Navi Mumbai - MPCB",30-04-2024 20:00:00,19.008751,73.016620,PM10,104,427,191
India,Maharashtra,Navi Mumbai,"Sanpada, Navi Mumbai - MPCB",30-04-2024 20:00:00,19.0575752,73.0151367,PM2.5,48,86,69
India,Maharashtra,Navi Mumbai,"Sanpada, Navi Mumbai - MPCB",30-04-2024 20:00:00,19.0575752,73.0151367,CO,2,57,8
India,Maharashtra,Navi Mumbai,"Sector-2E Kalamboli, Navi Mumbai - MPCB",30-04-2024 20:00:00,19.02579,73.10297,SO2,7,89,42
India,Maharashtra,Navi Mumbai,"Tondare-Taloja, Navi Mumbai - MPCB",30-04-2024 20:00:00,19.0630,73.1209,OZONE,3,117,84
India,Maharashtra,Parbhani,"Masoom Colony, Parbhani - MPCB",30-04-2024 20:00:00,19.265594,76.761463,SO2,3,6,4
India,Maharashtra,Pimpri-Chinchwad,"Park Street Wakad, Pimpri Chinchwad - MPCB",30-04-2024 20:00:00,18.59051,73.77946,CO,1,46,15
India,Maharashtra,Pimpri-Chinchwad,"Thergaon, Pimpri Chinchwad - MPCB",30-04-2024 20:00:00,18.616318,73.765797,NH3,3,11,6
India,Maharashtra,Pune,"Alandi, Pune - IITM",30-04-2024 20:00:00,18.675076,73.892743,CO,20,42,30
India,Maharashtra,Pune,"Revenue Colony-Shivajinagar, Pune - IITM",30-04-2024 20:00:00,18.530085,73.849598,PM10,53,114,90
India,Maharashtra,Pune,"Revenue Colony-Shivajinagar, Pune - IITM",30-04-2024 20:00:00,18.530085,73.849598,NH3,9,18,12
India,Maharashtra,Pune,"Revenue Colony-Shivajinagar, Pune - IITM",30-04-2024 20:00:00,18.530085,73.849598,SO2,44,109,84
India,Maharashtra,Pune,"Savitribai Phule Pune University, Pune - MPCB",30-04-2024 20:00:00,18.547056,73.826908,NH3,2,4,3
India,Maharashtra,Pune,"Savitribai Phule Pune University, Pune - MPCB",30-04-2024 20:00:00,18.547056,73.826908,CO,12,46,18
India,Maharashtra,Pune,"Transport Nagar-Nigdi, Pune - IITM",30-04-2024 20:00:00,18.664282,73.763966,NO2,12,15,13
India,Maharashtra,Pune,"Transport Nagar-Nigdi, Pune - IITM",30-04-2024 20:00:00,18.664282,73.763966,OZONE,22,69,59
India,Maharashtra,Sangli,"Vijay Nagar, Sangli - MPCB",30-04-2024 20:00:00, 16.5038,74.3623,PM10,80,106,93
India,Maharashtra,Sangli,"Vijay Nagar, Sangli - MPCB",30-04-2024 20:00:00, 16.5038,74.3623,NO2,11,42,22
India,Maharashtra,Sangli,"Vijay Nagar, Sangli - MPCB",30-04-2024 20:00:00, 16.5038,74.3623,CO,18,35,22
India,Maharashtra,Solapur,"Dnyaneshwar Nagar, Solapur - MPCB",30-04-2024 20:00:00,17.6336264,75.9132495,PM10,73,123,97
India,Maharashtra,Solapur,"Ratandeep Housing Society, Solapur - MPCB",30-04-2024 20:00:00,17.65439,75.90649,PM10,86,115,97
India,Maharashtra,Solapur,"Ratandeep Housing Society, Solapur - MPCB",30-04-2024 20:00:00,17.65439,75.90649,SO2,2,14,6
India,Maharashtra,Solapur,"Ratandeep Housing Society, Solapur - MPCB",30-04-2024 20:00:00,17.65439,75.90649,CO,16,104,44
India,Maharashtra,Thane,"Pimpleshwar Mandir, Thane - MPCB",30-04-2024 20:00:00,19.192056,72.9585188,NH3,1,36,8
India,Maharashtra,Thane,"Pimpleshwar Mandir, Thane - MPCB",30-04-2024 20:00:00,19.192056,72.9585188,SO2,12,126,56
India,Maharashtra,Virar,"Bolinj, Virar - MPCB",30-04-2024 20:00:00,19.4458210,72.7988231,PM2.5,42,127,66
India,Manipur,Imphal,"DM College of Science, Imphal - Manipur PCB",30-04-2024 20:00:00,24.8207389,93.9423085,PM10,23,71,40
India,Manipur,Imphal,"Manipur University, Imphal - Manipur PCB",30-04-2024 20:00:00,24.7524239,93.9286218,SO2,95,101,98
India,Manipur,Imphal,"Manipur University, Imphal - Manipur PCB",30-04-2024 20:00:00,24.7524239,93.9286218,CO,10,27,13
India,Manipur,Imphal,"Manipur University, Imphal - Manipur PCB",30-04-2024 20:00:00,24.7524239,93.9286218,OZONE,1,79,46
India,Mizoram,Aizawl,"Sikulpuikawn, Aizawl - Mizoram PCB",30-04-2024 20:00:00,23.7176342,92.7192841,NO2,1,4,1
India,Mizoram,Aizawl,"Sikulpuikawn, Aizawl - Mizoram PCB",30-04-2024 20:00:00,23.7176342,92.7192841,OZONE,1,67,13
India,Nagaland,Kohima,"PWD Juction, Kohima - NPCB",30-04-2024 20:00:00,25.6635413,94.0989878,OZONE,14,56,25
India,Odisha,Angul,"Hakimapada, Angul - OSPCB",30-04-2024 20:00:00,20.832874,85.104082,NH3,1,1,1
India,Odisha,Barbil,"Forest Office, Barbil - OSPCB",30-04-2024 20:00:00,22.1166054,85.3945546,OZONE,49,258,195
India,Odisha,Baripada,"Meher Colony, Baripada - OSPCB",30-04-2024 20:00:00,21.941841,86.728318,PM10,NA,NA,NA
India,Odisha,Baripada,"Meher Colony, Baripada - OSPCB",30-04-2024 20:00:00,21.941841,86.728318,NH3,NA,NA,NA
India,Odisha,Bhubaneswar,"Lingraj Mandir, Bhubaneswar - OSPCB",30-04-2024 20:00:00,20.240790,85.836784,PM10,51,129,97
India,Odisha,Bhubaneswar,"Lingraj Mandir, Bhubaneswar - OSPCB",30-04-2024 20:00:00,20.240790,85.836784,NH3,1,3,2
India,Odisha,Bhubaneswar,"Lingraj Mandir, Bhubaneswar - OSPCB",30-04-2024 20:00:00,20.240790,85.836784,OZONE,28,147,92
India,Odisha,Bhubaneswar,"Patia, Bhubaneswar - OSPCB",30-04-2024 20:00:00,20.34652,85.81630,SO2,4,42,11
India,Odisha,Bileipada,"Tata Township, Bileipada - OSPCB",30-04-2024 20:00:00,22.06156703,85.47409613,NH3,11,12,11
India,Odisha,Brajrajnagar,"GM Office, Brajrajnagar - OSPCB",30-04-2024 20:00:00,21.8004996,83.8396977,CO,74,102,102
India,Odisha,Brajrajnagar,"GM Office, Brajrajnagar - OSPCB",30-04-2024 20:00:00,21.8004996,83.8396977,OZONE,9,139,104
India,Odisha,Byasanagar,"Ferro Chrome Colony, Byasanagar - OSPCB",30-04-2024 20:00:00,20.94185,86.11510,NO2,12,42,18
India,Odisha,Cuttack,"CDA Area, Cuttack - OSPCB",30-04-2024 20:00:00,20.48891     ,85.84768     ,PM10,75,173,134
India,Odisha,Cuttack,"CDA Area, Cuttack - OSPCB",30-04-2024 20:00:00,20.48891     ,85.84768     ,CO,17,49,26
India,Odisha,Keonjhar,"Jagamohanpur, Keonjhar - OSPCB",30-04-2024 20:00:00,21.643900,85.599355,PM2.5,NA,NA,NA
India,Odisha,Nayagarh,"Dabuna, Nayagarh - OSPCB",30-04-2024 20:00:00,21.847279,85.416905,PM10,83,195,116
India,Odisha,Nayagarh,"Dabuna, Nayagarh - OSPCB",30-04-2024 20:00:00,21.847279,85.416905,NH3,5,5,5
India,Odisha,Nayagarh,"Dabuna, Nayagarh - OSPCB",30-04-2024 20:00:00,21.847279,85.416905,SO2,5,23,13
India,Odisha,Nayagarh,"Dabuna, Nayagarh - OSPCB",30-04-2024 20:00:00,21.847279,85.416905,OZONE,5,39,35
India,Odisha,Rairangpur,"Divisional Forest Office, Rairangpur - OSPCB",30-04-2024 20:00:00,22.265816,86.174829,NO2,1,5,2
India,Odisha,Rourkela,"Fertilizer Township, Rourkela - OSPCB",30-04-2024 20:00:00,22.18972222,84.86277778,PM10,106,154,128
India,Odisha,Rourkela,"Raghunathpali, Rourkela - OSPCB",30-04-2024 20:00:00,22.220833,84.809444,SO2,6,11,9
India,Odisha,Rourkela,"Sector-2, Rourkela - OSPCB",30-04-2024 20:00:00,22.24500000,84.88111111,CO,18,62,21
India,Odisha,Tensa,"Barsua Iron Ore Mines, Tensa - OSPCB",30-04-2024 20:00:00,21.869985,85.167016,OZONE,41,92,81
India,Puducherry,Puducherry,"Jawahar Nagar, Puducherry - PPCC",30-04-2024 20:00:00,11.9309,79.8027,SO2,3,11,7
India,Puducherry,Puducherry,"Jawahar Nagar, Puducherry - PPCC",30-04-2024 20:00:00,11.9309,79.8027,OZONE,1,12,6
India,Punjab,Amritsar,"Golden Temple, Amritsar - PPCB",30-04-2024 20:00:00,31.620000,74.876512,NO2,1,113,42
India,Punjab,Jalandhar,"Civil Line, Jalandhar - PPCB",30-04-2024 20:00:00,31.321907,75.578914,PM2.5,23,66,39
India,Punjab,Mandi Gobindgarh,"RIMT University, Mandi Gobindgarh - PPCB",30-04-2024 20:00:00,30.649961,76.331442,NO2,NA,NA,NA
India,Punjab,Patiala,"Model Town, Patiala - PPCB",30-04-2024 20:00:00,30.349388,76.366642,NO2,20,26,24
India,Punjab,Rupnagar,"Ratanpura, Rupnagar - Ambuja Cements",30-04-2024 20:00:00,31.0325454,76.5623046,PM10,44,97,69
India,Rajasthan,Banswara,"Rati Talai, Banswara - RSPCB",30-04-2024 20:00:00,23.555190,74.440010,PM10,94,220,146
India,Rajasthan,Banswara,"Rati Talai, Banswara - RSPCB",30-04-2024 20:00:00,23.555190,74.440010,NH3,2,11,5
India,Rajasthan,Banswara,"Rati Talai, Banswara - RSPCB",30-04-2024 20:00:00,23.555190,74.440010,SO2,1,17,7
India,Rajasthan,Baran,"Bamboliya, Baran - RSPCB",30-04-2024 20:00:00,25.106006,76.469948,NO2,9,83,27
India,Rajasthan,Baran,"Bamboliya, Baran - RSPCB",30-04-2024 20:00:00,25.106006,76.469948,NH3,4,13,6
India,Rajasthan,Barmer,"Railway Colony, Barmer - RSPCB",30-04-2024 20:00:00,25.747299,71.393989,SO2,4,8,6
India,Rajasthan,Bharatpur,"Krishna Nagar, Bharatpur - RSPCB",30-04-2024 20:00:00,27.215415,77.50873,CO,7,71,25
India,Rajasthan,Bharatpur,"Krishna Nagar, Bharatpur - RSPCB",30-04-2024 20:00:00,27.215415,77.50873,OZONE,52,160,120
India,Rajasthan,Bhiwadi,"RIICO Ind. Area III, Bhiwadi - RSPCB",30-04-2024 20:00:00,28.194909,76.862296,SO2,47,72,57
India,Rajasthan,Chittorgarh,"Shastri Nagar, Chittorgarh - RSPCB",30-04-2024 20:00:00,24.892047,74.623527,NH3,8,12,10
India,Rajasthan,Chittorgarh,"Shastri Nagar, Chittorgarh - RSPCB",30-04-2024 20:00:00,24.892047,74.623527,CO,6,25,11
India,Rajasthan,Chittorgarh,"Shastri Nagar, Chittorgarh - RSPCB",30-04-2024 20:00:00,24.892047,74.623527,OZONE,2,138,122
India,Rajasthan,Dausa,"Khatikan Mohalla, Dausa - RSPCB",30-04-2024 20:00:00,26.895552,76.334753,NH3,2,9,6
India,Rajasthan,Dausa,"Khatikan Mohalla, Dausa - RSPCB",30-04-2024 20:00:00,26.895552,76.334753,OZONE,11,189,113
India,Rajasthan,Dholpur,"Raja Ganj, Dholpur - RSPCB",30-04-2024 20:00:00,26.699557,77.898881,NO2,29,84,45
India,Rajasthan,Dholpur,"Raja Ganj, Dholpur - RSPCB",30-04-2024 20:00:00,26.699557,77.898881,SO2,1,7,3
India,Rajasthan,Dungarpur,"Bhoiwada, Dungarpur - RSPCB",30-04-2024 20:00:00,23.837789,73.714926,PM2.5,18,97,41
India,Rajasthan,Dungarpur,"Bhoiwada, Dungarpur - RSPCB",30-04-2024 20:00:00,23.837789,73.714926,SO2,2,5,3
India,Rajasthan,Hanumangarh,"Housing Board, Hanumangarh - RSPCB",30-04-2024 20:00:00,29.610750,74.283608,PM2.5,25,210,66
India,Rajasthan,Jaipur,"Adarsh Nagar, Jaipur - RSPCB",30-04-2024 20:00:00,26.902909,75.836858,PM10,93,280,150
India,Rajasthan,Jaipur,"Adarsh Nagar, Jaipur - RSPCB",30-04-2024 20:00:00,26.902909,75.836858,NH3,2,6,4
India,Rajasthan,Jaipur,"Mansarovar Sector-12, Jaipur - RSPCB",30-04-2024 20:00:00,26.843698,75.766894,PM2.5,33,157,68
India,Rajasthan,Jaipur,"Mansarovar Sector-12, Jaipur - RSPCB",30-04-2024 20:00:00,26.843698,75.766894,PM10,138,403,199
India,Rajasthan,Jaipur,"Mansarovar Sector-12, Jaipur - RSPCB",30-04-2024 20:00:00,26.843698,75.766894,SO2,3,15,9
India,Rajasthan,Jaipur,"Mansarovar Sector-12, Jaipur - RSPCB",30-04-2024 20:00:00,26.843698,75.766894,CO,8,77,28
India,Rajasthan,Jaipur,"Mansarovar Sector-12, Jaipur - RSPCB",30-04-2024 20:00:00,26.843698,75.766894,OZONE,40,125,99
India,Rajasthan,Jaipur,"Police Commissionerate, Jaipur - RSPCB",30-04-2024 20:00:00,26.9164092,75.7994901,SO2,5,32,22
India,Rajasthan,Jaipur,"RIICO Sitapura, Jaipur - RSPCB",30-04-2024 20:00:00,26.786682,75.827928,PM10,104,388,175
India,Rajasthan,Jaipur,"Sector-2 Murlipura, Jaipur - RSPCB",30-04-2024 20:00:00,26.960669,75.771817,PM2.5,52,210,96
India,Rajasthan,Jaipur,"Sector-2 Murlipura, Jaipur - RSPCB",30-04-2024 20:00:00,26.960669,75.771817,SO2,5,65,17
India,Rajasthan,Jaipur,"Sector-2 Murlipura, Jaipur - RSPCB",30-04-2024 20:00:00,26.960669,75.771817,CO,30,62,39
India,Rajasthan,Jaipur,"Sector-2 Murlipura, Jaipur - RSPCB",30-04-2024 20:00:00,26.960669,75.771817,OZONE,40,88,77
India,Rajasthan,Jaipur,"Shastri Nagar, Jaipur - RSPCB",30-04-2024 20:00:00,26.9502929,75.730943,PM2.5,60,305,143
India,Rajasthan,Jaipur,"Shastri Nagar, Jaipur - RSPCB",30-04-2024 20:00:00,26.9502929,75.730943,NH3,3,10,7
India,Rajasthan,Jaisalmer,"Sadar Bazar, Jaisalmer - RSPCB",30-04-2024 20:00:00,26.912329,70.909168,NO2,24,77,39
India,Rajasthan,Jaisalmer,"Sadar Bazar, Jaisalmer - RSPCB",30-04-2024 20:00:00,26.912329,70.909168,SO2,3,11,5
India,Rajasthan,Jalore,"Mudtra Sili, Jalore - RSPCB",30-04-2024 20:00:00,25.344694,72.626208,PM2.5,35,88,50
India,Rajasthan,Jhunjhunu,"Indra Nagar, Jhunjhunu - RSPCB",30-04-2024 20:00:00,28.108988,75.386577,NO2,13,34,22
India,Rajasthan,Jhunjhunu,"Indra Nagar, Jhunjhunu - RSPCB",30-04-2024 20:00:00,28.108988,75.386577,CO,9,30,23
India,Rajasthan,Jodhpur,"Collectorate, Jodhpur - RSPCB",30-04-2024 20:00:00,26.268249,73.0193853,SO2,1,17,10
India,Rajasthan,Jodhpur,"Collectorate, Jodhpur - RSPCB",30-04-2024 20:00:00,26.268249,73.0193853,OZONE,18,154,116
India,Rajasthan,Jodhpur,"Mandor, Jodhpur - RSPCB",30-04-2024 20:00:00,26.358805,73.047444,NO2,17,72,33
India,Rajasthan,Jodhpur,"Mandor, Jodhpur - RSPCB",30-04-2024 20:00:00,26.358805,73.047444,OZONE,33,132,113
India,Rajasthan,Jodhpur,"Samrat Ashok Udhyan, Jodhpur - RSPCB",30-04-2024 20:00:00,26.253384,72.976571,PM2.5,22,93,47
India,Rajasthan,Kota,"Dhanmandi, Kota - RSPCB",30-04-2024 20:00:00,25.164090,75.858137,NO2,15,72,22
India,Rajasthan,Kota,"Dhanmandi, Kota - RSPCB",30-04-2024 20:00:00,25.164090,75.858137,SO2,3,32,8
India,Rajasthan,Pali,"Indira Colony Vistar, Pali - RSPCB",30-04-2024 20:00:00,25.771061, 73.340227,NH3,6,17,13
India,Rajasthan,Pratapgarh,"Pragati Nagar, Pratapgarh - RSPCB",30-04-2024 20:00:00,24.041198,74.780702,SO2,3,14,5
India,Rajasthan,Pratapgarh,"Pragati Nagar, Pratapgarh - RSPCB",30-04-2024 20:00:00,24.041198,74.780702,CO,8,28,14
India,Rajasthan,Rajsamand,"Dhoinda, Rajsamand - RSPCB",30-04-2024 20:00:00,25.036360,73.883502,PM2.5,30,150,61
India,Rajasthan,Rajsamand,"Dhoinda, Rajsamand - RSPCB",30-04-2024 20:00:00,25.036360,73.883502,NH3,1,4,2
India,Rajasthan,Sawai Madhopur,"Sahu Nagar, Sawai Madhopur - RSPCB",30-04-2024 20:00:00,26.031443,76.359327,NH3,4,13,8
India,Rajasthan,Sikar,"Radhakishan Pura, Sikar - RSPCB",30-04-2024 20:00:00,27.608912,75.153302,NO2,6,60,15
India,Rajasthan,Sikar,"Radhakishan Pura, Sikar - RSPCB",30-04-2024 20:00:00,27.608912,75.153302,SO2,1,9,3
India,Rajasthan,Sirohi,"Vedhaynath Colony, Sirohi - RSPCB",30-04-2024 20:00:00,24.885261,72.857549,NO2,1,55,22
India,Rajasthan,Tonk,"Shastri Nagar, Tonk - RSPCB",30-04-2024 20:00:00,26.159933,75.780517,NH3,2,13,5
India,Rajasthan,Udaipur,"Ashok Nagar, Udaipur - RSPCB",30-04-2024 20:00:00,24.5886166,73.6321397,PM2.5,1,246,107
India,TamilNadu,Ariyalur,"Keelapalur, Ariyalur - TNPCB",30-04-2024 20:00:00,11.06825,79.07033,NO2,5,7,6
India,TamilNadu,Ariyalur,"Keelapalur, Ariyalur - TNPCB",30-04-2024 20:00:00,11.06825,79.07033,NH3,1,2,2
India,TamilNadu,Ariyalur,"Keelapalur, Ariyalur - TNPCB",30-04-2024 20:00:00,11.06825,79.07033,SO2,27,30,28
India,TamilNadu,Chennai,"Alandur Bus Depot, Chennai - CPCB",30-04-2024 20:00:00,12.9099161,80.1076538,CO,48,102,62
India,TamilNadu,Chennai,"Alandur Bus Depot, Chennai - CPCB",30-04-2024 20:00:00,12.9099161,80.1076538,OZONE,1,28,12
India,TamilNadu,Chennai,"Arumbakkam, Chennai - TNPCB",30-04-2024 20:00:00,13.0664,80.2112 ,SO2,1,7,4
India,TamilNadu,Chennai,"Kodungaiyur, Chennai - TNPCB",30-04-2024 20:00:00,13.1278,80.2642,CO,10,101,27
India,TamilNadu,Chennai,"Kodungaiyur, Chennai - TNPCB",30-04-2024 20:00:00,13.1278,80.2642,OZONE,1,128,39
India,TamilNadu,Chennai,"Manali, Chennai - CPCB",30-04-2024 20:00:00,13.164544,80.26285,SO2,NA,NA,NA
India,TamilNadu,Chennai,"Perungudi, Chennai - TNPCB",30-04-2024 20:00:00,12.9533,80.2357,NO2,2,6,4
India,TamilNadu,Chennai,"Royapuram, Chennai - TNPCB",30-04-2024 20:00:00,13.1036,80.2909,PM10,13,62,33
India,TamilNadu,Chennai,"Royapuram, Chennai - TNPCB",30-04-2024 20:00:00,13.1036,80.2909,NO2,9,20,15
India,TamilNadu,Chennai,"Velachery Res. Area, Chennai - CPCB",30-04-2024 20:00:00,13.0052189,80.2398125,PM2.5,15,36,23
India,TamilNadu,Coimbatore,"PSG College of Arts and Science, Coimbatore - TNPCB",30-04-2024 20:00:00,11.0328,77.0349,PM2.5,NA,NA,NA
India,TamilNadu,Coimbatore,"PSG College of Arts and Science, Coimbatore - TNPCB",30-04-2024 20:00:00,11.0328,77.0349,NO2,NA,NA,NA
India,TamilNadu,Coimbatore,"PSG College of Arts and Science, Coimbatore - TNPCB",30-04-2024 20:00:00,11.0328,77.0349,NH3,NA,NA,NA
India,TamilNadu,Cuddalore,"Semmandalam, Cuddalore - TNPCB",30-04-2024 20:00:00,11.7637683,79.7499835,PM10,6,25,13
India,TamilNadu,Gummidipoondi,"Anthoni Pillai Nagar, Gummidipoondi - TNPCB",30-04-2024 20:00:00,13.4127,80.1081,NH3,1,25,3
India,TamilNadu,Palkalaiperur,"Bharathidasan University, Palkalaiperur - TNPCB",30-04-2024 20:00:00,10.681158,78.741746,PM2.5,6,15,12
India,TamilNadu,Ramanathapuram,"Chalai Bazaar, Ramanathapuram - TNPCB",30-04-2024 20:00:00,9.36399,78.831977,SO2,7,10,8
India,TamilNadu,Salem,"Sona College of Technology, Salem - TNPCB",30-04-2024 20:00:00,11.679111,78.125052,CO,58,60,60
India,TamilNadu,Thoothukudi,"Meelavittan, Thoothukudi - TNPCB",30-04-2024 20:00:00,8.816428 ,78.099039,CO,4,115,53
India,TamilNadu,Thoothukudi,"Meelavittan, Thoothukudi - TNPCB",30-04-2024 20:00:00,8.816428 ,78.099039,OZONE,7,104,48
India,TamilNadu,Tirupur,"Kumaran College, Tirupur - TNPCB",30-04-2024 20:00:00,11.0973603,77.3228673,PM10,NA,NA,NA
India,TamilNadu,Vellore,"Vasanthapuram, Vellore - TNPCB",30-04-2024 20:00:00,12.909494,79.131861,PM10,NA,NA,NA
India,TamilNadu,Vellore,"Vasanthapuram, Vellore - TNPCB",30-04-2024 20:00:00,12.909494,79.131861,NO2,NA,NA,NA
India,TamilNadu,Vellore,"Vasanthapuram, Vellore - TNPCB",30-04-2024 20:00:00,12.909494,79.131861,SO2,NA,NA,NA
India,TamilNadu,Virudhunagar,"Collectorate Office, Virudhunagar - TNPCB",30-04-2024 20:00:00,9.559382,77.948828,NH3,6,7,6
India,TamilNadu,Virudhunagar,"Collectorate Office, Virudhunagar - TNPCB",30-04-2024 20:00:00,9.559382,77.948828,OZONE,6,6,6
India,Telangana,Hyderabad,"Bollaram Industrial Area, Hyderabad - TSPCB",30-04-2024 20:00:00,17.540891,78.358528,PM10,54,157,99
India,Telangana,Hyderabad,"Bollaram Industrial Area, Hyderabad - TSPCB",30-04-2024 20:00:00,17.540891,78.358528,SO2,15,49,24
India,Telangana,Hyderabad,"ECIL Kapra, Hyderabad - TSPCB",30-04-2024 20:00:00,17.470431,78.566959,PM2.5,49,75,61
India,Telangana,Hyderabad,"ECIL Kapra, Hyderabad - TSPCB",30-04-2024 20:00:00,17.470431,78.566959,NH3,9,13,10
India,Telangana,Hyderabad,"ECIL Kapra, Hyderabad - TSPCB",30-04-2024 20:00:00,17.470431,78.566959,OZONE,3,65,52
India,Telangana,Hyderabad,"ICRISAT Patancheru, Hyderabad - TSPCB",30-04-2024 20:00:00,17.518400,78.278777,NH3,2,2,2
India,Telangana,Hyderabad,"IITH Kandi, Hyderabad - TSPCB",30-04-2024 20:00:00,17.585705,78.126199,NO2,NA,NA,NA
India,Telangana,Hyderabad,"Kokapet, Hyderabad - TSPCB",30-04-2024 20:00:00,17.393559,78.339194,CO,23,32,24
India,Telangana,Hyderabad,"Kompally Municipal Office, Hyderabad - TSPCB",30-04-2024 20:00:00,17.544899,78.486949,PM10,50,91,63
India,Telangana,Hyderabad,"Kompally Municipal Office, Hyderabad - TSPCB",30-04-2024 20:00:00,17.544899,78.486949,NH3,5,6,5
India,Telangana,Hyderabad,"Kompally Municipal Office, Hyderabad - TSPCB",30-04-2024 20:00:00,17.544899,78.486949,CO,12,102,31
India,Telangana,Hyderabad,"Kompally Municipal Office, Hyderabad - TSPCB",30-04-2024 20:00:00,17.544899,78.486949,OZONE,1,72,59
India,Telangana,Hyderabad,"Nacharam_TSIIC IALA, Hyderabad - TSPCB",30-04-2024 20:00:00,17.429398,78.569354,PM10,76,77,77
India,Telangana,Hyderabad,"Nacharam_TSIIC IALA, Hyderabad - TSPCB",30-04-2024 20:00:00,17.429398,78.569354,SO2,8,22,14
India,Telangana,Hyderabad,"New Malakpet, Hyderabad - TSPCB",30-04-2024 20:00:00,17.37206,78.50864,PM10,46,105,71
India,Telangana,Hyderabad,"New Malakpet, Hyderabad - TSPCB",30-04-2024 20:00:00,17.37206,78.50864,NH3,3,3,3
India,Telangana,Hyderabad,"Ramachandrapuram, Hyderabad - TSPCB",30-04-2024 20:00:00,17.528544,78.286195,CO,10,48,23
India,Telangana,Hyderabad,"Somajiguda, Hyderabad - TSPCB",30-04-2024 20:00:00,17.417094,78.457437,PM2.5,NA,NA,NA
India,Tripura,Agartala,"Bardowali, Agartala - Tripura SPCB",30-04-2024 20:00:00,23.8175497,91.2726974,NO2,4,10,6
India,Tripura,Agartala,"Bardowali, Agartala - Tripura SPCB",30-04-2024 20:00:00,23.8175497,91.2726974,SO2,30,31,31
India,Uttar_Pradesh,Agra,"Manoharpur, Agra - UPPCB",30-04-2024 20:00:00,27.23711,78.01936,PM10,17,55,32
India,Uttar_Pradesh,Agra,"Manoharpur, Agra - UPPCB",30-04-2024 20:00:00,27.23711,78.01936,CO,5,10,6
India,Uttar_Pradesh,Agra,"Manoharpur, Agra - UPPCB",30-04-2024 20:00:00,27.23711,78.01936,OZONE,1,50,37
India,Uttar_Pradesh,Agra,"Rohta, Agra - UPPCB",30-04-2024 20:00:00,27.106972,78.000111,OZONE,13,16,13
India,Uttar_Pradesh,Agra,"Sanjay Palace, Agra - UPPCB",30-04-2024 20:00:00,27.19865833,78.00598056,NO2,21,38,26
India,Uttar_Pradesh,Agra,"Sanjay Palace, Agra - UPPCB",30-04-2024 20:00:00,27.19865833,78.00598056,CO,6,62,24
India,Uttar_Pradesh,Agra,"Sector-3B Avas Vikas Colony, Agra - UPPCB",30-04-2024 20:00:00,27.19412,77.96237,NH3,6,15,9
India,Uttar_Pradesh,Agra,"Shahjahan Garden, Agra - UPPCB",30-04-2024 20:00:00,27.169338,78.03582,OZONE,1,23,16
India,Uttar_Pradesh,Agra,"Shastripuram, Agra - UPPCB",30-04-2024 20:00:00,27.19862,77.92066,SO2,12,17,14
India,Uttar_Pradesh,Bareilly,"Civil Lines, Bareilly - UPPCB",30-04-2024 20:00:00,28.359581,79.414455,PM10,5,63,12
India,Uttar_Pradesh,Bareilly,"Civil Lines, Bareilly - UPPCB",30-04-2024 20:00:00,28.359581,79.414455,CO,10,46,13
India,Uttar_Pradesh,Bareilly,"Rajendra Nagar, Bareilly - UPPCB",30-04-2024 20:00:00,28.38910936,79.42963708,PM10,38,122,76
India,Uttar_Pradesh,Bareilly,"Rajendra Nagar, Bareilly - UPPCB",30-04-2024 20:00:00,28.38910936,79.42963708,NH3,1,1,1
India,Uttar_Pradesh,Bulandshahr,"Yamunapuram, Bulandshahr - UPPCB",30-04-2024 20:00:00,28.406963,77.849831,NO2,13,68,34
India,Uttar_Pradesh,Firozabad,"Nagla Bhau, Firozabad - UPPCB",30-04-2024 20:00:00,27.168897,78.376960,PM2.5,NA,NA,NA
India,Uttar_Pradesh,Firozabad,"Vibhab Nagar, Firozabad - UPPCB",30-04-2024 20:00:00,27.1594,78.3953,NO2,9,14,13
India,Uttar_Pradesh,Ghaziabad,"Indirapuram, Ghaziabad - UPPCB",30-04-2024 20:00:00,28.646233,77.358075,NO2,29,68,46
India,Uttar_Pradesh,Ghaziabad,"Indirapuram, Ghaziabad - UPPCB",30-04-2024 20:00:00,28.646233,77.358075,CO,29,50,34
India,Uttar_Pradesh,Ghaziabad,"Loni, Ghaziabad - UPPCB",30-04-2024 20:00:00,28.757294,77.278792,CO,9,116,27
India,Uttar_Pradesh,Ghaziabad,"Sanjay Nagar, Ghaziabad - UPPCB",30-04-2024 20:00:00,28.685382,77.453839,NH3,5,9,7
India,Uttar_Pradesh,Ghaziabad,"Vasundhara, Ghaziabad - UPPCB",30-04-2024 20:00:00,28.6603346,77.3572563,PM10,103,169,127
India,Uttar_Pradesh,Gorakhpur,"Madan Mohan Malaviya University of Technology, Gorakhpur - UPPCB",30-04-2024 20:00:00,26.730136,83.433859,SO2,36,39,38
India,Uttar_Pradesh,Gorakhpur,"Madan Mohan Malaviya University of Technology, Gorakhpur - UPPCB",30-04-2024 20:00:00,26.730136,83.433859,CO,5,24,11
India,Uttar_Pradesh,Greater Noida,"Knowledge Park - III, Greater Noida - UPPCB",30-04-2024 20:00:00,28.47272,77.482000,PM10,128,238,178
India,Uttar_Pradesh,Greater Noida,"Knowledge Park - III, Greater Noida - UPPCB",30-04-2024 20:00:00,28.47272,77.482000,CO,44,73,52
India,Uttar_Pradesh,Hapur,"Anand Vihar, Hapur - UPPCB",30-04-2024 20:00:00,28.725645,77.749675,SO2,15,69,36
India,Uttar_Pradesh,Jhansi,"Shivaji Nagar, Jhansi - UPPCB",30-04-2024 20:00:00,25.4547,78.6039,NO2,1,77,15
India,Uttar_Pradesh,Kanpur,"NSI Kalyanpur, Kanpur - UPPCB",30-04-2024 20:00:00,26.509954,80.249612,PM2.5,51,140,86
India,Uttar_Pradesh,Kanpur,"Nehru Nagar, Kanpur - UPPCB",30-04-2024 20:00:00,26.4703136,80.3229863,OZONE,38,271,145
India,Uttar_Pradesh,Khurja,"Kalindi Kunj, Khurja - UPPCB",30-04-2024 20:00:00,28.2348927,77.8683002,PM2.5,36,129,64
India,Uttar_Pradesh,Khurja,"Kalindi Kunj, Khurja - UPPCB",30-04-2024 20:00:00,28.2348927,77.8683002,PM10,35,107,61
India,Uttar_Pradesh,Khurja,"Kalindi Kunj, Khurja - UPPCB",30-04-2024 20:00:00,28.2348927,77.8683002,SO2,49,102,59
India,Uttar_Pradesh,Khurja,"Kalindi Kunj, Khurja - UPPCB",30-04-2024 20:00:00,28.2348927,77.8683002,CO,29,34,30
India,Uttar_Pradesh,Lucknow,"Gomti Nagar, Lucknow - UPPCB",30-04-2024 20:00:00,26.868120,81.005119,CO,40,46,44
India,Uttar_Pradesh,Lucknow,"Kendriya Vidyalaya, Lucknow - CPCB",30-04-2024 20:00:00,26.906111,80.948222,CO,17,88,28
India,Uttar_Pradesh,Lucknow,"Kendriya Vidyalaya, Lucknow - CPCB",30-04-2024 20:00:00,26.906111,80.948222,OZONE,13,120,101
India,Uttar_Pradesh,Lucknow,"Kukrail Picnic Spot-1, Lucknow - UPPCB",30-04-2024 20:00:00,26.90723,80.98579,CO,10,34,12
India,Uttar_Pradesh,Lucknow,"Lalbagh, Lucknow - CPCB",30-04-2024 20:00:00,26.8458805,80.9365541,PM2.5,60,320,204
India,Uttar_Pradesh,Lucknow,"Lalbagh, Lucknow - CPCB",30-04-2024 20:00:00,26.8458805,80.9365541,SO2,1,16,8
India,Uttar_Pradesh,Lucknow,"Talkatora District Industries Center, Lucknow - CPCB",30-04-2024 20:00:00,26.83399722,80.8917361,NH3,4,41,18
India,Uttar_Pradesh,Lucknow,"Talkatora District Industries Center, Lucknow - CPCB",30-04-2024 20:00:00,26.83399722,80.8917361,CO,2,102,17
India,Uttar_Pradesh,Meerut,"Jai Bhim Nagar, Meerut - UPPCB",30-04-2024 20:00:00,28.9535882,77.7622941,NH3,5,28,18
India,Uttar_Pradesh,Meerut,"Pallavpuram Phase 2, Meerut - UPPCB",30-04-2024 20:00:00,29.063510,77.709723,NH3,6,15,9
India,Uttar_Pradesh,Moradabad,"Buddhi Vihar, Moradabad - UPPCB",30-04-2024 20:00:00,28.83526,78.74460,NO2,23,23,23
India,Uttar_Pradesh,Moradabad,"Buddhi Vihar, Moradabad - UPPCB",30-04-2024 20:00:00,28.83526,78.74460,OZONE,20,45,40
India,Uttar_Pradesh,Moradabad,"Eco Herbal Park, Moradabad - UPPCB",30-04-2024 20:00:00,28.840739,78.697531,NO2,9,42,19
India,Uttar_Pradesh,Moradabad,"Employment Office, Moradabad - UPPCB",30-04-2024 20:00:00,28.88528,78.73880,NH3,3,4,4
India,Uttar_Pradesh,Moradabad,"Kashiram Nagar, Moradabad - UPPCB",30-04-2024 20:00:00,28.849399,78.742362,OZONE,11,66,28
India,Uttar_Pradesh,Muzaffarnagar,"New Mandi, Muzaffarnagar - UPPCB",30-04-2024 20:00:00,29.4723508,77.7194031,CO,23,50,32
India,Uttar_Pradesh,Noida,"Sector - 125, Noida - UPPCB",30-04-2024 20:00:00,28.5447608,77.3231257,OZONE,52,171,131
India,Uttar_Pradesh,Noida,"Sector - 62, Noida - IMD",30-04-2024 20:00:00,28.6245479,77.3577104,PM2.5,57,197,88
India,Uttar_Pradesh,Noida,"Sector-1, Noida - UPPCB",30-04-2024 20:00:00,28.5898,77.3101,OZONE,20,179,145
India,Uttar_Pradesh,Noida,"Sector-116, Noida - UPPCB",30-04-2024 20:00:00,28.569230,77.393848,NH3,5,9,7
India,Uttar_Pradesh,Noida,"Sector-116, Noida - UPPCB",30-04-2024 20:00:00,28.569230,77.393848,SO2,4,51,27
India,Uttar_Pradesh,Noida,"Sector-116, Noida - UPPCB",30-04-2024 20:00:00,28.569230,77.393848,CO,13,64,36
India,Uttar_Pradesh,Prayagraj,"Jhunsi, Prayagraj - UPPCB",30-04-2024 20:00:00,25.425602,81.917152,OZONE,6,67,53
India,Uttar_Pradesh,Varanasi,"Bhelupur, Varanasi - UPPCB",30-04-2024 20:00:00,25.301778,82.996789,PM2.5,4,24,11
India,Uttar_Pradesh,Varanasi,"Bhelupur, Varanasi - UPPCB",30-04-2024 20:00:00,25.301778,82.996789,NH3,1,2,1
India,Uttar_Pradesh,Varanasi,"Bhelupur, Varanasi - UPPCB",30-04-2024 20:00:00,25.301778,82.996789,OZONE,1,48,24
India,Uttar_Pradesh,Varanasi,"Maldahiya, Varanasi - UPPCB",30-04-2024 20:00:00,25.32393,82.99687,PM10,28,60,41
India,Uttar_Pradesh,Vrindavan,"Omex Eternity, Vrindavan - UPPCB",30-04-2024 20:00:00,27.5714090,77.6557570,SO2,41,45,42
India,Uttar_Pradesh,Vrindavan,"Omex Eternity, Vrindavan - UPPCB",30-04-2024 20:00:00,27.5714090,77.6557570,CO,22,48,24
India,Uttarakhand,Dehradun,"Doon University, Dehradun - UKPCB",30-04-2024 20:00:00,30.269444,78.044167,PM2.5,24,87,57
India,Uttarakhand,Kashipur,"Govt. Girls Inter College, Kashipur - UKPCB",30-04-2024 20:00:00,29.2124114,78.9611753,CO,1,63,14
India,West_Bengal,Asansol,"Asansol Court Area, Asansol - WBPCB",30-04-2024 20:00:00,23.685297,86.945968,NH3,8,17,12
India,West_Bengal,Barrackpore,"SVSPA Campus, Barrackpore - WBPCB",30-04-2024 20:00:00,22.7605581,88.3617589,PM10,95,164,121
India,West_Bengal,Durgapur,"PCBL Residential Complex, Durgapur - WBPCB",30-04-2024 20:00:00,23.5087640,87.3544400,CO,26,124,41
India,West_Bengal,Durgapur,"Sidhu Kanhu Indoor Stadium, Durgapur - WBPCB",30-04-2024 20:00:00,23.5404352,87.2892225,PM2.5,104,322,233
India,West_Bengal,Haldia,"Priyambada Housing Estate, Haldia - WBPCB",30-04-2024 20:00:00,22.06047,88.109737,OZONE,21,50,36
India,West_Bengal,Howrah,"Belur Math, Howrah - WBPCB",30-04-2024 20:00:00,22.629801,88.352017,PM2.5,54,160,80
India,West_Bengal,Howrah,"Belur Math, Howrah - WBPCB",30-04-2024 20:00:00,22.629801,88.352017,PM10,77,142,98
India,West_Bengal,Howrah,"Belur Math, Howrah - WBPCB",30-04-2024 20:00:00,22.629801,88.352017,NO2,13,27,19
India,West_Bengal,Howrah,"Ghusuri, Howrah - WBPCB",30-04-2024 20:00:00,22.611968,88.347422,PM10,74,189,120
India,West_Bengal,Howrah,"Padmapukur, Howrah - WBPCB",30-04-2024 20:00:00,22.5687319,88.2797276,SO2,17,102,43
India,West_Bengal,Howrah,"Padmapukur, Howrah - WBPCB",30-04-2024 20:00:00,22.5687319,88.2797276,CO,7,50,24
India,West_Bengal,Kolkata,"Ballygunge, Kolkata - WBPCB",30-04-2024 20:00:00,22.5367507,88.3638022,NO2,13,22,16
India,West_Bengal,Kolkata,"Bidhannagar, Kolkata - WBPCB",30-04-2024 20:00:00,22.58157048,88.41002457,PM2.5,37,142,72
India,West_Bengal,Kolkata,"Bidhannagar, Kolkata - WBPCB",30-04-2024 20:00:00,22.58157048,88.41002457,PM10,50,113,80
India,West_Bengal,Kolkata,"Bidhannagar, Kolkata - WBPCB",30-04-2024 20:00:00,22.58157048,88.41002457,CO,2,40,35
India,West_Bengal,Kolkata,"Jadavpur, Kolkata - WBPCB",30-04-2024 20:00:00,22.49929,88.36917,PM10,50,108,76
India,West_Bengal,Kolkata,"Jadavpur, Kolkata - WBPCB",30-04-2024 20:00:00,22.49929,88.36917,NO2,NA,NA,NA
India,West_Bengal,Kolkata,"Jadavpur, Kolkata - WBPCB",30-04-2024 20:00:00,22.49929,88.36917,SO2,8,36,18
India,West_Bengal,Kolkata,"Rabindra Bharati University, Kolkata - WBPCB",30-04-2024 20:00:00,22.627847,88.380669,PM10,61,123,87
India,West_Bengal,Kolkata,"Rabindra Sarobar, Kolkata - WBPCB",30-04-2024 20:00:00,22.51106,88.35142,NO2,21,48,34
India,West_Bengal,Kolkata,"Victoria, Kolkata - WBPCB",30-04-2024 20:00:00,22.5448082,88.3403691,PM10,64,126,94
India,West_Bengal,Siliguri,"Ward-32 Bapupara, Siliguri - WBPCB",30-04-2024 20:00:00,26.6879226,88.4152495,NH3,4,11,9
India,West_Bengal,Siliguri,"Ward-32 Bapupara, Siliguri - WBPCB",30-04-2024 20:00:00,26.6879226,88.4152495,CO,19,40,30
India,Andhra_Pradesh,Amaravati,"Secretariat, Amaravati - APPCB",30-04-2024 20:00:00,16.5150833,80.5181667,SO2,10,14,12
India,Andhra_Pradesh,Chittoor,"Gangineni Cheruvu, Chittoor - APPCB",30-04-2024 20:00:00,13.204880,79.097889,PM2.5,NA,NA,NA
India,Andhra_Pradesh,Chittoor,"Gangineni Cheruvu, Chittoor - APPCB",30-04-2024 20:00:00,13.204880,79.097889,NH3,NA,NA,NA
India,Andhra_Pradesh,Kadapa,"Yerramukkapalli, Kadapa - APPCB",30-04-2024 20:00:00,14.465052,78.824187,NO2,NA,NA,NA
India,Andhra_Pradesh,Kadapa,"Yerramukkapalli, Kadapa - APPCB",30-04-2024 20:00:00,14.465052,78.824187,SO2,1,3,2
India,Andhra_Pradesh,Kadapa,"Yerramukkapalli, Kadapa - APPCB",30-04-2024 20:00:00,14.465052,78.824187,CO,5,26,8
India,Andhra_Pradesh,Rajamahendravaram,"Anand Kala Kshetram, Rajamahendravaram - APPCB",30-04-2024 20:00:00,16.9872867,81.7363176,NO2,3,7,5
India,Andhra_Pradesh,Tirupati,"Tirumala, Tirupati - APPCB",30-04-2024 20:00:00,13.67,79.35,NH3,1,2,1
India,Andhra_Pradesh,Tirupati,"Tirumala, Tirupati - APPCB",30-04-2024 20:00:00,13.67,79.35,SO2,4,22,11
India,Andhra_Pradesh,Tirupati,"Tirumala, Tirupati - APPCB",30-04-2024 20:00:00,13.67,79.35,OZONE,12,60,49
India,Andhra_Pradesh,Tirupati,"Vaikuntapuram, Tirupati - APPCB",30-04-2024 20:00:00,13.615387,79.409230,PM10,13,200,56
India,Andhra_Pradesh,Tirupati,"Vaikuntapuram, Tirupati - APPCB",30-04-2024 20:00:00,13.615387,79.409230,CO,10,16,12
India,Andhra_Pradesh,Vijayawada,"Kanuru, Vijayawada - APPCB",30-04-2024 20:00:00,16.486692,80.699436,PM10,NA,NA,NA
India,Andhra_Pradesh,Vijayawada,"Rajiv Gandhi Park, Vijayawada - APPCB",30-04-2024 20:00:00,16.509717,80.612222,NH3,1,4,2
India,Andhra_Pradesh,Vijayawada,"Rajiv Nagar, Vijayawada - APPCB",30-04-2024 20:00:00,16.554731,80.649110,SO2,7,16,12
India,Andhra_Pradesh,Visakhapatnam,"GVM Corporation, Visakhapatnam - APPCB",30-04-2024 20:00:00,17.72,83.3,SO2,7,22,13
India,Arunachal_Pradesh,Naharlagun,"Naharlagun, Naharlagun - APSPCB",30-04-2024 20:00:00,27.103358,93.679645,SO2,NA,NA,NA
India,Assam,Guwahati,"LGBI Airport, Guwahati - PCBA",30-04-2024 20:00:00,26.10887,91.589544,OZONE,4,21,10
India,Assam,Guwahati,"Pan Bazaar, Guwahati - PCBA",30-04-2024 20:00:00,26.187500,91.744194,PM10,28,193,84
India,Assam,Guwahati,"Railway Colony, Guwahati - PCBA",30-04-2024 20:00:00,26.181742,91.78063,NO2,3,3,3
India,Assam,Guwahati,"Railway Colony, Guwahati - PCBA",30-04-2024 20:00:00,26.181742,91.78063,SO2,11,20,15
India,Assam,Nagaon,"Christianpatty, Nagaon - PCBA",30-04-2024 20:00:00,26.349082,92.68449,OZONE,44,80,77
India,Assam,Nalbari,"Bata Chowk, Nalbari - PCBA",30-04-2024 20:00:00,26.446912,91.439057,PM10,53,147,102
India,Assam,Nalbari,"Bata Chowk, Nalbari - PCBA",30-04-2024 20:00:00,26.446912,91.439057,NO2,6,16,9
India,Assam,Silchar,"Tarapur, Silchar - PCBA",30-04-2024 20:00:00,24.82827,92.79525,CO,25,44,30
India,Assam,Silchar,"Tarapur, Silchar - PCBA",30-04-2024 20:00:00,24.82827,92.79525,OZONE,1,12,8
India,Assam,Sivasagar,"Girls College, Sivasagar - PCBA",30-04-2024 20:00:00,26.987634,94.636574,OZONE,1,55,20
India,Bihar,Araria,"Kharahiya Basti, Araria - BSPCB",30-04-2024 20:00:00,26.146529,87.454184,PM2.5,49,315,115
India,Bihar,Araria,"Kharahiya Basti, Araria - BSPCB",30-04-2024 20:00:00,26.146529,87.454184,NO2,6,9,7
India,Bihar,Araria,"Kharahiya Basti, Araria - BSPCB",30-04-2024 20:00:00,26.146529,87.454184,OZONE,8,10,10
India,Bihar,Arrah,"New DM Office, Arrah - BSPCB",30-04-2024 20:00:00,25.5626095,84.663264,OZONE,11,40,15
India,Bihar,Aurangabad,"Gurdeo Nagar, Aurangabad - BSPCB",30-04-2024 20:00:00,24.75746,84.366208,NO2,3,8,5
India,Bihar,Aurangabad,"Gurdeo Nagar, Aurangabad - BSPCB",30-04-2024 20:00:00,24.75746,84.366208,SO2,NA,NA,NA
India,Bihar,Aurangabad,"Gurdeo Nagar, Aurangabad - BSPCB",30-04-2024 20:00:00,24.75746,84.366208,CO,1,20,10
India,Bihar,Bettiah,"Kamalnath Nagar, Bettiah - BSPCB",30-04-2024 20:00:00,26.80365,84.51954,PM10,98,399,151
India,Bihar,Bhagalpur,"DM Office_Kachari Chowk, Bhagalpur - BSPCB",30-04-2024 20:00:00,25.251013,86.989001,NH3,3,7,4
India,Bihar,Bhagalpur,"DM Office_Kachari Chowk, Bhagalpur - BSPCB",30-04-2024 20:00:00,25.251013,86.989001,SO2,16,16,16
India,Bihar,Bhagalpur,"DM Office_Kachari Chowk, Bhagalpur - BSPCB",30-04-2024 20:00:00,25.251013,86.989001,CO,24,86,53
India,Bihar,Bhagalpur,"Mayaganj, Bhagalpur - BSPCB",30-04-2024 20:00:00,25.265194,87.012947,CO,8,10,9
India,Bihar,Bihar Sharif,"D M Colony, Bihar Sharif - BSPCB",30-04-2024 20:00:00,25.204762,85.514960,NH3,2,2,2
India,Bihar,Buxar,"Charitra Van, Buxar - BSPCB (Formerly known as Central Jail)",30-04-2024 20:00:00,25.567520,83.966379,PM10,NA,NA,NA
India,Bihar,Buxar,"Charitra Van, Buxar - BSPCB (Formerly known as Central Jail)",30-04-2024 20:00:00,25.567520,83.966379,NH3,3,3,3
India,Bihar,Chhapra,"Darshan Nagar, Chhapra - BSPCB",30-04-2024 20:00:00,25.7808257,84.7446768,NO2,20,33,26
India,Bihar,Gaya,"Kareemganj, Gaya - BSPCB",30-04-2024 20:00:00,24.792403,84.992416,NH3,1,5,3
India,Bihar,Gaya,"SFTI Kusdihra, Gaya - BSPCB",30-04-2024 20:00:00,24.762518,84.982348,NH3,3,9,6
India,Bihar,Hajipur,"Industrial Area, Hajipur - BSPCB",30-04-2024 20:00:00,25.697189,85.245900,PM2.5,70,167,106
India,Bihar,Hajipur,"Industrial Area, Hajipur - BSPCB",30-04-2024 20:00:00,25.697189,85.245900,CO,18,62,23
India,Bihar,Katihar,"Mirchaibari, Katihar - BSPCB",30-04-2024 20:00:00,25.560083,87.553265,CO,54,67,59
India,Bihar,Katihar,"Mirchaibari, Katihar - BSPCB",30-04-2024 20:00:00,25.560083,87.553265,OZONE,12,24,18
India,Bihar,Kishanganj,"SDM Office_Khagra, Kishanganj - BSPCB",30-04-2024 20:00:00,26.0881305,87.93840336,NH3,9,10,9
India,Bihar,Kishanganj,"SDM Office_Khagra, Kishanganj - BSPCB",30-04-2024 20:00:00,26.0881305,87.93840336,CO,2,5,3
India,Bihar,Motihari,"Gandak Colony, Motihari - BSPCB",30-04-2024 20:00:00,26.63086,84.90051,PM2.5,33,318,97
India,Bihar,Motihari,"Gandak Colony, Motihari - BSPCB",30-04-2024 20:00:00,26.63086,84.90051,OZONE,32,236,159
India,Bihar,Muzaffarpur,"Buddha Colony, Muzaffarpur - BSPCB",30-04-2024 20:00:00,26.11442,85.39813,PM10,161,301,227
India,Bihar,Muzaffarpur,"MIT-Daudpur Kothi, Muzaffarpur - BSPCB",30-04-2024 20:00:00,26.1403345,85.3650192,SO2,4,4,4
India,Bihar,Muzaffarpur,"Muzaffarpur Collectorate, Muzaffarpur - BSPCB",30-04-2024 20:00:00,26.1209,85.3647,SO2,7,15,9
India,Bihar,Muzaffarpur,"Muzaffarpur Collectorate, Muzaffarpur - BSPCB",30-04-2024 20:00:00,26.1209,85.3647,OZONE,68,141,103
India,Bihar,Patna,"Govt. High School Shikarpur, Patna - BSPCB",30-04-2024 20:00:00,25.592539,85.227158,PM10,144,403,223
India,Bihar,Patna,"IGSC Planetarium Complex, Patna - BSPCB",30-04-2024 20:00:00,25.610369,85.132568,CO,12,12,12
India,Bihar,Patna,"Rajbansi Nagar, Patna - BSPCB",30-04-2024 20:00:00,25.599486,85.113666,PM10,156,450,193
India,Bihar,Patna,"Rajbansi Nagar, Patna - BSPCB",30-04-2024 20:00:00,25.599486,85.113666,NO2,26,62,40
India,Bihar,Patna,"Rajbansi Nagar, Patna - BSPCB",30-04-2024 20:00:00,25.599486,85.113666,OZONE,9,115,97
India,Bihar,Patna,"Samanpura, Patna - BSPCB",30-04-2024 20:00:00,25.596727,85.085624,SO2,7,21,12
India,Bihar,Purnia,"Mariam Nagar, Purnia - BSPCB",30-04-2024 20:00:00,25.366336,87.117468,PM10,12,25,17
India,Bihar,Purnia,"Mariam Nagar, Purnia - BSPCB",30-04-2024 20:00:00,25.366336,87.117468,NH3,7,12,9
India,Bihar,Rajgir,"Dangi Tola, Rajgir - BSPCB",30-04-2024 20:00:00,25.03280,85.41948,PM10,44,108,74
India,Bihar,Rajgir,"Dangi Tola, Rajgir - BSPCB",30-04-2024 20:00:00,25.03280,85.41948,OZONE,31,41,34
India,Bihar,Saharsa,"Police Line, Saharsa - BSPCB",30-04-2024 20:00:00,25.892357,86.590325,PM2.5,NA,NA,NA
India,Bihar,Saharsa,"Police Line, Saharsa - BSPCB",30-04-2024 20:00:00,25.892357,86.590325,PM10,NA,NA,NA
India,Bihar,Saharsa,"Police Line, Saharsa - BSPCB",30-04-2024 20:00:00,25.892357,86.590325,NH3,9,9,9
India,Bihar,Saharsa,"Police Line, Saharsa - BSPCB",30-04-2024 20:00:00,25.892357,86.590325,SO2,16,17,16
India,Bihar,Samastipur,"DM Office_Kasipur, Samastipur - BSPCB",30-04-2024 20:00:00,25.859655,85.77944,PM10,63,179,114
India,Bihar,Samastipur,"DM Office_Kasipur, Samastipur - BSPCB",30-04-2024 20:00:00,25.859655,85.77944,NO2,1,13,6
India,Bihar,Samastipur,"DM Office_Kasipur, Samastipur - BSPCB",30-04-2024 20:00:00,25.859655,85.77944,NH3,1,4,3
India,Bihar,Sasaram,"Dada Peer, Sasaram - BSPCB",30-04-2024 20:00:00,24.952822,84.002396,NH3,6,32,15
India,Bihar,Siwan,"Chitragupta Nagar, Siwan - BSPCB",30-04-2024 20:00:00,26.2271665,84.3570427,PM10,NA,NA,NA
India,Bihar,Siwan,"Chitragupta Nagar, Siwan - BSPCB",30-04-2024 20:00:00,26.2271665,84.3570427,NH3,1,5,3
India,Chandigarh,Chandigarh,"Sector 22, Chandigarh - CPCC",30-04-2024 20:00:00,30.735567,76.775714,NH3,4,13,7
India,Chandigarh,Chandigarh,"Sector-25, Chandigarh - CPCC",30-04-2024 20:00:00,30.751462,76.762879,SO2,7,16,11
India,Chandigarh,Chandigarh,"Sector-53, Chandigarh - CPCC",30-04-2024 20:00:00,30.719859,76.738637,NO2,6,64,21
India,Chhattisgarh,Bhilai,"32Bungalows, Bhilai - CECB",30-04-2024 20:00:00,21.194815,81.314770,CO,18,40,21
India,Chhattisgarh,Bhilai,"32Bungalows, Bhilai - CECB",30-04-2024 20:00:00,21.194815,81.314770,OZONE,7,70,44
India,Chhattisgarh,Bhilai,"Civic Center, Bhilai - Bhilai Steel Plant",30-04-2024 20:00:00,21.185571,81.343175,CO,32,66,44
India,Chhattisgarh,Bhilai,"Hathkhoj, Bhilai - CECB",30-04-2024 20:00:00,21.224231,81.408350,NO2,14,45,26
India,Chhattisgarh,Bhilai,"Hathkhoj, Bhilai - CECB",30-04-2024 20:00:00,21.224231,81.408350,CO,12,52,19
India,Chhattisgarh,Bilaspur,"Mangala, Bilaspur - NTPC",30-04-2024 20:00:00,22.08815,82.13737,PM10,47,74,59
India,Chhattisgarh,Korba,"Rampur, Korba - CECB",30-04-2024 20:00:00,22.368195,82.746431,PM10,46,106,70
India,Chhattisgarh,Korba,"Rampur, Korba - CECB",30-04-2024 20:00:00,22.368195,82.746431,NO2,34,48,43
India,Chhattisgarh,Korba,"Rampur, Korba - CECB",30-04-2024 20:00:00,22.368195,82.746431,OZONE,NA,NA,NA
India,Chhattisgarh,Korba,"Urja Nagar, Korba - CECB",30-04-2024 20:00:00,22.348441,82.549611,PM2.5,42,156,84
India,Chhattisgarh,Korba,"Urja Nagar, Korba - CECB",30-04-2024 20:00:00,22.348441,82.549611,SO2,1,3,2
India,Chhattisgarh,Milupara,"Govt. Higher Secondary School, Milupara - CECB",30-04-2024 20:00:00,22.1910172,83.5197009,PM10,NA,NA,NA
India,Chhattisgarh,Raipur,"AIIMS, Raipur - CECB",30-04-2024 20:00:00,21.258815,81.578979,NH3,NA,NA,NA
India,Chhattisgarh,Raipur,"Bhatagaon New ISBT, Raipur - CECB",30-04-2024 20:00:00,21.219665,81.630094,NO2,19,41,30
India,Chhattisgarh,Raipur,"Siltara Phase-II, Raipur - CECB",30-04-2024 20:00:00,21.371751,81.664929,PM2.5,37,129,73
India,Chhattisgarh,Raipur,"Siltara Phase-II, Raipur - CECB",30-04-2024 20:00:00,21.371751,81.664929,PM10,48,142,97
India,Chhattisgarh,Raipur,"Siltara Phase-II, Raipur - CECB",30-04-2024 20:00:00,21.371751,81.664929,SO2,4,88,35
India,Delhi,Delhi,"Alipur, Delhi - DPCC",30-04-2024 20:00:00,28.815329,77.153010,PM2.5,38,307,82
India,Delhi,Delhi,"Alipur, Delhi - DPCC",30-04-2024 20:00:00,28.815329,77.153010,NO2,4,40,21
India,Delhi,Delhi,"Alipur, Delhi - DPCC",30-04-2024 20:00:00,28.815329,77.153010,NH3,3,8,6
India,Delhi,Delhi,"Alipur, Delhi - DPCC",30-04-2024 20:00:00,28.815329,77.153010,OZONE,14,147,128
India,Delhi,Delhi,"Anand Vihar, Delhi - DPCC",30-04-2024 20:00:00,28.647622,77.3158090,NH3,2,14,7
India,Delhi,Delhi,"Ashok Vihar, Delhi - DPCC",30-04-2024 20:00:00,28.695381,77.181665,PM2.5,52,244,88
India,Delhi,Delhi,"Aya Nagar, Delhi - IMD",30-04-2024 20:00:00,28.4706914,77.1099364,PM10,119,210,165
India,Delhi,Delhi,"Bawana, Delhi - DPCC",30-04-2024 20:00:00,28.776200,77.051074,NH3,4,9,6
India,Delhi,Delhi,"Bawana, Delhi - DPCC",30-04-2024 20:00:00,28.776200,77.051074,OZONE,10,156,124
India,Delhi,Delhi,"CRRI Mathura Road, Delhi - IMD",30-04-2024 20:00:00,28.5512005,77.2735737,CO,20,43,27
India,Delhi,Delhi,"Chandni Chowk, Delhi - IITM",30-04-2024 20:00:00,28.656756,77.227234,PM2.5,128,288,186
India,Delhi,Delhi,"Dr. Karni Singh Shooting Range, Delhi - DPCC",30-04-2024 20:00:00,28.498571,77.264840,CO,24,58,31
India,Delhi,Delhi,"Dwarka-Sector 8, Delhi - DPCC ",30-04-2024 20:00:00,28.5710274,77.0719006,SO2,5,35,18
India,Delhi,Delhi,"IGI Airport (T3), Delhi - IMD",30-04-2024 20:00:00,28.5627763,77.1180053,PM2.5,17,318,91
India,Delhi,Delhi,"IGI Airport (T3), Delhi - IMD",30-04-2024 20:00:00,28.5627763,77.1180053,CO,27,52,31
India,Delhi,Delhi,"IHBAS, Dilshad Garden, Delhi - CPCB",30-04-2024 20:00:00,28.6811736,77.3025234,CO,20,59,41
India,Delhi,Delhi,"ITO, Delhi - CPCB",30-04-2024 20:00:00,28.628624,77.241060,PM2.5,55,203,84
India,Delhi,Delhi,"ITO, Delhi - CPCB",30-04-2024 20:00:00,28.628624,77.241060,SO2,7,42,20
India,Delhi,Delhi,"Jahangirpuri, Delhi - DPCC",30-04-2024 20:00:00,28.732820,77.170633,NH3,5,29,11
India,Delhi,Delhi,"Jahangirpuri, Delhi - DPCC",30-04-2024 20:00:00,28.732820,77.170633,SO2,16,83,41
India,Delhi,Delhi,"Jahangirpuri, Delhi - DPCC",30-04-2024 20:00:00,28.732820,77.170633,OZONE,7,82,74
India,Delhi,Delhi,"Jawaharlal Nehru Stadium, Delhi - DPCC",30-04-2024 20:00:00,28.580280,77.233829,CO,26,60,34
India,Delhi,Delhi,"Lodhi Road, Delhi - IITM",30-04-2024 20:00:00,28.588333,77.221667,PM2.5,NA,NA,NA
India,Delhi,Delhi,"Lodhi Road, Delhi - IITM",30-04-2024 20:00:00,28.588333,77.221667,NH3,NA,NA,NA
India,Delhi,Delhi,"Lodhi Road, Delhi - IITM",30-04-2024 20:00:00,28.588333,77.221667,CO,58,64,59
India,Delhi,Delhi,"Lodhi Road, Delhi - IMD",30-04-2024 20:00:00,28.5918245,77.2273074,CO,5,14,9
India,Delhi,Delhi,"Major Dhyan Chand National Stadium, Delhi - DPCC",30-04-2024 20:00:00,28.611281,77.237738,SO2,NA,NA,NA
India,Delhi,Delhi,"Mandir Marg, Delhi - DPCC",30-04-2024 20:00:00,28.636429,77.201067,PM10,90,217,127
India,Delhi,Delhi,"Mandir Marg, Delhi - DPCC",30-04-2024 20:00:00,28.636429,77.201067,NO2,87,104,98
India,Delhi,Delhi,"NSIT Dwarka, Delhi - CPCB",30-04-2024 20:00:00,28.60909,77.0325413,NO2,23,34,29
India,Delhi,Delhi,"Najafgarh, Delhi - DPCC",30-04-2024 20:00:00,28.570173,76.933762,NO2,20,65,36
India,Delhi,Delhi,"Najafgarh, Delhi - DPCC",30-04-2024 20:00:00,28.570173,76.933762,NH3,5,14,8
India,Delhi,Delhi,"Narela, Delhi - DPCC",30-04-2024 20:00:00,28.822836,77.101981,PM2.5,48,309,107
India,Delhi,Delhi,"Narela, Delhi - DPCC",30-04-2024 20:00:00,28.822836,77.101981,PM10,140,265,173
India,Delhi,Delhi,"Narela, Delhi - DPCC",30-04-2024 20:00:00,28.822836,77.101981,OZONE,19,162,133
India,Delhi,Delhi,"Nehru Nagar, Delhi - DPCC",30-04-2024 20:00:00,28.567890,77.250515,NH3,2,2,2
India,Delhi,Delhi,"Nehru Nagar, Delhi - DPCC",30-04-2024 20:00:00,28.567890,77.250515,OZONE,22,175,143
India,Delhi,Delhi,"Okhla Phase-2, Delhi - DPCC",30-04-2024 20:00:00,28.530785,77.271255,SO2,6,15,11
India,Delhi,Delhi,"Okhla Phase-2, Delhi - DPCC",30-04-2024 20:00:00,28.530785,77.271255,OZONE,16,118,87
India,Delhi,Delhi,"Patparganj, Delhi - DPCC",30-04-2024 20:00:00,28.623763,77.287209,NO2,23,82,35
India,Delhi,Delhi,"Patparganj, Delhi - DPCC",30-04-2024 20:00:00,28.623763,77.287209,SO2,1,7,4
India,Delhi,Delhi,"Patparganj, Delhi - DPCC",30-04-2024 20:00:00,28.623763,77.287209,OZONE,10,130,101
India,Delhi,Delhi,"Punjabi Bagh, Delhi - DPCC",30-04-2024 20:00:00,28.674045,77.131023,PM10,133,212,158
India,Delhi,Delhi,"Punjabi Bagh, Delhi - DPCC",30-04-2024 20:00:00,28.674045,77.131023,NO2,32,63,44
India,Delhi,Delhi,"Punjabi Bagh, Delhi - DPCC",30-04-2024 20:00:00,28.674045,77.131023,NH3,3,5,4
India,Delhi,Delhi,"Pusa, Delhi - DPCC",30-04-2024 20:00:00,28.639652,77.146275,PM10,133,270,178
India,Delhi,Delhi,"Pusa, Delhi - DPCC",30-04-2024 20:00:00,28.639652,77.146275,NO2,45,145,73
India,Delhi,Delhi,"Pusa, Delhi - DPCC",30-04-2024 20:00:00,28.639652,77.146275,NH3,3,9,7
India,Delhi,Delhi,"Pusa, Delhi - DPCC",30-04-2024 20:00:00,28.639652,77.146275,SO2,7,65,26
India,Delhi,Delhi,"Pusa, Delhi - DPCC",30-04-2024 20:00:00,28.639652,77.146275,OZONE,13,94,72
India,Delhi,Delhi,"Pusa, Delhi - IMD",30-04-2024 20:00:00,28.636110,77.173332,PM2.5,90,329,178
India,Delhi,Delhi,"Rohini, Delhi - DPCC",30-04-2024 20:00:00,28.732528,77.119920,NO2,10,77,27
India,Delhi,Delhi,"Shadipur, Delhi - CPCB",30-04-2024 20:00:00,28.6514781,77.1473105,CO,11,105,82
India,Delhi,Delhi,"Sirifort, Delhi - CPCB",30-04-2024 20:00:00,28.5504249,77.2159377,NO2,57,64,60
India,Delhi,Delhi,"Sirifort, Delhi - CPCB",30-04-2024 20:00:00,28.5504249,77.2159377,NH3,20,24,22
India,Delhi,Delhi,"Sirifort, Delhi - CPCB",30-04-2024 20:00:00,28.5504249,77.2159377,SO2,9,15,11
India,Delhi,Delhi,"Sonia Vihar, Delhi - DPCC",30-04-2024 20:00:00,28.710508,77.249485,CO,50,72,53
India,Delhi,Delhi,"Wazirpur, Delhi - DPCC",30-04-2024 20:00:00,28.699793,77.165453,CO,26,84,41
India,Gujarat,Ahmedabad,"Gyaspur, Ahmedabad - IITM",30-04-2024 20:00:00,22.977134,72.553024,PM10,94,192,131
India,Gujarat,Ahmedabad,"Maninagar, Ahmedabad - GPCB",30-04-2024 20:00:00,23.002657,72.591912,NO2,25,71,39
India,Gujarat,Ahmedabad,"Maninagar, Ahmedabad - GPCB",30-04-2024 20:00:00,23.002657,72.591912,OZONE,14,33,26
India,Gujarat,Ahmedabad,"Raikhad, Ahmedabad - IITM",30-04-2024 20:00:00,23.020509,72.579261,NH3,5,5,5
India,Gujarat,Ahmedabad,"Raikhad, Ahmedabad - IITM",30-04-2024 20:00:00,23.020509,72.579261,OZONE,10,28,25
India,Gujarat,Ahmedabad,"Rakhial, Ahmedabad - IITM",30-04-2024 20:00:00,23.016834,72.625775,OZONE,4,52,43
India,Gujarat,Ahmedabad,"SAC ISRO Satellite, Ahmedabad - IITM",30-04-2024 20:00:00,23.023389,72.515201,PM2.5,83,84,84
India,Gujarat,Ahmedabad,"SAC ISRO Satellite, Ahmedabad - IITM",30-04-2024 20:00:00,23.023389,72.515201,NH3,3,3,3
India,Gujarat,Ahmedabad,"Sardar Vallabhbhai Patel Stadium, Ahmedabad - IITM",30-04-2024 20:00:00,23.043070,72.562968,NO2,4,26,22
India,Gujarat,Ahmedabad,"Sardar Vallabhbhai Patel Stadium, Ahmedabad - IITM",30-04-2024 20:00:00,23.043070,72.562968,OZONE,9,28,23
India,Gujarat,Gandhinagar,"Sector-10, Gandhinagar - GPCB",30-04-2024 20:00:00,23.221714,72.654328,CO,28,54,34
India,Gujarat,Gandhinagar,"Sector-10, Gandhinagar - GPCB",30-04-2024 20:00:00,23.221714,72.654328,OZONE,7,47,33
India,Gujarat,Surat,"Science Center, Surat - SMC",30-04-2024 20:00:00,21.170046,72.795405,NO2,37,60,49
India,Gujarat,Vapi,"Phase-1 GIDC, Vapi - GPCB",30-04-2024 20:00:00,20.362421,72.918013,NO2,6,7,7
India,Gujarat,Vatva,"Phase-4 GIDC, Vatva - GPCB",30-04-2024 20:00:00,22.969611,72.643500,CO,35,36,36
India,Haryana,Ambala,"Patti Mehar, Ambala - HSPCB",30-04-2024 20:00:00,30.379589,76.778328,PM10,16,158,57
India,Haryana,Bahadurgarh,"Arya Nagar, Bahadurgarh - HSPCB",30-04-2024 20:00:00,28.6701,76.9254,CO,90,101,98
India,Haryana,Bahadurgarh,"Arya Nagar, Bahadurgarh - HSPCB",30-04-2024 20:00:00,28.6701,76.9254,OZONE,33,40,37
India,Haryana,Ballabgarh,"Nathu Colony, Ballabgarh - HSPCB",30-04-2024 20:00:00,28.3419248,77.319699,SO2,2,59,14
India,Haryana,Ballabgarh,"Nathu Colony, Ballabgarh - HSPCB",30-04-2024 20:00:00,28.3419248,77.319699,CO,2,90,30
India,Haryana,Bhiwani,"H.B. Colony, Bhiwani - HSPCB",30-04-2024 20:00:00,28.806223,76.141105,NO2,8,11,9
India,Haryana,Bhiwani,"H.B. Colony, Bhiwani - HSPCB",30-04-2024 20:00:00,28.806223,76.141105,NH3,5,6,6
India,Haryana,Bhiwani,"H.B. Colony, Bhiwani - HSPCB",30-04-2024 20:00:00,28.806223,76.141105,CO,19,76,49
India,Haryana,Charkhi Dadri,"Mini Secretariat, Charkhi Dadri - HSPCB",30-04-2024 20:00:00,28.593883,76.270653,NO2,15,26,18
India,Haryana,Dharuhera,"Municipal Corporation Office, Dharuhera -  HSPCB",30-04-2024 20:00:00,28.206800,76.799700,CO,4,28,10
India,Haryana,Faridabad,"New Industrial Town, Faridabad - HSPCB",30-04-2024 20:00:00,28.39072,77.30059,NO2,11,14,12
India,Haryana,Faridabad,"New Industrial Town, Faridabad - HSPCB",30-04-2024 20:00:00,28.39072,77.30059,NH3,3,4,3
India,Haryana,Faridabad,"New Industrial Town, Faridabad - HSPCB",30-04-2024 20:00:00,28.39072,77.30059,SO2,5,11,9
India,Haryana,Faridabad,"Sector 11, Faridabad - HSPCB",30-04-2024 20:00:00,28.376058,77.315741,NH3,6,6,6
India,Haryana,Faridabad,"Sector 30, Faridabad - HSPCB",30-04-2024 20:00:00,28.4417,77.3217,PM2.5,NA,NA,NA
India,Haryana,Faridabad,"Sector 30, Faridabad - HSPCB",30-04-2024 20:00:00,28.4417,77.3217,PM10,NA,NA,NA
India,Haryana,Faridabad,"Sector 30, Faridabad - HSPCB",30-04-2024 20:00:00,28.4417,77.3217,NH3,NA,NA,NA
India,Haryana,Faridabad,"Sector 30, Faridabad - HSPCB",30-04-2024 20:00:00,28.4417,77.3217,CO,56,62,59
India,Haryana,Faridabad,"Sector 30, Faridabad - HSPCB",30-04-2024 20:00:00,28.4417,77.3217,OZONE,10,10,10
India,Haryana,Faridabad,"Sector- 16A, Faridabad - HSPCB",30-04-2024 20:00:00,28.4088421,77.3099081,SO2,NA,NA,NA
India,Haryana,Faridabad,"Sector- 16A, Faridabad - HSPCB",30-04-2024 20:00:00,28.4088421,77.3099081,CO,2,14,7
India,Haryana,Fatehabad,"Huda Sector, Fatehabad - HSPCB",30-04-2024 20:00:00,29.503664,75.467934,SO2,10,11,11
India,Haryana,Fatehabad,"Huda Sector, Fatehabad - HSPCB",30-04-2024 20:00:00,29.503664,75.467934,OZONE,28,71,48
India,Haryana,Gurugram,"Sector-51, Gurugram - HSPCB",30-04-2024 20:00:00,28.4227,77.0667,SO2,3,3,3
India,Haryana,Gurugram,"Sector-51, Gurugram - HSPCB",30-04-2024 20:00:00,28.4227,77.0667,CO,14,36,24
India,Haryana,Gurugram,"Teri Gram, Gurugram - HSPCB",30-04-2024 20:00:00,28.4275,77.1465,NO2,16,68,30
India,Haryana,Gurugram,"Teri Gram, Gurugram - HSPCB",30-04-2024 20:00:00,28.4275,77.1465,NH3,9,19,14
India,Haryana,Gurugram,"Vikas Sadan, Gurugram - HSPCB",30-04-2024 20:00:00,28.4501238,77.0263051,CO,55,150,112
India,Haryana,Jind,"Police Lines, Jind - HSPCB",30-04-2024 20:00:00,29.307814,76.337619,PM10,62,107,84
India,Haryana,Jind,"Police Lines, Jind - HSPCB",30-04-2024 20:00:00,29.307814,76.337619,NO2,7,18,12
India,Haryana,Kaithal,"Rishi Nagar, Kaithal - HSPCB",30-04-2024 20:00:00,29.8006,76.4155,PM2.5,23,61,44
India,Haryana,Kaithal,"Rishi Nagar, Kaithal - HSPCB",30-04-2024 20:00:00,29.8006,76.4155,OZONE,8,14,11
India,Haryana,Kurukshetra,"Sector-7, Kurukshetra - HSPCB",30-04-2024 20:00:00,29.966942,76.875879,NH3,5,5,5
India,Haryana,Kurukshetra,"Sector-7, Kurukshetra - HSPCB",30-04-2024 20:00:00,29.966942,76.875879,CO,2,18,8
India,Haryana,Kurukshetra,"Sector-7, Kurukshetra - HSPCB",30-04-2024 20:00:00,29.966942,76.875879,OZONE,20,78,69
India,Haryana,Mandikhera,"General Hospital, Mandikhera - HSPCB",30-04-2024 20:00:00,27.9002,76.9938,NH3,17,20,18
India,Haryana,Mandikhera,"General Hospital, Mandikhera - HSPCB",30-04-2024 20:00:00,27.9002,76.9938,CO,10,18,12
India,Haryana,Manesar,"Sector-2 IMT, Manesar - HSPCB",30-04-2024 20:00:00,28.360699,76.936090,NO2,17,85,26
India,Haryana,Palwal,"Shyam Nagar, Palwal - HSPCB",30-04-2024 20:00:00,28.1485564,77.3320667,CO,20,29,24
India,Haryana,Panipat,"Sector-18, Panipat - HSPCB",30-04-2024 20:00:00,29.497973,76.993331,PM10,86,88,87
India,Haryana,Panipat,"Sector-18, Panipat - HSPCB",30-04-2024 20:00:00,29.497973,76.993331,NO2,31,32,31
India,Haryana,Panipat,"Sector-18, Panipat - HSPCB",30-04-2024 20:00:00,29.497973,76.993331,SO2,18,19,19
India,Haryana,Sirsa,"F-Block, Sirsa - HSPCB",30-04-2024 20:00:00,29.536400,75.015800,PM2.5,17,73,47
India,Haryana,Sirsa,"F-Block, Sirsa - HSPCB",30-04-2024 20:00:00,29.536400,75.015800,SO2,9,15,12
India,Haryana,Sirsa,"F-Block, Sirsa - HSPCB",30-04-2024 20:00:00,29.536400,75.015800,CO,54,66,56
India,Haryana,Sonipat,"Murthal, Sonipat - HSPCB",30-04-2024 20:00:00,29.027200,77.062100,PM2.5,25,26,26
India,Haryana,Sonipat,"Murthal, Sonipat - HSPCB",30-04-2024 20:00:00,29.027200,77.062100,SO2,13,29,20
India,Himachal Pradesh,Baddi,"HIMUDA Complex Phase-1, Baddi - HPPCB",30-04-2024 20:00:00,30.943887,76.801991,CO,10,50,32
India,Jharkhand,Dhanbad,"Sardar Patel Nagar, Dhanbad - JSPCB",30-04-2024 20:00:00,23.80569,86.44268,PM2.5,NA,NA,NA
India,Karnataka,Belgaum,"Ramteerth Nagar, Belgaum - KSPCB",30-04-2024 20:00:00,15.888653,74.541751,CO,22,42,35
India,Karnataka,Bengaluru,"BTM Layout, Bengaluru - CPCB",30-04-2024 20:00:00,12.9135218,77.5950804,PM10,43,66,54
India,Karnataka,Bengaluru,"BTM Layout, Bengaluru - CPCB",30-04-2024 20:00:00,12.9135218,77.5950804,SO2,1,8,4
India,Karnataka,Bengaluru,"BTM Layout, Bengaluru - CPCB",30-04-2024 20:00:00,12.9135218,77.5950804,CO,23,30,25
India,Karnataka,Bengaluru,"BTM Layout, Bengaluru - CPCB",30-04-2024 20:00:00,12.9135218,77.5950804,OZONE,4,39,27
India,Karnataka,Bengaluru,"Bapuji Nagar, Bengaluru - KSPCB",30-04-2024 20:00:00,12.951913,77.539784,NO2,10,11,11
India,Karnataka,Bengaluru,"Bapuji Nagar, Bengaluru - KSPCB",30-04-2024 20:00:00,12.951913,77.539784,NH3,1,1,1
India,Karnataka,Bengaluru,"Hebbal, Bengaluru - KSPCB",30-04-2024 20:00:00,13.029152,77.585901,PM2.5,32,72,45
India,Karnataka,Bengaluru,"Hebbal, Bengaluru - KSPCB",30-04-2024 20:00:00,13.029152,77.585901,PM10,58,144,78
India,Karnataka,Bengaluru,"Hebbal, Bengaluru - KSPCB",30-04-2024 20:00:00,13.029152,77.585901,CO,9,49,17
India,Karnataka,Bengaluru,"Hombegowda Nagar, Bengaluru - KSPCB",30-04-2024 20:00:00,12.938539,77.590100,PM2.5,32,85,43
India,Karnataka,Bengaluru,"Hombegowda Nagar, Bengaluru - KSPCB",30-04-2024 20:00:00,12.938539,77.590100,SO2,4,5,4
India,Karnataka,Bengaluru,"Jayanagar 5th Block, Bengaluru - KSPCB",30-04-2024 20:00:00,12.920984,77.584908,NO2,NA,NA,NA
India,Karnataka,Bengaluru,"Kasturi Nagar, Bengaluru - KSPCB",30-04-2024 20:00:00,13.003872,77.664217,NH3,3,4,4
India,Karnataka,Bengaluru,"Kasturi Nagar, Bengaluru - KSPCB",30-04-2024 20:00:00,13.003872,77.664217,CO,20,28,23
India,Karnataka,Bengaluru,"Peenya, Bengaluru - CPCB",30-04-2024 20:00:00,13.0270199,77.494094,OZONE,11,65,43
India,Karnataka,Bengaluru,"RVCE-Mailasandra, Bengaluru - KSPCB",30-04-2024 20:00:00,12.921418,77.502466,PM10,54,102,77
India,Karnataka,Bengaluru,"RVCE-Mailasandra, Bengaluru - KSPCB",30-04-2024 20:00:00,12.921418,77.502466,NO2,16,17,17
India,Karnataka,Bengaluru,"RVCE-Mailasandra, Bengaluru - KSPCB",30-04-2024 20:00:00,12.921418,77.502466,CO,38,74,48
India,Karnataka,Bengaluru,"Sanegurava Halli, Bengaluru - KSPCB",30-04-2024 20:00:00,12.990328,77.5431385,SO2,2,3,3
India,Karnataka,Bengaluru,"Shivapura_Peenya, Bengaluru - KSPCB",30-04-2024 20:00:00,13.0246342,77.5080115,PM2.5,1,101,38
India,Karnataka,Bengaluru,"Shivapura_Peenya, Bengaluru - KSPCB",30-04-2024 20:00:00,13.0246342,77.5080115,NO2,15,16,15
India,Karnataka,Bengaluru,"Shivapura_Peenya, Bengaluru - KSPCB",30-04-2024 20:00:00,13.0246342,77.5080115,SO2,3,27,11
India,Karnataka,Bengaluru,"Silk Board, Bengaluru - KSPCB",30-04-2024 20:00:00,12.917348,77.622813,PM2.5,42,152,74
India,Karnataka,Bengaluru,"Silk Board, Bengaluru - KSPCB",30-04-2024 20:00:00,12.917348,77.622813,PM10,58,148,95
India,Karnataka,Bengaluru,"Silk Board, Bengaluru - KSPCB",30-04-2024 20:00:00,12.917348,77.622813,NO2,7,17,12
India,Karnataka,Bengaluru,"Silk Board, Bengaluru - KSPCB",30-04-2024 20:00:00,12.917348,77.622813,NH3,NA,NA,NA
India,Karnataka,Bidar,"Naubad, Bidar - KSPCB",30-04-2024 20:00:00,17.930306,77.482194,NO2,6,8,7
India,Karnataka,Bidar,"Naubad, Bidar - KSPCB",30-04-2024 20:00:00,17.930306,77.482194,NH3,2,3,3
India,Karnataka,Chamarajanagar,"Urban, Chamarajanagar - KSPCB",30-04-2024 20:00:00,11.55358,76.55521,PM10,45,58,48
India,Karnataka,Chamarajanagar,"Urban, Chamarajanagar - KSPCB",30-04-2024 20:00:00,11.55358,76.55521,NH3,1,2,2
India,Karnataka,Chamarajanagar,"Urban, Chamarajanagar - KSPCB",30-04-2024 20:00:00,11.55358,76.55521,SO2,3,10,5
India,Karnataka,Chikkaballapur,"Chikkaballapur Rural, Chikkaballapur - KSPCB",30-04-2024 20:00:00,13.428828,77.731418,SO2,14,29,21
India,Karnataka,Chikkamagaluru,"Kalyana Nagara, Chikkamagaluru - KSPCB",30-04-2024 20:00:00,13.328028,75.797056,NH3,2,4,3
India,Karnataka,Chikkamagaluru,"Kalyana Nagara, Chikkamagaluru - KSPCB",30-04-2024 20:00:00,13.328028,75.797056,SO2,1,8,6
India,Karnataka,Davanagere,"Devaraj Urs Badavane, Davanagere - KSPCB",30-04-2024 20:00:00,14.475800,75.905200,SO2,NA,NA,NA
India,Karnataka,Dharwad,"Kalabhavan, Dharwad - KSPCB",30-04-2024 20:00:00,15.459706,75.008381,PM10,73,158,115
India,Karnataka,Dharwad,"Kalabhavan, Dharwad - KSPCB",30-04-2024 20:00:00,15.459706,75.008381,OZONE,2,23,5
India,Karnataka,Hassan,"B.Katihalli, Hassan - KSPCB",30-04-2024 20:00:00,13.008556,76.125258,PM2.5,32,88,63
India,Karnataka,Hassan,"B.Katihalli, Hassan - KSPCB",30-04-2024 20:00:00,13.008556,76.125258,NH3,2,7,4
India,Karnataka,Haveri,"Ashwini Nagar, Haveri - KSPCB",30-04-2024 20:00:00,14.791800,75.389600,PM10,68,81,69
India,Karnataka,Haveri,"Ashwini Nagar, Haveri - KSPCB",30-04-2024 20:00:00,14.791800,75.389600,NO2,22,40,32
India,Karnataka,Haveri,"Ashwini Nagar, Haveri - KSPCB",30-04-2024 20:00:00,14.791800,75.389600,OZONE,18,20,19
India,Karnataka,Hubballi,"Deshpande Nagar, Hubballi - KSPCB",30-04-2024 20:00:00,15.351773,75.140726,PM2.5,NA,NA,NA
India,Karnataka,Hubballi,"Deshpande Nagar, Hubballi - KSPCB",30-04-2024 20:00:00,15.351773,75.140726,OZONE,4,14,11
India,Karnataka,Hubballi,"Lingaraj Nagar, Hubballi - KSPCB",30-04-2024 20:00:00,15.3714823,75.1160168,NO2,7,8,8
India,Karnataka,Hubballi,"Lingaraj Nagar, Hubballi - KSPCB",30-04-2024 20:00:00,15.3714823,75.1160168,SO2,1,3,1
India,Karnataka,Hubballi,"Lingaraj Nagar, Hubballi - KSPCB",30-04-2024 20:00:00,15.3714823,75.1160168,OZONE,16,86,62
India,Karnataka,Kalaburagi,"Lal Bahadur Shastri Nagar, Kalaburagi - KSPCB",30-04-2024 20:00:00,17.321993,76.822628,PM2.5,15,162,64
India,Karnataka,Kalaburagi,"Lal Bahadur Shastri Nagar, Kalaburagi - KSPCB",30-04-2024 20:00:00,17.321993,76.822628,NO2,10,12,12
India,Karnataka,Kalaburagi,"Lal Bahadur Shastri Nagar, Kalaburagi - KSPCB",30-04-2024 20:00:00,17.321993,76.822628,SO2,21,25,23
India,Karnataka,Kalaburagi,"Lal Bahadur Shastri Nagar, Kalaburagi - KSPCB",30-04-2024 20:00:00,17.321993,76.822628,CO,44,77,50
India,Karnataka,Kalaburagi,"Mahatma Basaveswar Colony, Kalaburgi - KSPCB",30-04-2024 20:00:00,17.336318,76.847397,OZONE,5,39,29
India,Karnataka,Karwar,"KHB Colony, Karwar - KSPCB",30-04-2024 20:00:00,14.816666,74.141003,SO2,21,23,22
India,Karnataka,Kolar,"Tamaka Ind. Area, Kolar - KSPCB",30-04-2024 20:00:00,13.1276288,78.1570122,PM2.5,NA,NA,NA
