country,state,city,station,last_update,latitude,longitude,pollutant_id,pollutant_min,pollutant_max,pollutant_avg
India,Andhra_Pradesh,Amaravati,"Secretariat, Amaravati - APPCB",04-05-2024 07:00:00,16.5150833,80.5181667,OZONE,19,73,25
India,Andhra_Pradesh,Anantapur,"Gulzarpet, Anantapur - APPCB",04-05-2024 07:00:00,14.675886,77.593027,PM2.5,70,79,74
India,Andhra_Pradesh,Anantapur,"Gulzarpet, Anantapur - APPCB",04-05-2024 07:00:00,14.675886,77.593027,PM10,87,136,106
India,Andhra_Pradesh,Anantapur,"Gulzarpet, Anantapur - APPCB",04-05-2024 07:00:00,14.675886,77.593027,NO2,12,13,13
India,Andhra_Pradesh,Kadapa,"Yerramukkapalli, Kadapa - APPCB",04-05-2024 07:00:00,14.465052,78.824187,PM2.5,NA,NA,NA
India,Andhra_Pradesh,Kadapa,"Yerramukkapalli, Kadapa - APPCB",04-05-2024 07:00:00,14.465052,78.824187,OZONE,26,130,32
India,Andhra_Pradesh,Vijayawada,"HB Colony, Vijayawada - APPCB",04-05-2024 07:00:00,16.536107,80.594233,SO2,5,7,6
India,Andhra_Pradesh,Vijayawada,"Kanuru, Vijayawada - APPCB",04-05-2024 07:00:00,16.486692,80.699436,PM10,54,81,64
India,Andhra_Pradesh,Vijayawada,"Rajiv Gandhi Park, Vijayawada - APPCB",04-05-2024 07:00:00,16.509717,80.612222,PM2.5,39,144,77
India,Andhra_Pradesh,Visakhapatnam,"GVM Corporation, Visakhapatnam - APPCB",04-05-2024 07:00:00,17.72,83.3,OZONE,5,59,25
India,Arunachal_Pradesh,Naharlagun,"Naharlagun, Naharlagun - APSPCB",04-05-2024 07:00:00,27.103358,93.679645,PM10,16,46,31
India,Arunachal_Pradesh,Naharlagun,"Naharlagun, Naharlagun - APSPCB",04-05-2024 07:00:00,27.103358,93.679645,NO2,3,3,3
India,Arunachal_Pradesh,Naharlagun,"Naharlagun, Naharlagun - APSPCB",04-05-2024 07:00:00,27.103358,93.679645,SO2,4,4,4
India,Arunachal_Pradesh,Naharlagun,"Naharlagun, Naharlagun - APSPCB",04-05-2024 07:00:00,27.103358,93.679645,CO,9,20,14
India,Assam,Byrnihat,"Central Academy for SFS, Byrnihat - PCBA",04-05-2024 07:00:00,26.071318,91.87488,PM2.5,103,475,318
India,Assam,Byrnihat,"Central Academy for SFS, Byrnihat - PCBA",04-05-2024 07:00:00,26.071318,91.87488,NH3,10,13,12
India,Assam,Guwahati,"IITG, Guwahati - PCBA",04-05-2024 07:00:00,26.2028636,91.70046436,NH3,5,5,5
India,Assam,Guwahati,"LGBI Airport, Guwahati - PCBA",04-05-2024 07:00:00,26.10887,91.589544,SO2,8,12,10
India,Assam,Nagaon,"Christianpatty, Nagaon - PCBA",04-05-2024 07:00:00,26.349082,92.68449,PM10,70,106,87
India,Assam,Nalbari,"Bata Chowk, Nalbari - PCBA",04-05-2024 07:00:00,26.446912,91.439057,CO,26,80,60
India,Assam,Nalbari,"Bata Chowk, Nalbari - PCBA",04-05-2024 07:00:00,26.446912,91.439057,OZONE,12,18,15
India,Assam,Silchar,"Tarapur, Silchar - PCBA",04-05-2024 07:00:00,24.82827,92.79525,CO,22,58,25
India,Bihar,Arrah,"New DM Office, Arrah - BSPCB",04-05-2024 07:00:00,25.5626095,84.663264,PM2.5,28,267,119
India,Bihar,Arrah,"New DM Office, Arrah - BSPCB",04-05-2024 07:00:00,25.5626095,84.663264,NH3,3,8,5
India,Bihar,Bhagalpur,"DM Office_Kachari Chowk, Bhagalpur - BSPCB",04-05-2024 07:00:00,25.251013,86.989001,NH3,NA,NA,NA
India,Bihar,Bhagalpur,"Mayaganj, Bhagalpur - BSPCB",04-05-2024 07:00:00,25.265194,87.012947,SO2,11,12,12
India,Bihar,Bhagalpur,"Mayaganj, Bhagalpur - BSPCB",04-05-2024 07:00:00,25.265194,87.012947,CO,8,10,9
India,Bihar,Bhagalpur,"Mayaganj, Bhagalpur - BSPCB",04-05-2024 07:00:00,25.265194,87.012947,OZONE,23,106,29
India,Bihar,Buxar,"Charitra Van, Buxar - BSPCB (Formerly known as Central Jail)",04-05-2024 07:00:00,25.567520,83.966379,NO2,1,1,1
India,Bihar,Buxar,"Charitra Van, Buxar - BSPCB (Formerly known as Central Jail)",04-05-2024 07:00:00,25.567520,83.966379,SO2,9,28,18
India,Bihar,Buxar,"Charitra Van, Buxar - BSPCB (Formerly known as Central Jail)",04-05-2024 07:00:00,25.567520,83.966379,CO,61,124,105
India,Bihar,Gaya,"Collectorate, Gaya - BSPCB",04-05-2024 07:00:00,24.7955,84.9994,PM2.5,38,334,166
India,Bihar,Gaya,"Kareemganj, Gaya - BSPCB",04-05-2024 07:00:00,24.792403,84.992416,PM10,39,166,95
India,Bihar,Gaya,"Kareemganj, Gaya - BSPCB",04-05-2024 07:00:00,24.792403,84.992416,NO2,30,31,30
India,Bihar,Gaya,"SFTI Kusdihra, Gaya - BSPCB",04-05-2024 07:00:00,24.762518,84.982348,PM2.5,43,200,105
India,Bihar,Gaya,"SFTI Kusdihra, Gaya - BSPCB",04-05-2024 07:00:00,24.762518,84.982348,NH3,4,6,5
India,Bihar,Gaya,"SFTI Kusdihra, Gaya - BSPCB",04-05-2024 07:00:00,24.762518,84.982348,SO2,9,22,11
India,Bihar,Hajipur,"Industrial Area, Hajipur - BSPCB",04-05-2024 07:00:00,25.697189,85.245900,PM10,150,500,295
India,Bihar,Katihar,"Mirchaibari, Katihar - BSPCB",04-05-2024 07:00:00,25.560083,87.553265,NH3,5,12,8
India,Bihar,Manguraha,"Forest Rest House, Manguraha - BSPCB",04-05-2024 07:00:00,27.308328,84.531742,NO2,11,24,19
India,Bihar,Motihari,"Gandak Colony, Motihari - BSPCB",04-05-2024 07:00:00,26.63086,84.90051,CO,4,66,18
India,Bihar,Munger,"Town Hall, Munger - BSPCB",04-05-2024 07:00:00,25.376776,86.471523,PM2.5,63,364,131
India,Bihar,Muzaffarpur,"Buddha Colony, Muzaffarpur - BSPCB",04-05-2024 07:00:00,26.11442,85.39813,PM2.5,172,345,293
India,Bihar,Muzaffarpur,"Buddha Colony, Muzaffarpur - BSPCB",04-05-2024 07:00:00,26.11442,85.39813,NO2,28,108,47
India,Bihar,Muzaffarpur,"Buddha Colony, Muzaffarpur - BSPCB",04-05-2024 07:00:00,26.11442,85.39813,NH3,15,22,19
India,Bihar,Muzaffarpur,"Buddha Colony, Muzaffarpur - BSPCB",04-05-2024 07:00:00,26.11442,85.39813,SO2,8,19,12
India,Bihar,Muzaffarpur,"MIT-Daudpur Kothi, Muzaffarpur - BSPCB",04-05-2024 07:00:00,26.1403345,85.3650192,NO2,4,5,5
India,Bihar,Muzaffarpur,"MIT-Daudpur Kothi, Muzaffarpur - BSPCB",04-05-2024 07:00:00,26.1403345,85.3650192,NH3,1,3,2
India,Bihar,Patna,"DRM Office Danapur, Patna - BSPCB",04-05-2024 07:00:00,25.586562,85.043586,SO2,10,53,32
India,Bihar,Patna,"Govt. High School Shikarpur, Patna - BSPCB",04-05-2024 07:00:00,25.592539,85.227158,PM10,118,373,210
India,Bihar,Patna,"IGSC Planetarium Complex, Patna - BSPCB",04-05-2024 07:00:00,25.610369,85.132568,SO2,5,6,5
India,Bihar,Patna,"Rajbansi Nagar, Patna - BSPCB",04-05-2024 07:00:00,25.599486,85.113666,NO2,32,109,60
India,Bihar,Patna,"Rajbansi Nagar, Patna - BSPCB",04-05-2024 07:00:00,25.599486,85.113666,NH3,8,29,15
India,Bihar,Patna,"Samanpura, Patna - BSPCB",04-05-2024 07:00:00,25.596727,85.085624,NO2,9,106,50
India,Bihar,Patna,"Samanpura, Patna - BSPCB",04-05-2024 07:00:00,25.596727,85.085624,CO,43,137,112
India,Bihar,Purnia,"Mariam Nagar, Purnia - BSPCB",04-05-2024 07:00:00,25.366336,87.117468,PM2.5,53,153,62
India,Bihar,Purnia,"Mariam Nagar, Purnia - BSPCB",04-05-2024 07:00:00,25.366336,87.117468,CO,24,114,67
India,Bihar,Rajgir,"Dangi Tola, Rajgir - BSPCB",04-05-2024 07:00:00,25.03280,85.41948,CO,2,64,21
India,Bihar,Rajgir,"Dangi Tola, Rajgir - BSPCB",04-05-2024 07:00:00,25.03280,85.41948,OZONE,31,35,34
India,Bihar,Saharsa,"Police Line, Saharsa - BSPCB",04-05-2024 07:00:00,25.892357,86.590325,NH3,9,9,9
India,Bihar,Samastipur,"DM Office_Kasipur, Samastipur - BSPCB",04-05-2024 07:00:00,25.859655,85.77944,PM2.5,NA,NA,NA
India,Bihar,Samastipur,"DM Office_Kasipur, Samastipur - BSPCB",04-05-2024 07:00:00,25.859655,85.77944,PM10,46,153,108
India,Bihar,Samastipur,"DM Office_Kasipur, Samastipur - BSPCB",04-05-2024 07:00:00,25.859655,85.77944,CO,22,22,22
India,Bihar,Sasaram,"Dada Peer, Sasaram - BSPCB",04-05-2024 07:00:00,24.952822,84.002396,SO2,22,23,23
India,Bihar,Siwan,"Chitragupta Nagar, Siwan - BSPCB",04-05-2024 07:00:00,26.2271665,84.3570427,OZONE,9,218,35
India,Chandigarh,Chandigarh,"Sector-25, Chandigarh - CPCC",04-05-2024 07:00:00,30.751462,76.762879,NH3,8,15,11
India,Chhattisgarh,Bhilai,"32Bungalows, Bhilai - CECB",04-05-2024 07:00:00,21.194815,81.314770,NH3,6,6,6
India,Chhattisgarh,Bhilai,"Civic Center, Bhilai - Bhilai Steel Plant",04-05-2024 07:00:00,21.185571,81.343175,PM10,52,113,82
India,Chhattisgarh,Bhilai,"Civic Center, Bhilai - Bhilai Steel Plant",04-05-2024 07:00:00,21.185571,81.343175,SO2,9,13,10
India,Chhattisgarh,Chhal,"Nawapara SECL Colony, Chhal - CECB",04-05-2024 07:00:00,22.118125,83.140608,PM2.5,85,145,106
India,Chhattisgarh,Chhal,"Nawapara SECL Colony, Chhal - CECB",04-05-2024 07:00:00,22.118125,83.140608,PM10,75,111,95
India,Chhattisgarh,Chhal,"Nawapara SECL Colony, Chhal - CECB",04-05-2024 07:00:00,22.118125,83.140608,SO2,19,91,44
India,Chhattisgarh,Korba,"Rampur, Korba - CECB",04-05-2024 07:00:00,22.368195,82.746431,PM2.5,25,79,54
India,Chhattisgarh,Korba,"Rampur, Korba - CECB",04-05-2024 07:00:00,22.368195,82.746431,CO,12,62,49
India,Chhattisgarh,Korba,"Urja Nagar, Korba - CECB",04-05-2024 07:00:00,22.348441,82.549611,NO2,51,87,65
India,Chhattisgarh,Korba,"Urja Nagar, Korba - CECB",04-05-2024 07:00:00,22.348441,82.549611,OZONE,1,9,1
India,Chhattisgarh,Kunjemura,"OP Jindal School, Kunjemura - CECB",04-05-2024 07:00:00,22.126650,83.483212,PM10,67,462,194
India,Chhattisgarh,Kunjemura,"OP Jindal School, Kunjemura - CECB",04-05-2024 07:00:00,22.126650,83.483212,CO,16,92,61
India,Chhattisgarh,Raipur,"AIIMS, Raipur - CECB",04-05-2024 07:00:00,21.258815,81.578979,PM10,48,115,74
India,Chhattisgarh,Raipur,"AIIMS, Raipur - CECB",04-05-2024 07:00:00,21.258815,81.578979,NO2,27,80,45
India,Chhattisgarh,Raipur,"Bhatagaon New ISBT, Raipur - CECB",04-05-2024 07:00:00,21.219665,81.630094,OZONE,3,24,3
India,Delhi,Delhi,"Alipur, Delhi - DPCC",04-05-2024 07:00:00,28.815329,77.153010,PM10,133,410,243
India,Delhi,Delhi,"Anand Vihar, Delhi - DPCC",04-05-2024 07:00:00,28.647622,77.3158090,PM2.5,78,335,241
India,Delhi,Delhi,"Anand Vihar, Delhi - DPCC",04-05-2024 07:00:00,28.647622,77.3158090,NO2,76,149,105
India,Delhi,Delhi,"Ashok Vihar, Delhi - DPCC",04-05-2024 07:00:00,28.695381,77.181665,NH3,9,19,13
India,Delhi,Delhi,"Bawana, Delhi - DPCC",04-05-2024 07:00:00,28.776200,77.051074,PM10,163,460,299
India,Delhi,Delhi,"Bawana, Delhi - DPCC",04-05-2024 07:00:00,28.776200,77.051074,NH3,3,7,5
India,Delhi,Delhi,"CRRI Mathura Road, Delhi - IMD",04-05-2024 07:00:00,28.5512005,77.2735737,PM2.5,79,376,238
India,Delhi,Delhi,"CRRI Mathura Road, Delhi - IMD",04-05-2024 07:00:00,28.5512005,77.2735737,PM10,149,443,264
India,Delhi,Delhi,"Dr. Karni Singh Shooting Range, Delhi - DPCC",04-05-2024 07:00:00,28.498571,77.264840,SO2,25,69,37
India,Delhi,Delhi,"Dwarka-Sector 8, Delhi - DPCC ",04-05-2024 07:00:00,28.5710274,77.0719006,NO2,1,14,5
India,Delhi,Delhi,"IGI Airport (T3), Delhi - IMD",04-05-2024 07:00:00,28.5627763,77.1180053,OZONE,5,64,9
India,Delhi,Delhi,"IHBAS, Dilshad Garden, Delhi - CPCB",04-05-2024 07:00:00,28.6811736,77.3025234,PM2.5,79,216,137
India,Delhi,Delhi,"IHBAS, Dilshad Garden, Delhi - CPCB",04-05-2024 07:00:00,28.6811736,77.3025234,NO2,25,78,44
India,Delhi,Delhi,"IHBAS, Dilshad Garden, Delhi - CPCB",04-05-2024 07:00:00,28.6811736,77.3025234,NH3,9,11,10
India,Delhi,Delhi,"IHBAS, Dilshad Garden, Delhi - CPCB",04-05-2024 07:00:00,28.6811736,77.3025234,CO,8,54,22
India,Delhi,Delhi,"ITO, Delhi - CPCB",04-05-2024 07:00:00,28.628624,77.241060,NO2,24,126,56
India,Delhi,Delhi,"ITO, Delhi - CPCB",04-05-2024 07:00:00,28.628624,77.241060,OZONE,12,93,17
India,Delhi,Delhi,"Jahangirpuri, Delhi - DPCC",04-05-2024 07:00:00,28.732820,77.170633,PM2.5,72,439,265
India,Delhi,Delhi,"Jahangirpuri, Delhi - DPCC",04-05-2024 07:00:00,28.732820,77.170633,CO,28,104,86
India,Delhi,Delhi,"Lodhi Road, Delhi - IITM",04-05-2024 07:00:00,28.588333,77.221667,CO,58,68,65
India,Delhi,Delhi,"Lodhi Road, Delhi - IITM",04-05-2024 07:00:00,28.588333,77.221667,OZONE,16,20,16
India,Delhi,Delhi,"Lodhi Road, Delhi - IMD",04-05-2024 07:00:00,28.5918245,77.2273074,PM10,118,325,161
India,Delhi,Delhi,"Lodhi Road, Delhi - IMD",04-05-2024 07:00:00,28.5918245,77.2273074,OZONE,8,77,10
India,Delhi,Delhi,"Major Dhyan Chand National Stadium, Delhi - DPCC",04-05-2024 07:00:00,28.611281,77.237738,OZONE,1,247,13
India,Delhi,Delhi,"Mundka, Delhi - DPCC",04-05-2024 07:00:00,28.684678,77.076574,NH3,2,6,4
India,Delhi,Delhi,"Mundka, Delhi - DPCC",04-05-2024 07:00:00,28.684678,77.076574,SO2,16,123,65
India,Delhi,Delhi,"NSIT Dwarka, Delhi - CPCB",04-05-2024 07:00:00,28.60909,77.0325413,OZONE,11,115,18
India,Delhi,Delhi,"Narela, Delhi - DPCC",04-05-2024 07:00:00,28.822836,77.101981,CO,16,68,55
India,Delhi,Delhi,"Nehru Nagar, Delhi - DPCC",04-05-2024 07:00:00,28.567890,77.250515,NO2,7,32,19
India,Delhi,Delhi,"North Campus, DU, Delhi - IMD",04-05-2024 07:00:00,28.6573814,77.1585447,PM2.5,NA,NA,NA
India,Delhi,Delhi,"North Campus, DU, Delhi - IMD",04-05-2024 07:00:00,28.6573814,77.1585447,PM10,NA,NA,NA
India,Delhi,Delhi,"North Campus, DU, Delhi - IMD",04-05-2024 07:00:00,28.6573814,77.1585447,NO2,NA,NA,NA
India,Delhi,Delhi,"Okhla Phase-2, Delhi - DPCC",04-05-2024 07:00:00,28.530785,77.271255,PM2.5,66,396,211
India,Delhi,Delhi,"Okhla Phase-2, Delhi - DPCC",04-05-2024 07:00:00,28.530785,77.271255,PM10,158,423,254
India,Delhi,Delhi,"Okhla Phase-2, Delhi - DPCC",04-05-2024 07:00:00,28.530785,77.271255,NH3,6,12,8
India,Delhi,Delhi,"Okhla Phase-2, Delhi - DPCC",04-05-2024 07:00:00,28.530785,77.271255,SO2,11,24,17
India,Delhi,Delhi,"Patparganj, Delhi - DPCC",04-05-2024 07:00:00,28.623763,77.287209,NO2,30,105,68
India,Delhi,Delhi,"Patparganj, Delhi - DPCC",04-05-2024 07:00:00,28.623763,77.287209,OZONE,5,154,12
India,Delhi,Delhi,"R K Puram, Delhi - DPCC",04-05-2024 07:00:00,28.563262,77.186937,NH3,1,2,1
India,Delhi,Delhi,"R K Puram, Delhi - DPCC",04-05-2024 07:00:00,28.563262,77.186937,CO,15,112,98
India,Delhi,Delhi,"Shadipur, Delhi - CPCB",04-05-2024 07:00:00,28.6514781,77.1473105,PM2.5,142,500,335
India,Delhi,Delhi,"Shadipur, Delhi - CPCB",04-05-2024 07:00:00,28.6514781,77.1473105,CO,16,104,78
India,Delhi,Delhi,"Sonia Vihar, Delhi - DPCC",04-05-2024 07:00:00,28.710508,77.249485,PM10,128,419,235
India,Delhi,Delhi,"Sonia Vihar, Delhi - DPCC",04-05-2024 07:00:00,28.710508,77.249485,NO2,16,107,59
India,Delhi,Delhi,"Sonia Vihar, Delhi - DPCC",04-05-2024 07:00:00,28.710508,77.249485,SO2,12,67,27
India,Delhi,Delhi,"Vivek Vihar, Delhi - DPCC",04-05-2024 07:00:00,28.672342,77.315260,PM2.5,73,369,234
India,Delhi,Delhi,"Wazirpur, Delhi - DPCC",04-05-2024 07:00:00,28.699793,77.165453,OZONE,6,201,12
India,Gujarat,Ahmedabad,"Chandkheda, Ahmedabad - IITM",04-05-2024 07:00:00,23.107969,72.574648,CO,16,136,48
India,Gujarat,Ahmedabad,"Gyaspur, Ahmedabad - IITM",04-05-2024 07:00:00,22.977134,72.553024,SO2,6,21,12
India,Gujarat,Ahmedabad,"Raikhad, Ahmedabad - IITM",04-05-2024 07:00:00,23.020509,72.579261,NO2,11,15,13
India,Gujarat,Ahmedabad,"Rakhial, Ahmedabad - IITM",04-05-2024 07:00:00,23.016834,72.625775,PM2.5,74,368,166
India,Gujarat,Ahmedabad,"Rakhial, Ahmedabad - IITM",04-05-2024 07:00:00,23.016834,72.625775,PM10,95,379,155
India,Gujarat,Ahmedabad,"Rakhial, Ahmedabad - IITM",04-05-2024 07:00:00,23.016834,72.625775,CO,4,123,29
India,Gujarat,Ahmedabad,"SVPI Airport Hansol, Ahmedabad - IITM",04-05-2024 07:00:00,23.076793,72.627874,PM10,103,281,153
India,Gujarat,Ahmedabad,"Sardar Vallabhbhai Patel Stadium, Ahmedabad - IITM",04-05-2024 07:00:00,23.043070,72.562968,PM10,97,335,130
India,Gujarat,Ahmedabad,"Sardar Vallabhbhai Patel Stadium, Ahmedabad - IITM",04-05-2024 07:00:00,23.043070,72.562968,SO2,4,11,7
India,Gujarat,Ankleshwar,"GIDC, Ankleshwar - GPCB",04-05-2024 07:00:00,21.613267,73.010555,PM2.5,47,85,68
India,Gujarat,Ankleshwar,"GIDC, Ankleshwar - GPCB",04-05-2024 07:00:00,21.613267,73.010555,NO2,35,36,36
India,Gujarat,Ankleshwar,"GIDC, Ankleshwar - GPCB",04-05-2024 07:00:00,21.613267,73.010555,NH3,6,6,6
India,Gujarat,Gandhinagar,"Sector-10, Gandhinagar - GPCB",04-05-2024 07:00:00,23.221714,72.654328,NH3,1,2,1
India,Gujarat,Nandesari,"GIDC, Nandesari - Nandesari Ind. Association",04-05-2024 07:00:00,22.410802,73.097923,PM2.5,50,378,175
India,Gujarat,Nandesari,"GIDC, Nandesari - Nandesari Ind. Association",04-05-2024 07:00:00,22.410802,73.097923,NO2,3,26,12
India,Gujarat,Surat,"Science Center, Surat - SMC",04-05-2024 07:00:00,21.170046,72.795405,PM10,12,44,25
India,Gujarat,Vapi,"Phase-1 GIDC, Vapi - GPCB",04-05-2024 07:00:00,20.362421,72.918013,SO2,53,56,54
India,Gujarat,Vatva,"Phase-4 GIDC, Vatva - GPCB",04-05-2024 07:00:00,22.969611,72.643500,SO2,1,58,17
India,Gujarat,Vatva,"Phase-4 GIDC, Vatva - GPCB",04-05-2024 07:00:00,22.969611,72.643500,CO,34,36,36
India,Haryana,Ambala,"Patti Mehar, Ambala - HSPCB",04-05-2024 07:00:00,30.379589,76.778328,SO2,25,30,27
India,Haryana,Bahadurgarh,"Arya Nagar, Bahadurgarh - HSPCB",04-05-2024 07:00:00,28.6701,76.9254,PM2.5,61,397,246
India,Haryana,Bahadurgarh,"Arya Nagar, Bahadurgarh - HSPCB",04-05-2024 07:00:00,28.6701,76.9254,NO2,20,25,22
India,Haryana,Ballabgarh,"Nathu Colony, Ballabgarh - HSPCB",04-05-2024 07:00:00,28.3419248,77.319699,SO2,1,86,38
India,Haryana,Charkhi Dadri,"Mini Secretariat, Charkhi Dadri - HSPCB",04-05-2024 07:00:00,28.593883,76.270653,SO2,29,82,54
India,Haryana,Dharuhera,"Municipal Corporation Office, Dharuhera -  HSPCB",04-05-2024 07:00:00,28.206800,76.799700,PM10,NA,NA,NA
India,Haryana,Dharuhera,"Municipal Corporation Office, Dharuhera -  HSPCB",04-05-2024 07:00:00,28.206800,76.799700,SO2,NA,NA,NA
India,Haryana,Dharuhera,"Municipal Corporation Office, Dharuhera -  HSPCB",04-05-2024 07:00:00,28.206800,76.799700,OZONE,5,41,6
India,Haryana,Faridabad,"Sector 30, Faridabad - HSPCB",04-05-2024 07:00:00,28.4417,77.3217,CO,38,57,56
India,Haryana,Gurugram,"Sector-51, Gurugram - HSPCB",04-05-2024 07:00:00,28.4227,77.0667,OZONE,27,67,40
India,Haryana,Gurugram,"Teri Gram, Gurugram - HSPCB",04-05-2024 07:00:00,28.4275,77.1465,NO2,43,94,64
India,Haryana,Gurugram,"Vikas Sadan, Gurugram - HSPCB",04-05-2024 07:00:00,28.4501238,77.0263051,NO2,5,25,14
India,Haryana,Gurugram,"Vikas Sadan, Gurugram - HSPCB",04-05-2024 07:00:00,28.4501238,77.0263051,SO2,9,49,34
India,Haryana,Gurugram,"Vikas Sadan, Gurugram - HSPCB",04-05-2024 07:00:00,28.4501238,77.0263051,CO,54,150,103
India,Haryana,Gurugram,"Vikas Sadan, Gurugram - HSPCB",04-05-2024 07:00:00,28.4501238,77.0263051,OZONE,8,68,10
India,Haryana,Hisar,"Urban Estate-II, Hisar - HSPCB",04-05-2024 07:00:00,29.140560,75.744941,NO2,22,34,27
India,Haryana,Jind,"Police Lines, Jind - HSPCB",04-05-2024 07:00:00,29.307814,76.337619,NH3,1,6,3
India,Haryana,Kaithal,"Rishi Nagar, Kaithal - HSPCB",04-05-2024 07:00:00,29.8006,76.4155,PM10,124,178,148
India,Haryana,Karnal,"Sector-12, Karnal - HSPCB",04-05-2024 07:00:00,29.695300,77.002700,OZONE,31,37,32
India,Haryana,Kurukshetra,"Sector-7, Kurukshetra - HSPCB",04-05-2024 07:00:00,29.966942,76.875879,PM2.5,64,154,109
India,Haryana,Kurukshetra,"Sector-7, Kurukshetra - HSPCB",04-05-2024 07:00:00,29.966942,76.875879,NO2,9,10,10
India,Haryana,Manesar,"Sector-2 IMT, Manesar - HSPCB",04-05-2024 07:00:00,28.360699,76.936090,PM10,86,168,130
India,Haryana,Manesar,"Sector-2 IMT, Manesar - HSPCB",04-05-2024 07:00:00,28.360699,76.936090,SO2,6,38,12
India,Haryana,Manesar,"Sector-2 IMT, Manesar - HSPCB",04-05-2024 07:00:00,28.360699,76.936090,OZONE,1,118,8
India,Haryana,Palwal,"Shyam Nagar, Palwal - HSPCB",04-05-2024 07:00:00,28.1485564,77.3320667,NO2,23,25,24
India,Haryana,Panipat,"Sector-18, Panipat - HSPCB",04-05-2024 07:00:00,29.497973,76.993331,PM10,106,107,107
India,Haryana,Rohtak,"MD University, Rohtak - HSPCB",04-05-2024 07:00:00,28.52123,76.37138,NO2,47,56,51
India,Haryana,Rohtak,"MD University, Rohtak - HSPCB",04-05-2024 07:00:00,28.52123,76.37138,SO2,6,8,7
India,Haryana,Rohtak,"MD University, Rohtak - HSPCB",04-05-2024 07:00:00,28.52123,76.37138,CO,16,110,58
India,Haryana,Sirsa,"F-Block, Sirsa - HSPCB",04-05-2024 07:00:00,29.536400,75.015800,NO2,10,11,10
India,Haryana,Sonipat,"Murthal, Sonipat - HSPCB",04-05-2024 07:00:00,29.027200,77.062100,NH3,7,10,9
India,Haryana,Sonipat,"Murthal, Sonipat - HSPCB",04-05-2024 07:00:00,29.027200,77.062100,CO,10,30,28
India,Haryana,Yamuna Nagar,"Gobind Pura, Yamuna Nagar - HSPCB",04-05-2024 07:00:00,30.1480566,77.2893471,PM2.5,70,109,89
India,Haryana,Yamuna Nagar,"Gobind Pura, Yamuna Nagar - HSPCB",04-05-2024 07:00:00,30.1480566,77.2893471,OZONE,20,34,22
India,Himachal Pradesh,Baddi,"HIMUDA Complex Phase-1, Baddi - HPPCB",04-05-2024 07:00:00,30.943887,76.801991,SO2,10,73,29
India,Himachal Pradesh,Baddi,"HIMUDA Complex Phase-1, Baddi - HPPCB",04-05-2024 07:00:00,30.943887,76.801991,OZONE,59,172,88
India,Jharkhand,Dhanbad,"Kalakusuma, Dhanbad - DMC",04-05-2024 07:00:00,23.811548,86.481238,PM2.5,1,215,89
India,Jharkhand,Pathardih,"Mohalbani Ghat, Pathardih - DMC",04-05-2024 07:00:00,23.669880,86.411725,NO2,NA,NA,NA
India,Jharkhand,Pathardih,"Mohalbani Ghat, Pathardih - DMC",04-05-2024 07:00:00,23.669880,86.411725,SO2,NA,NA,NA
India,Karnataka,Bengaluru,"Bapuji Nagar, Bengaluru - KSPCB",04-05-2024 07:00:00,12.951913,77.539784,CO,24,86,31
India,Karnataka,Bengaluru,"Hebbal, Bengaluru - KSPCB",04-05-2024 07:00:00,13.029152,77.585901,CO,6,30,14
India,Karnataka,Bengaluru,"Jayanagar 5th Block, Bengaluru - KSPCB",04-05-2024 07:00:00,12.920984,77.584908,PM10,29,112,66
India,Karnataka,Bengaluru,"Jayanagar 5th Block, Bengaluru - KSPCB",04-05-2024 07:00:00,12.920984,77.584908,NH3,NA,NA,NA
India,Karnataka,Bengaluru,"Kasturi Nagar, Bengaluru - KSPCB",04-05-2024 07:00:00,13.003872,77.664217,PM10,10,293,48
India,Karnataka,Bengaluru,"Kasturi Nagar, Bengaluru - KSPCB",04-05-2024 07:00:00,13.003872,77.664217,SO2,10,10,10
India,Karnataka,Bengaluru,"Kasturi Nagar, Bengaluru - KSPCB",04-05-2024 07:00:00,13.003872,77.664217,CO,20,26,24
India,Karnataka,Bengaluru,"Peenya, Bengaluru - CPCB",04-05-2024 07:00:00,13.0270199,77.494094,PM2.5,35,72,52
India,Karnataka,Bengaluru,"Peenya, Bengaluru - CPCB",04-05-2024 07:00:00,13.0270199,77.494094,OZONE,9,31,21
India,Karnataka,Bengaluru,"Shivapura_Peenya, Bengaluru - KSPCB",04-05-2024 07:00:00,13.0246342,77.5080115,NO2,15,16,15
India,Karnataka,Bengaluru,"Shivapura_Peenya, Bengaluru - KSPCB",04-05-2024 07:00:00,13.0246342,77.5080115,NH3,4,4,4
India,Karnataka,Bidar,"Naubad, Bidar - KSPCB",04-05-2024 07:00:00,17.930306,77.482194,CO,46,105,77
India,Karnataka,Chamarajanagar,"Urban, Chamarajanagar - KSPCB",04-05-2024 07:00:00,11.55358,76.55521,NH3,2,2,2
India,Karnataka,Chamarajanagar,"Urban, Chamarajanagar - KSPCB",04-05-2024 07:00:00,11.55358,76.55521,CO,27,141,40
India,Karnataka,Chikkaballapur,"Chikkaballapur Rural, Chikkaballapur - KSPCB",04-05-2024 07:00:00,13.428828,77.731418,PM2.5,38,83,63
India,Karnataka,Chikkaballapur,"Chikkaballapur Rural, Chikkaballapur - KSPCB",04-05-2024 07:00:00,13.428828,77.731418,CO,10,32,14
India,Karnataka,Chikkamagaluru,"Kalyana Nagara, Chikkamagaluru - KSPCB",04-05-2024 07:00:00,13.328028,75.797056,PM10,55,84,73
India,Karnataka,Chikkamagaluru,"Kalyana Nagara, Chikkamagaluru - KSPCB",04-05-2024 07:00:00,13.328028,75.797056,NH3,2,4,3
India,Karnataka,Davanagere,"Devaraj Urs Badavane, Davanagere - KSPCB",04-05-2024 07:00:00,14.475800,75.905200,PM2.5,19,57,42
India,Karnataka,Davanagere,"Devaraj Urs Badavane, Davanagere - KSPCB",04-05-2024 07:00:00,14.475800,75.905200,PM10,61,113,78
India,Karnataka,Dharwad,"Kalabhavan, Dharwad - KSPCB",04-05-2024 07:00:00,15.459706,75.008381,NO2,8,28,14
India,Karnataka,Dharwad,"Kalabhavan, Dharwad - KSPCB",04-05-2024 07:00:00,15.459706,75.008381,NH3,2,3,3
India,Karnataka,Gadag,"Panchal Nagar, Gadag - KSPCB",04-05-2024 07:00:00,15.411456,75.638133,NO2,5,38,14
India,Karnataka,Gadag,"Panchal Nagar, Gadag - KSPCB",04-05-2024 07:00:00,15.411456,75.638133,SO2,2,21,14
India,Karnataka,Gadag,"Panchal Nagar, Gadag - KSPCB",04-05-2024 07:00:00,15.411456,75.638133,OZONE,33,79,37
India,Karnataka,Hubballi,"Lingaraj Nagar, Hubballi - KSPCB",04-05-2024 07:00:00,15.3714823,75.1160168,CO,4,35,23
India,Karnataka,Kolar,"Tamaka Ind. Area, Kolar - KSPCB",04-05-2024 07:00:00,13.1276288,78.1570122,NO2,NA,NA,NA
India,Karnataka,Kolar,"Tamaka Ind. Area, Kolar - KSPCB",04-05-2024 07:00:00,13.1276288,78.1570122,NH3,NA,NA,NA
India,Karnataka,Kolar,"Tamaka Ind. Area, Kolar - KSPCB",04-05-2024 07:00:00,13.1276288,78.1570122,CO,4,6,6
India,Karnataka,Koppal,"Diwator Nagar, Koppal - KSPCB",04-05-2024 07:00:00,15.347630,76.181767,PM2.5,14,36,25
India,Karnataka,Koppal,"Diwator Nagar, Koppal - KSPCB",04-05-2024 07:00:00,15.347630,76.181767,PM10,16,38,28
India,Karnataka,Mangalore,"Kadri, Mangalore - KSPCB",04-05-2024 07:00:00,12.889250,74.853000,OZONE,28,32,30
India,Karnataka,Mysuru,"Hebbal 1st Stage, Mysuru - KSPCB",04-05-2024 07:00:00,12.21041,76.37376,NO2,10,31,21
India,Karnataka,Ramanagara,"Vijay Nagar, Ramanagara - KSPCB",04-05-2024 07:00:00,12.733409,77.298051,SO2,NA,NA,NA
India,Karnataka,Ramanagara,"Vijay Nagar, Ramanagara - KSPCB",04-05-2024 07:00:00,12.733409,77.298051,CO,NA,NA,NA
India,Karnataka,Shivamogga,"Vinoba Nagara, Shivamogga - KSPCB",04-05-2024 07:00:00,13.940000,75.555917,SO2,2,9,8
India,Karnataka,Tumakuru,"Thimmalapura, Tumakuru - KSPCB",04-05-2024 07:00:00,13.377516,77.099072,PM2.5,NA,NA,NA
India,Karnataka,Tumakuru,"Thimmalapura, Tumakuru - KSPCB",04-05-2024 07:00:00,13.377516,77.099072,NH3,3,4,3
India,Karnataka,Udupi,"Brahmagiri, Udupi - KSPCB",04-05-2024 07:00:00,13.34194444,74.74694444,NO2,NA,NA,NA
India,Karnataka,Vijayapura,"Ibrahimpur, Vijayapura - KSPCB",04-05-2024 07:00:00,16.802639,75.722694,OZONE,13,16,15
India,Kerala,Kannur,"Thavakkara, Kannur - Kerala PCB",04-05-2024 07:00:00,11.875000,75.373200,NO2,6,7,6
India,Kerala,Kannur,"Thavakkara, Kannur - Kerala PCB",04-05-2024 07:00:00,11.875000,75.373200,NH3,1,1,1
India,Kerala,Kollam,"Polayathode, Kollam - Kerala PCB",04-05-2024 07:00:00,8.8787,76.6073,NH3,1,1,1
India,Kerala,Thiruvananthapuram,"Kariavattom, Thiruvananthapuram - Kerala PCB",04-05-2024 07:00:00,8.563700,76.886500,CO,18,50,18
India,Kerala,Thiruvananthapuram,"Plammoodu, Thiruvananthapuram - Kerala PCB",04-05-2024 07:00:00,8.5149093,76.9435879,PM2.5,14,41,29
India,Kerala,Thiruvananthapuram,"Plammoodu, Thiruvananthapuram - Kerala PCB",04-05-2024 07:00:00,8.5149093,76.9435879,NO2,8,10,9
India,Kerala,Thiruvananthapuram,"Plammoodu, Thiruvananthapuram - Kerala PCB",04-05-2024 07:00:00,8.5149093,76.9435879,SO2,4,14,10
India,Kerala,Thiruvananthapuram,"Plammoodu, Thiruvananthapuram - Kerala PCB",04-05-2024 07:00:00,8.5149093,76.9435879,CO,8,30,23
India,Kerala,Thiruvananthapuram,"Plammoodu, Thiruvananthapuram - Kerala PCB",04-05-2024 07:00:00,8.5149093,76.9435879,OZONE,1,57,23
India,Kerala,Thrissur,"Corporation Ground, Thrissur - Kerala PCB",04-05-2024 07:00:00,10.532400,76.215900,NO2,7,8,7
India,Kerala,Thrissur,"Corporation Ground, Thrissur - Kerala PCB",04-05-2024 07:00:00,10.532400,76.215900,OZONE,28,32,30
India,Madhya Pradesh,Bhopal,"Idgah Hills, Bhopal - MPPCB",04-05-2024 07:00:00,23.264759,77.381568,SO2,6,27,14
India,Madhya Pradesh,Bhopal,"Paryavaran Parisar, Bhopal - MPPCB",04-05-2024 07:00:00,23.210494,77.425409,PM2.5,37,193,77
India,Madhya Pradesh,Bhopal,"Paryavaran Parisar, Bhopal - MPPCB",04-05-2024 07:00:00,23.210494,77.425409,NH3,6,11,8
India,Madhya Pradesh,Bhopal,"T T Nagar, Bhopal - MPPCB",04-05-2024 07:00:00,23.233584,77.400574,NH3,1,5,4
India,Madhya Pradesh,Dewas,"Bhopal Chauraha, Dewas - MPPCB",04-05-2024 07:00:00,22.9682591,76.064118,PM10,46,130,79
India,Madhya Pradesh,Gwalior,"City Center, Gwalior - MPPCB",04-05-2024 07:00:00,26.203442,78.193251,PM2.5,32,265,129
India,Madhya Pradesh,Gwalior,"City Center, Gwalior - MPPCB",04-05-2024 07:00:00,26.203442,78.193251,OZONE,19,71,22
India,Madhya Pradesh,Gwalior,"Maharaj Bada, Gwalior - MPPCB",04-05-2024 07:00:00,26.200388,78.147714,PM2.5,37,220,93
India,Madhya Pradesh,Gwalior,"Phool Bagh, Gwalior - Mondelez Ind. Food",04-05-2024 07:00:00,26.210536,78.171,SO2,23,42,31
India,Madhya Pradesh,Indore,"Chhoti Gwaltoli, Indore - MPPCB",04-05-2024 07:00:00,22.4310,75.5213,NO2,41,175,89
India,Madhya Pradesh,Indore,"Chhoti Gwaltoli, Indore - MPPCB",04-05-2024 07:00:00,22.4310,75.5213,SO2,15,63,23
India,Madhya Pradesh,Indore,"Maguda Nagar, Indore - IMC",04-05-2024 07:00:00,22.7524,75.8872,CO,24,41,39
India,Madhya Pradesh,Indore,"Regional Park, Indore - IMC",04-05-2024 07:00:00,22.6780,75.8559,PM10,42,112,69
India,Madhya Pradesh,Jabalpur,"Govindh Bhavan Colony, Jabalpur - JMC",04-05-2024 07:00:00,23.163174,79.973061,OZONE,31,305,51
India,Madhya Pradesh,Jabalpur,"Gupteshwar, Jabalpur - JMC",04-05-2024 07:00:00,23.142888,79.916147,PM2.5,43,312,142
India,Madhya Pradesh,Jabalpur,"Marhatal, Jabalpur - MPPCB",04-05-2024 07:00:00,23.168606,79.932247,OZONE,1,141,25
India,Madhya Pradesh,Jabalpur,"Suhagi, Jabalpur - JMC",04-05-2024 07:00:00,23.218135,79.957770,PM10,78,257,149
India,Madhya Pradesh,Jabalpur,"Suhagi, Jabalpur - JMC",04-05-2024 07:00:00,23.218135,79.957770,NO2,33,46,42
India,Madhya Pradesh,Jabalpur,"Suhagi, Jabalpur - JMC",04-05-2024 07:00:00,23.218135,79.957770,SO2,NA,NA,NA
India,Madhya Pradesh,Katni,"Gole Bazar, Katni - MPPCB",04-05-2024 07:00:00,23.50016,80.23284,PM10,72,366,167
India,Madhya Pradesh,Mandideep,"Sector-D Industrial Area, Mandideep - MPPCB",04-05-2024 07:00:00,23.108440,77.511428,PM2.5,69,342,159
India,Madhya Pradesh,Mandideep,"Sector-D Industrial Area, Mandideep - MPPCB",04-05-2024 07:00:00,23.108440,77.511428,CO,11,121,89
India,Madhya Pradesh,Mandideep,"Sector-D Industrial Area, Mandideep - MPPCB",04-05-2024 07:00:00,23.108440,77.511428,OZONE,8,70,18
India,Madhya Pradesh,Ratlam,"Shasthri Nagar, Ratlam - IPCA Lab",04-05-2024 07:00:00,23.331731,75.045981,NO2,7,71,28
India,Madhya Pradesh,Ratlam,"Shasthri Nagar, Ratlam - IPCA Lab",04-05-2024 07:00:00,23.331731,75.045981,SO2,30,33,31
India,Madhya Pradesh,Sagar,"Civil Lines, Sagar - MPPCB",04-05-2024 07:00:00,23.838586,78.759431,NH3,4,6,5
India,Madhya Pradesh,Sagar,"Civil Lines, Sagar - MPPCB",04-05-2024 07:00:00,23.838586,78.759431,CO,6,42,22
India,Madhya Pradesh,Sagar,"Civil Lines, Sagar - MPPCB",04-05-2024 07:00:00,23.838586,78.759431,OZONE,54,260,102
India,Madhya Pradesh,Sagar,"Deen Dayal Nagar, Sagar - MPPCB",04-05-2024 07:00:00,23.8640158,78.80289321,SO2,8,18,12
India,Madhya Pradesh,Singrauli,"Suryakiran Bhawan NCL, Singrauli - MPPCB",04-05-2024 07:00:00,24.108970,82.645580,CO,NA,NA,NA
India,Madhya Pradesh,Ujjain,"Mahakaleshwar Temple, Ujjain - MPPCB",04-05-2024 07:00:00,23.182719 ,75.768218 ,PM10,75,138,112
India,Maharashtra,Ahmednagar,"Tarakpur, Ahmednagar - MPCB",04-05-2024 07:00:00,19.10122,74.73339,NO2,15,160,64
India,Maharashtra,Amravati,"Shivneri Colony, Amravati - MPCB",04-05-2024 07:00:00,20.9402359,77.7895248,PM10,108,146,124
India,Maharashtra,Amravati,"Shivneri Colony, Amravati - MPCB",04-05-2024 07:00:00,20.9402359,77.7895248,NH3,2,5,4
India,Maharashtra,Amravati,"Shivneri Colony, Amravati - MPCB",04-05-2024 07:00:00,20.9402359,77.7895248,SO2,3,7,5
India,Maharashtra,Aurangabad,"MIDC Chilkalthana, Aurangabad - MPCB",04-05-2024 07:00:00,19.875620,75.387310,PM2.5,90,229,154
India,Maharashtra,Aurangabad,"MIDC Chilkalthana, Aurangabad - MPCB",04-05-2024 07:00:00,19.875620,75.387310,PM10,125,208,159
India,Maharashtra,Aurangabad,"MIDC Chilkalthana, Aurangabad - MPCB",04-05-2024 07:00:00,19.875620,75.387310,NH3,3,4,3
India,Maharashtra,Aurangabad,"More Chowk Waluj, Aurangabad - MPCB",04-05-2024 07:00:00,19.8389439,75.244448,NO2,35,48,44
India,Maharashtra,Aurangabad,"More Chowk Waluj, Aurangabad - MPCB",04-05-2024 07:00:00,19.8389439,75.244448,SO2,NA,NA,NA
India,Maharashtra,Aurangabad,"Rachnakar Colony, Aurangabad - MPCB",04-05-2024 07:00:00,19.863756,75.321188,OZONE,23,110,27
India,Maharashtra,Badlapur,"Katrap, Badlapur - MPCB",04-05-2024 07:00:00,19.16485,73.23409,NH3,1,2,1
India,Maharashtra,Badlapur,"Katrap, Badlapur - MPCB",04-05-2024 07:00:00,19.16485,73.23409,CO,17,65,31
India,Maharashtra,Belapur,"CBD Belapur, Belapur - MPCB",04-05-2024 07:00:00,19.0243902,73.0406721,OZONE,92,163,125
India,Maharashtra,Bhiwandi,"Gokul Nagar, Bhiwandi - MPCB",04-05-2024 07:00:00,19.309073,73.057223,PM2.5,30,126,61
India,Maharashtra,Boisar,"Khaira, Boisar - MPCB",04-05-2024 07:00:00,19.786089,72.757971,SO2,1,30,15
India,Maharashtra,Chandrapur,"Chauhan Colony, Chandrapur - MPCB",04-05-2024 07:00:00,19.962900,79.298714,PM2.5,55,252,100
India,Maharashtra,Chandrapur,"Chauhan Colony, Chandrapur - MPCB",04-05-2024 07:00:00,19.962900,79.298714,PM10,63,153,93
India,Maharashtra,Chandrapur,"Chauhan Colony, Chandrapur - MPCB",04-05-2024 07:00:00,19.962900,79.298714,NO2,15,58,32
India,Maharashtra,Dhule,"Deopur, Dhule - MPCB",04-05-2024 07:00:00,20.918946,74.776388,PM10,120,144,130
India,Maharashtra,Dhule,"Deopur, Dhule - MPCB",04-05-2024 07:00:00,20.918946,74.776388,NH3,8,13,10
India,Maharashtra,Dhule,"Deopur, Dhule - MPCB",04-05-2024 07:00:00,20.918946,74.776388,SO2,14,32,20
India,Maharashtra,Jalgaon,"Prabhat Colony, Jalgaon - MPCB",04-05-2024 07:00:00,21.001264,75.565602,PM10,103,205,141
India,Maharashtra,Jalgaon,"Prabhat Colony, Jalgaon - MPCB",04-05-2024 07:00:00,21.001264,75.565602,NO2,2,156,43
India,Maharashtra,Jalgaon,"Prabhat Colony, Jalgaon - MPCB",04-05-2024 07:00:00,21.001264,75.565602,CO,12,51,19
India,Maharashtra,Jalna,"Old MIDC, Jalna - MPCB",04-05-2024 07:00:00,19.854616,75.905894,SO2,NA,NA,NA
India,Maharashtra,Jalna,"Old MIDC, Jalna - MPCB",04-05-2024 07:00:00,19.854616,75.905894,CO,20,50,37
India,Maharashtra,Kalyan,"Khadakpada, Kalyan - MPCB",04-05-2024 07:00:00,19.25292,73.142019,PM2.5,NA,NA,NA
India,Maharashtra,Kalyan,"Khadakpada, Kalyan - MPCB",04-05-2024 07:00:00,19.25292,73.142019,PM10,NA,NA,NA
India,Maharashtra,Kalyan,"Khadakpada, Kalyan - MPCB",04-05-2024 07:00:00,19.25292,73.142019,NO2,NA,NA,NA
India,Maharashtra,Kalyan,"Khadakpada, Kalyan - MPCB",04-05-2024 07:00:00,19.25292,73.142019,OZONE,9,27,9
India,Maharashtra,Kolhapur,"Shivaji University, Kolhapur - MPCB",04-05-2024 07:00:00,16.6870449,74.2505872,PM10,105,148,128
India,Maharashtra,Kolhapur,"Shivaji University, Kolhapur - MPCB",04-05-2024 07:00:00,16.6870449,74.2505872,NO2,18,55,36
India,Maharashtra,Kolhapur,"Shivaji University, Kolhapur - MPCB",04-05-2024 07:00:00,16.6870449,74.2505872,SO2,3,8,5
India,Maharashtra,Kolhapur,"Sinchan Bhavan, Kolhapur - MPCB",04-05-2024 07:00:00,16.7143745,74.2426398,PM10,64,88,78
India,Maharashtra,Kolhapur,"Sinchan Bhavan, Kolhapur - MPCB",04-05-2024 07:00:00,16.7143745,74.2426398,NO2,7,27,14
India,Maharashtra,Kolhapur,"Sinchan Bhavan, Kolhapur - MPCB",04-05-2024 07:00:00,16.7143745,74.2426398,NH3,7,8,7
India,Maharashtra,Mahad,"Kamble Tarf Birwadi, Mahad - MPCB",04-05-2024 07:00:00,18.1023399,73.4783687,NH3,NA,NA,NA
India,Maharashtra,Malegaon,"Mahesh Nagar, Malegaon - MPCB",04-05-2024 07:00:00,20.555712,74.529236,PM2.5,65,117,92
India,Maharashtra,Malegaon,"Mahesh Nagar, Malegaon - MPCB",04-05-2024 07:00:00,20.555712,74.529236,SO2,7,33,18
India,Maharashtra,Mira-Bhayandar,"Bhayandar West, Mira-Bhayandar - MPCB",04-05-2024 07:00:00,19.296481,72.840923,PM2.5,11,96,55
India,Maharashtra,Mumbai,"Bandra Kurla Complex, Mumbai - MPCB",04-05-2024 07:00:00,19.065931,72.862131,NH3,10,10,10
India,Maharashtra,Mumbai,"Borivali East, Mumbai - IITM",04-05-2024 07:00:00,19.23241,72.86895,PM2.5,33,64,43
India,Maharashtra,Mumbai,"Borivali East, Mumbai - IITM",04-05-2024 07:00:00,19.23241,72.86895,OZONE,32,111,39
India,Maharashtra,Mumbai,"Borivali East, Mumbai - MPCB",04-05-2024 07:00:00,19.2243333,72.8658113,SO2,NA,NA,NA
India,Maharashtra,Mumbai,"Borivali East, Mumbai - MPCB",04-05-2024 07:00:00,19.2243333,72.8658113,CO,NA,NA,NA
India,Maharashtra,Mumbai,"Byculla, Mumbai - BMC",04-05-2024 07:00:00,18.9767,72.8380,CO,8,20,10
India,Maharashtra,Mumbai,"Chembur, Mumbai - MPCB",04-05-2024 07:00:00,19.0364585,72.8954371,NO2,16,58,28
India,Maharashtra,Mumbai,"Chembur, Mumbai - MPCB",04-05-2024 07:00:00,19.0364585,72.8954371,NH3,3,4,4
India,Maharashtra,Mumbai,"Chhatrapati Shivaji Intl. Airport (T2), Mumbai - MPCB",04-05-2024 07:00:00,19.10078,72.87462,PM2.5,38,85,57
India,Maharashtra,Mumbai,"Chhatrapati Shivaji Intl. Airport (T2), Mumbai - MPCB",04-05-2024 07:00:00,19.10078,72.87462,SO2,18,23,20
India,Maharashtra,Mumbai,"Chhatrapati Shivaji Intl. Airport (T2), Mumbai - MPCB",04-05-2024 07:00:00,19.10078,72.87462,CO,36,55,49
India,Maharashtra,Mumbai,"Deonar, Mumbai - IITM",04-05-2024 07:00:00,19.04946,72.9230,PM2.5,41,220,86
India,Maharashtra,Mumbai,"Deonar, Mumbai - IITM",04-05-2024 07:00:00,19.04946,72.9230,NO2,8,19,14
India,Maharashtra,Mumbai,"Deonar, Mumbai - IITM",04-05-2024 07:00:00,19.04946,72.9230,OZONE,3,86,13
India,Maharashtra,Mumbai,"Ghatkopar, Mumbai - BMC",04-05-2024 07:00:00,19.083694,72.920967,NO2,1,24,11
India,Maharashtra,Mumbai,"Ghatkopar, Mumbai - BMC",04-05-2024 07:00:00,19.083694,72.920967,SO2,1,2,1
India,Maharashtra,Mumbai,"Ghatkopar, Mumbai - BMC",04-05-2024 07:00:00,19.083694,72.920967,OZONE,1,45,7
India,Maharashtra,Mumbai,"Kandivali East, Mumbai - MPCB",04-05-2024 07:00:00,19.205800,72.868200,PM2.5,11,72,27
India,Maharashtra,Mumbai,"Kandivali West, Mumbai - BMC",04-05-2024 07:00:00,19.215859,72.831718,CO,6,16,10
India,Maharashtra,Mumbai,"Kurla, Mumbai - MPCB",04-05-2024 07:00:00,19.0863,72.8888,PM2.5,34,137,63
India,Maharashtra,Mumbai,"Kurla, Mumbai - MPCB",04-05-2024 07:00:00,19.0863,72.8888,SO2,32,32,32
India,Maharashtra,Mumbai,"Mulund West, Mumbai - MPCB",04-05-2024 07:00:00,19.1750,72.9419,SO2,13,13,13
India,Maharashtra,Mumbai,"Navy Nagar-Colaba, Mumbai - IITM",04-05-2024 07:00:00,18.897756,72.813320,PM10,58,145,96
India,Maharashtra,Mumbai,"Powai, Mumbai - MPCB",04-05-2024 07:00:00,19.137500,72.915056,PM2.5,21,43,33
India,Maharashtra,Mumbai,"Powai, Mumbai - MPCB",04-05-2024 07:00:00,19.137500,72.915056,SO2,36,49,41
India,Maharashtra,Mumbai,"Siddharth Nagar-Worli, Mumbai - IITM",04-05-2024 07:00:00,19.000083,72.813993,PM2.5,72,149,105
India,Maharashtra,Mumbai,"Siddharth Nagar-Worli, Mumbai - IITM",04-05-2024 07:00:00,19.000083,72.813993,NO2,12,79,26
India,Maharashtra,Mumbai,"Siddharth Nagar-Worli, Mumbai - IITM",04-05-2024 07:00:00,19.000083,72.813993,NH3,3,7,5
India,Maharashtra,Mumbai,"Siddharth Nagar-Worli, Mumbai - IITM",04-05-2024 07:00:00,19.000083,72.813993,OZONE,36,88,60
India,Maharashtra,Mumbai,"Sion, Mumbai - MPCB",04-05-2024 07:00:00,19.047000,72.874600,SO2,33,36,34
India,Maharashtra,Mumbai,"Sion, Mumbai - MPCB",04-05-2024 07:00:00,19.047000,72.874600,CO,64,70,69
India,Maharashtra,Nagpur,"Ambazari, Nagpur - MPCB",04-05-2024 07:00:00,21.121801,79.04952,OZONE,5,235,32
India,Maharashtra,Nagpur,"Mahal, Nagpur - MPCB",04-05-2024 07:00:00,21.14472,79.107595,NO2,22,133,61
India,Maharashtra,Nagpur,"Opp GPO Civil Lines, Nagpur - MPCB",04-05-2024 07:00:00,21.152875,79.0517531,PM2.5,66,241,126
India,Maharashtra,Nagpur,"Opp GPO Civil Lines, Nagpur - MPCB",04-05-2024 07:00:00,21.152875,79.0517531,PM10,74,135,106
India,Maharashtra,Nanded,"Sneh Nagar, Nanded - MPCB",04-05-2024 07:00:00,19.173852,77.296291,NH3,1,2,1
India,Maharashtra,Nanded,"Sneh Nagar, Nanded - MPCB",04-05-2024 07:00:00,19.173852,77.296291,CO,32,106,63
India,Maharashtra,Nanded,"Sneh Nagar, Nanded - MPCB",04-05-2024 07:00:00,19.173852,77.296291,OZONE,8,172,38
India,Maharashtra,Nashik,"Gangapur Road, Nashik - MPCB",04-05-2024 07:00:00,20.0073285,73.7762427,NH3,1,2,2
India,Maharashtra,Nashik,"Gangapur Road, Nashik - MPCB",04-05-2024 07:00:00,20.0073285,73.7762427,SO2,3,17,9
India,Maharashtra,Nashik,"Hirawadi, Nashik - MPCB",04-05-2024 07:00:00,20.021503,73.813844,PM2.5,28,189,75
India,Maharashtra,Nashik,"Hirawadi, Nashik - MPCB",04-05-2024 07:00:00,20.021503,73.813844,SO2,6,30,19
India,Maharashtra,Nashik,"MIDC Ambad, Nashik - MPCB",04-05-2024 07:00:00,19.950220,73.731480,OZONE,13,130,27
India,Maharashtra,Nashik,"Pandav Nagari, Nashik - MPCB",04-05-2024 07:00:00,19.9591346,73.7788008,PM2.5,62,157,84
India,Maharashtra,Navi Mumbai,"Mahape, Navi Mumbai - MPCB",04-05-2024 07:00:00,19.1135051,73.008978,PM10,63,270,127
India,Maharashtra,Navi Mumbai,"Mahape, Navi Mumbai - MPCB",04-05-2024 07:00:00,19.1135051,73.008978,NO2,84,86,85
India,Maharashtra,Navi Mumbai,"Nerul, Navi Mumbai - MPCB",04-05-2024 07:00:00,19.008751,73.016620,PM10,93,229,148
India,Maharashtra,Navi Mumbai,"Sector-19A Nerul, Navi Mumbai - IITM",04-05-2024 07:00:00,19.044,73.0325,PM10,61,138,99
India,Maharashtra,Navi Mumbai,"Sector-2E Kalamboli, Navi Mumbai - MPCB",04-05-2024 07:00:00,19.02579,73.10297,NH3,2,5,3
India,Maharashtra,Navi Mumbai,"Sector-2E Kalamboli, Navi Mumbai - MPCB",04-05-2024 07:00:00,19.02579,73.10297,SO2,NA,NA,NA
India,Maharashtra,Navi Mumbai,"Sector-2E Kalamboli, Navi Mumbai - MPCB",04-05-2024 07:00:00,19.02579,73.10297,CO,4,22,8
India,Maharashtra,Navi Mumbai,"Sector-2E Kalamboli, Navi Mumbai - MPCB",04-05-2024 07:00:00,19.02579,73.10297,OZONE,4,71,8
India,Maharashtra,Navi Mumbai,"Tondare-Taloja, Navi Mumbai - MPCB",04-05-2024 07:00:00,19.0630,73.1209,SO2,1,21,7
India,Maharashtra,Navi Mumbai,"Tondare-Taloja, Navi Mumbai - MPCB",04-05-2024 07:00:00,19.0630,73.1209,OZONE,1,76,2
India,Maharashtra,Pimpri-Chinchwad,"Gavalinagar, Pimpri Chinchwad - MPCB",04-05-2024 07:00:00,18.63673,73.82487,CO,10,27,21
India,Maharashtra,Pimpri-Chinchwad,"Park Street Wakad, Pimpri Chinchwad - MPCB",04-05-2024 07:00:00,18.59051,73.77946,NH3,4,8,6
India,Maharashtra,Pimpri-Chinchwad,"Thergaon, Pimpri Chinchwad - MPCB",04-05-2024 07:00:00,18.616318,73.765797,PM2.5,77,149,104
India,Maharashtra,Pimpri-Chinchwad,"Thergaon, Pimpri Chinchwad - MPCB",04-05-2024 07:00:00,18.616318,73.765797,NO2,18,74,39
India,Maharashtra,Pimpri-Chinchwad,"Thergaon, Pimpri Chinchwad - MPCB",04-05-2024 07:00:00,18.616318,73.765797,SO2,1,10,4
India,Maharashtra,Pimpri-Chinchwad,"Thergaon, Pimpri Chinchwad - MPCB",04-05-2024 07:00:00,18.616318,73.765797,OZONE,28,188,62
India,Maharashtra,Pune,"Alandi, Pune - IITM",04-05-2024 07:00:00,18.675076,73.892743,OZONE,15,77,33
India,Maharashtra,Pune,"Bhosari, Pune - IITM",04-05-2024 07:00:00,18.640051,73.848956,PM10,64,121,97
India,Maharashtra,Pune,"Bhosari, Pune - IITM",04-05-2024 07:00:00,18.640051,73.848956,NO2,9,14,11
India,Maharashtra,Pune,"Karve Road, Pune - MPCB",04-05-2024 07:00:00,18.5011743,73.8165527,PM2.5,46,107,68
India,Maharashtra,Pune,"Mhada Colony, Pune - IITM",04-05-2024 07:00:00,18.573040,73.927715,PM10,49,148,106
India,Maharashtra,Pune,"Revenue Colony-Shivajinagar, Pune - IITM",04-05-2024 07:00:00,18.530085,73.849598,PM10,25,123,72
India,Maharashtra,Pune,"Revenue Colony-Shivajinagar, Pune - IITM",04-05-2024 07:00:00,18.530085,73.849598,NO2,53,172,113
India,Maharashtra,Pune,"Revenue Colony-Shivajinagar, Pune - IITM",04-05-2024 07:00:00,18.530085,73.849598,NH3,6,22,14
India,Maharashtra,Pune,"Revenue Colony-Shivajinagar, Pune - IITM",04-05-2024 07:00:00,18.530085,73.849598,SO2,30,118,85
India,Maharashtra,Pune,"Revenue Colony-Shivajinagar, Pune - IITM",04-05-2024 07:00:00,18.530085,73.849598,CO,101,118,109
India,Maharashtra,Pune,"Savitribai Phule Pune University, Pune - MPCB",04-05-2024 07:00:00,18.547056,73.826908,PM2.5,46,103,69
India,Maharashtra,Pune,"Savitribai Phule Pune University, Pune - MPCB",04-05-2024 07:00:00,18.547056,73.826908,SO2,1,18,8
India,Maharashtra,Sangli,"Vijay Nagar, Sangli - MPCB",04-05-2024 07:00:00, 16.5038,74.3623,SO2,6,16,10
India,Maharashtra,Solapur,"Ratandeep Housing Society, Solapur - MPCB",04-05-2024 07:00:00,17.65439,75.90649,NH3,4,24,17
India,Maharashtra,Solapur,"Ratandeep Housing Society, Solapur - MPCB",04-05-2024 07:00:00,17.65439,75.90649,CO,13,122,32
India,Maharashtra,Solapur,"Solapur, Solapur - MPCB",04-05-2024 07:00:00,17.6599188,75.9063906,NO2,54,55,55
India,Maharashtra,Thane,"Kasarvadavali, Thane - MPCB",04-05-2024 07:00:00,19.26777,72.97182,SO2,1,5,2
India,Maharashtra,Thane,"Kasarvadavali, Thane - MPCB",04-05-2024 07:00:00,19.26777,72.97182,OZONE,5,103,20
India,Maharashtra,Thane,"Pimpleshwar Mandir, Thane - MPCB",04-05-2024 07:00:00,19.192056,72.9585188,CO,2,51,16
India,Maharashtra,Thane,"Pimpleshwar Mandir, Thane - MPCB",04-05-2024 07:00:00,19.192056,72.9585188,OZONE,1,81,11
India,Maharashtra,Thane,"Upvan Fort, Thane - MPCB",04-05-2024 07:00:00,19.222279,72.957979,NO2,7,35,17
India,Maharashtra,Thane,"Upvan Fort, Thane - MPCB",04-05-2024 07:00:00,19.222279,72.957979,NH3,4,5,5
India,Maharashtra,Thane,"Upvan Fort, Thane - MPCB",04-05-2024 07:00:00,19.222279,72.957979,OZONE,19,105,30
India,Maharashtra,Ulhasnagar,"Sidhi Vinayak Nagar, Ulhasnagar - MPCB",04-05-2024 07:00:00,19.235581,73.159121,PM2.5,77,140,90
India,Maharashtra,Ulhasnagar,"Sidhi Vinayak Nagar, Ulhasnagar - MPCB",04-05-2024 07:00:00,19.235581,73.159121,NO2,6,63,24
India,Maharashtra,Ulhasnagar,"Sidhi Vinayak Nagar, Ulhasnagar - MPCB",04-05-2024 07:00:00,19.235581,73.159121,CO,12,42,30
India,Manipur,Imphal,"DM College of Science, Imphal - Manipur PCB",04-05-2024 07:00:00,24.8207389,93.9423085,NO2,7,8,7
India,Manipur,Imphal,"DM College of Science, Imphal - Manipur PCB",04-05-2024 07:00:00,24.8207389,93.9423085,OZONE,NA,NA,NA
India,Meghalaya,Shillong,"Lumpyngngad, Shillong - Meghalaya PCB",04-05-2024 07:00:00,25.5586,91.8985,PM2.5,29,208,78
India,Meghalaya,Shillong,"Lumpyngngad, Shillong - Meghalaya PCB",04-05-2024 07:00:00,25.5586,91.8985,OZONE,3,92,74
India,Mizoram,Aizawl,"Sikulpuikawn, Aizawl - Mizoram PCB",04-05-2024 07:00:00,23.7176342,92.7192841,PM10,16,96,59
India,Nagaland,Kohima,"PWD Juction, Kohima - NPCB",04-05-2024 07:00:00,25.6635413,94.0989878,PM2.5,61,199,113
India,Nagaland,Kohima,"PWD Juction, Kohima - NPCB",04-05-2024 07:00:00,25.6635413,94.0989878,OZONE,12,23,13
India,Odisha,Angul,"Hakimapada, Angul - OSPCB",04-05-2024 07:00:00,20.832874,85.104082,PM2.5,37,339,206
India,Odisha,Angul,"Hakimapada, Angul - OSPCB",04-05-2024 07:00:00,20.832874,85.104082,PM10,74,401,205
India,Odisha,Angul,"Hakimapada, Angul - OSPCB",04-05-2024 07:00:00,20.832874,85.104082,OZONE,10,302,37
India,Odisha,Balasore,"Kalidaspur, Balasore - OSPCB",04-05-2024 07:00:00,21.51161,86.89088,SO2,13,47,19
India,Odisha,Barbil,"Forest Office, Barbil - OSPCB",04-05-2024 07:00:00,22.1166054,85.3945546,OZONE,12,260,26
India,Odisha,Baripada,"Meher Colony, Baripada - OSPCB",04-05-2024 07:00:00,21.941841,86.728318,PM2.5,74,144,96
India,Odisha,Baripada,"Meher Colony, Baripada - OSPCB",04-05-2024 07:00:00,21.941841,86.728318,OZONE,30,269,45
India,Odisha,Bhubaneswar,"Patia, Bhubaneswar - OSPCB",04-05-2024 07:00:00,20.34652,85.81630,PM2.5,8,137,40
India,Odisha,Brajrajnagar,"GM Office, Brajrajnagar - OSPCB",04-05-2024 07:00:00,21.8004996,83.8396977,OZONE,1,95,2
India,Odisha,Byasanagar,"Ferro Chrome Colony, Byasanagar - OSPCB",04-05-2024 07:00:00,20.94185,86.11510,NH3,1,4,2
India,Odisha,Cuttack,"CDA Area, Cuttack - OSPCB",04-05-2024 07:00:00,20.48891     ,85.84768     ,NH3,1,2,1
India,Odisha,Keonjhar,"Jagamohanpur, Keonjhar - OSPCB",04-05-2024 07:00:00,21.643900,85.599355,OZONE,14,14,14
India,Odisha,Nayagarh,"Dabuna, Nayagarh - OSPCB",04-05-2024 07:00:00,21.847279,85.416905,PM2.5,8,314,231
India,Odisha,Nayagarh,"Dabuna, Nayagarh - OSPCB",04-05-2024 07:00:00,21.847279,85.416905,PM10,NA,NA,NA
India,Odisha,Nayagarh,"Dabuna, Nayagarh - OSPCB",04-05-2024 07:00:00,21.847279,85.416905,NH3,4,5,5
India,Odisha,Nayagarh,"Dabuna, Nayagarh - OSPCB",04-05-2024 07:00:00,21.847279,85.416905,SO2,2,16,6
India,Odisha,Nayagarh,"Dabuna, Nayagarh - OSPCB",04-05-2024 07:00:00,21.847279,85.416905,CO,6,70,47
India,Odisha,Rairangpur,"Divisional Forest Office, Rairangpur - OSPCB",04-05-2024 07:00:00,22.265816,86.174829,NO2,1,2,1
India,Odisha,Rairangpur,"Divisional Forest Office, Rairangpur - OSPCB",04-05-2024 07:00:00,22.265816,86.174829,NH3,3,3,3
India,Odisha,Rourkela,"Sector-2, Rourkela - OSPCB",04-05-2024 07:00:00,22.24500000,84.88111111,CO,18,133,79
India,Odisha,Suakati,"OMC Colony, Suakati - OSPCB",04-05-2024 07:00:00,21.606865,85.510538,PM2.5,90,207,151
India,Odisha,Suakati,"OMC Colony, Suakati - OSPCB",04-05-2024 07:00:00,21.606865,85.510538,NO2,10,15,12
India,Odisha,Suakati,"OMC Colony, Suakati - OSPCB",04-05-2024 07:00:00,21.606865,85.510538,SO2,6,26,17
India,Odisha,Talcher,"Talcher Coalfields,Talcher - OSPCB",04-05-2024 07:00:00,20.9360711,85.1707021,SO2,42,54,47
India,Odisha,Talcher,"Talcher Coalfields,Talcher - OSPCB",04-05-2024 07:00:00,20.9360711,85.1707021,CO,13,126,42
India,Puducherry,Puducherry,"Jawahar Nagar, Puducherry - PPCC",04-05-2024 07:00:00,11.9309,79.8027,SO2,5,10,8
India,Puducherry,Puducherry,"Jawahar Nagar, Puducherry - PPCC",04-05-2024 07:00:00,11.9309,79.8027,OZONE,29,89,40
India,Punjab,Amritsar,"Golden Temple, Amritsar - PPCB",04-05-2024 07:00:00,31.620000,74.876512,PM10,29,107,88
India,Punjab,Amritsar,"Golden Temple, Amritsar - PPCB",04-05-2024 07:00:00,31.620000,74.876512,NO2,12,173,53
India,Punjab,Amritsar,"Golden Temple, Amritsar - PPCB",04-05-2024 07:00:00,31.620000,74.876512,NH3,2,8,6
India,Punjab,Bathinda,"Hardev Nagar, Bathinda - PPCB",04-05-2024 07:00:00,30.233011,74.907758,CO,2,126,27
India,Punjab,Khanna,"Kalal Majra, Khanna - PPCB",04-05-2024 07:00:00,30.736056 ,76.209694,PM2.5,55,174,112
India,Punjab,Khanna,"Kalal Majra, Khanna - PPCB",04-05-2024 07:00:00,30.736056 ,76.209694,NO2,34,36,35
India,Punjab,Khanna,"Kalal Majra, Khanna - PPCB",04-05-2024 07:00:00,30.736056 ,76.209694,NH3,15,17,17
India,Punjab,Ludhiana,"Punjab Agricultural University, Ludhiana - PPCB",04-05-2024 07:00:00,30.9028,75.8086,PM10,73,164,117
India,Punjab,Ludhiana,"Punjab Agricultural University, Ludhiana - PPCB",04-05-2024 07:00:00,30.9028,75.8086,SO2,6,22,10
India,Punjab,Mandi Gobindgarh,"RIMT University, Mandi Gobindgarh - PPCB",04-05-2024 07:00:00,30.649961,76.331442,PM10,67,412,143
India,Punjab,Mandi Gobindgarh,"RIMT University, Mandi Gobindgarh - PPCB",04-05-2024 07:00:00,30.649961,76.331442,NO2,33,33,33
India,Punjab,Patiala,"Model Town, Patiala - PPCB",04-05-2024 07:00:00,30.349388,76.366642,CO,22,45,33
India,Punjab,Rupnagar,"Ratanpura, Rupnagar - Ambuja Cements",04-05-2024 07:00:00,31.0325454,76.5623046,PM10,82,165,117
India,Rajasthan,Ajmer,"Civil Lines,  Ajmer - RSPCB",04-05-2024 07:00:00,26.470859,74.646594,SO2,10,14,11
India,Rajasthan,Ajmer,"Civil Lines,  Ajmer - RSPCB",04-05-2024 07:00:00,26.470859,74.646594,CO,6,107,44
India,Rajasthan,Alwar,"Moti Doongri, Alwar - RSPCB",04-05-2024 07:00:00,27.554793,76.611536,NO2,32,65,43
India,Rajasthan,Alwar,"Moti Doongri, Alwar - RSPCB",04-05-2024 07:00:00,27.554793,76.611536,NH3,4,9,5
India,Rajasthan,Alwar,"Moti Doongri, Alwar - RSPCB",04-05-2024 07:00:00,27.554793,76.611536,SO2,4,56,19
India,Rajasthan,Banswara,"Rati Talai, Banswara - RSPCB",04-05-2024 07:00:00,23.555190,74.440010,NH3,3,8,5
India,Rajasthan,Banswara,"Rati Talai, Banswara - RSPCB",04-05-2024 07:00:00,23.555190,74.440010,CO,16,108,39
India,Rajasthan,Banswara,"Rati Talai, Banswara - RSPCB",04-05-2024 07:00:00,23.555190,74.440010,OZONE,16,188,86
India,Rajasthan,Barmer,"Railway Colony, Barmer - RSPCB",04-05-2024 07:00:00,25.747299,71.393989,CO,68,96,71
India,Rajasthan,Bhilwara,"Pratap Nagar, Bhilwara - RSPCB",04-05-2024 07:00:00,25.339605,74.618883,PM10,24,136,78
India,Rajasthan,Bhilwara,"Pratap Nagar, Bhilwara - RSPCB",04-05-2024 07:00:00,25.339605,74.618883,NH3,1,4,2
India,Rajasthan,Bhiwadi,"RIICO Ind. Area III, Bhiwadi - RSPCB",04-05-2024 07:00:00,28.194909,76.862296,OZONE,22,89,42
India,Rajasthan,Bhiwadi,"Vasundhara Nagar_UIT, Bhiwadi - RSPCB",04-05-2024 07:00:00,28.207266,76.829265,PM2.5,32,419,224
India,Rajasthan,Bikaner,"MM Ground, Bikaner - RSPCB",04-05-2024 07:00:00,28.018792,73.292658,PM10,78,311,137
India,Rajasthan,Bikaner,"MM Ground, Bikaner - RSPCB",04-05-2024 07:00:00,28.018792,73.292658,SO2,1,17,5
India,Rajasthan,Bundi,"New Colony, Bundi - RSPCB",04-05-2024 07:00:00,25.435774,75.644272,OZONE,10,161,37
India,Rajasthan,Chittorgarh,"Shastri Nagar, Chittorgarh - RSPCB",04-05-2024 07:00:00,24.892047,74.623527,NH3,9,11,10
India,Rajasthan,Chittorgarh,"Shastri Nagar, Chittorgarh - RSPCB",04-05-2024 07:00:00,24.892047,74.623527,CO,36,108,50
India,Rajasthan,Dausa,"Khatikan Mohalla, Dausa - RSPCB",04-05-2024 07:00:00,26.895552,76.334753,PM2.5,36,220,77
India,Rajasthan,Dausa,"Khatikan Mohalla, Dausa - RSPCB",04-05-2024 07:00:00,26.895552,76.334753,NO2,33,119,69
India,Rajasthan,Dausa,"Khatikan Mohalla, Dausa - RSPCB",04-05-2024 07:00:00,26.895552,76.334753,NH3,4,21,9
India,Rajasthan,Dungarpur,"Bhoiwada, Dungarpur - RSPCB",04-05-2024 07:00:00,23.837789,73.714926,PM10,39,122,72
India,Rajasthan,Dungarpur,"Bhoiwada, Dungarpur - RSPCB",04-05-2024 07:00:00,23.837789,73.714926,NO2,14,25,18
India,Rajasthan,Hanumangarh,"Housing Board, Hanumangarh - RSPCB",04-05-2024 07:00:00,29.610750,74.283608,NO2,11,96,40
India,Rajasthan,Hanumangarh,"Housing Board, Hanumangarh - RSPCB",04-05-2024 07:00:00,29.610750,74.283608,SO2,3,27,14
India,Rajasthan,Jaipur,"Adarsh Nagar, Jaipur - RSPCB",04-05-2024 07:00:00,26.902909,75.836858,SO2,5,21,14
India,Rajasthan,Jaipur,"Adarsh Nagar, Jaipur - RSPCB",04-05-2024 07:00:00,26.902909,75.836858,CO,20,102,44
India,Rajasthan,Jaipur,"Mansarovar Sector-12, Jaipur - RSPCB",04-05-2024 07:00:00,26.843698,75.766894,SO2,7,31,11
India,Rajasthan,Jaipur,"RIICO Sitapura, Jaipur - RSPCB",04-05-2024 07:00:00,26.786682,75.827928,PM10,NA,NA,NA
India,Rajasthan,Jaipur,"RIICO Sitapura, Jaipur - RSPCB",04-05-2024 07:00:00,26.786682,75.827928,CO,2,104,48
India,Rajasthan,Jaipur,"Sector-2 Murlipura, Jaipur - RSPCB",04-05-2024 07:00:00,26.960669,75.771817,CO,28,109,42
India,Rajasthan,Jaipur,"Shastri Nagar, Jaipur - RSPCB",04-05-2024 07:00:00,26.9502929,75.730943,NO2,24,125,55
India,Rajasthan,Jaipur,"Shastri Nagar, Jaipur - RSPCB",04-05-2024 07:00:00,26.9502929,75.730943,CO,6,92,43
India,Rajasthan,Jaisalmer,"Sadar Bazar, Jaisalmer - RSPCB",04-05-2024 07:00:00,26.912329,70.909168,PM10,48,173,104
India,Rajasthan,Jalore,"Mudtra Sili, Jalore - RSPCB",04-05-2024 07:00:00,25.344694,72.626208,NO2,4,78,20
India,Rajasthan,Jalore,"Mudtra Sili, Jalore - RSPCB",04-05-2024 07:00:00,25.344694,72.626208,NH3,4,18,7
India,Rajasthan,Jalore,"Mudtra Sili, Jalore - RSPCB",04-05-2024 07:00:00,25.344694,72.626208,SO2,5,12,8
India,Rajasthan,Jhalawar,"Rajlaxmi Nagar, Jhalawar - RSPCB",04-05-2024 07:00:00,24.588397,76.172782,NH3,2,3,2
India,Rajasthan,Jhalawar,"Rajlaxmi Nagar, Jhalawar - RSPCB",04-05-2024 07:00:00,24.588397,76.172782,CO,8,103,72
India,Rajasthan,Jhunjhunu,"Indra Nagar, Jhunjhunu - RSPCB",04-05-2024 07:00:00,28.108988,75.386577,PM10,71,307,143
India,Rajasthan,Jhunjhunu,"Indra Nagar, Jhunjhunu - RSPCB",04-05-2024 07:00:00,28.108988,75.386577,NO2,13,99,42
India,Rajasthan,Jhunjhunu,"Indra Nagar, Jhunjhunu - RSPCB",04-05-2024 07:00:00,28.108988,75.386577,NH3,10,30,18
India,Rajasthan,Jodhpur,"Digari Kalan, Jodhpur - RSPCB",04-05-2024 07:00:00,26.295810,73.082283,SO2,3,9,5
India,Rajasthan,Jodhpur,"Jhalamand, Jodhpur - RSPCB",04-05-2024 07:00:00,26.215415,73.070156,SO2,4,22,8
India,Rajasthan,Karauli,"Satyawati Vihar, Karauli - RSPCB",04-05-2024 07:00:00,26.506177,77.025989,NH3,11,19,14
India,Rajasthan,Karauli,"Satyawati Vihar, Karauli - RSPCB",04-05-2024 07:00:00,26.506177,77.025989,SO2,14,24,20
India,Rajasthan,Kota,"Shrinath Puram, Kota - RSPCB",04-05-2024 07:00:00,25.14389,75.821256,CO,24,55,44
India,Rajasthan,Nagaur,"Karni Colony, Nagaur - RSPCB",04-05-2024 07:00:00,27.213494,73.734444,NO2,7,39,21
India,Rajasthan,Pratapgarh,"Pragati Nagar, Pratapgarh - RSPCB",04-05-2024 07:00:00,24.041198,74.780702,PM2.5,31,160,64
India,Rajasthan,Pratapgarh,"Pragati Nagar, Pratapgarh - RSPCB",04-05-2024 07:00:00,24.041198,74.780702,SO2,5,11,7
India,Rajasthan,Sawai Madhopur,"Sahu Nagar, Sawai Madhopur - RSPCB",04-05-2024 07:00:00,26.031443,76.359327,PM2.5,28,241,82
India,Rajasthan,Sawai Madhopur,"Sahu Nagar, Sawai Madhopur - RSPCB",04-05-2024 07:00:00,26.031443,76.359327,NO2,4,53,21
India,Rajasthan,Sikar,"Radhakishan Pura, Sikar - RSPCB",04-05-2024 07:00:00,27.608912,75.153302,OZONE,11,78,32
India,Rajasthan,Sirohi,"Vedhaynath Colony, Sirohi - RSPCB",04-05-2024 07:00:00,24.885261,72.857549,NO2,7,37,14
India,Rajasthan,Sirohi,"Vedhaynath Colony, Sirohi - RSPCB",04-05-2024 07:00:00,24.885261,72.857549,NH3,3,5,3
India,Rajasthan,Sirohi,"Vedhaynath Colony, Sirohi - RSPCB",04-05-2024 07:00:00,24.885261,72.857549,OZONE,13,137,40
India,Rajasthan,Sri Ganganagar,"Old City, Sri Ganganagar - RSPCB",04-05-2024 07:00:00,29.931624,73.864511,PM10,207,493,335
India,Rajasthan,Sri Ganganagar,"Old City, Sri Ganganagar - RSPCB",04-05-2024 07:00:00,29.931624,73.864511,SO2,4,18,11
India,Rajasthan,Sri Ganganagar,"Old City, Sri Ganganagar - RSPCB",04-05-2024 07:00:00,29.931624,73.864511,OZONE,10,79,39
India,Rajasthan,Udaipur,"Ashok Nagar, Udaipur - RSPCB",04-05-2024 07:00:00,24.5886166,73.6321397,PM2.5,56,156,101
India,Sikkim,Gangtok,"Zero Point GICI, Gangtok - SSPCB",04-05-2024 07:00:00,27.338530,88.614099,NO2,1,11,4
India,TamilNadu,Ariyalur,"Keelapalur, Ariyalur - TNPCB",04-05-2024 07:00:00,11.06825,79.07033,NO2,5,7,5
India,TamilNadu,Chennai,"Alandur Bus Depot, Chennai - CPCB",04-05-2024 07:00:00,12.9099161,80.1076538,NO2,8,25,9
India,TamilNadu,Chennai,"Alandur Bus Depot, Chennai - CPCB",04-05-2024 07:00:00,12.9099161,80.1076538,NH3,8,19,9
India,TamilNadu,Chennai,"Alandur Bus Depot, Chennai - CPCB",04-05-2024 07:00:00,12.9099161,80.1076538,SO2,1,4,3
India,TamilNadu,Chennai,"Arumbakkam, Chennai - TNPCB",04-05-2024 07:00:00,13.0664,80.2112 ,PM10,40,95,65
India,TamilNadu,Chennai,"Manali, Chennai - CPCB",04-05-2024 07:00:00,13.164544,80.26285,NH3,NA,NA,NA
India,TamilNadu,Chennai,"Perungudi, Chennai - TNPCB",04-05-2024 07:00:00,12.9533,80.2357,CO,13,30,16
India,TamilNadu,Chennai,"Royapuram, Chennai - TNPCB",04-05-2024 07:00:00,13.1036,80.2909,SO2,1,7,4
India,TamilNadu,Chennai,"Royapuram, Chennai - TNPCB",04-05-2024 07:00:00,13.1036,80.2909,OZONE,9,11,9
India,TamilNadu,Chennai,"Velachery Res. Area, Chennai - CPCB",04-05-2024 07:00:00,13.0052189,80.2398125,OZONE,NA,NA,NA
India,TamilNadu,Gummidipoondi,"Anthoni Pillai Nagar, Gummidipoondi - TNPCB",04-05-2024 07:00:00,13.4127,80.1081,NO2,19,35,27
India,TamilNadu,Gummidipoondi,"Anthoni Pillai Nagar, Gummidipoondi - TNPCB",04-05-2024 07:00:00,13.4127,80.1081,SO2,1,56,18
India,TamilNadu,Palkalaiperur,"Bharathidasan University, Palkalaiperur - TNPCB",04-05-2024 07:00:00,10.681158,78.741746,CO,2,8,4
India,TamilNadu,Ramanathapuram,"Chalai Bazaar, Ramanathapuram - TNPCB",04-05-2024 07:00:00,9.36399,78.831977,SO2,7,11,8
India,TamilNadu,Thoothukudi,"Meelavittan, Thoothukudi - TNPCB",04-05-2024 07:00:00,8.816428 ,78.099039,PM10,48,102,75
India,TamilNadu,Thoothukudi,"Meelavittan, Thoothukudi - TNPCB",04-05-2024 07:00:00,8.816428 ,78.099039,CO,3,113,62
India,TamilNadu,Thoothukudi,"Meelavittan, Thoothukudi - TNPCB",04-05-2024 07:00:00,8.816428 ,78.099039,OZONE,21,118,49
India,TamilNadu,Tirupur,"Kumaran College, Tirupur - TNPCB",04-05-2024 07:00:00,11.0973603,77.3228673,PM10,48,106,70
India,TamilNadu,Vellore,"Vasanthapuram, Vellore - TNPCB",04-05-2024 07:00:00,12.909494,79.131861,PM2.5,NA,NA,NA
India,Telangana,Hyderabad,"Bollaram Industrial Area, Hyderabad - TSPCB",04-05-2024 07:00:00,17.540891,78.358528,NO2,16,72,40
India,Telangana,Hyderabad,"Bollaram Industrial Area, Hyderabad - TSPCB",04-05-2024 07:00:00,17.540891,78.358528,NH3,3,7,5
India,Telangana,Hyderabad,"Bollaram Industrial Area, Hyderabad - TSPCB",04-05-2024 07:00:00,17.540891,78.358528,CO,1,107,24
India,Telangana,Hyderabad,"Central University, Hyderabad - TSPCB",04-05-2024 07:00:00,17.460103,78.334361,PM10,NA,NA,NA
India,Telangana,Hyderabad,"ECIL Kapra, Hyderabad - TSPCB",04-05-2024 07:00:00,17.470431,78.566959,CO,7,63,14
India,Telangana,Hyderabad,"Kokapet, Hyderabad - TSPCB",04-05-2024 07:00:00,17.393559,78.339194,PM2.5,NA,NA,NA
India,Telangana,Hyderabad,"Kokapet, Hyderabad - TSPCB",04-05-2024 07:00:00,17.393559,78.339194,OZONE,1,7,2
India,Telangana,Hyderabad,"Kompally Municipal Office, Hyderabad - TSPCB",04-05-2024 07:00:00,17.544899,78.486949,NO2,9,12,10
India,Telangana,Hyderabad,"Kompally Municipal Office, Hyderabad - TSPCB",04-05-2024 07:00:00,17.544899,78.486949,NH3,5,6,6
India,Telangana,Hyderabad,"Nacharam_TSIIC IALA, Hyderabad - TSPCB",04-05-2024 07:00:00,17.429398,78.569354,CO,26,42,33
India,Telangana,Hyderabad,"New Malakpet, Hyderabad - TSPCB",04-05-2024 07:00:00,17.37206,78.50864,SO2,7,25,10
India,Telangana,Hyderabad,"Ramachandrapuram, Hyderabad - TSPCB",04-05-2024 07:00:00,17.528544,78.286195,OZONE,NA,NA,NA
India,Telangana,Hyderabad,"Somajiguda, Hyderabad - TSPCB",04-05-2024 07:00:00,17.417094,78.457437,PM2.5,56,79,65
India,Telangana,Hyderabad,"Somajiguda, Hyderabad - TSPCB",04-05-2024 07:00:00,17.417094,78.457437,NO2,12,83,38
India,Telangana,Hyderabad,"Zoo Park, Hyderabad - TSPCB",04-05-2024 07:00:00,17.349694,78.451437,NH3,1,1,1
India,Telangana,Hyderabad,"Zoo Park, Hyderabad - TSPCB",04-05-2024 07:00:00,17.349694,78.451437,SO2,1,15,5
India,Telangana,Hyderabad,"Zoo Park, Hyderabad - TSPCB",04-05-2024 07:00:00,17.349694,78.451437,CO,29,117,69
India,Tripura,Agartala,"Bardowali, Agartala - Tripura SPCB",04-05-2024 07:00:00,23.8175497,91.2726974,SO2,30,31,30
India,Uttar_Pradesh,Agra,"Sanjay Palace, Agra - UPPCB",04-05-2024 07:00:00,27.19865833,78.00598056,NO2,25,69,37
India,Uttar_Pradesh,Agra,"Sanjay Palace, Agra - UPPCB",04-05-2024 07:00:00,27.19865833,78.00598056,CO,26,90,54
India,Uttar_Pradesh,Agra,"Sector-3B Avas Vikas Colony, Agra - UPPCB",04-05-2024 07:00:00,27.19412,77.96237,PM2.5,17,66,39
India,Uttar_Pradesh,Agra,"Sector-3B Avas Vikas Colony, Agra - UPPCB",04-05-2024 07:00:00,27.19412,77.96237,NO2,39,42,41
India,Uttar_Pradesh,Agra,"Sector-3B Avas Vikas Colony, Agra - UPPCB",04-05-2024 07:00:00,27.19412,77.96237,NH3,6,14,9
India,Uttar_Pradesh,Agra,"Sector-3B Avas Vikas Colony, Agra - UPPCB",04-05-2024 07:00:00,27.19412,77.96237,SO2,9,14,11
India,Uttar_Pradesh,Agra,"Shastripuram, Agra - UPPCB",04-05-2024 07:00:00,27.19862,77.92066,NO2,32,52,35
India,Uttar_Pradesh,Agra,"Shastripuram, Agra - UPPCB",04-05-2024 07:00:00,27.19862,77.92066,NH3,NA,NA,NA
India,Uttar_Pradesh,Agra,"Shastripuram, Agra - UPPCB",04-05-2024 07:00:00,27.19862,77.92066,CO,10,30,23
India,Uttar_Pradesh,Bulandshahr,"Yamunapuram, Bulandshahr - UPPCB",04-05-2024 07:00:00,28.406963,77.849831,PM10,102,231,167
India,Uttar_Pradesh,Firozabad,"Vibhab Nagar, Firozabad - UPPCB",04-05-2024 07:00:00,27.1594,78.3953,NH3,2,2,2
India,Uttar_Pradesh,Ghaziabad,"Indirapuram, Ghaziabad - UPPCB",04-05-2024 07:00:00,28.646233,77.358075,PM10,156,354,229
India,Uttar_Pradesh,Ghaziabad,"Sanjay Nagar, Ghaziabad - UPPCB",04-05-2024 07:00:00,28.685382,77.453839,CO,28,78,42
India,Uttar_Pradesh,Ghaziabad,"Sanjay Nagar, Ghaziabad - UPPCB",04-05-2024 07:00:00,28.685382,77.453839,OZONE,12,165,26
India,Uttar_Pradesh,Ghaziabad,"Vasundhara, Ghaziabad - UPPCB",04-05-2024 07:00:00,28.6603346,77.3572563,PM10,121,228,152
India,Uttar_Pradesh,Ghaziabad,"Vasundhara, Ghaziabad - UPPCB",04-05-2024 07:00:00,28.6603346,77.3572563,SO2,5,130,40
India,Uttar_Pradesh,Ghaziabad,"Vasundhara, Ghaziabad - UPPCB",04-05-2024 07:00:00,28.6603346,77.3572563,OZONE,24,151,54
India,Uttar_Pradesh,Gorakhpur,"Madan Mohan Malaviya University of Technology, Gorakhpur - UPPCB",04-05-2024 07:00:00,26.730136,83.433859,PM2.5,50,424,196
India,Uttar_Pradesh,Gorakhpur,"Madan Mohan Malaviya University of Technology, Gorakhpur - UPPCB",04-05-2024 07:00:00,26.730136,83.433859,NO2,11,12,11
India,Uttar_Pradesh,Gorakhpur,"Madan Mohan Malaviya University of Technology, Gorakhpur - UPPCB",04-05-2024 07:00:00,26.730136,83.433859,NH3,1,2,2
India,Uttar_Pradesh,Gorakhpur,"Madan Mohan Malaviya University of Technology, Gorakhpur - UPPCB",04-05-2024 07:00:00,26.730136,83.433859,OZONE,1,69,6
India,Uttar_Pradesh,Greater Noida,"Knowledge Park - V, Greater Noida - UPPCB",04-05-2024 07:00:00,28.557054,77.453663,NO2,22,57,39
India,Uttar_Pradesh,Hapur,"Anand Vihar, Hapur - UPPCB",04-05-2024 07:00:00,28.725645,77.749675,PM10,105,268,173
India,Uttar_Pradesh,Hapur,"Anand Vihar, Hapur - UPPCB",04-05-2024 07:00:00,28.725645,77.749675,SO2,13,102,50
India,Uttar_Pradesh,Kanpur,"FTI Kidwai Nagar, Kanpur - UPPCB",04-05-2024 07:00:00,26.428282,80.327067,PM2.5,61,235,134
India,Uttar_Pradesh,Kanpur,"NSI Kalyanpur, Kanpur - UPPCB",04-05-2024 07:00:00,26.509954,80.249612,PM2.5,67,224,123
India,Uttar_Pradesh,Kanpur,"NSI Kalyanpur, Kanpur - UPPCB",04-05-2024 07:00:00,26.509954,80.249612,NO2,14,15,14
India,Uttar_Pradesh,Kanpur,"Nehru Nagar, Kanpur - UPPCB",04-05-2024 07:00:00,26.4703136,80.3229863,PM10,46,182,101
India,Uttar_Pradesh,Lucknow,"B R Ambedkar University, Lucknow - UPPCB",04-05-2024 07:00:00,26.766433,80.927299,OZONE,1,80,9
India,Uttar_Pradesh,Lucknow,"Gomti Nagar, Lucknow - UPPCB",04-05-2024 07:00:00,26.868120,81.005119,PM10,87,124,108
India,Uttar_Pradesh,Lucknow,"Kukrail Picnic Spot-1, Lucknow - UPPCB",04-05-2024 07:00:00,26.90723,80.98579,PM10,92,142,116
India,Uttar_Pradesh,Lucknow,"Lalbagh, Lucknow - CPCB",04-05-2024 07:00:00,26.8458805,80.9365541,OZONE,14,56,23
India,Uttar_Pradesh,Meerut,"Ganga Nagar, Meerut - UPPCB",04-05-2024 07:00:00,28.999264,77.7590354,PM2.5,36,217,103
India,Uttar_Pradesh,Meerut,"Ganga Nagar, Meerut - UPPCB",04-05-2024 07:00:00,28.999264,77.7590354,SO2,13,45,27
India,Uttar_Pradesh,Meerut,"Ganga Nagar, Meerut - UPPCB",04-05-2024 07:00:00,28.999264,77.7590354,OZONE,31,162,42
India,Uttar_Pradesh,Meerut,"Jai Bhim Nagar, Meerut - UPPCB",04-05-2024 07:00:00,28.9535882,77.7622941,NO2,19,60,35
India,Uttar_Pradesh,Meerut,"Jai Bhim Nagar, Meerut - UPPCB",04-05-2024 07:00:00,28.9535882,77.7622941,OZONE,35,121,43
India,Uttar_Pradesh,Meerut,"Pallavpuram Phase 2, Meerut - UPPCB",04-05-2024 07:00:00,29.063510,77.709723,NH3,7,12,9
India,Uttar_Pradesh,Moradabad,"Buddhi Vihar, Moradabad - UPPCB",04-05-2024 07:00:00,28.83526,78.74460,PM2.5,32,129,77
India,Uttar_Pradesh,Moradabad,"Eco Herbal Park, Moradabad - UPPCB",04-05-2024 07:00:00,28.840739,78.697531,OZONE,33,216,44
India,Uttar_Pradesh,Moradabad,"Employment Office, Moradabad - UPPCB",04-05-2024 07:00:00,28.88528,78.73880,PM10,99,235,136
India,Uttar_Pradesh,Moradabad,"Kashiram Nagar, Moradabad - UPPCB",04-05-2024 07:00:00,28.849399,78.742362,NH3,4,4,4
India,Uttar_Pradesh,Moradabad,"Kashiram Nagar, Moradabad - UPPCB",04-05-2024 07:00:00,28.849399,78.742362,SO2,38,53,46
India,Uttar_Pradesh,Moradabad,"Transport Nagar, Moradabad - UPPCB",04-05-2024 07:00:00,28.802625,78.753728,PM2.5,25,133,67
India,Uttar_Pradesh,Muzaffarnagar,"New Mandi, Muzaffarnagar - UPPCB",04-05-2024 07:00:00,29.4723508,77.7194031,PM2.5,81,306,189
India,Uttar_Pradesh,Noida,"Sector - 125, Noida - UPPCB",04-05-2024 07:00:00,28.5447608,77.3231257,PM10,114,423,208
India,Uttar_Pradesh,Noida,"Sector-1, Noida - UPPCB",04-05-2024 07:00:00,28.5898,77.3101,NO2,34,130,84
India,Uttar_Pradesh,Noida,"Sector-1, Noida - UPPCB",04-05-2024 07:00:00,28.5898,77.3101,CO,20,94,40
India,Uttar_Pradesh,Noida,"Sector-116, Noida - UPPCB",04-05-2024 07:00:00,28.569230,77.393848,PM10,154,315,204
India,Uttar_Pradesh,Noida,"Sector-116, Noida - UPPCB",04-05-2024 07:00:00,28.569230,77.393848,NO2,23,123,66
India,Uttar_Pradesh,Noida,"Sector-116, Noida - UPPCB",04-05-2024 07:00:00,28.569230,77.393848,OZONE,3,109,19
India,Uttar_Pradesh,Prayagraj,"Jhunsi, Prayagraj - UPPCB",04-05-2024 07:00:00,25.425602,81.917152,PM2.5,13,91,53
India,Uttar_Pradesh,Prayagraj,"Jhunsi, Prayagraj - UPPCB",04-05-2024 07:00:00,25.425602,81.917152,SO2,30,32,31
India,Uttar_Pradesh,Prayagraj,"Motilal Nehru NIT, Prayagraj - UPPCB",04-05-2024 07:00:00,25.494,81.863,PM10,57,394,105
India,Uttar_Pradesh,Prayagraj,"Motilal Nehru NIT, Prayagraj - UPPCB",04-05-2024 07:00:00,25.494,81.863,CO,7,54,50
India,Uttar_Pradesh,Prayagraj,"Motilal Nehru NIT, Prayagraj - UPPCB",04-05-2024 07:00:00,25.494,81.863,OZONE,2,95,4
India,Uttar_Pradesh,Prayagraj,"Nagar Nigam, Prayagraj - UPPCB",04-05-2024 07:00:00,25.44919916 ,81.82735986 ,SO2,22,93,56
India,Uttar_Pradesh,Prayagraj,"Nagar Nigam, Prayagraj - UPPCB",04-05-2024 07:00:00,25.44919916 ,81.82735986 ,OZONE,11,12,11
India,Uttar_Pradesh,Varanasi,"Bhelupur, Varanasi - UPPCB",04-05-2024 07:00:00,25.301778,82.996789,PM2.5,6,26,13
India,Uttar_Pradesh,Varanasi,"Bhelupur, Varanasi - UPPCB",04-05-2024 07:00:00,25.301778,82.996789,NO2,7,8,8
India,Uttar_Pradesh,Varanasi,"Bhelupur, Varanasi - UPPCB",04-05-2024 07:00:00,25.301778,82.996789,NH3,1,2,2
India,Uttar_Pradesh,Varanasi,"IESD Banaras Hindu University, Varanasi - UPPCB",04-05-2024 07:00:00,25.262326,82.995408,SO2,17,18,17
India,Uttar_Pradesh,Varanasi,"Maldahiya, Varanasi - UPPCB",04-05-2024 07:00:00,25.32393,82.99687,PM2.5,17,46,29
India,Uttarakhand,Dehradun,"Doon University, Dehradun - UKPCB",04-05-2024 07:00:00,30.269444,78.044167,SO2,2,5,3
India,Uttarakhand,Kashipur,"Govt. Girls Inter College, Kashipur - UKPCB",04-05-2024 07:00:00,29.2124114,78.9611753,NO2,17,31,25
India,Uttarakhand,Kashipur,"Govt. Girls Inter College, Kashipur - UKPCB",04-05-2024 07:00:00,29.2124114,78.9611753,OZONE,9,86,23
India,Uttarakhand,Rishikesh,"Shivaji Nagar, Rishikesh - UKPCB",04-05-2024 07:00:00,30.075911,78.2859547,PM10,72,142,103
India,Uttarakhand,Rishikesh,"Shivaji Nagar, Rishikesh - UKPCB",04-05-2024 07:00:00,30.075911,78.2859547,SO2,4,6,4
India,Uttarakhand,Rishikesh,"Shivaji Nagar, Rishikesh - UKPCB",04-05-2024 07:00:00,30.075911,78.2859547,CO,16,56,29
India,West_Bengal,Asansol,"Asansol Court Area, Asansol - WBPCB",04-05-2024 07:00:00,23.685297,86.945968,NH3,7,19,12
India,West_Bengal,Barrackpore,"SVSPA Campus, Barrackpore - WBPCB",04-05-2024 07:00:00,22.7605581,88.3617589,PM10,73,177,121
India,West_Bengal,Barrackpore,"SVSPA Campus, Barrackpore - WBPCB",04-05-2024 07:00:00,22.7605581,88.3617589,NH3,1,2,1
India,West_Bengal,Barrackpore,"SVSPA Campus, Barrackpore - WBPCB",04-05-2024 07:00:00,22.7605581,88.3617589,SO2,8,13,10
India,West_Bengal,Barrackpore,"SVSPA Campus, Barrackpore - WBPCB",04-05-2024 07:00:00,22.7605581,88.3617589,OZONE,16,91,29
India,West_Bengal,Durgapur,"PCBL Residential Complex, Durgapur - WBPCB",04-05-2024 07:00:00,23.5087640,87.3544400,CO,40,126,74
India,West_Bengal,Durgapur,"Sidhu Kanhu Indoor Stadium, Durgapur - WBPCB",04-05-2024 07:00:00,23.5404352,87.2892225,PM10,130,301,198
India,West_Bengal,Durgapur,"Sidhu Kanhu Indoor Stadium, Durgapur - WBPCB",04-05-2024 07:00:00,23.5404352,87.2892225,NO2,15,70,34
India,West_Bengal,Howrah,"Ghusuri, Howrah - WBPCB",04-05-2024 07:00:00,22.611968,88.347422,PM10,62,159,116
India,West_Bengal,Howrah,"Ghusuri, Howrah - WBPCB",04-05-2024 07:00:00,22.611968,88.347422,NO2,16,19,18
India,West_Bengal,Howrah,"Padmapukur, Howrah - WBPCB",04-05-2024 07:00:00,22.5687319,88.2797276,OZONE,11,71,13
India,West_Bengal,Kolkata,"Ballygunge, Kolkata - WBPCB",04-05-2024 07:00:00,22.5367507,88.3638022,PM2.5,32,92,61
India,West_Bengal,Kolkata,"Ballygunge, Kolkata - WBPCB",04-05-2024 07:00:00,22.5367507,88.3638022,NO2,11,16,13
India,West_Bengal,Kolkata,"Fort William, Kolkata - WBPCB",04-05-2024 07:00:00,22.556640,88.342674,PM2.5,45,127,78
India,West_Bengal,Kolkata,"Fort William, Kolkata - WBPCB",04-05-2024 07:00:00,22.556640,88.342674,NO2,14,72,28
India,West_Bengal,Kolkata,"Fort William, Kolkata - WBPCB",04-05-2024 07:00:00,22.556640,88.342674,CO,12,30,14
India,West_Bengal,Kolkata,"Jadavpur, Kolkata - WBPCB",04-05-2024 07:00:00,22.49929,88.36917,CO,2,16,5
India,West_Bengal,Kolkata,"Rabindra Sarobar, Kolkata - WBPCB",04-05-2024 07:00:00,22.51106,88.35142,NO2,11,39,22
India,West_Bengal,Kolkata,"Rabindra Sarobar, Kolkata - WBPCB",04-05-2024 07:00:00,22.51106,88.35142,OZONE,25,114,36
India,West_Bengal,Kolkata,"Victoria, Kolkata - WBPCB",04-05-2024 07:00:00,22.5448082,88.3403691,OZONE,21,87,24
India,West_Bengal,Siliguri,"Ward-32 Bapupara, Siliguri - WBPCB",04-05-2024 07:00:00,26.6879226,88.4152495,PM2.5,63,115,84
India,West_Bengal,Siliguri,"Ward-32 Bapupara, Siliguri - WBPCB",04-05-2024 07:00:00,26.6879226,88.4152495,OZONE,18,66,25
India,Andhra_Pradesh,Amaravati,"Secretariat, Amaravati - APPCB",04-05-2024 07:00:00,16.5150833,80.5181667,PM2.5,8,76,34
India,Andhra_Pradesh,Amaravati,"Secretariat, Amaravati - APPCB",04-05-2024 07:00:00,16.5150833,80.5181667,NH3,3,4,4
India,Andhra_Pradesh,Amaravati,"Secretariat, Amaravati - APPCB",04-05-2024 07:00:00,16.5150833,80.5181667,SO2,6,12,10
India,Andhra_Pradesh,Anantapur,"Gulzarpet, Anantapur - APPCB",04-05-2024 07:00:00,14.675886,77.593027,CO,20,123,29
India,Andhra_Pradesh,Anantapur,"Gulzarpet, Anantapur - APPCB",04-05-2024 07:00:00,14.675886,77.593027,OZONE,1,70,14
India,Andhra_Pradesh,Chittoor,"Gangineni Cheruvu, Chittoor - APPCB",04-05-2024 07:00:00,13.204880,79.097889,PM2.5,NA,NA,NA
India,Andhra_Pradesh,Tirupati,"Tirumala, Tirupati - APPCB",04-05-2024 07:00:00,13.67,79.35,NO2,11,48,21
India,Andhra_Pradesh,Tirupati,"Vaikuntapuram, Tirupati - APPCB",04-05-2024 07:00:00,13.615387,79.409230,PM2.5,13,22,13
India,Andhra_Pradesh,Tirupati,"Vaikuntapuram, Tirupati - APPCB",04-05-2024 07:00:00,13.615387,79.409230,NO2,15,27,19
India,Andhra_Pradesh,Vijayawada,"HB Colony, Vijayawada - APPCB",04-05-2024 07:00:00,16.536107,80.594233,CO,34,36,36
India,Andhra_Pradesh,Vijayawada,"Kanuru, Vijayawada - APPCB",04-05-2024 07:00:00,16.486692,80.699436,NH3,4,11,9
India,Andhra_Pradesh,Vijayawada,"Rajiv Nagar, Vijayawada - APPCB",04-05-2024 07:00:00,16.554731,80.649110,OZONE,4,268,13
India,Andhra_Pradesh,Visakhapatnam,"GVM Corporation, Visakhapatnam - APPCB",04-05-2024 07:00:00,17.72,83.3,PM2.5,18,112,48
India,Andhra_Pradesh,Visakhapatnam,"GVM Corporation, Visakhapatnam - APPCB",04-05-2024 07:00:00,17.72,83.3,PM10,59,180,102
India,Andhra_Pradesh,Visakhapatnam,"GVM Corporation, Visakhapatnam - APPCB",04-05-2024 07:00:00,17.72,83.3,CO,1,94,30
India,Assam,Guwahati,"IITG, Guwahati - PCBA",04-05-2024 07:00:00,26.2028636,91.70046436,PM2.5,56,101,78
India,Assam,Guwahati,"IITG, Guwahati - PCBA",04-05-2024 07:00:00,26.2028636,91.70046436,PM10,90,427,205
India,Assam,Guwahati,"IITG, Guwahati - PCBA",04-05-2024 07:00:00,26.2028636,91.70046436,OZONE,13,43,16
India,Assam,Guwahati,"LGBI Airport, Guwahati - PCBA",04-05-2024 07:00:00,26.10887,91.589544,PM10,113,500,251
India,Assam,Guwahati,"Pan Bazaar, Guwahati - PCBA",04-05-2024 07:00:00,26.187500,91.744194,CO,19,33,28
India,Assam,Guwahati,"Railway Colony, Guwahati - PCBA",04-05-2024 07:00:00,26.181742,91.78063,NO2,3,3,3
India,Assam,Guwahati,"Railway Colony, Guwahati - PCBA",04-05-2024 07:00:00,26.181742,91.78063,OZONE,3,32,15
India,Assam,Nagaon,"Christianpatty, Nagaon - PCBA",04-05-2024 07:00:00,26.349082,92.68449,SO2,NA,NA,NA
India,Assam,Nagaon,"Christianpatty, Nagaon - PCBA",04-05-2024 07:00:00,26.349082,92.68449,OZONE,50,152,63
India,Assam,Nalbari,"Bata Chowk, Nalbari - PCBA",04-05-2024 07:00:00,26.446912,91.439057,NH3,1,1,1
India,Assam,Silchar,"Tarapur, Silchar - PCBA",04-05-2024 07:00:00,24.82827,92.79525,PM2.5,16,32,24
India,Assam,Silchar,"Tarapur, Silchar - PCBA",04-05-2024 07:00:00,24.82827,92.79525,NO2,12,13,13
India,Assam,Silchar,"Tarapur, Silchar - PCBA",04-05-2024 07:00:00,24.82827,92.79525,NH3,1,1,1
India,Assam,Sivasagar,"Girls College, Sivasagar - PCBA",04-05-2024 07:00:00,26.987634,94.636574,SO2,5,11,10
India,Bihar,Araria,"Kharahiya Basti, Araria - BSPCB",04-05-2024 07:00:00,26.146529,87.454184,NO2,1,8,7
India,Bihar,Araria,"Kharahiya Basti, Araria - BSPCB",04-05-2024 07:00:00,26.146529,87.454184,SO2,10,17,15
India,Bihar,Araria,"Kharahiya Basti, Araria - BSPCB",04-05-2024 07:00:00,26.146529,87.454184,CO,18,30,23
India,Bihar,Arrah,"New DM Office, Arrah - BSPCB",04-05-2024 07:00:00,25.5626095,84.663264,NO2,1,20,9
India,Bihar,Arrah,"New DM Office, Arrah - BSPCB",04-05-2024 07:00:00,25.5626095,84.663264,CO,3,21,13
India,Bihar,Aurangabad,"Gurdeo Nagar, Aurangabad - BSPCB",04-05-2024 07:00:00,24.75746,84.366208,PM10,57,111,75
India,Bihar,Aurangabad,"Gurdeo Nagar, Aurangabad - BSPCB",04-05-2024 07:00:00,24.75746,84.366208,SO2,1,4,2
India,Bihar,Aurangabad,"Gurdeo Nagar, Aurangabad - BSPCB",04-05-2024 07:00:00,24.75746,84.366208,CO,7,48,37
India,Bihar,Aurangabad,"Gurdeo Nagar, Aurangabad - BSPCB",04-05-2024 07:00:00,24.75746,84.366208,OZONE,21,116,55
India,Bihar,Bettiah,"Kamalnath Nagar, Bettiah - BSPCB",04-05-2024 07:00:00,26.80365,84.51954,PM2.5,85,343,242
India,Bihar,Bettiah,"Kamalnath Nagar, Bettiah - BSPCB",04-05-2024 07:00:00,26.80365,84.51954,NH3,3,6,4
India,Bihar,Bhagalpur,"DM Office_Kachari Chowk, Bhagalpur - BSPCB",04-05-2024 07:00:00,25.251013,86.989001,PM2.5,57,237,121
India,Bihar,Bihar Sharif,"D M Colony, Bihar Sharif - BSPCB",04-05-2024 07:00:00,25.204762,85.514960,NO2,9,10,9
India,Bihar,Bihar Sharif,"D M Colony, Bihar Sharif - BSPCB",04-05-2024 07:00:00,25.204762,85.514960,OZONE,15,56,46
India,Bihar,Buxar,"Charitra Van, Buxar - BSPCB (Formerly known as Central Jail)",04-05-2024 07:00:00,25.567520,83.966379,OZONE,13,304,24
India,Bihar,Chhapra,"Darshan Nagar, Chhapra - BSPCB",04-05-2024 07:00:00,25.7808257,84.7446768,NH3,NA,NA,NA
India,Bihar,Gaya,"Collectorate, Gaya - BSPCB",04-05-2024 07:00:00,24.7955,84.9994,SO2,7,36,19
India,Bihar,Gaya,"Kareemganj, Gaya - BSPCB",04-05-2024 07:00:00,24.792403,84.992416,CO,11,22,19
India,Bihar,Gaya,"SFTI Kusdihra, Gaya - BSPCB",04-05-2024 07:00:00,24.762518,84.982348,NO2,16,106,41
India,Bihar,Hajipur,"Industrial Area, Hajipur - BSPCB",04-05-2024 07:00:00,25.697189,85.245900,NO2,NA,NA,NA
India,Bihar,Katihar,"Mirchaibari, Katihar - BSPCB",04-05-2024 07:00:00,25.560083,87.553265,OZONE,11,58,12
India,Bihar,Kishanganj,"SDM Office_Khagra, Kishanganj - BSPCB",04-05-2024 07:00:00,26.0881305,87.93840336,PM10,135,404,224
India,Bihar,Kishanganj,"SDM Office_Khagra, Kishanganj - BSPCB",04-05-2024 07:00:00,26.0881305,87.93840336,NH3,9,10,9
India,Bihar,Kishanganj,"SDM Office_Khagra, Kishanganj - BSPCB",04-05-2024 07:00:00,26.0881305,87.93840336,OZONE,27,85,54
India,Bihar,Motihari,"Gandak Colony, Motihari - BSPCB",04-05-2024 07:00:00,26.63086,84.90051,NH3,9,22,15
India,Bihar,Motihari,"Gandak Colony, Motihari - BSPCB",04-05-2024 07:00:00,26.63086,84.90051,OZONE,47,165,67
India,Bihar,Muzaffarpur,"MIT-Daudpur Kothi, Muzaffarpur - BSPCB",04-05-2024 07:00:00,26.1403345,85.3650192,CO,6,101,42
India,Bihar,Muzaffarpur,"MIT-Daudpur Kothi, Muzaffarpur - BSPCB",04-05-2024 07:00:00,26.1403345,85.3650192,OZONE,19,92,29
India,Bihar,Muzaffarpur,"Muzaffarpur Collectorate, Muzaffarpur - BSPCB",04-05-2024 07:00:00,26.1209,85.3647,NO2,33,70,44
India,Bihar,Patna,"DRM Office Danapur, Patna - BSPCB",04-05-2024 07:00:00,25.586562,85.043586,PM10,110,272,185
India,Bihar,Patna,"DRM Office Danapur, Patna - BSPCB",04-05-2024 07:00:00,25.586562,85.043586,NO2,10,137,63
India,Bihar,Patna,"Govt. High School Shikarpur, Patna - BSPCB",04-05-2024 07:00:00,25.592539,85.227158,PM2.5,127,396,279
India,Bihar,Patna,"IGSC Planetarium Complex, Patna - BSPCB",04-05-2024 07:00:00,25.610369,85.132568,PM2.5,78,405,241
India,Bihar,Patna,"Muradpur, Patna - BSPCB",04-05-2024 07:00:00,25.619651,85.147382,PM2.5,248,411,338
India,Bihar,Patna,"Rajbansi Nagar, Patna - BSPCB",04-05-2024 07:00:00,25.599486,85.113666,OZONE,4,167,9
India,Bihar,Patna,"Samanpura, Patna - BSPCB",04-05-2024 07:00:00,25.596727,85.085624,PM10,135,500,326
India,Bihar,Patna,"Samanpura, Patna - BSPCB",04-05-2024 07:00:00,25.596727,85.085624,SO2,8,21,12
India,Bihar,Patna,"Samanpura, Patna - BSPCB",04-05-2024 07:00:00,25.596727,85.085624,OZONE,5,194,12
India,Bihar,Rajgir,"Dangi Tola, Rajgir - BSPCB",04-05-2024 07:00:00,25.03280,85.41948,NH3,2,4,3
India,Bihar,Saharsa,"Police Line, Saharsa - BSPCB",04-05-2024 07:00:00,25.892357,86.590325,PM10,78,237,125
India,Bihar,Saharsa,"Police Line, Saharsa - BSPCB",04-05-2024 07:00:00,25.892357,86.590325,OZONE,14,50,23
India,Bihar,Samastipur,"DM Office_Kasipur, Samastipur - BSPCB",04-05-2024 07:00:00,25.859655,85.77944,OZONE,1,71,2
India,Bihar,Sasaram,"Dada Peer, Sasaram - BSPCB",04-05-2024 07:00:00,24.952822,84.002396,PM10,47,171,96
India,Chandigarh,Chandigarh,"Sector 22, Chandigarh - CPCC",04-05-2024 07:00:00,30.735567,76.775714,NO2,14,53,26
India,Chandigarh,Chandigarh,"Sector 22, Chandigarh - CPCC",04-05-2024 07:00:00,30.735567,76.775714,NH3,5,14,7
India,Chandigarh,Chandigarh,"Sector 22, Chandigarh - CPCC",04-05-2024 07:00:00,30.735567,76.775714,CO,34,54,46
India,Chandigarh,Chandigarh,"Sector-25, Chandigarh - CPCC",04-05-2024 07:00:00,30.751462,76.762879,PM2.5,67,131,104
India,Chandigarh,Chandigarh,"Sector-53, Chandigarh - CPCC",04-05-2024 07:00:00,30.719859,76.738637,NH3,3,6,5
India,Chandigarh,Chandigarh,"Sector-53, Chandigarh - CPCC",04-05-2024 07:00:00,30.719859,76.738637,SO2,10,26,19
India,Chhattisgarh,Bhilai,"32Bungalows, Bhilai - CECB",04-05-2024 07:00:00,21.194815,81.314770,PM10,82,157,122
India,Chhattisgarh,Bhilai,"32Bungalows, Bhilai - CECB",04-05-2024 07:00:00,21.194815,81.314770,NO2,18,34,28
India,Chhattisgarh,Bhilai,"32Bungalows, Bhilai - CECB",04-05-2024 07:00:00,21.194815,81.314770,SO2,15,34,21
India,Chhattisgarh,Bhilai,"32Bungalows, Bhilai - CECB",04-05-2024 07:00:00,21.194815,81.314770,OZONE,6,94,6
India,Chhattisgarh,Bhilai,"Civic Center, Bhilai - Bhilai Steel Plant",04-05-2024 07:00:00,21.185571,81.343175,NH3,4,7,4
India,Chhattisgarh,Bhilai,"Hathkhoj, Bhilai - CECB",04-05-2024 07:00:00,21.224231,81.408350,OZONE,17,36,20
India,Chhattisgarh,Chhal,"Nawapara SECL Colony, Chhal - CECB",04-05-2024 07:00:00,22.118125,83.140608,NH3,2,2,2
India,Chhattisgarh,Chhal,"Nawapara SECL Colony, Chhal - CECB",04-05-2024 07:00:00,22.118125,83.140608,CO,24,56,43
India,Chhattisgarh,Chhal,"Nawapara SECL Colony, Chhal - CECB",04-05-2024 07:00:00,22.118125,83.140608,OZONE,19,151,28
India,Chhattisgarh,Korba,"Rampur, Korba - CECB",04-05-2024 07:00:00,22.368195,82.746431,PM10,45,113,72
India,Chhattisgarh,Korba,"Rampur, Korba - CECB",04-05-2024 07:00:00,22.368195,82.746431,SO2,8,97,42
India,Chhattisgarh,Korba,"Urja Nagar, Korba - CECB",04-05-2024 07:00:00,22.348441,82.549611,PM10,23,366,84
India,Chhattisgarh,Korba,"Urja Nagar, Korba - CECB",04-05-2024 07:00:00,22.348441,82.549611,NH3,2,12,5
India,Chhattisgarh,Milupara,"Govt. Higher Secondary School, Milupara - CECB",04-05-2024 07:00:00,22.1910172,83.5197009,NO2,NA,NA,NA
India,Chhattisgarh,Milupara,"Govt. Higher Secondary School, Milupara - CECB",04-05-2024 07:00:00,22.1910172,83.5197009,CO,5,68,35
India,Chhattisgarh,Raipur,"AIIMS, Raipur - CECB",04-05-2024 07:00:00,21.258815,81.578979,CO,27,72,45
India,Chhattisgarh,Raipur,"AIIMS, Raipur - CECB",04-05-2024 07:00:00,21.258815,81.578979,OZONE,1,76,9
India,Chhattisgarh,Raipur,"Bhatagaon New ISBT, Raipur - CECB",04-05-2024 07:00:00,21.219665,81.630094,PM2.5,22,80,52
India,Chhattisgarh,Raipur,"Bhatagaon New ISBT, Raipur - CECB",04-05-2024 07:00:00,21.219665,81.630094,PM10,43,161,97
India,Chhattisgarh,Raipur,"Krishak Nagar, Raipur - CECB",04-05-2024 07:00:00,21.237755,81.705301,NO2,16,17,16
India,Chhattisgarh,Raipur,"Siltara Phase-II, Raipur - CECB",04-05-2024 07:00:00,21.371751,81.664929,PM2.5,51,280,126
India,Chhattisgarh,Tumidih,"OP Jindal Industrial Park, Tumidih - CECB",04-05-2024 07:00:00,22.06631475,83.33820077,SO2,6,25,8
India,Delhi,Delhi,"Alipur, Delhi - DPCC",04-05-2024 07:00:00,28.815329,77.153010,PM2.5,48,373,219
India,Delhi,Delhi,"Alipur, Delhi - DPCC",04-05-2024 07:00:00,28.815329,77.153010,NO2,7,96,45
India,Delhi,Delhi,"Alipur, Delhi - DPCC",04-05-2024 07:00:00,28.815329,77.153010,NH3,4,9,6
India,Delhi,Delhi,"Anand Vihar, Delhi - DPCC",04-05-2024 07:00:00,28.647622,77.3158090,CO,17,94,46
India,Delhi,Delhi,"Anand Vihar, Delhi - DPCC",04-05-2024 07:00:00,28.647622,77.3158090,OZONE,5,115,17
India,Delhi,Delhi,"Ashok Vihar, Delhi - DPCC",04-05-2024 07:00:00,28.695381,77.181665,PM2.5,55,358,223
India,Delhi,Delhi,"Ashok Vihar, Delhi - DPCC",04-05-2024 07:00:00,28.695381,77.181665,OZONE,2,139,14
India,Delhi,Delhi,"Aya Nagar, Delhi - IMD",04-05-2024 07:00:00,28.4706914,77.1099364,NO2,NA,NA,NA
India,Delhi,Delhi,"Bawana, Delhi - DPCC",04-05-2024 07:00:00,28.776200,77.051074,PM2.5,140,437,294
India,Delhi,Delhi,"Bawana, Delhi - DPCC",04-05-2024 07:00:00,28.776200,77.051074,CO,3,77,58
India,Delhi,Delhi,"CRRI Mathura Road, Delhi - IMD",04-05-2024 07:00:00,28.5512005,77.2735737,OZONE,3,69,4
India,Delhi,Delhi,"DTU, Delhi - CPCB",04-05-2024 07:00:00,28.7500499,77.1112615,PM10,144,500,277
India,Delhi,Delhi,"Dr. Karni Singh Shooting Range, Delhi - DPCC",04-05-2024 07:00:00,28.498571,77.264840,NO2,25,171,98
India,Delhi,Delhi,"Dr. Karni Singh Shooting Range, Delhi - DPCC",04-05-2024 07:00:00,28.498571,77.264840,NH3,4,7,5
India,Delhi,Delhi,"Dr. Karni Singh Shooting Range, Delhi - DPCC",04-05-2024 07:00:00,28.498571,77.264840,CO,28,108,81
India,Delhi,Delhi,"Dr. Karni Singh Shooting Range, Delhi - DPCC",04-05-2024 07:00:00,28.498571,77.264840,OZONE,2,251,10
India,Delhi,Delhi,"IGI Airport (T3), Delhi - IMD",04-05-2024 07:00:00,28.5627763,77.1180053,PM10,127,484,251
India,Delhi,Delhi,"IHBAS, Dilshad Garden, Delhi - CPCB",04-05-2024 07:00:00,28.6811736,77.3025234,SO2,3,28,13
India,Delhi,Delhi,"Jahangirpuri, Delhi - DPCC",04-05-2024 07:00:00,28.732820,77.170633,SO2,7,97,49
India,Delhi,Delhi,"Jawaharlal Nehru Stadium, Delhi - DPCC",04-05-2024 07:00:00,28.580280,77.233829,PM10,136,380,208
India,Delhi,Delhi,"Jawaharlal Nehru Stadium, Delhi - DPCC",04-05-2024 07:00:00,28.580280,77.233829,SO2,13,88,35
India,Delhi,Delhi,"Lodhi Road, Delhi - IITM",04-05-2024 07:00:00,28.588333,77.221667,SO2,26,66,38
India,Delhi,Delhi,"Lodhi Road, Delhi - IMD",04-05-2024 07:00:00,28.5918245,77.2273074,PM2.5,37,379,184
India,Delhi,Delhi,"Lodhi Road, Delhi - IMD",04-05-2024 07:00:00,28.5918245,77.2273074,NO2,3,18,10
India,Delhi,Delhi,"Major Dhyan Chand National Stadium, Delhi - DPCC",04-05-2024 07:00:00,28.611281,77.237738,NH3,5,8,6
India,Delhi,Delhi,"Mundka, Delhi - DPCC",04-05-2024 07:00:00,28.684678,77.076574,OZONE,50,195,77
India,Delhi,Delhi,"NSIT Dwarka, Delhi - CPCB",04-05-2024 07:00:00,28.60909,77.0325413,PM2.5,243,500,382
India,Delhi,Delhi,"NSIT Dwarka, Delhi - CPCB",04-05-2024 07:00:00,28.60909,77.0325413,PM10,225,500,340
India,Delhi,Delhi,"Najafgarh, Delhi - DPCC",04-05-2024 07:00:00,28.570173,76.933762,PM10,122,483,294
India,Delhi,Delhi,"Najafgarh, Delhi - DPCC",04-05-2024 07:00:00,28.570173,76.933762,NH3,5,16,10
India,Delhi,Delhi,"Najafgarh, Delhi - DPCC",04-05-2024 07:00:00,28.570173,76.933762,CO,16,82,64
India,Delhi,Delhi,"Narela, Delhi - DPCC",04-05-2024 07:00:00,28.822836,77.101981,PM2.5,55,403,241
India,Delhi,Delhi,"Narela, Delhi - DPCC",04-05-2024 07:00:00,28.822836,77.101981,PM10,154,414,296
India,Delhi,Delhi,"Narela, Delhi - DPCC",04-05-2024 07:00:00,28.822836,77.101981,NH3,3,6,4
India,Delhi,Delhi,"Nehru Nagar, Delhi - DPCC",04-05-2024 07:00:00,28.567890,77.250515,NH3,2,3,2
India,Delhi,Delhi,"Nehru Nagar, Delhi - DPCC",04-05-2024 07:00:00,28.567890,77.250515,CO,50,69,55
India,Delhi,Delhi,"Nehru Nagar, Delhi - DPCC",04-05-2024 07:00:00,28.567890,77.250515,OZONE,1,198,3
India,Delhi,Delhi,"New Moti Bagh, Delhi - MHUA",04-05-2024 07:00:00,28.57834,77.18400,NO2,6,46,24
India,Delhi,Delhi,"North Campus, DU, Delhi - IMD",04-05-2024 07:00:00,28.6573814,77.1585447,CO,NA,NA,NA
India,Delhi,Delhi,"Patparganj, Delhi - DPCC",04-05-2024 07:00:00,28.623763,77.287209,SO2,4,8,6
India,Delhi,Delhi,"Punjabi Bagh, Delhi - DPCC",04-05-2024 07:00:00,28.674045,77.131023,OZONE,2,67,5
India,Delhi,Delhi,"Pusa, Delhi - DPCC",04-05-2024 07:00:00,28.639652,77.146275,NO2,77,176,121
India,Delhi,Delhi,"Pusa, Delhi - DPCC",04-05-2024 07:00:00,28.639652,77.146275,SO2,7,62,31
India,Delhi,Delhi,"Pusa, Delhi - IMD",04-05-2024 07:00:00,28.636110,77.173332,CO,33,67,61
India,Delhi,Delhi,"Rohini, Delhi - DPCC",04-05-2024 07:00:00,28.732528,77.119920,PM2.5,64,456,257
India,Delhi,Delhi,"Rohini, Delhi - DPCC",04-05-2024 07:00:00,28.732528,77.119920,NH3,6,12,9
India,Delhi,Delhi,"Shadipur, Delhi - CPCB",04-05-2024 07:00:00,28.6514781,77.1473105,OZONE,14,80,19
India,Delhi,Delhi,"Sonia Vihar, Delhi - DPCC",04-05-2024 07:00:00,28.710508,77.249485,CO,54,100,87
India,Delhi,Delhi,"Sri Aurobindo Marg, Delhi - DPCC",04-05-2024 07:00:00,28.531346,77.190156,PM10,151,358,202
India,Delhi,Delhi,"Sri Aurobindo Marg, Delhi - DPCC",04-05-2024 07:00:00,28.531346,77.190156,SO2,18,65,27
India,Delhi,Delhi,"Vivek Vihar, Delhi - DPCC",04-05-2024 07:00:00,28.672342,77.315260,NH3,15,16,16
India,Delhi,Delhi,"Vivek Vihar, Delhi - DPCC",04-05-2024 07:00:00,28.672342,77.315260,SO2,31,68,45
India,Delhi,Delhi,"Wazirpur, Delhi - DPCC",04-05-2024 07:00:00,28.699793,77.165453,PM10,151,409,262
India,Gujarat,Ahmedabad,"Chandkheda, Ahmedabad - IITM",04-05-2024 07:00:00,23.107969,72.574648,NO2,45,50,47
India,Gujarat,Ahmedabad,"Chandkheda, Ahmedabad - IITM",04-05-2024 07:00:00,23.107969,72.574648,SO2,3,18,7
India,Gujarat,Ahmedabad,"Chandkheda, Ahmedabad - IITM",04-05-2024 07:00:00,23.107969,72.574648,OZONE,3,54,11
India,Gujarat,Ahmedabad,"Maninagar, Ahmedabad - GPCB",04-05-2024 07:00:00,23.002657,72.591912,PM2.5,35,199,72
India,Gujarat,Ahmedabad,"Maninagar, Ahmedabad - GPCB",04-05-2024 07:00:00,23.002657,72.591912,SO2,21,131,74
India,Gujarat,Ahmedabad,"Raikhad, Ahmedabad - IITM",04-05-2024 07:00:00,23.020509,72.579261,NH3,2,3,3
India,Gujarat,Ahmedabad,"Raikhad, Ahmedabad - IITM",04-05-2024 07:00:00,23.020509,72.579261,OZONE,1,41,5
India,Gujarat,Ahmedabad,"Rakhial, Ahmedabad - IITM",04-05-2024 07:00:00,23.016834,72.625775,NH3,5,23,11
India,Gujarat,Ahmedabad,"SAC ISRO Satellite, Ahmedabad - IITM",04-05-2024 07:00:00,23.023389,72.515201,PM2.5,83,84,84
India,Gujarat,Ahmedabad,"SAC ISRO Satellite, Ahmedabad - IITM",04-05-2024 07:00:00,23.023389,72.515201,PM10,90,90,90
India,Gujarat,Ahmedabad,"SVPI Airport Hansol, Ahmedabad - IITM",04-05-2024 07:00:00,23.076793,72.627874,NO2,17,23,21
India,Gujarat,Ahmedabad,"Sardar Vallabhbhai Patel Stadium, Ahmedabad - IITM",04-05-2024 07:00:00,23.043070,72.562968,CO,27,102,46
India,Gujarat,Gandhinagar,"Sector-10, Gandhinagar - GPCB",04-05-2024 07:00:00,23.221714,72.654328,PM2.5,21,85,44
India,Gujarat,Gandhinagar,"Sector-10, Gandhinagar - GPCB",04-05-2024 07:00:00,23.221714,72.654328,SO2,6,10,7
India,Gujarat,Gandhinagar,"Sector-10, Gandhinagar - GPCB",04-05-2024 07:00:00,23.221714,72.654328,OZONE,2,52,8
India,Haryana,Ambala,"Patti Mehar, Ambala - HSPCB",04-05-2024 07:00:00,30.379589,76.778328,NH3,8,8,8
India,Haryana,Ambala,"Patti Mehar, Ambala - HSPCB",04-05-2024 07:00:00,30.379589,76.778328,OZONE,34,50,41
India,Haryana,Bahadurgarh,"Arya Nagar, Bahadurgarh - HSPCB",04-05-2024 07:00:00,28.6701,76.9254,NH3,8,10,9
India,Haryana,Bahadurgarh,"Arya Nagar, Bahadurgarh - HSPCB",04-05-2024 07:00:00,28.6701,76.9254,CO,89,103,98
India,Haryana,Bahadurgarh,"Arya Nagar, Bahadurgarh - HSPCB",04-05-2024 07:00:00,28.6701,76.9254,OZONE,32,43,37
India,Haryana,Ballabgarh,"Nathu Colony, Ballabgarh - HSPCB",04-05-2024 07:00:00,28.3419248,77.319699,PM2.5,20,418,305
India,Haryana,Bhiwani,"H.B. Colony, Bhiwani - HSPCB",04-05-2024 07:00:00,28.806223,76.141105,PM2.5,88,360,221
India,Haryana,Bhiwani,"H.B. Colony, Bhiwani - HSPCB",04-05-2024 07:00:00,28.806223,76.141105,PM10,88,308,136
India,Haryana,Bhiwani,"H.B. Colony, Bhiwani - HSPCB",04-05-2024 07:00:00,28.806223,76.141105,SO2,3,23,13
India,Haryana,Dharuhera,"Municipal Corporation Office, Dharuhera -  HSPCB",04-05-2024 07:00:00,28.206800,76.799700,NH3,9,26,19
India,Haryana,Faridabad,"New Industrial Town, Faridabad - HSPCB",04-05-2024 07:00:00,28.39072,77.30059,NO2,11,17,14
India,Haryana,Faridabad,"Sector 11, Faridabad - HSPCB",04-05-2024 07:00:00,28.376058,77.315741,PM2.5,242,349,311
India,Haryana,Faridabad,"Sector 11, Faridabad - HSPCB",04-05-2024 07:00:00,28.376058,77.315741,NO2,30,32,31
India,Haryana,Faridabad,"Sector 30, Faridabad - HSPCB",04-05-2024 07:00:00,28.4417,77.3217,PM10,198,227,214
India,Haryana,Faridabad,"Sector 30, Faridabad - HSPCB",04-05-2024 07:00:00,28.4417,77.3217,NH3,9,9,9
India,Haryana,Faridabad,"Sector 30, Faridabad - HSPCB",04-05-2024 07:00:00,28.4417,77.3217,SO2,5,6,6
India,Haryana,Faridabad,"Sector- 16A, Faridabad - HSPCB",04-05-2024 07:00:00,28.4088421,77.3099081,PM2.5,77,378,197
India,Haryana,Gurugram,"Sector-51, Gurugram - HSPCB",04-05-2024 07:00:00,28.4227,77.0667,PM2.5,204,456,368
India,Haryana,Gurugram,"Sector-51, Gurugram - HSPCB",04-05-2024 07:00:00,28.4227,77.0667,NH3,6,14,9
India,Haryana,Gurugram,"Sector-51, Gurugram - HSPCB",04-05-2024 07:00:00,28.4227,77.0667,CO,36,106,101
India,Haryana,Gurugram,"Teri Gram, Gurugram - HSPCB",04-05-2024 07:00:00,28.4275,77.1465,PM2.5,268,500,341
India,Haryana,Gurugram,"Teri Gram, Gurugram - HSPCB",04-05-2024 07:00:00,28.4275,77.1465,NH3,28,47,36
India,Haryana,Gurugram,"Teri Gram, Gurugram - HSPCB",04-05-2024 07:00:00,28.4275,77.1465,SO2,5,6,6
India,Haryana,Hisar,"Urban Estate-II, Hisar - HSPCB",04-05-2024 07:00:00,29.140560,75.744941,PM2.5,68,276,161
India,Haryana,Jind,"Police Lines, Jind - HSPCB",04-05-2024 07:00:00,29.307814,76.337619,NO2,7,16,11
India,Haryana,Kaithal,"Rishi Nagar, Kaithal - HSPCB",04-05-2024 07:00:00,29.8006,76.4155,PM2.5,45,100,75
India,Haryana,Kaithal,"Rishi Nagar, Kaithal - HSPCB",04-05-2024 07:00:00,29.8006,76.4155,NO2,24,26,25
India,Haryana,Kaithal,"Rishi Nagar, Kaithal - HSPCB",04-05-2024 07:00:00,29.8006,76.4155,CO,14,60,35
India,Haryana,Karnal,"Sector-12, Karnal - HSPCB",04-05-2024 07:00:00,29.695300,77.002700,NO2,7,12,10
India,Haryana,Kurukshetra,"Sector-7, Kurukshetra - HSPCB",04-05-2024 07:00:00,29.966942,76.875879,SO2,2,115,14
India,Haryana,Mandikhera,"General Hospital, Mandikhera - HSPCB",04-05-2024 07:00:00,27.9002,76.9938,CO,8,44,25
India,Haryana,Narnaul,"Shastri Nagar, Narnaul - HSPCB",04-05-2024 07:00:00,28.060249,76.113115,PM10,85,135,114
India,Haryana,Palwal,"Shyam Nagar, Palwal - HSPCB",04-05-2024 07:00:00,28.1485564,77.3320667,PM10,122,155,136
India,Haryana,Palwal,"Shyam Nagar, Palwal - HSPCB",04-05-2024 07:00:00,28.1485564,77.3320667,SO2,1,17,8
India,Haryana,Palwal,"Shyam Nagar, Palwal - HSPCB",04-05-2024 07:00:00,28.1485564,77.3320667,CO,16,36,31
India,Haryana,Panchkula,"Sector-6, Panchkula - HSPCB ",04-05-2024 07:00:00,30.7057778,76.8531805555555,NO2,NA,NA,NA
India,Haryana,Panipat,"Sector-18, Panipat - HSPCB",04-05-2024 07:00:00,29.497973,76.993331,PM2.5,188,192,190
India,Haryana,Sirsa,"F-Block, Sirsa - HSPCB",04-05-2024 07:00:00,29.536400,75.015800,PM10,72,403,135
India,Haryana,Sirsa,"F-Block, Sirsa - HSPCB",04-05-2024 07:00:00,29.536400,75.015800,NH3,12,13,12
India,Haryana,Sirsa,"F-Block, Sirsa - HSPCB",04-05-2024 07:00:00,29.536400,75.015800,CO,66,100,95
India,Haryana,Yamuna Nagar,"Gobind Pura, Yamuna Nagar - HSPCB",04-05-2024 07:00:00,30.1480566,77.2893471,PM10,93,126,111
India,Haryana,Yamuna Nagar,"Gobind Pura, Yamuna Nagar - HSPCB",04-05-2024 07:00:00,30.1480566,77.2893471,NH3,1,6,4
India,Haryana,Yamuna Nagar,"Gobind Pura, Yamuna Nagar - HSPCB",04-05-2024 07:00:00,30.1480566,77.2893471,CO,38,52,46
India,Himachal Pradesh,Baddi,"HIMUDA Complex Phase-1, Baddi - HPPCB",04-05-2024 07:00:00,30.943887,76.801991,PM10,78,253,139
India,Jharkhand,Dhanbad,"Kalakusuma, Dhanbad - DMC",04-05-2024 07:00:00,23.811548,86.481238,SO2,9,33,22
India,Jharkhand,Pathardih,"Mohalbani Ghat, Pathardih - DMC",04-05-2024 07:00:00,23.669880,86.411725,PM2.5,NA,NA,NA
India,Jharkhand,Pathardih,"Mohalbani Ghat, Pathardih - DMC",04-05-2024 07:00:00,23.669880,86.411725,OZONE,NA,NA,NA
India,Karnataka,Bagalkot,"Vidayagiri, Bagalkot - KSPCB",04-05-2024 07:00:00,16.172806,75.659694,PM10,45,46,46
India,Karnataka,Bagalkot,"Vidayagiri, Bagalkot - KSPCB",04-05-2024 07:00:00,16.172806,75.659694,CO,14,57,38
India,Karnataka,Belgaum,"Ramteerth Nagar, Belgaum - KSPCB",04-05-2024 07:00:00,15.888653,74.541751,PM2.5,13,29,18
India,Karnataka,Belgaum,"Ramteerth Nagar, Belgaum - KSPCB",04-05-2024 07:00:00,15.888653,74.541751,NH3,2,7,4
India,Karnataka,Belgaum,"Ramteerth Nagar, Belgaum - KSPCB",04-05-2024 07:00:00,15.888653,74.541751,SO2,8,9,8
India,Karnataka,Bengaluru,"BTM Layout, Bengaluru - CPCB",04-05-2024 07:00:00,12.9135218,77.5950804,PM2.5,32,36,34
India,Karnataka,Bengaluru,"BTM Layout, Bengaluru - CPCB",04-05-2024 07:00:00,12.9135218,77.5950804,CO,20,32,27
India,Karnataka,Bengaluru,"Bapuji Nagar, Bengaluru - KSPCB",04-05-2024 07:00:00,12.951913,77.539784,NH3,1,1,1
India,Karnataka,Bengaluru,"Bapuji Nagar, Bengaluru - KSPCB",04-05-2024 07:00:00,12.951913,77.539784,SO2,6,9,7
India,Karnataka,Bengaluru,"Hebbal, Bengaluru - KSPCB",04-05-2024 07:00:00,13.029152,77.585901,NO2,4,5,5
India,Karnataka,Bengaluru,"Hebbal, Bengaluru - KSPCB",04-05-2024 07:00:00,13.029152,77.585901,OZONE,8,46,9
India,Karnataka,Bengaluru,"Hombegowda Nagar, Bengaluru - KSPCB",04-05-2024 07:00:00,12.938539,77.590100,PM2.5,18,193,67
India,Karnataka,Bengaluru,"Hombegowda Nagar, Bengaluru - KSPCB",04-05-2024 07:00:00,12.938539,77.590100,NO2,7,22,12
India,Karnataka,Bengaluru,"Hombegowda Nagar, Bengaluru - KSPCB",04-05-2024 07:00:00,12.938539,77.590100,NH3,1,2,1
India,Karnataka,Bengaluru,"Hombegowda Nagar, Bengaluru - KSPCB",04-05-2024 07:00:00,12.938539,77.590100,SO2,1,4,2
India,Karnataka,Bengaluru,"Hombegowda Nagar, Bengaluru - KSPCB",04-05-2024 07:00:00,12.938539,77.590100,CO,22,66,28
India,Karnataka,Bengaluru,"Kasturi Nagar, Bengaluru - KSPCB",04-05-2024 07:00:00,13.003872,77.664217,NH3,3,4,4
India,Karnataka,Bengaluru,"Peenya, Bengaluru - CPCB",04-05-2024 07:00:00,13.0270199,77.494094,SO2,6,13,10
India,Karnataka,Bengaluru,"RVCE-Mailasandra, Bengaluru - KSPCB",04-05-2024 07:00:00,12.921418,77.502466,NO2,16,17,17
India,Karnataka,Bengaluru,"RVCE-Mailasandra, Bengaluru - KSPCB",04-05-2024 07:00:00,12.921418,77.502466,SO2,8,10,8
India,Karnataka,Bengaluru,"RVCE-Mailasandra, Bengaluru - KSPCB",04-05-2024 07:00:00,12.921418,77.502466,OZONE,39,39,39
India,Karnataka,Bengaluru,"Sanegurava Halli, Bengaluru - KSPCB",04-05-2024 07:00:00,12.990328,77.5431385,PM10,34,98,48
India,Karnataka,Bengaluru,"Shivapura_Peenya, Bengaluru - KSPCB",04-05-2024 07:00:00,13.0246342,77.5080115,PM2.5,NA,NA,NA
India,Karnataka,Bidar,"Naubad, Bidar - KSPCB",04-05-2024 07:00:00,17.930306,77.482194,PM2.5,38,87,61
India,Karnataka,Bidar,"Naubad, Bidar - KSPCB",04-05-2024 07:00:00,17.930306,77.482194,SO2,16,24,19
India,Karnataka,Bidar,"Naubad, Bidar - KSPCB",04-05-2024 07:00:00,17.930306,77.482194,OZONE,13,54,28
India,Karnataka,Chamarajanagar,"Urban, Chamarajanagar - KSPCB",04-05-2024 07:00:00,11.55358,76.55521,PM10,58,59,58
India,Karnataka,Chamarajanagar,"Urban, Chamarajanagar - KSPCB",04-05-2024 07:00:00,11.55358,76.55521,SO2,6,10,8
India,Karnataka,Chikkaballapur,"Chikkaballapur Rural, Chikkaballapur - KSPCB",04-05-2024 07:00:00,13.428828,77.731418,OZONE,24,25,25
India,Karnataka,Chikkamagaluru,"Kalyana Nagara, Chikkamagaluru - KSPCB",04-05-2024 07:00:00,13.328028,75.797056,CO,11,123,26
India,Karnataka,Gadag,"Panchal Nagar, Gadag - KSPCB",04-05-2024 07:00:00,15.411456,75.638133,NH3,1,3,2
India,Karnataka,Gadag,"Panchal Nagar, Gadag - KSPCB",04-05-2024 07:00:00,15.411456,75.638133,CO,42,48,45
India,Karnataka,Hassan,"B.Katihalli, Hassan - KSPCB",04-05-2024 07:00:00,13.008556,76.125258,PM2.5,NA,NA,NA
India,Karnataka,Hassan,"B.Katihalli, Hassan - KSPCB",04-05-2024 07:00:00,13.008556,76.125258,PM10,NA,NA,NA
India,Karnataka,Haveri,"Ashwini Nagar, Haveri - KSPCB",04-05-2024 07:00:00,14.791800,75.389600,NO2,NA,NA,NA
India,Karnataka,Haveri,"Ashwini Nagar, Haveri - KSPCB",04-05-2024 07:00:00,14.791800,75.389600,SO2,14,14,14
India,Karnataka,Haveri,"Ashwini Nagar, Haveri - KSPCB",04-05-2024 07:00:00,14.791800,75.389600,OZONE,18,22,18
India,Karnataka,Hubballi,"Deshpande Nagar, Hubballi - KSPCB",04-05-2024 07:00:00,15.351773,75.140726,NH3,5,6,5
India,Karnataka,Hubballi,"Deshpande Nagar, Hubballi - KSPCB",04-05-2024 07:00:00,15.351773,75.140726,SO2,7,9,8
India,Karnataka,Hubballi,"Deshpande Nagar, Hubballi - KSPCB",04-05-2024 07:00:00,15.351773,75.140726,CO,6,53,14
India,Karnataka,Hubballi,"Lingaraj Nagar, Hubballi - KSPCB",04-05-2024 07:00:00,15.3714823,75.1160168,PM2.5,47,59,54
India,Karnataka,Hubballi,"Lingaraj Nagar, Hubballi - KSPCB",04-05-2024 07:00:00,15.3714823,75.1160168,NH3,2,2,2
India,Karnataka,Hubballi,"Lingaraj Nagar, Hubballi - KSPCB",04-05-2024 07:00:00,15.3714823,75.1160168,OZONE,26,79,33
India,Karnataka,Kalaburagi,"Lal Bahadur Shastri Nagar, Kalaburagi - KSPCB",04-05-2024 07:00:00,17.321993,76.822628,PM2.5,NA,NA,NA
India,Karnataka,Kolar,"Tamaka Ind. Area, Kolar - KSPCB",04-05-2024 07:00:00,13.1276288,78.1570122,PM2.5,NA,NA,NA
India,Karnataka,Kolar,"Tamaka Ind. Area, Kolar - KSPCB",04-05-2024 07:00:00,13.1276288,78.1570122,PM10,NA,NA,NA
India,Karnataka,Kolar,"Tamaka Ind. Area, Kolar - KSPCB",04-05-2024 07:00:00,13.1276288,78.1570122,SO2,NA,NA,NA
India,Karnataka,Koppal,"Diwator Nagar, Koppal - KSPCB",04-05-2024 07:00:00,15.347630,76.181767,NH3,5,10,8
India,Karnataka,Koppal,"Diwator Nagar, Koppal - KSPCB",04-05-2024 07:00:00,15.347630,76.181767,CO,100,100,100
India,Karnataka,Koppal,"Diwator Nagar, Koppal - KSPCB",04-05-2024 07:00:00,15.347630,76.181767,OZONE,23,170,28
India,Karnataka,Madikeri,"Stuart Hill, Madikeri - KSPCB",04-05-2024 07:00:00,12.415911,75.735050,NO2,4,74,19
India,Karnataka,Mysuru,"Hebbal 1st Stage, Mysuru - KSPCB",04-05-2024 07:00:00,12.21041,76.37376,PM2.5,16,74,40
India,Karnataka,Mysuru,"Hebbal 1st Stage, Mysuru - KSPCB",04-05-2024 07:00:00,12.21041,76.37376,SO2,1,5,3
India,Karnataka,Shivamogga,"Vinoba Nagara, Shivamogga - KSPCB",04-05-2024 07:00:00,13.940000,75.555917,CO,18,40,34
