country,state,city,station,last_update,latitude,longitude,pollutant_id,pollutant_min,pollutant_max,pollutant_avg
India,Andhra_Pradesh,Amaravati,"Secretariat, Amaravati - APPCB",18-06-2024 07:00:00,16.5150833,80.5181667,NH3,3,4,4
India,Andhra_Pradesh,Amaravati,"Secretariat, Amaravati - APPCB",18-06-2024 07:00:00,16.5150833,80.5181667,SO2,10,36,23
India,Andhra_Pradesh,Amaravati,"Secretariat, Amaravati - APPCB",18-06-2024 07:00:00,16.5150833,80.5181667,CO,8,148,33
India,Andhra_Pradesh,Amaravati,"Secretariat, Amaravati - APPCB",18-06-2024 07:00:00,16.5150833,80.5181667,OZONE,9,33,18
India,Andhra_Pradesh,Anantapur,"Gulzarpet, Anantapur - APPCB",18-06-2024 07:00:00,14.675886,77.593027,PM2.5,28,82,45
India,Andhra_Pradesh,Chittoor,"Gangineni Cheruvu, Chittoor - APPCB",18-06-2024 07:00:00,13.204880,79.097889,CO,14,29,15
India,Andhra_Pradesh,Kadapa,"Yerramukkapalli, Kadapa - APPCB",18-06-2024 07:00:00,14.465052,78.824187,CO,2,30,8
India,Andhra_Pradesh,Rajamahendravaram,"Anand Kala Kshetram, Rajamahendravaram - APPCB",18-06-2024 07:00:00,16.9872867,81.7363176,NO2,6,30,15
India,Andhra_Pradesh,Rajamahendravaram,"Anand Kala Kshetram, Rajamahendravaram - APPCB",18-06-2024 07:00:00,16.9872867,81.7363176,SO2,11,12,12
India,Andhra_Pradesh,Tirupati,"Tirumala, Tirupati - APPCB",18-06-2024 07:00:00,13.67,79.35,SO2,2,14,7
India,Andhra_Pradesh,Tirupati,"Vaikuntapuram, Tirupati - APPCB",18-06-2024 07:00:00,13.615387,79.409230,PM10,NA,NA,NA
India,Andhra_Pradesh,Tirupati,"Vaikuntapuram, Tirupati - APPCB",18-06-2024 07:00:00,13.615387,79.409230,NO2,NA,NA,NA
India,Andhra_Pradesh,Vijayawada,"Kanuru, Vijayawada - APPCB",18-06-2024 07:00:00,16.486692,80.699436,CO,36,36,36
India,Andhra_Pradesh,Vijayawada,"Rajiv Nagar, Vijayawada - APPCB",18-06-2024 07:00:00,16.554731,80.649110,PM10,53,58,55
India,Andhra_Pradesh,Visakhapatnam,"GVM Corporation, Visakhapatnam - APPCB",18-06-2024 07:00:00,17.72,83.3,PM2.5,39,90,53
India,Andhra_Pradesh,Visakhapatnam,"GVM Corporation, Visakhapatnam - APPCB",18-06-2024 07:00:00,17.72,83.3,PM10,84,171,111
India,Assam,Byrnihat,"Central Academy for SFS, Byrnihat - PCBA",18-06-2024 07:00:00,26.071318,91.87488,PM10,37,500,218
India,Assam,Guwahati,"LGBI Airport, Guwahati - PCBA",18-06-2024 07:00:00,26.10887,91.589544,SO2,9,16,11
India,Assam,Guwahati,"Pan Bazaar, Guwahati - PCBA",18-06-2024 07:00:00,26.187500,91.744194,PM2.5,5,40,18
India,Assam,Guwahati,"Pan Bazaar, Guwahati - PCBA",18-06-2024 07:00:00,26.187500,91.744194,SO2,31,37,33
India,Assam,Guwahati,"Pan Bazaar, Guwahati - PCBA",18-06-2024 07:00:00,26.187500,91.744194,OZONE,17,17,17
India,Assam,Nagaon,"Christianpatty, Nagaon - PCBA",18-06-2024 07:00:00,26.349082,92.68449,CO,2,95,45
India,Assam,Nalbari,"Bata Chowk, Nalbari - PCBA",18-06-2024 07:00:00,26.446912,91.439057,NO2,9,23,17
India,Assam,Silchar,"Tarapur, Silchar - PCBA",18-06-2024 07:00:00,24.82827,92.79525,PM2.5,32,34,33
India,Assam,Silchar,"Tarapur, Silchar - PCBA",18-06-2024 07:00:00,24.82827,92.79525,SO2,1,5,4
India,Assam,Sivasagar,"Girls College, Sivasagar - PCBA",18-06-2024 07:00:00,26.987634,94.636574,OZONE,1,9,2
India,Bihar,Aurangabad,"Gurdeo Nagar, Aurangabad - BSPCB",18-06-2024 07:00:00,24.75746,84.366208,PM10,NA,NA,NA
India,Bihar,Aurangabad,"Gurdeo Nagar, Aurangabad - BSPCB",18-06-2024 07:00:00,24.75746,84.366208,NH3,NA,NA,NA
India,Bihar,Aurangabad,"Gurdeo Nagar, Aurangabad - BSPCB",18-06-2024 07:00:00,24.75746,84.366208,CO,16,32,22
India,Bihar,Bettiah,"Kamalnath Nagar, Bettiah - BSPCB",18-06-2024 07:00:00,26.80365,84.51954,PM10,59,143,105
India,Bihar,Bettiah,"Kamalnath Nagar, Bettiah - BSPCB",18-06-2024 07:00:00,26.80365,84.51954,OZONE,2,10,4
India,Bihar,Bhagalpur,"DM Office_Kachari Chowk, Bhagalpur - BSPCB",18-06-2024 07:00:00,25.251013,86.989001,OZONE,44,63,47
India,Bihar,Bhagalpur,"Mayaganj, Bhagalpur - BSPCB",18-06-2024 07:00:00,25.265194,87.012947,NO2,4,9,7
India,Bihar,Bhagalpur,"Mayaganj, Bhagalpur - BSPCB",18-06-2024 07:00:00,25.265194,87.012947,CO,23,38,28
India,Bihar,Bihar Sharif,"D M Colony, Bihar Sharif - BSPCB",18-06-2024 07:00:00,25.204762,85.514960,NH3,1,1,1
India,Bihar,Buxar,"Charitra Van, Buxar - BSPCB (Formerly known as Central Jail)",18-06-2024 07:00:00,25.567520,83.966379,NO2,NA,NA,NA
India,Bihar,Chhapra,"Darshan Nagar, Chhapra - BSPCB",18-06-2024 07:00:00,25.7808257,84.7446768,NO2,1,1,1
India,Bihar,Chhapra,"Darshan Nagar, Chhapra - BSPCB",18-06-2024 07:00:00,25.7808257,84.7446768,SO2,1,1,1
India,Bihar,Gaya,"Collectorate, Gaya - BSPCB",18-06-2024 07:00:00,24.7955,84.9994,PM2.5,18,262,78
India,Bihar,Gaya,"Collectorate, Gaya - BSPCB",18-06-2024 07:00:00,24.7955,84.9994,NO2,4,5,4
India,Bihar,Gaya,"SFTI Kusdihra, Gaya - BSPCB",18-06-2024 07:00:00,24.762518,84.982348,CO,10,30,14
India,Bihar,Hajipur,"Industrial Area, Hajipur - BSPCB",18-06-2024 07:00:00,25.697189,85.245900,PM10,80,171,121
India,Bihar,Hajipur,"Industrial Area, Hajipur - BSPCB",18-06-2024 07:00:00,25.697189,85.245900,NH3,9,15,12
India,Bihar,Hajipur,"Industrial Area, Hajipur - BSPCB",18-06-2024 07:00:00,25.697189,85.245900,CO,15,42,30
India,Bihar,Katihar,"Mirchaibari, Katihar - BSPCB",18-06-2024 07:00:00,25.560083,87.553265,PM2.5,25,73,45
India,Bihar,Katihar,"Mirchaibari, Katihar - BSPCB",18-06-2024 07:00:00,25.560083,87.553265,PM10,37,129,47
India,Bihar,Katihar,"Mirchaibari, Katihar - BSPCB",18-06-2024 07:00:00,25.560083,87.553265,NH3,1,2,1
India,Bihar,Katihar,"Mirchaibari, Katihar - BSPCB",18-06-2024 07:00:00,25.560083,87.553265,CO,27,40,34
India,Bihar,Katihar,"Mirchaibari, Katihar - BSPCB",18-06-2024 07:00:00,25.560083,87.553265,OZONE,3,9,4
India,Bihar,Manguraha,"Forest Rest House, Manguraha - BSPCB",18-06-2024 07:00:00,27.308328,84.531742,OZONE,9,48,14
India,Bihar,Motihari,"Gandak Colony, Motihari - BSPCB",18-06-2024 07:00:00,26.63086,84.90051,NO2,NA,NA,NA
India,Bihar,Munger,"Town Hall, Munger - BSPCB",18-06-2024 07:00:00,25.376776,86.471523,CO,20,62,52
India,Bihar,Munger,"Town Hall, Munger - BSPCB",18-06-2024 07:00:00,25.376776,86.471523,OZONE,28,33,29
India,Bihar,Muzaffarpur,"MIT-Daudpur Kothi, Muzaffarpur - BSPCB",18-06-2024 07:00:00,26.1403345,85.3650192,NO2,3,6,5
India,Bihar,Patna,"DRM Office Danapur, Patna - BSPCB",18-06-2024 07:00:00,25.586562,85.043586,NO2,15,43,19
India,Bihar,Patna,"Govt. High School Shikarpur, Patna - BSPCB",18-06-2024 07:00:00,25.592539,85.227158,NO2,1,36,20
India,Bihar,Patna,"Muradpur, Patna - BSPCB",18-06-2024 07:00:00,25.619651,85.147382,NH3,3,9,6
India,Bihar,Patna,"Muradpur, Patna - BSPCB",18-06-2024 07:00:00,25.619651,85.147382,SO2,5,10,6
India,Bihar,Patna,"Samanpura, Patna - BSPCB",18-06-2024 07:00:00,25.596727,85.085624,CO,51,66,56
India,Bihar,Purnia,"Mariam Nagar, Purnia - BSPCB",18-06-2024 07:00:00,25.366336,87.117468,OZONE,3,15,8
India,Bihar,Rajgir,"Dangi Tola, Rajgir - BSPCB",18-06-2024 07:00:00,25.03280,85.41948,NH3,2,2,2
India,Bihar,Rajgir,"Dangi Tola, Rajgir - BSPCB",18-06-2024 07:00:00,25.03280,85.41948,CO,38,38,38
India,Bihar,Saharsa,"Police Line, Saharsa - BSPCB",18-06-2024 07:00:00,25.892357,86.590325,PM10,23,109,65
India,Bihar,Saharsa,"Police Line, Saharsa - BSPCB",18-06-2024 07:00:00,25.892357,86.590325,SO2,16,17,17
India,Bihar,Samastipur,"DM Office_Kasipur, Samastipur - BSPCB",18-06-2024 07:00:00,25.859655,85.77944,NH3,NA,NA,NA
India,Bihar,Samastipur,"DM Office_Kasipur, Samastipur - BSPCB",18-06-2024 07:00:00,25.859655,85.77944,CO,NA,NA,NA
India,Bihar,Samastipur,"DM Office_Kasipur, Samastipur - BSPCB",18-06-2024 07:00:00,25.859655,85.77944,OZONE,NA,NA,NA
India,Bihar,Siwan,"Chitragupta Nagar, Siwan - BSPCB",18-06-2024 07:00:00,26.2271665,84.3570427,CO,80,109,92
India,Chandigarh,Chandigarh,"Sector 22, Chandigarh - CPCC",18-06-2024 07:00:00,30.735567,76.775714,NO2,17,48,27
India,Chandigarh,Chandigarh,"Sector 22, Chandigarh - CPCC",18-06-2024 07:00:00,30.735567,76.775714,NH3,6,23,10
India,Chandigarh,Chandigarh,"Sector 22, Chandigarh - CPCC",18-06-2024 07:00:00,30.735567,76.775714,CO,NA,NA,NA
India,Chandigarh,Chandigarh,"Sector-25, Chandigarh - CPCC",18-06-2024 07:00:00,30.751462,76.762879,PM2.5,96,211,142
India,Chandigarh,Chandigarh,"Sector-25, Chandigarh - CPCC",18-06-2024 07:00:00,30.751462,76.762879,OZONE,13,53,20
India,Chandigarh,Chandigarh,"Sector-53, Chandigarh - CPCC",18-06-2024 07:00:00,30.719859,76.738637,NO2,9,59,23
India,Chandigarh,Chandigarh,"Sector-53, Chandigarh - CPCC",18-06-2024 07:00:00,30.719859,76.738637,SO2,3,19,9
India,Chandigarh,Chandigarh,"Sector-53, Chandigarh - CPCC",18-06-2024 07:00:00,30.719859,76.738637,OZONE,21,53,27
India,Chhattisgarh,Bhilai,"32Bungalows, Bhilai - CECB",18-06-2024 07:00:00,21.194815,81.314770,OZONE,9,34,13
India,Chhattisgarh,Bhilai,"Civic Center, Bhilai - Bhilai Steel Plant",18-06-2024 07:00:00,21.185571,81.343175,NO2,7,8,8
India,Chhattisgarh,Bhilai,"Civic Center, Bhilai - Bhilai Steel Plant",18-06-2024 07:00:00,21.185571,81.343175,OZONE,22,49,28
India,Chhattisgarh,Bhilai,"Hathkhoj, Bhilai - CECB",18-06-2024 07:00:00,21.224231,81.408350,PM10,26,79,54
India,Chhattisgarh,Bhilai,"Hathkhoj, Bhilai - CECB",18-06-2024 07:00:00,21.224231,81.408350,NH3,9,10,10
India,Chhattisgarh,Bilaspur,"Mangala, Bilaspur - NTPC",18-06-2024 07:00:00,22.08815,82.13737,PM2.5,28,87,44
India,Chhattisgarh,Korba,"Rampur, Korba - CECB",18-06-2024 07:00:00,22.368195,82.746431,PM10,NA,NA,NA
India,Chhattisgarh,Korba,"Rampur, Korba - CECB",18-06-2024 07:00:00,22.368195,82.746431,CO,NA,NA,NA
India,Chhattisgarh,Korba,"Rampur, Korba - CECB",18-06-2024 07:00:00,22.368195,82.746431,OZONE,NA,NA,NA
India,Chhattisgarh,Korba,"Urja Nagar, Korba - CECB",18-06-2024 07:00:00,22.348441,82.549611,SO2,6,8,7
India,Chhattisgarh,Korba,"Urja Nagar, Korba - CECB",18-06-2024 07:00:00,22.348441,82.549611,CO,18,38,30
India,Chhattisgarh,Kunjemura,"OP Jindal School, Kunjemura - CECB",18-06-2024 07:00:00,22.126650,83.483212,SO2,1,7,3
India,Chhattisgarh,Raipur,"AIIMS, Raipur - CECB",18-06-2024 07:00:00,21.258815,81.578979,NH3,6,6,6
India,Chhattisgarh,Raipur,"Krishak Nagar, Raipur - CECB",18-06-2024 07:00:00,21.237755,81.705301,OZONE,8,39,20
India,Chhattisgarh,Raipur,"Siltara Phase-II, Raipur - CECB",18-06-2024 07:00:00,21.371751,81.664929,PM2.5,76,294,142
India,Chhattisgarh,Raipur,"Siltara Phase-II, Raipur - CECB",18-06-2024 07:00:00,21.371751,81.664929,SO2,4,73,21
India,Chhattisgarh,Tumidih,"OP Jindal Industrial Park, Tumidih - CECB",18-06-2024 07:00:00,22.06631475,83.33820077,NO2,14,45,32
India,Delhi,Delhi,"Alipur, Delhi - DPCC",18-06-2024 07:00:00,28.815329,77.153010,OZONE,7,111,18
India,Delhi,Delhi,"Anand Vihar, Delhi - DPCC",18-06-2024 07:00:00,28.647622,77.3158090,SO2,NA,NA,NA
India,Delhi,Delhi,"Ashok Vihar, Delhi - DPCC",18-06-2024 07:00:00,28.695381,77.181665,NH3,6,11,9
India,Delhi,Delhi,"Ashok Vihar, Delhi - DPCC",18-06-2024 07:00:00,28.695381,77.181665,CO,16,72,43
India,Delhi,Delhi,"Aya Nagar, Delhi - IMD",18-06-2024 07:00:00,28.4706914,77.1099364,NO2,8,12,10
India,Delhi,Delhi,"Aya Nagar, Delhi - IMD",18-06-2024 07:00:00,28.4706914,77.1099364,OZONE,2,33,4
India,Delhi,Delhi,"Bawana, Delhi - DPCC",18-06-2024 07:00:00,28.776200,77.051074,PM2.5,63,334,151
India,Delhi,Delhi,"CRRI Mathura Road, Delhi - IMD",18-06-2024 07:00:00,28.5512005,77.2735737,PM2.5,13,149,78
India,Delhi,Delhi,"CRRI Mathura Road, Delhi - IMD",18-06-2024 07:00:00,28.5512005,77.2735737,NO2,19,49,31
India,Delhi,Delhi,"IHBAS, Dilshad Garden, Delhi - CPCB",18-06-2024 07:00:00,28.6811736,77.3025234,NH3,4,10,6
India,Delhi,Delhi,"ITO, Delhi - CPCB",18-06-2024 07:00:00,28.628624,77.241060,PM10,80,135,103
India,Delhi,Delhi,"ITO, Delhi - CPCB",18-06-2024 07:00:00,28.628624,77.241060,OZONE,3,42,4
India,Delhi,Delhi,"Jawaharlal Nehru Stadium, Delhi - DPCC",18-06-2024 07:00:00,28.580280,77.233829,CO,5,66,51
India,Delhi,Delhi,"Lodhi Road, Delhi - IMD",18-06-2024 07:00:00,28.5918245,77.2273074,OZONE,2,13,3
India,Delhi,Delhi,"Mandir Marg, Delhi - DPCC",18-06-2024 07:00:00,28.636429,77.201067,PM10,96,187,136
India,Delhi,Delhi,"Mundka, Delhi - DPCC",18-06-2024 07:00:00,28.684678,77.076574,NH3,6,14,9
India,Delhi,Delhi,"Mundka, Delhi - DPCC",18-06-2024 07:00:00,28.684678,77.076574,CO,34,68,54
India,Delhi,Delhi,"NSIT Dwarka, Delhi - CPCB",18-06-2024 07:00:00,28.60909,77.0325413,NH3,8,9,8
India,Delhi,Delhi,"NSIT Dwarka, Delhi - CPCB",18-06-2024 07:00:00,28.60909,77.0325413,SO2,4,32,16
India,Delhi,Delhi,"Najafgarh, Delhi - DPCC",18-06-2024 07:00:00,28.570173,76.933762,NH3,5,9,6
India,Delhi,Delhi,"Najafgarh, Delhi - DPCC",18-06-2024 07:00:00,28.570173,76.933762,CO,31,69,52
India,Delhi,Delhi,"Najafgarh, Delhi - DPCC",18-06-2024 07:00:00,28.570173,76.933762,OZONE,9,56,19
India,Delhi,Delhi,"Narela, Delhi - DPCC",18-06-2024 07:00:00,28.822836,77.101981,CO,26,58,53
India,Delhi,Delhi,"Narela, Delhi - DPCC",18-06-2024 07:00:00,28.822836,77.101981,OZONE,24,85,29
India,Delhi,Delhi,"Nehru Nagar, Delhi - DPCC",18-06-2024 07:00:00,28.567890,77.250515,NO2,6,51,22
India,Delhi,Delhi,"Nehru Nagar, Delhi - DPCC",18-06-2024 07:00:00,28.567890,77.250515,NH3,3,8,4
India,Delhi,Delhi,"Okhla Phase-2, Delhi - DPCC",18-06-2024 07:00:00,28.530785,77.271255,NH3,8,14,10
India,Delhi,Delhi,"Okhla Phase-2, Delhi - DPCC",18-06-2024 07:00:00,28.530785,77.271255,CO,30,116,75
India,Delhi,Delhi,"Pusa, Delhi - DPCC",18-06-2024 07:00:00,28.639652,77.146275,CO,24,100,54
India,Delhi,Delhi,"Pusa, Delhi - DPCC",18-06-2024 07:00:00,28.639652,77.146275,OZONE,8,56,10
India,Delhi,Delhi,"Pusa, Delhi - IMD",18-06-2024 07:00:00,28.636110,77.173332,NO2,10,21,15
India,Delhi,Delhi,"Rohini, Delhi - DPCC",18-06-2024 07:00:00,28.732528,77.119920,NO2,7,43,22
India,Delhi,Delhi,"Rohini, Delhi - DPCC",18-06-2024 07:00:00,28.732528,77.119920,OZONE,8,99,14
India,Delhi,Delhi,"Shadipur, Delhi - CPCB",18-06-2024 07:00:00,28.6514781,77.1473105,CO,32,72,42
India,Delhi,Delhi,"Sirifort, Delhi - CPCB",18-06-2024 07:00:00,28.5504249,77.2159377,PM2.5,41,186,82
India,Delhi,Delhi,"Sirifort, Delhi - CPCB",18-06-2024 07:00:00,28.5504249,77.2159377,CO,8,58,38
India,Delhi,Delhi,"Sri Aurobindo Marg, Delhi - DPCC",18-06-2024 07:00:00,28.531346,77.190156,OZONE,3,77,9
India,Delhi,Delhi,"Vivek Vihar, Delhi - DPCC",18-06-2024 07:00:00,28.672342,77.315260,NO2,NA,NA,NA
India,Delhi,Delhi,"Wazirpur, Delhi - DPCC",18-06-2024 07:00:00,28.699793,77.165453,PM10,142,191,171
India,Delhi,Delhi,"Wazirpur, Delhi - DPCC",18-06-2024 07:00:00,28.699793,77.165453,NH3,7,9,8
India,Delhi,Delhi,"Wazirpur, Delhi - DPCC",18-06-2024 07:00:00,28.699793,77.165453,CO,16,80,36
India,Gujarat,Ahmedabad,"Chandkheda, Ahmedabad - IITM",18-06-2024 07:00:00,23.107969,72.574648,OZONE,14,73,17
India,Gujarat,Ahmedabad,"Gyaspur, Ahmedabad - IITM",18-06-2024 07:00:00,22.977134,72.553024,PM10,60,153,83
India,Gujarat,Ahmedabad,"Maninagar, Ahmedabad - GPCB",18-06-2024 07:00:00,23.002657,72.591912,SO2,11,108,37
India,Gujarat,Ahmedabad,"Maninagar, Ahmedabad - GPCB",18-06-2024 07:00:00,23.002657,72.591912,CO,7,25,12
India,Gujarat,Ahmedabad,"Raikhad, Ahmedabad - IITM",18-06-2024 07:00:00,23.020509,72.579261,CO,6,22,11
India,Gujarat,Ahmedabad,"Raikhad, Ahmedabad - IITM",18-06-2024 07:00:00,23.020509,72.579261,OZONE,15,87,35
India,Gujarat,Ahmedabad,"Rakhial, Ahmedabad - IITM",18-06-2024 07:00:00,23.016834,72.625775,SO2,23,37,30
India,Gujarat,Ahmedabad,"SVPI Airport Hansol, Ahmedabad - IITM",18-06-2024 07:00:00,23.076793,72.627874,SO2,1,21,14
India,Gujarat,Ahmedabad,"SVPI Airport Hansol, Ahmedabad - IITM",18-06-2024 07:00:00,23.076793,72.627874,CO,18,61,43
India,Gujarat,Ahmedabad,"Sardar Vallabhbhai Patel Stadium, Ahmedabad - IITM",18-06-2024 07:00:00,23.043070,72.562968,NH3,7,9,9
India,Gujarat,Ahmedabad,"Sardar Vallabhbhai Patel Stadium, Ahmedabad - IITM",18-06-2024 07:00:00,23.043070,72.562968,SO2,29,40,38
India,Gujarat,Ahmedabad,"Sardar Vallabhbhai Patel Stadium, Ahmedabad - IITM",18-06-2024 07:00:00,23.043070,72.562968,CO,20,73,62
India,Gujarat,Gandhinagar,"GIFT City, Gandhinagar - IITM",18-06-2024 07:00:00,23.163798,72.677768,NO2,15,35,22
India,Gujarat,Gandhinagar,"GIFT City, Gandhinagar - IITM",18-06-2024 07:00:00,23.163798,72.677768,SO2,4,15,10
India,Gujarat,Gandhinagar,"GIFT City, Gandhinagar - IITM",18-06-2024 07:00:00,23.163798,72.677768,OZONE,18,71,32
India,Gujarat,Gandhinagar,"Sector-10, Gandhinagar - GPCB",18-06-2024 07:00:00,23.221714,72.654328,PM2.5,NA,NA,NA
India,Gujarat,Vatva,"Phase-4 GIDC, Vatva - GPCB",18-06-2024 07:00:00,22.969611,72.643500,CO,3,34,22
India,Haryana,Bahadurgarh,"Arya Nagar, Bahadurgarh - HSPCB",18-06-2024 07:00:00,28.6701,76.9254,SO2,4,39,14
India,Haryana,Ballabgarh,"Nathu Colony, Ballabgarh - HSPCB",18-06-2024 07:00:00,28.3419248,77.319699,PM2.5,85,278,160
India,Haryana,Bhiwani,"H.B. Colony, Bhiwani - HSPCB",18-06-2024 07:00:00,28.806223,76.141105,PM2.5,8,138,96
India,Haryana,Charkhi Dadri,"Mini Secretariat, Charkhi Dadri - HSPCB",18-06-2024 07:00:00,28.593883,76.270653,CO,6,125,30
India,Haryana,Dharuhera,"Municipal Corporation Office, Dharuhera -  HSPCB",18-06-2024 07:00:00,28.206800,76.799700,PM10,53,181,75
India,Haryana,Dharuhera,"Municipal Corporation Office, Dharuhera -  HSPCB",18-06-2024 07:00:00,28.206800,76.799700,NH3,9,26,20
India,Haryana,Faridabad,"New Industrial Town, Faridabad - HSPCB",18-06-2024 07:00:00,28.39072,77.30059,CO,1,42,15
India,Haryana,Faridabad,"Sector 11, Faridabad - HSPCB",18-06-2024 07:00:00,28.376058,77.315741,SO2,3,117,18
India,Haryana,Faridabad,"Sector 11, Faridabad - HSPCB",18-06-2024 07:00:00,28.376058,77.315741,OZONE,7,23,9
India,Haryana,Faridabad,"Sector 30, Faridabad - HSPCB",18-06-2024 07:00:00,28.4417,77.3217,OZONE,1,36,5
India,Haryana,Fatehabad,"Huda Sector, Fatehabad - HSPCB",18-06-2024 07:00:00,29.503664,75.467934,CO,43,46,44
India,Haryana,Gurugram,"NISE Gwal Pahari, Gurugram - IMD",18-06-2024 07:00:00,28.422681,77.148944,OZONE,4,53,12
India,Haryana,Gurugram,"Sector-51, Gurugram - HSPCB",18-06-2024 07:00:00,28.4227,77.0667,PM10,103,247,169
India,Haryana,Gurugram,"Sector-51, Gurugram - HSPCB",18-06-2024 07:00:00,28.4227,77.0667,NO2,13,29,23
India,Haryana,Gurugram,"Sector-51, Gurugram - HSPCB",18-06-2024 07:00:00,28.4227,77.0667,SO2,2,4,3
India,Haryana,Gurugram,"Sector-51, Gurugram - HSPCB",18-06-2024 07:00:00,28.4227,77.0667,CO,22,38,33
India,Haryana,Gurugram,"Vikas Sadan, Gurugram - HSPCB",18-06-2024 07:00:00,28.4501238,77.0263051,OZONE,8,68,9
India,Haryana,Hisar,"Urban Estate-II, Hisar - HSPCB",18-06-2024 07:00:00,29.140560,75.744941,OZONE,23,68,26
India,Haryana,Jind,"Police Lines, Jind - HSPCB",18-06-2024 07:00:00,29.307814,76.337619,PM10,91,145,122
India,Haryana,Jind,"Police Lines, Jind - HSPCB",18-06-2024 07:00:00,29.307814,76.337619,NO2,1,19,4
India,Haryana,Kaithal,"Rishi Nagar, Kaithal - HSPCB",18-06-2024 07:00:00,29.8006,76.4155,NO2,24,26,25
India,Haryana,Kaithal,"Rishi Nagar, Kaithal - HSPCB",18-06-2024 07:00:00,29.8006,76.4155,SO2,1,29,10
India,Haryana,Karnal,"Sector-12, Karnal - HSPCB",18-06-2024 07:00:00,29.695300,77.002700,PM2.5,63,88,76
India,Haryana,Karnal,"Sector-12, Karnal - HSPCB",18-06-2024 07:00:00,29.695300,77.002700,OZONE,24,31,25
India,Haryana,Mandikhera,"General Hospital, Mandikhera - HSPCB",18-06-2024 07:00:00,27.9002,76.9938,SO2,27,38,34
India,Haryana,Mandikhera,"General Hospital, Mandikhera - HSPCB",18-06-2024 07:00:00,27.9002,76.9938,OZONE,18,33,26
India,Haryana,Manesar,"Sector-2 IMT, Manesar - HSPCB",18-06-2024 07:00:00,28.360699,76.936090,NH3,2,3,2
India,Haryana,Manesar,"Sector-2 IMT, Manesar - HSPCB",18-06-2024 07:00:00,28.360699,76.936090,CO,2,12,10
India,Haryana,Narnaul,"Shastri Nagar, Narnaul - HSPCB",18-06-2024 07:00:00,28.060249,76.113115,PM2.5,27,45,38
India,Haryana,Narnaul,"Shastri Nagar, Narnaul - HSPCB",18-06-2024 07:00:00,28.060249,76.113115,PM10,27,45,38
India,Haryana,Palwal,"Shyam Nagar, Palwal - HSPCB",18-06-2024 07:00:00,28.1485564,77.3320667,NO2,23,24,24
India,Haryana,Rohtak,"MD University, Rohtak - HSPCB",18-06-2024 07:00:00,28.52123,76.37138,PM2.5,23,354,191
India,Haryana,Rohtak,"MD University, Rohtak - HSPCB",18-06-2024 07:00:00,28.52123,76.37138,NO2,46,54,50
India,Haryana,Rohtak,"MD University, Rohtak - HSPCB",18-06-2024 07:00:00,28.52123,76.37138,OZONE,46,54,48
India,Haryana,Sirsa,"F-Block, Sirsa - HSPCB",18-06-2024 07:00:00,29.536400,75.015800,PM10,81,123,101
India,Haryana,Sirsa,"F-Block, Sirsa - HSPCB",18-06-2024 07:00:00,29.536400,75.015800,SO2,2,28,13
India,Haryana,Sonipat,"Murthal, Sonipat - HSPCB",18-06-2024 07:00:00,29.027200,77.062100,CO,24,26,25
India,Haryana,Yamuna Nagar,"Gobind Pura, Yamuna Nagar - HSPCB",18-06-2024 07:00:00,30.1480566,77.2893471,NH3,1,6,4
India,Himachal Pradesh,Baddi,"HIMUDA Complex Phase-1, Baddi - HPPCB",18-06-2024 07:00:00,30.943887,76.801991,SO2,9,57,24
India,Karnataka,Bengaluru,"Bapuji Nagar, Bengaluru - KSPCB",18-06-2024 07:00:00,12.951913,77.539784,PM2.5,11,50,25
India,Karnataka,Bengaluru,"Bapuji Nagar, Bengaluru - KSPCB",18-06-2024 07:00:00,12.951913,77.539784,OZONE,22,45,38
India,Karnataka,Bengaluru,"City Railway Station, Bengaluru - KSPCB",18-06-2024 07:00:00,12.9756843,77.5660749,PM10,65,111,82
India,Karnataka,Bengaluru,"City Railway Station, Bengaluru - KSPCB",18-06-2024 07:00:00,12.9756843,77.5660749,CO,52,90,75
India,Karnataka,Bengaluru,"Hebbal, Bengaluru - KSPCB",18-06-2024 07:00:00,13.029152,77.585901,PM10,9,40,25
India,Karnataka,Bengaluru,"Hebbal, Bengaluru - KSPCB",18-06-2024 07:00:00,13.029152,77.585901,CO,12,26,15
India,Karnataka,Bengaluru,"Hombegowda Nagar, Bengaluru - KSPCB",18-06-2024 07:00:00,12.938539,77.590100,PM10,6,31,20
India,Karnataka,Bengaluru,"Hombegowda Nagar, Bengaluru - KSPCB",18-06-2024 07:00:00,12.938539,77.590100,SO2,2,4,3
India,Karnataka,Bengaluru,"Jayanagar 5th Block, Bengaluru - KSPCB",18-06-2024 07:00:00,12.920984,77.584908,PM2.5,5,24,16
India,Karnataka,Bengaluru,"Jayanagar 5th Block, Bengaluru - KSPCB",18-06-2024 07:00:00,12.920984,77.584908,PM10,10,39,22
India,Karnataka,Bengaluru,"Jayanagar 5th Block, Bengaluru - KSPCB",18-06-2024 07:00:00,12.920984,77.584908,NH3,2,2,2
India,Karnataka,Bengaluru,"Jayanagar 5th Block, Bengaluru - KSPCB",18-06-2024 07:00:00,12.920984,77.584908,CO,16,16,16
India,Karnataka,Bengaluru,"Jigani, Bengaluru - KSPCB",18-06-2024 07:00:00,12.7816279,77.6299145,PM2.5,36,39,38
India,Karnataka,Bengaluru,"Peenya, Bengaluru - CPCB",18-06-2024 07:00:00,13.0270199,77.494094,CO,80,84,82
India,Karnataka,Bengaluru,"RVCE-Mailasandra, Bengaluru - KSPCB",18-06-2024 07:00:00,12.921418,77.502466,CO,36,65,46
India,Karnataka,Bengaluru,"RVCE-Mailasandra, Bengaluru - KSPCB",18-06-2024 07:00:00,12.921418,77.502466,OZONE,39,39,39
India,Karnataka,Bengaluru,"Sanegurava Halli, Bengaluru - KSPCB",18-06-2024 07:00:00,12.990328,77.5431385,NO2,20,29,22
India,Karnataka,Bidar,"Naubad, Bidar - KSPCB",18-06-2024 07:00:00,17.930306,77.482194,SO2,NA,NA,NA
India,Karnataka,Chamarajanagar,"Urban, Chamarajanagar - KSPCB",18-06-2024 07:00:00,11.55358,76.55521,PM10,34,57,41
India,Karnataka,Chamarajanagar,"Urban, Chamarajanagar - KSPCB",18-06-2024 07:00:00,11.55358,76.55521,NO2,19,33,25
India,Karnataka,Chikkaballapur,"Chikkaballapur Rural, Chikkaballapur - KSPCB",18-06-2024 07:00:00,13.428828,77.731418,NO2,6,10,7
India,Karnataka,Chikkamagaluru,"Kalyana Nagara, Chikkamagaluru - KSPCB",18-06-2024 07:00:00,13.328028,75.797056,PM2.5,3,38,17
India,Karnataka,Chikkamagaluru,"Kalyana Nagara, Chikkamagaluru - KSPCB",18-06-2024 07:00:00,13.328028,75.797056,SO2,1,9,4
India,Karnataka,Dharwad,"Kalabhavan, Dharwad - KSPCB",18-06-2024 07:00:00,15.459706,75.008381,CO,1,47,16
India,Karnataka,Gadag,"Panchal Nagar, Gadag - KSPCB",18-06-2024 07:00:00,15.411456,75.638133,OZONE,NA,NA,NA
India,Karnataka,Haveri,"Ashwini Nagar, Haveri - KSPCB",18-06-2024 07:00:00,14.791800,75.389600,PM2.5,11,29,19
India,Karnataka,Hubballi,"Lingaraj Nagar, Hubballi - KSPCB",18-06-2024 07:00:00,15.3714823,75.1160168,PM10,43,101,65
India,Karnataka,Kolar,"Tamaka Ind. Area, Kolar - KSPCB",18-06-2024 07:00:00,13.1276288,78.1570122,CO,6,7,6
India,Karnataka,Kolar,"Tamaka Ind. Area, Kolar - KSPCB",18-06-2024 07:00:00,13.1276288,78.1570122,OZONE,14,17,14
India,Karnataka,Madikeri,"Stuart Hill, Madikeri - KSPCB",18-06-2024 07:00:00,12.415911,75.735050,PM2.5,14,31,22
India,Karnataka,Raichur,"Haji Colony, Raichur - KSPCB",18-06-2024 07:00:00,16.208139,77.348417,OZONE,3,7,5
India,Karnataka,Ramanagara,"Vijay Nagar, Ramanagara - KSPCB",18-06-2024 07:00:00,12.733409,77.298051,PM2.5,3,47,14
India,Karnataka,Ramanagara,"Vijay Nagar, Ramanagara - KSPCB",18-06-2024 07:00:00,12.733409,77.298051,NO2,8,42,12
India,Karnataka,Ramanagara,"Vijay Nagar, Ramanagara - KSPCB",18-06-2024 07:00:00,12.733409,77.298051,NH3,1,3,2
India,Karnataka,Tumakuru,"Thimmalapura, Tumakuru - KSPCB",18-06-2024 07:00:00,13.377516,77.099072,OZONE,9,20,12
India,Karnataka,Vijayapura,"Ibrahimpur, Vijayapura - KSPCB",18-06-2024 07:00:00,16.802639,75.722694,PM10,41,44,42
India,Karnataka,Yadgir,"Collector Office, Yadgir - KSPCB",18-06-2024 07:00:00,16.7602,77.1428,PM2.5,2,22,11
India,Kerala,Thiruvananthapuram,"Kariavattom, Thiruvananthapuram - Kerala PCB",18-06-2024 07:00:00,8.563700,76.886500,CO,18,43,22
India,Kerala,Thiruvananthapuram,"Plammoodu, Thiruvananthapuram - Kerala PCB",18-06-2024 07:00:00,8.5149093,76.9435879,CO,7,28,17
India,Kerala,Thiruvananthapuram,"Plammoodu, Thiruvananthapuram - Kerala PCB",18-06-2024 07:00:00,8.5149093,76.9435879,OZONE,6,55,21
India,Kerala,Thrissur,"Corporation Ground, Thrissur - Kerala PCB",18-06-2024 07:00:00,10.532400,76.215900,NO2,7,8,8
India,Madhya Pradesh,Bhopal,"T T Nagar, Bhopal - MPPCB",18-06-2024 07:00:00,23.233584,77.400574,PM10,41,117,79
India,Madhya Pradesh,Bhopal,"T T Nagar, Bhopal - MPPCB",18-06-2024 07:00:00,23.233584,77.400574,NH3,5,9,6
India,Madhya Pradesh,Bhopal,"T T Nagar, Bhopal - MPPCB",18-06-2024 07:00:00,23.233584,77.400574,OZONE,8,34,19
India,Madhya Pradesh,Gwalior,"City Center, Gwalior - MPPCB",18-06-2024 07:00:00,26.203442,78.193251,PM2.5,22,45,31
India,Madhya Pradesh,Gwalior,"City Center, Gwalior - MPPCB",18-06-2024 07:00:00,26.203442,78.193251,PM10,18,103,54
India,Madhya Pradesh,Gwalior,"Deen Dayal Nagar, Gwalior - MPPCB",18-06-2024 07:00:00,26.259242,78.216432,PM10,24,156,82
India,Madhya Pradesh,Gwalior,"Deen Dayal Nagar, Gwalior - MPPCB",18-06-2024 07:00:00,26.259242,78.216432,CO,25,64,49
India,Madhya Pradesh,Gwalior,"Maharaj Bada, Gwalior - MPPCB",18-06-2024 07:00:00,26.200388,78.147714,OZONE,33,88,69
India,Madhya Pradesh,Indore,"Maguda Nagar, Indore - IMC",18-06-2024 07:00:00,22.7524,75.8872,PM2.5,NA,NA,NA
India,Madhya Pradesh,Indore,"Maguda Nagar, Indore - IMC",18-06-2024 07:00:00,22.7524,75.8872,PM10,NA,NA,NA
India,Madhya Pradesh,Indore,"Regional Park, Indore - IMC",18-06-2024 07:00:00,22.6780,75.8559,PM10,NA,NA,NA
India,Madhya Pradesh,Indore,"Regional Park, Indore - IMC",18-06-2024 07:00:00,22.6780,75.8559,NH3,1,2,1
India,Madhya Pradesh,Indore,"Regional Park, Indore - IMC",18-06-2024 07:00:00,22.6780,75.8559,SO2,49,59,56
India,Madhya Pradesh,Indore,"Regional Park, Indore - IMC",18-06-2024 07:00:00,22.6780,75.8559,OZONE,5,16,8
India,Madhya Pradesh,Indore,"Residency Area, Indore - IMC",18-06-2024 07:00:00,22.7084,75.8815,PM2.5,25,36,30
India,Madhya Pradesh,Jabalpur,"Gupteshwar, Jabalpur - JMC",18-06-2024 07:00:00,23.142888,79.916147,OZONE,17,71,26
India,Madhya Pradesh,Jabalpur,"Marhatal, Jabalpur - MPPCB",18-06-2024 07:00:00,23.168606,79.932247,PM10,60,159,92
India,Madhya Pradesh,Jabalpur,"Marhatal, Jabalpur - MPPCB",18-06-2024 07:00:00,23.168606,79.932247,NH3,4,6,5
India,Madhya Pradesh,Jabalpur,"Suhagi, Jabalpur - JMC",18-06-2024 07:00:00,23.218135,79.957770,PM10,NA,NA,NA
India,Madhya Pradesh,Jabalpur,"Suhagi, Jabalpur - JMC",18-06-2024 07:00:00,23.218135,79.957770,CO,36,80,53
India,Madhya Pradesh,Katni,"Gole Bazar, Katni - MPPCB",18-06-2024 07:00:00,23.50016,80.23284,NO2,18,45,31
India,Madhya Pradesh,Maihar,"Sahilara, Maihar - KJS Cements",18-06-2024 07:00:00,24.2613009,80.7231783,NO2,11,15,12
India,Madhya Pradesh,Maihar,"Sahilara, Maihar - KJS Cements",18-06-2024 07:00:00,24.2613009,80.7231783,CO,30,38,35
India,Madhya Pradesh,Mandideep,"Sector-D Industrial Area, Mandideep - MPPCB",18-06-2024 07:00:00,23.108440,77.511428,OZONE,4,15,6
India,Madhya Pradesh,Pithampur,"Sector-2 Industrial Area, Pithampur - MPPCB",18-06-2024 07:00:00,22.624758,75.675238,PM10,69,134,100
India,Madhya Pradesh,Pithampur,"Sector-2 Industrial Area, Pithampur - MPPCB",18-06-2024 07:00:00,22.624758,75.675238,NH3,5,5,5
India,Madhya Pradesh,Ratlam,"Shasthri Nagar, Ratlam - IPCA Lab",18-06-2024 07:00:00,23.331731,75.045981,PM2.5,6,65,39
India,Madhya Pradesh,Ratlam,"Shasthri Nagar, Ratlam - IPCA Lab",18-06-2024 07:00:00,23.331731,75.045981,SO2,28,29,29
India,Madhya Pradesh,Sagar,"Civil Lines, Sagar - MPPCB",18-06-2024 07:00:00,23.838586,78.759431,PM2.5,12,51,29
India,Madhya Pradesh,Sagar,"Deen Dayal Nagar, Sagar - MPPCB",18-06-2024 07:00:00,23.8640158,78.80289321,CO,58,62,60
India,Madhya Pradesh,Satna,"Bandhavgar Colony, Satna - Birla Cement",18-06-2024 07:00:00,24.58434363,80.8549414,SO2,3,3,3
India,Madhya Pradesh,Ujjain,"Mahakaleshwar Temple, Ujjain - MPPCB",18-06-2024 07:00:00,23.182719 ,75.768218 ,NH3,6,12,9
India,Maharashtra,Amravati,"Shivneri Colony, Amravati - MPCB",18-06-2024 07:00:00,20.9402359,77.7895248,PM10,21,80,47
India,Maharashtra,Amravati,"Shivneri Colony, Amravati - MPCB",18-06-2024 07:00:00,20.9402359,77.7895248,NH3,4,6,5
India,Maharashtra,Amravati,"Shivneri Colony, Amravati - MPCB",18-06-2024 07:00:00,20.9402359,77.7895248,SO2,1,5,3
India,Maharashtra,Amravati,"Shivneri Colony, Amravati - MPCB",18-06-2024 07:00:00,20.9402359,77.7895248,CO,12,33,15
India,Maharashtra,Amravati,"Shivneri Colony, Amravati - MPCB",18-06-2024 07:00:00,20.9402359,77.7895248,OZONE,21,61,26
India,Maharashtra,Badlapur,"Katrap, Badlapur - MPCB",18-06-2024 07:00:00,19.16485,73.23409,PM2.5,51,122,77
India,Maharashtra,Badlapur,"Katrap, Badlapur - MPCB",18-06-2024 07:00:00,19.16485,73.23409,NH3,1,4,2
India,Maharashtra,Badlapur,"Katrap, Badlapur - MPCB",18-06-2024 07:00:00,19.16485,73.23409,SO2,11,88,26
India,Maharashtra,Badlapur,"Katrap, Badlapur - MPCB",18-06-2024 07:00:00,19.16485,73.23409,OZONE,20,68,22
India,Maharashtra,Belapur,"CBD Belapur, Belapur - MPCB",18-06-2024 07:00:00,19.0243902,73.0406721,PM2.5,30,56,40
India,Maharashtra,Bhiwandi,"Gokul Nagar, Bhiwandi - MPCB",18-06-2024 07:00:00,19.309073,73.057223,NH3,1,4,2
India,Maharashtra,Bhiwandi,"Gokul Nagar, Bhiwandi - MPCB",18-06-2024 07:00:00,19.309073,73.057223,OZONE,20,65,22
India,Maharashtra,Boisar,"Khaira, Boisar - MPCB",18-06-2024 07:00:00,19.786089,72.757971,NH3,1,13,3
India,Maharashtra,Chandrapur,"Chauhan Colony, Chandrapur - MPCB",18-06-2024 07:00:00,19.962900,79.298714,NO2,9,45,18
India,Maharashtra,Chandrapur,"Chauhan Colony, Chandrapur - MPCB",18-06-2024 07:00:00,19.962900,79.298714,NH3,2,7,3
India,Maharashtra,Chandrapur,"MIDC Khutala, Chandrapur - MPCB",18-06-2024 07:00:00,19.9775302,79.2337086,NH3,3,14,9
India,Maharashtra,Dhule,"Deopur, Dhule - MPCB",18-06-2024 07:00:00,20.918946,74.776388,PM10,40,100,80
India,Maharashtra,Dhule,"Deopur, Dhule - MPCB",18-06-2024 07:00:00,20.918946,74.776388,SO2,4,21,13
India,Maharashtra,Jalgaon,"Prabhat Colony, Jalgaon - MPCB",18-06-2024 07:00:00,21.001264,75.565602,NH3,1,22,14
India,Maharashtra,Jalna,"Old MIDC, Jalna - MPCB",18-06-2024 07:00:00,19.854616,75.905894,NO2,24,28,25
India,Maharashtra,Kolhapur,"Shivaji University, Kolhapur - MPCB",18-06-2024 07:00:00,16.6870449,74.2505872,PM2.5,30,66,43
India,Maharashtra,Kolhapur,"Shivaji University, Kolhapur - MPCB",18-06-2024 07:00:00,16.6870449,74.2505872,NH3,4,5,4
India,Maharashtra,Kolhapur,"Shivaji University, Kolhapur - MPCB",18-06-2024 07:00:00,16.6870449,74.2505872,OZONE,10,35,17
India,Maharashtra,Kolhapur,"Sinchan Bhavan, Kolhapur - MPCB",18-06-2024 07:00:00,16.7143745,74.2426398,PM2.5,24,79,39
India,Maharashtra,Kolhapur,"Sinchan Bhavan, Kolhapur - MPCB",18-06-2024 07:00:00,16.7143745,74.2426398,NO2,2,9,5
India,Maharashtra,Mahad,"Kamble Tarf Birwadi, Mahad - MPCB",18-06-2024 07:00:00,18.1023399,73.4783687,PM10,33,76,50
India,Maharashtra,Mahad,"Kamble Tarf Birwadi, Mahad - MPCB",18-06-2024 07:00:00,18.1023399,73.4783687,NH3,2,5,3
India,Maharashtra,Mahad,"Kamble Tarf Birwadi, Mahad - MPCB",18-06-2024 07:00:00,18.1023399,73.4783687,OZONE,8,35,11
India,Maharashtra,Malegaon,"Mahesh Nagar, Malegaon - MPCB",18-06-2024 07:00:00,20.555712,74.529236,NH3,1,8,5
India,Maharashtra,Mira-Bhayandar,"Bhayandar West, Mira-Bhayandar - MPCB",18-06-2024 07:00:00,19.296481,72.840923,PM2.5,18,55,30
India,Maharashtra,Mumbai,"Bandra Kurla Complex, Mumbai - MPCB",18-06-2024 07:00:00,19.065931,72.862131,NO2,NA,NA,NA
India,Maharashtra,Mumbai,"Bandra Kurla Complex, Mumbai - MPCB",18-06-2024 07:00:00,19.065931,72.862131,NH3,NA,NA,NA
India,Maharashtra,Mumbai,"Bandra Kurla Complex, Mumbai - MPCB",18-06-2024 07:00:00,19.065931,72.862131,SO2,NA,NA,NA
India,Maharashtra,Mumbai,"Borivali East, Mumbai - MPCB",18-06-2024 07:00:00,19.2243333,72.8658113,PM10,13,60,31
India,Maharashtra,Mumbai,"Borivali East, Mumbai - MPCB",18-06-2024 07:00:00,19.2243333,72.8658113,CO,35,38,36
India,Maharashtra,Mumbai,"Byculla, Mumbai - BMC",18-06-2024 07:00:00,18.9767,72.8380,PM2.5,8,23,14
India,Maharashtra,Mumbai,"Byculla, Mumbai - BMC",18-06-2024 07:00:00,18.9767,72.8380,CO,8,60,20
India,Maharashtra,Mumbai,"Chembur, Mumbai - MPCB",18-06-2024 07:00:00,19.0364585,72.8954371,PM10,21,67,38
India,Maharashtra,Mumbai,"Chembur, Mumbai - MPCB",18-06-2024 07:00:00,19.0364585,72.8954371,NO2,15,42,27
India,Maharashtra,Mumbai,"Chhatrapati Shivaji Intl. Airport (T2), Mumbai - MPCB",18-06-2024 07:00:00,19.10078,72.87462,PM2.5,13,63,32
India,Maharashtra,Mumbai,"Chhatrapati Shivaji Intl. Airport (T2), Mumbai - MPCB",18-06-2024 07:00:00,19.10078,72.87462,SO2,15,21,18
India,Maharashtra,Mumbai,"Chhatrapati Shivaji Intl. Airport (T2), Mumbai - MPCB",18-06-2024 07:00:00,19.10078,72.87462,CO,24,63,35
India,Maharashtra,Mumbai,"Colaba, Mumbai - MPCB",18-06-2024 07:00:00,18.910000,72.820000,OZONE,10,11,10
India,Maharashtra,Mumbai,"Deonar, Mumbai - IITM",18-06-2024 07:00:00,19.04946,72.9230,PM2.5,10,48,32
India,Maharashtra,Mumbai,"Deonar, Mumbai - IITM",18-06-2024 07:00:00,19.04946,72.9230,PM10,17,66,46
India,Maharashtra,Mumbai,"Deonar, Mumbai - IITM",18-06-2024 07:00:00,19.04946,72.9230,SO2,5,23,12
India,Maharashtra,Mumbai,"Ghatkopar, Mumbai - BMC",18-06-2024 07:00:00,19.083694,72.920967,NO2,1,49,23
India,Maharashtra,Mumbai,"Ghatkopar, Mumbai - BMC",18-06-2024 07:00:00,19.083694,72.920967,NH3,1,17,6
India,Maharashtra,Mumbai,"Ghatkopar, Mumbai - BMC",18-06-2024 07:00:00,19.083694,72.920967,OZONE,1,8,1
India,Maharashtra,Mumbai,"Khindipada-Bhandup West, Mumbai - IITM",18-06-2024 07:00:00,19.1653323,72.922099,PM2.5,12,30,19
India,Maharashtra,Mumbai,"Khindipada-Bhandup West, Mumbai - IITM",18-06-2024 07:00:00,19.1653323,72.922099,SO2,1,5,3
India,Maharashtra,Mumbai,"Kurla, Mumbai - MPCB",18-06-2024 07:00:00,19.0863,72.8888,OZONE,28,29,28
India,Maharashtra,Mumbai,"Mindspace-Malad West, Mumbai - MPCB",18-06-2024 07:00:00,19.1878657,72.8304069,OZONE,14,37,17
India,Maharashtra,Mumbai,"Powai, Mumbai - MPCB",18-06-2024 07:00:00,19.137500,72.915056,NO2,7,21,16
India,Maharashtra,Mumbai,"Sewri, Mumbai - BMC",18-06-2024 07:00:00,19.000084,72.856730,PM10,18,39,29
India,Maharashtra,Mumbai,"Sion, Mumbai - MPCB",18-06-2024 07:00:00,19.047000,72.874600,PM2.5,22,54,33
India,Maharashtra,Mumbai,"Sion, Mumbai - MPCB",18-06-2024 07:00:00,19.047000,72.874600,NO2,33,48,40
India,Maharashtra,Mumbai,"Vasai West, Mumbai - MPCB",18-06-2024 07:00:00,19.383200,72.820400,CO,10,26,18
India,Maharashtra,Mumbai,"Vile Parle West, Mumbai - MPCB",18-06-2024 07:00:00,19.10861,72.83622,PM10,37,132,67
India,Maharashtra,Mumbai,"Vile Parle West, Mumbai - MPCB",18-06-2024 07:00:00,19.10861,72.83622,SO2,13,16,15
India,Maharashtra,Nagpur,"Mahal, Nagpur - MPCB",18-06-2024 07:00:00,21.14472,79.107595,PM2.5,21,39,30
India,Maharashtra,Nagpur,"Mahal, Nagpur - MPCB",18-06-2024 07:00:00,21.14472,79.107595,NH3,1,3,2
India,Maharashtra,Nagpur,"Mahal, Nagpur - MPCB",18-06-2024 07:00:00,21.14472,79.107595,OZONE,7,82,21
India,Maharashtra,Nagpur,"Opp GPO Civil Lines, Nagpur - MPCB",18-06-2024 07:00:00,21.152875,79.0517531,NO2,8,47,17
India,Maharashtra,Nagpur,"Opp GPO Civil Lines, Nagpur - MPCB",18-06-2024 07:00:00,21.152875,79.0517531,OZONE,4,55,11
India,Maharashtra,Nagpur,"Ram Nagar, Nagpur - MPCB",18-06-2024 07:00:00,21.143383,79.048912,PM2.5,NA,NA,NA
India,Maharashtra,Nanded,"Sneh Nagar, Nanded - MPCB",18-06-2024 07:00:00,19.173852,77.296291,OZONE,23,67,40
India,Maharashtra,Nashik,"Gangapur Road, Nashik - MPCB",18-06-2024 07:00:00,20.0073285,73.7762427,PM10,4,69,33
India,Maharashtra,Nashik,"Gangapur Road, Nashik - MPCB",18-06-2024 07:00:00,20.0073285,73.7762427,NO2,17,27,21
India,Maharashtra,Nashik,"Gangapur Road, Nashik - MPCB",18-06-2024 07:00:00,20.0073285,73.7762427,OZONE,1,37,4
India,Maharashtra,Nashik,"Hirawadi, Nashik - MPCB",18-06-2024 07:00:00,20.021503,73.813844,PM10,20,47,32
India,Maharashtra,Nashik,"Pandav Nagari, Nashik - MPCB",18-06-2024 07:00:00,19.9591346,73.7788008,NO2,17,52,32
India,Maharashtra,Navi Mumbai,"Nerul, Navi Mumbai - MPCB",18-06-2024 07:00:00,19.008751,73.016620,NO2,8,38,30
India,Maharashtra,Navi Mumbai,"Nerul, Navi Mumbai - MPCB",18-06-2024 07:00:00,19.008751,73.016620,NH3,2,38,6
India,Maharashtra,Navi Mumbai,"Nerul, Navi Mumbai - MPCB",18-06-2024 07:00:00,19.008751,73.016620,OZONE,6,36,30
India,Maharashtra,Navi Mumbai,"Sanpada, Navi Mumbai - MPCB",18-06-2024 07:00:00,19.0575752,73.0151367,CO,8,31,13
India,Maharashtra,Navi Mumbai,"Sector-19A Nerul, Navi Mumbai - IITM",18-06-2024 07:00:00,19.044,73.0325,PM10,17,54,36
India,Maharashtra,Navi Mumbai,"Sector-19A Nerul, Navi Mumbai - IITM",18-06-2024 07:00:00,19.044,73.0325,SO2,4,9,7
India,Maharashtra,Navi Mumbai,"Sector-19A Nerul, Navi Mumbai - IITM",18-06-2024 07:00:00,19.044,73.0325,OZONE,1,10,2
India,Maharashtra,Navi Mumbai,"Sector-2E Kalamboli, Navi Mumbai - MPCB",18-06-2024 07:00:00,19.02579,73.10297,OZONE,1,26,3
India,Maharashtra,Navi Mumbai,"Tondare-Taloja, Navi Mumbai - MPCB",18-06-2024 07:00:00,19.0630,73.1209,CO,32,57,42
India,Maharashtra,Pimpri-Chinchwad,"Gavalinagar, Pimpri Chinchwad - MPCB",18-06-2024 07:00:00,18.63673,73.82487,OZONE,5,37,12
India,Maharashtra,Pune,"Bhosari, Pune - IITM",18-06-2024 07:00:00,18.640051,73.848956,PM10,24,63,41
India,Maharashtra,Pune,"Hadapsar, Pune - IITM",18-06-2024 07:00:00,18.501793,73.927532,PM10,22,91,56
India,Maharashtra,Pune,"Hadapsar, Pune - IITM",18-06-2024 07:00:00,18.501793,73.927532,NO2,21,38,27
India,Maharashtra,Pune,"Karve Road, Pune - MPCB",18-06-2024 07:00:00,18.5011743,73.8165527,PM2.5,1,65,30
India,Maharashtra,Pune,"Karve Road, Pune - MPCB",18-06-2024 07:00:00,18.5011743,73.8165527,CO,1,56,20
India,Maharashtra,Pune,"Mhada Colony, Pune - IITM",18-06-2024 07:00:00,18.573040,73.927715,NO2,18,38,31
India,Maharashtra,Pune,"Revenue Colony-Shivajinagar, Pune - IITM",18-06-2024 07:00:00,18.530085,73.849598,SO2,10,13,12
India,Maharashtra,Pune,"Savitribai Phule Pune University, Pune - MPCB",18-06-2024 07:00:00,18.547056,73.826908,PM2.5,21,41,31
India,Maharashtra,Pune,"Transport Nagar-Nigdi, Pune - IITM",18-06-2024 07:00:00,18.664282,73.763966,PM2.5,13,48,25
India,Maharashtra,Sangli,"Vijay Nagar, Sangli - MPCB",18-06-2024 07:00:00, 16.5038,74.3623,NH3,1,1,1
India,Maharashtra,Solapur,"Ratandeep Housing Society, Solapur - MPCB",18-06-2024 07:00:00,17.65439,75.90649,PM10,37,72,50
India,Maharashtra,Solapur,"Ratandeep Housing Society, Solapur - MPCB",18-06-2024 07:00:00,17.65439,75.90649,NO2,4,22,11
India,Maharashtra,Solapur,"Ratandeep Housing Society, Solapur - MPCB",18-06-2024 07:00:00,17.65439,75.90649,CO,10,62,17
India,Maharashtra,Solapur,"Solapur, Solapur - MPCB",18-06-2024 07:00:00,17.6599188,75.9063906,PM2.5,54,72,63
India,Maharashtra,Thane,"Kasarvadavali, Thane - MPCB",18-06-2024 07:00:00,19.26777,72.97182,NH3,4,6,5
India,Maharashtra,Virar,"Bolinj, Virar - MPCB",18-06-2024 07:00:00,19.4458210,72.7988231,PM2.5,13,56,35
India,Maharashtra,Virar,"Bolinj, Virar - MPCB",18-06-2024 07:00:00,19.4458210,72.7988231,NO2,11,27,15
India,Maharashtra,Virar,"Bolinj, Virar - MPCB",18-06-2024 07:00:00,19.4458210,72.7988231,NH3,3,7,5
India,Manipur,Imphal,"DM College of Science, Imphal - Manipur PCB",18-06-2024 07:00:00,24.8207389,93.9423085,SO2,NA,NA,NA
India,Manipur,Imphal,"DM College of Science, Imphal - Manipur PCB",18-06-2024 07:00:00,24.8207389,93.9423085,CO,NA,NA,NA
India,Manipur,Imphal,"Manipur University, Imphal - Manipur PCB",18-06-2024 07:00:00,24.7524239,93.9286218,OZONE,NA,NA,NA
India,Meghalaya,Shillong,"Lumpyngngad, Shillong - Meghalaya PCB",18-06-2024 07:00:00,25.5586,91.8985,NO2,1,2,1
India,Mizoram,Aizawl,"Sikulpuikawn, Aizawl - Mizoram PCB",18-06-2024 07:00:00,23.7176342,92.7192841,OZONE,6,167,71
India,Nagaland,Kohima,"PWD Juction, Kohima - NPCB",18-06-2024 07:00:00,25.6635413,94.0989878,NO2,3,6,3
India,Odisha,Angul,"Hakimapada, Angul - OSPCB",18-06-2024 07:00:00,20.832874,85.104082,CO,34,77,41
India,Odisha,Barbil,"Forest Office, Barbil - OSPCB",18-06-2024 07:00:00,22.1166054,85.3945546,PM10,69,155,105
India,Odisha,Baripada,"Meher Colony, Baripada - OSPCB",18-06-2024 07:00:00,21.941841,86.728318,NO2,NA,NA,NA
India,Odisha,Bhubaneswar,"Lingraj Mandir, Bhubaneswar - OSPCB",18-06-2024 07:00:00,20.240790,85.836784,PM10,54,154,110
India,Odisha,Bhubaneswar,"Lingraj Mandir, Bhubaneswar - OSPCB",18-06-2024 07:00:00,20.240790,85.836784,CO,34,112,89
India,Odisha,Bhubaneswar,"Patia, Bhubaneswar - OSPCB",18-06-2024 07:00:00,20.34652,85.81630,CO,23,39,27
India,Odisha,Cuttack,"CDA Area, Cuttack - OSPCB",18-06-2024 07:00:00,20.48891     ,85.84768     ,NO2,7,17,11
India,Odisha,Nayagarh,"Dabuna, Nayagarh - OSPCB",18-06-2024 07:00:00,21.847279,85.416905,CO,10,20,17
India,Odisha,Rourkela,"Fertilizer Township, Rourkela - OSPCB",18-06-2024 07:00:00,22.18972222,84.86277778,PM2.5,87,188,106
India,Odisha,Rourkela,"Fertilizer Township, Rourkela - OSPCB",18-06-2024 07:00:00,22.18972222,84.86277778,PM10,97,448,170
India,Odisha,Rourkela,"Fertilizer Township, Rourkela - OSPCB",18-06-2024 07:00:00,22.18972222,84.86277778,CO,3,34,17
India,Odisha,Rourkela,"Raghunathpali, Rourkela - OSPCB",18-06-2024 07:00:00,22.220833,84.809444,PM10,85,122,105
India,Odisha,Rourkela,"Sector-2, Rourkela - OSPCB",18-06-2024 07:00:00,22.24500000,84.88111111,PM10,NA,NA,NA
India,Odisha,Suakati,"OMC Colony, Suakati - OSPCB",18-06-2024 07:00:00,21.606865,85.510538,PM2.5,36,81,62
India,Odisha,Suakati,"OMC Colony, Suakati - OSPCB",18-06-2024 07:00:00,21.606865,85.510538,PM10,51,83,67
India,Odisha,Talcher,"Talcher Coalfields,Talcher - OSPCB",18-06-2024 07:00:00,20.9360711,85.1707021,NH3,3,4,3
India,Odisha,Tensa,"Barsua Iron Ore Mines, Tensa - OSPCB",18-06-2024 07:00:00,21.869985,85.167016,NO2,38,53,47
India,Puducherry,Puducherry,"Jawahar Nagar, Puducherry - PPCC",18-06-2024 07:00:00,11.9309,79.8027,PM10,22,71,40
India,Puducherry,Puducherry,"Jawahar Nagar, Puducherry - PPCC",18-06-2024 07:00:00,11.9309,79.8027,CO,13,31,18
India,Punjab,Amritsar,"Golden Temple, Amritsar - PPCB",18-06-2024 07:00:00,31.620000,74.876512,SO2,3,31,14
India,Punjab,Amritsar,"Golden Temple, Amritsar - PPCB",18-06-2024 07:00:00,31.620000,74.876512,OZONE,44,62,50
India,Punjab,Jalandhar,"Civil Line, Jalandhar - PPCB",18-06-2024 07:00:00,31.321907,75.578914,SO2,11,15,13
India,Punjab,Ludhiana,"Punjab Agricultural University, Ludhiana - PPCB",18-06-2024 07:00:00,30.9028,75.8086,NH3,4,5,4
India,Punjab,Ludhiana,"Punjab Agricultural University, Ludhiana - PPCB",18-06-2024 07:00:00,30.9028,75.8086,SO2,1,22,11
India,Punjab,Ludhiana,"Punjab Agricultural University, Ludhiana - PPCB",18-06-2024 07:00:00,30.9028,75.8086,CO,7,84,40
India,Punjab,Mandi Gobindgarh,"RIMT University, Mandi Gobindgarh - PPCB",18-06-2024 07:00:00,30.649961,76.331442,SO2,9,19,12
India,Rajasthan,Ajmer,"Civil Lines,  Ajmer - RSPCB",18-06-2024 07:00:00,26.470859,74.646594,NO2,11,19,14
India,Rajasthan,Ajmer,"Civil Lines,  Ajmer - RSPCB",18-06-2024 07:00:00,26.470859,74.646594,NH3,5,5,5
India,Rajasthan,Alwar,"Moti Doongri, Alwar - RSPCB",18-06-2024 07:00:00,27.554793,76.611536,PM2.5,40,60,50
India,Rajasthan,Alwar,"Moti Doongri, Alwar - RSPCB",18-06-2024 07:00:00,27.554793,76.611536,PM10,59,106,74
India,Rajasthan,Banswara,"Rati Talai, Banswara - RSPCB",18-06-2024 07:00:00,23.555190,74.440010,PM2.5,36,123,71
India,Rajasthan,Banswara,"Rati Talai, Banswara - RSPCB",18-06-2024 07:00:00,23.555190,74.440010,PM10,44,125,86
India,Rajasthan,Banswara,"Rati Talai, Banswara - RSPCB",18-06-2024 07:00:00,23.555190,74.440010,CO,24,42,29
India,Rajasthan,Baran,"Bamboliya, Baran - RSPCB",18-06-2024 07:00:00,25.106006,76.469948,PM2.5,3,57,32
India,Rajasthan,Baran,"Bamboliya, Baran - RSPCB",18-06-2024 07:00:00,25.106006,76.469948,PM10,29,110,74
India,Rajasthan,Barmer,"Railway Colony, Barmer - RSPCB",18-06-2024 07:00:00,25.747299,71.393989,PM2.5,14,38,24
India,Rajasthan,Barmer,"Railway Colony, Barmer - RSPCB",18-06-2024 07:00:00,25.747299,71.393989,NH3,2,29,9
India,Rajasthan,Barmer,"Railway Colony, Barmer - RSPCB",18-06-2024 07:00:00,25.747299,71.393989,SO2,2,5,3
India,Rajasthan,Barmer,"Railway Colony, Barmer - RSPCB",18-06-2024 07:00:00,25.747299,71.393989,CO,10,20,12
India,Rajasthan,Bharatpur,"Krishna Nagar, Bharatpur - RSPCB",18-06-2024 07:00:00,27.215415,77.50873,SO2,2,14,9
India,Rajasthan,Bhilwara,"Pratap Nagar, Bhilwara - RSPCB",18-06-2024 07:00:00,25.339605,74.618883,SO2,7,21,11
India,Rajasthan,Bhilwara,"Pratap Nagar, Bhilwara - RSPCB",18-06-2024 07:00:00,25.339605,74.618883,OZONE,22,92,47
India,Rajasthan,Bhiwadi,"Vasundhara Nagar_UIT, Bhiwadi - RSPCB",18-06-2024 07:00:00,28.207266,76.829265,OZONE,5,55,17
India,Rajasthan,Bikaner,"MM Ground, Bikaner - RSPCB",18-06-2024 07:00:00,28.018792,73.292658,PM2.5,23,49,38
India,Rajasthan,Bikaner,"MM Ground, Bikaner - RSPCB",18-06-2024 07:00:00,28.018792,73.292658,NO2,25,53,37
India,Rajasthan,Bikaner,"MM Ground, Bikaner - RSPCB",18-06-2024 07:00:00,28.018792,73.292658,CO,8,28,15
India,Rajasthan,Bundi,"New Colony, Bundi - RSPCB",18-06-2024 07:00:00,25.435774,75.644272,SO2,5,7,6
India,Rajasthan,Bundi,"New Colony, Bundi - RSPCB",18-06-2024 07:00:00,25.435774,75.644272,OZONE,40,103,60
India,Rajasthan,Chittorgarh,"Shastri Nagar, Chittorgarh - RSPCB",18-06-2024 07:00:00,24.892047,74.623527,NH3,5,12,9
India,Rajasthan,Churu,"Subash Chowk, Churu - RSPCB",18-06-2024 07:00:00,28.296139,74.961696,PM2.5,24,50,38
India,Rajasthan,Churu,"Subash Chowk, Churu - RSPCB",18-06-2024 07:00:00,28.296139,74.961696,SO2,3,5,4
India,Rajasthan,Dausa,"Khatikan Mohalla, Dausa - RSPCB",18-06-2024 07:00:00,26.895552,76.334753,PM10,89,152,125
India,Rajasthan,Dholpur,"Raja Ganj, Dholpur - RSPCB",18-06-2024 07:00:00,26.699557,77.898881,PM2.5,27,68,43
India,Rajasthan,Dholpur,"Raja Ganj, Dholpur - RSPCB",18-06-2024 07:00:00,26.699557,77.898881,PM10,79,362,122
India,Rajasthan,Dholpur,"Raja Ganj, Dholpur - RSPCB",18-06-2024 07:00:00,26.699557,77.898881,NH3,5,8,6
India,Rajasthan,Dholpur,"Raja Ganj, Dholpur - RSPCB",18-06-2024 07:00:00,26.699557,77.898881,CO,5,22,16
India,Rajasthan,Dungarpur,"Bhoiwada, Dungarpur - RSPCB",18-06-2024 07:00:00,23.837789,73.714926,PM2.5,NA,NA,NA
India,Rajasthan,Jaipur,"Adarsh Nagar, Jaipur - RSPCB",18-06-2024 07:00:00,26.902909,75.836858,PM10,53,120,91
India,Rajasthan,Jaipur,"Adarsh Nagar, Jaipur - RSPCB",18-06-2024 07:00:00,26.902909,75.836858,OZONE,14,43,19
India,Rajasthan,Jaipur,"Mansarovar Sector-12, Jaipur - RSPCB",18-06-2024 07:00:00,26.843698,75.766894,PM2.5,22,65,40
India,Rajasthan,Jaipur,"Police Commissionerate, Jaipur - RSPCB",18-06-2024 07:00:00,26.9164092,75.7994901,NO2,18,39,25
India,Rajasthan,Jaipur,"RIICO Sitapura, Jaipur - RSPCB",18-06-2024 07:00:00,26.786682,75.827928,OZONE,13,88,31
India,Rajasthan,Jaipur,"Sector-2 Murlipura, Jaipur - RSPCB",18-06-2024 07:00:00,26.960669,75.771817,PM10,38,160,89
India,Rajasthan,Jaipur,"Sector-2 Murlipura, Jaipur - RSPCB",18-06-2024 07:00:00,26.960669,75.771817,NH3,1,4,2
India,Rajasthan,Jaipur,"Sector-2 Murlipura, Jaipur - RSPCB",18-06-2024 07:00:00,26.960669,75.771817,OZONE,19,59,22
India,Rajasthan,Jaipur,"Shastri Nagar, Jaipur - RSPCB",18-06-2024 07:00:00,26.9502929,75.730943,OZONE,18,46,27
India,Rajasthan,Jaisalmer,"Sadar Bazar, Jaisalmer - RSPCB",18-06-2024 07:00:00,26.912329,70.909168,PM2.5,13,34,23
India,Rajasthan,Jaisalmer,"Sadar Bazar, Jaisalmer - RSPCB",18-06-2024 07:00:00,26.912329,70.909168,SO2,3,4,4
India,Rajasthan,Jalore,"Mudtra Sili, Jalore - RSPCB",18-06-2024 07:00:00,25.344694,72.626208,PM10,56,110,85
India,Rajasthan,Jhalawar,"Rajlaxmi Nagar, Jhalawar - RSPCB",18-06-2024 07:00:00,24.588397,76.172782,PM10,55,174,84
India,Rajasthan,Jhalawar,"Rajlaxmi Nagar, Jhalawar - RSPCB",18-06-2024 07:00:00,24.588397,76.172782,NO2,14,50,18
India,Rajasthan,Jhalawar,"Rajlaxmi Nagar, Jhalawar - RSPCB",18-06-2024 07:00:00,24.588397,76.172782,NH3,1,2,1
India,Rajasthan,Jodhpur,"Collectorate, Jodhpur - RSPCB",18-06-2024 07:00:00,26.268249,73.0193853,PM2.5,19,115,58
India,Rajasthan,Jodhpur,"Digari Kalan, Jodhpur - RSPCB",18-06-2024 07:00:00,26.295810,73.082283,NH3,2,3,2
India,Rajasthan,Jodhpur,"Jhalamand, Jodhpur - RSPCB",18-06-2024 07:00:00,26.215415,73.070156,PM10,54,78,64
India,Rajasthan,Jodhpur,"Jhalamand, Jodhpur - RSPCB",18-06-2024 07:00:00,26.215415,73.070156,NH3,2,3,3
India,Rajasthan,Jodhpur,"Jhalamand, Jodhpur - RSPCB",18-06-2024 07:00:00,26.215415,73.070156,SO2,2,7,4
India,Rajasthan,Jodhpur,"Jhalamand, Jodhpur - RSPCB",18-06-2024 07:00:00,26.215415,73.070156,OZONE,26,60,46
India,Rajasthan,Jodhpur,"Samrat Ashok Udhyan, Jodhpur - RSPCB",18-06-2024 07:00:00,26.253384,72.976571,PM10,64,124,85
India,Rajasthan,Jodhpur,"Samrat Ashok Udhyan, Jodhpur - RSPCB",18-06-2024 07:00:00,26.253384,72.976571,OZONE,26,61,48
India,Rajasthan,Karauli,"Satyawati Vihar, Karauli - RSPCB",18-06-2024 07:00:00,26.506177,77.025989,PM2.5,NA,NA,NA
India,Rajasthan,Karauli,"Satyawati Vihar, Karauli - RSPCB",18-06-2024 07:00:00,26.506177,77.025989,NO2,NA,NA,NA
India,Rajasthan,Karauli,"Satyawati Vihar, Karauli - RSPCB",18-06-2024 07:00:00,26.506177,77.025989,SO2,3,18,6
India,Rajasthan,Kota,"Nayapura, Kota - RSPCB",18-06-2024 07:00:00,25.196024,75.855668,NO2,8,48,21
India,Rajasthan,Kota,"Nayapura, Kota - RSPCB",18-06-2024 07:00:00,25.196024,75.855668,NH3,2,3,2
India,Rajasthan,Kota,"Nayapura, Kota - RSPCB",18-06-2024 07:00:00,25.196024,75.855668,SO2,8,13,9
India,Rajasthan,Kota,"Shrinath Puram, Kota - RSPCB",18-06-2024 07:00:00,25.14389,75.821256,PM10,33,84,58
India,Rajasthan,Kota,"Shrinath Puram, Kota - RSPCB",18-06-2024 07:00:00,25.14389,75.821256,NH3,5,7,6
India,Rajasthan,Pali,"Indira Colony Vistar, Pali - RSPCB",18-06-2024 07:00:00,25.771061, 73.340227,CO,11,67,32
India,Rajasthan,Pratapgarh,"Pragati Nagar, Pratapgarh - RSPCB",18-06-2024 07:00:00,24.041198,74.780702,PM10,31,93,57
India,Rajasthan,Pratapgarh,"Pragati Nagar, Pratapgarh - RSPCB",18-06-2024 07:00:00,24.041198,74.780702,NO2,6,17,10
India,Rajasthan,Pratapgarh,"Pragati Nagar, Pratapgarh - RSPCB",18-06-2024 07:00:00,24.041198,74.780702,OZONE,19,85,45
India,Rajasthan,Rajsamand,"Dhoinda, Rajsamand - RSPCB",18-06-2024 07:00:00,25.036360,73.883502,OZONE,43,86,61
India,Rajasthan,Sirohi,"Vedhaynath Colony, Sirohi - RSPCB",18-06-2024 07:00:00,24.885261,72.857549,PM10,31,74,49
India,Rajasthan,Sirohi,"Vedhaynath Colony, Sirohi - RSPCB",18-06-2024 07:00:00,24.885261,72.857549,SO2,1,7,3
India,Rajasthan,Sri Ganganagar,"Old City, Sri Ganganagar - RSPCB",18-06-2024 07:00:00,29.931624,73.864511,PM10,118,252,189
India,Rajasthan,Udaipur,"Ashok Nagar, Udaipur - RSPCB",18-06-2024 07:00:00,24.5886166,73.6321397,NO2,29,73,41
India,Rajasthan,Udaipur,"Ashok Nagar, Udaipur - RSPCB",18-06-2024 07:00:00,24.5886166,73.6321397,CO,2,118,50
India,TamilNadu,Ariyalur,"Keelapalur, Ariyalur - TNPCB",18-06-2024 07:00:00,11.06825,79.07033,NO2,7,9,8
India,TamilNadu,Ariyalur,"Keelapalur, Ariyalur - TNPCB",18-06-2024 07:00:00,11.06825,79.07033,SO2,32,34,33
India,TamilNadu,Chennai,"Alandur Bus Depot, Chennai - CPCB",18-06-2024 07:00:00,12.9099161,80.1076538,NH3,4,16,4
India,TamilNadu,Chennai,"Kodungaiyur, Chennai - TNPCB",18-06-2024 07:00:00,13.1278,80.2642,PM2.5,NA,NA,NA
India,TamilNadu,Chennai,"Kodungaiyur, Chennai - TNPCB",18-06-2024 07:00:00,13.1278,80.2642,NH3,3,6,4
India,TamilNadu,Chennai,"Kodungaiyur, Chennai - TNPCB",18-06-2024 07:00:00,13.1278,80.2642,SO2,2,9,4
India,TamilNadu,Chennai,"Manali, Chennai - CPCB",18-06-2024 07:00:00,13.164544,80.26285,PM10,18,102,62
India,TamilNadu,Chennai,"Perungudi, Chennai - TNPCB",18-06-2024 07:00:00,12.9533,80.2357,NO2,3,10,7
India,TamilNadu,Chennai,"Perungudi, Chennai - TNPCB",18-06-2024 07:00:00,12.9533,80.2357,OZONE,6,14,10
India,TamilNadu,Chennai,"Velachery Res. Area, Chennai - CPCB",18-06-2024 07:00:00,13.0052189,80.2398125,PM2.5,24,127,48
India,TamilNadu,Chennai,"Velachery Res. Area, Chennai - CPCB",18-06-2024 07:00:00,13.0052189,80.2398125,NO2,11,24,17
India,TamilNadu,Chennai,"Velachery Res. Area, Chennai - CPCB",18-06-2024 07:00:00,13.0052189,80.2398125,NH3,9,17,12
India,TamilNadu,Chennai,"Velachery Res. Area, Chennai - CPCB",18-06-2024 07:00:00,13.0052189,80.2398125,SO2,5,33,12
India,TamilNadu,Cuddalore,"Kudikadu, Cuddalore - TNPCB",18-06-2024 07:00:00,11.6829898,79.7532099,PM2.5,7,98,43
India,TamilNadu,Cuddalore,"Kudikadu, Cuddalore - TNPCB",18-06-2024 07:00:00,11.6829898,79.7532099,NH3,3,3,3
India,TamilNadu,Gummidipoondi,"Anthoni Pillai Nagar, Gummidipoondi - TNPCB",18-06-2024 07:00:00,13.4127,80.1081,NH3,1,3,2
India,TamilNadu,Gummidipoondi,"Anthoni Pillai Nagar, Gummidipoondi - TNPCB",18-06-2024 07:00:00,13.4127,80.1081,SO2,2,105,14
India,TamilNadu,Ooty,"Bombay Castel, Ooty - TNPCB",18-06-2024 07:00:00,11.4068288,76.7138973,NO2,NA,NA,NA
India,TamilNadu,Ramanathapuram,"Chalai Bazaar, Ramanathapuram - TNPCB",18-06-2024 07:00:00,9.36399,78.831977,OZONE,13,14,14
India,TamilNadu,Salem,"Sona College of Technology, Salem - TNPCB",18-06-2024 07:00:00,11.679111,78.125052,SO2,78,83,82
India,TamilNadu,Tirupur,"Kumaran College, Tirupur - TNPCB",18-06-2024 07:00:00,11.0973603,77.3228673,NO2,3,15,9
India,TamilNadu,Vellore,"Vasanthapuram, Vellore - TNPCB",18-06-2024 07:00:00,12.909494,79.131861,CO,135,135,68
India,Telangana,Hyderabad,"Bollaram Industrial Area, Hyderabad - TSPCB",18-06-2024 07:00:00,17.540891,78.358528,NH3,2,7,3
India,Telangana,Hyderabad,"ICRISAT Patancheru, Hyderabad - TSPCB",18-06-2024 07:00:00,17.518400,78.278777,NO2,1,26,10
India,Telangana,Hyderabad,"ICRISAT Patancheru, Hyderabad - TSPCB",18-06-2024 07:00:00,17.518400,78.278777,NH3,1,4,2
India,Telangana,Hyderabad,"Kokapet, Hyderabad - TSPCB",18-06-2024 07:00:00,17.393559,78.339194,NH3,1,2,2
India,Telangana,Hyderabad,"Kokapet, Hyderabad - TSPCB",18-06-2024 07:00:00,17.393559,78.339194,OZONE,1,6,2
India,Telangana,Hyderabad,"Kompally Municipal Office, Hyderabad - TSPCB",18-06-2024 07:00:00,17.544899,78.486949,SO2,NA,NA,NA
India,Telangana,Hyderabad,"Nacharam_TSIIC IALA, Hyderabad - TSPCB",18-06-2024 07:00:00,17.429398,78.569354,PM10,51,75,56
India,Telangana,Hyderabad,"Nacharam_TSIIC IALA, Hyderabad - TSPCB",18-06-2024 07:00:00,17.429398,78.569354,CO,37,44,38
India,Telangana,Hyderabad,"Ramachandrapuram, Hyderabad - TSPCB",18-06-2024 07:00:00,17.528544,78.286195,NO2,NA,NA,NA
India,Telangana,Hyderabad,"Ramachandrapuram, Hyderabad - TSPCB",18-06-2024 07:00:00,17.528544,78.286195,SO2,NA,NA,NA
India,Telangana,Hyderabad,"Ramachandrapuram, Hyderabad - TSPCB",18-06-2024 07:00:00,17.528544,78.286195,CO,NA,NA,NA
India,Telangana,Hyderabad,"Sanathnagar, Hyderabad - TSPCB",18-06-2024 07:00:00,17.4559458,78.4332152,PM2.5,26,262,56
India,Telangana,Hyderabad,"Zoo Park, Hyderabad - TSPCB",18-06-2024 07:00:00,17.349694,78.451437,CO,12,78,51
India,Uttar_Pradesh,Agra,"Manoharpur, Agra - UPPCB",18-06-2024 07:00:00,27.23711,78.01936,NO2,35,36,36
India,Uttar_Pradesh,Agra,"Rohta, Agra - UPPCB",18-06-2024 07:00:00,27.106972,78.000111,PM2.5,15,39,26
India,Uttar_Pradesh,Agra,"Rohta, Agra - UPPCB",18-06-2024 07:00:00,27.106972,78.000111,NO2,5,6,6
India,Uttar_Pradesh,Agra,"Rohta, Agra - UPPCB",18-06-2024 07:00:00,27.106972,78.000111,OZONE,21,22,21
India,Uttar_Pradesh,Agra,"Sanjay Palace, Agra - UPPCB",18-06-2024 07:00:00,27.19865833,78.00598056,PM10,NA,NA,NA
India,Uttar_Pradesh,Agra,"Sanjay Palace, Agra - UPPCB",18-06-2024 07:00:00,27.19865833,78.00598056,NO2,NA,NA,NA
India,Uttar_Pradesh,Agra,"Sanjay Palace, Agra - UPPCB",18-06-2024 07:00:00,27.19865833,78.00598056,SO2,NA,NA,NA
India,Uttar_Pradesh,Agra,"Sector-3B Avas Vikas Colony, Agra - UPPCB",18-06-2024 07:00:00,27.19412,77.96237,PM2.5,10,28,19
India,Uttar_Pradesh,Agra,"Sector-3B Avas Vikas Colony, Agra - UPPCB",18-06-2024 07:00:00,27.19412,77.96237,CO,5,14,9
India,Uttar_Pradesh,Agra,"Sector-3B Avas Vikas Colony, Agra - UPPCB",18-06-2024 07:00:00,27.19412,77.96237,OZONE,11,13,12
India,Uttar_Pradesh,Agra,"Shahjahan Garden, Agra - UPPCB",18-06-2024 07:00:00,27.169338,78.03582,PM2.5,17,54,31
India,Uttar_Pradesh,Agra,"Shahjahan Garden, Agra - UPPCB",18-06-2024 07:00:00,27.169338,78.03582,CO,10,22,17
India,Uttar_Pradesh,Agra,"Shastripuram, Agra - UPPCB",18-06-2024 07:00:00,27.19862,77.92066,PM10,NA,NA,NA
India,Uttar_Pradesh,Agra,"Shastripuram, Agra - UPPCB",18-06-2024 07:00:00,27.19862,77.92066,NH3,NA,NA,NA
India,Uttar_Pradesh,Baghpat,"Sardar Patel Inter College, Baghpat - UPPCB",18-06-2024 07:00:00,28.964949,77.278761,NH3,1,3,2
India,Uttar_Pradesh,Bareilly,"Civil Lines, Bareilly - UPPCB",18-06-2024 07:00:00,28.359581,79.414455,SO2,18,22,19
India,Uttar_Pradesh,Bareilly,"Rajendra Nagar, Bareilly - UPPCB",18-06-2024 07:00:00,28.38910936,79.42963708,OZONE,1,35,6
India,Uttar_Pradesh,Firozabad,"Nagla Bhau, Firozabad - UPPCB",18-06-2024 07:00:00,27.168897,78.376960,OZONE,15,18,15
India,Uttar_Pradesh,Firozabad,"Vibhab Nagar, Firozabad - UPPCB",18-06-2024 07:00:00,27.1594,78.3953,PM2.5,29,98,51
India,Uttar_Pradesh,Firozabad,"Vibhab Nagar, Firozabad - UPPCB",18-06-2024 07:00:00,27.1594,78.3953,CO,7,15,14
India,Uttar_Pradesh,Ghaziabad,"Indirapuram, Ghaziabad - UPPCB",18-06-2024 07:00:00,28.646233,77.358075,PM2.5,36,150,77
India,Uttar_Pradesh,Ghaziabad,"Indirapuram, Ghaziabad - UPPCB",18-06-2024 07:00:00,28.646233,77.358075,NO2,23,76,45
India,Uttar_Pradesh,Ghaziabad,"Indirapuram, Ghaziabad - UPPCB",18-06-2024 07:00:00,28.646233,77.358075,CO,20,88,46
India,Uttar_Pradesh,Ghaziabad,"Loni, Ghaziabad - UPPCB",18-06-2024 07:00:00,28.757294,77.278792,PM10,166,274,220
India,Uttar_Pradesh,Ghaziabad,"Loni, Ghaziabad - UPPCB",18-06-2024 07:00:00,28.757294,77.278792,NH3,1,4,2
India,Uttar_Pradesh,Ghaziabad,"Loni, Ghaziabad - UPPCB",18-06-2024 07:00:00,28.757294,77.278792,SO2,8,49,24
India,Uttar_Pradesh,Ghaziabad,"Sanjay Nagar, Ghaziabad - UPPCB",18-06-2024 07:00:00,28.685382,77.453839,PM10,119,166,143
India,Uttar_Pradesh,Gorakhpur,"Madan Mohan Malaviya University of Technology, Gorakhpur - UPPCB",18-06-2024 07:00:00,26.730136,83.433859,PM2.5,68,118,107
India,Uttar_Pradesh,Greater Noida,"Knowledge Park - III, Greater Noida - UPPCB",18-06-2024 07:00:00,28.47272,77.482000,PM2.5,57,248,109
India,Uttar_Pradesh,Greater Noida,"Knowledge Park - III, Greater Noida - UPPCB",18-06-2024 07:00:00,28.47272,77.482000,NO2,11,85,43
India,Uttar_Pradesh,Greater Noida,"Knowledge Park - III, Greater Noida - UPPCB",18-06-2024 07:00:00,28.47272,77.482000,NH3,7,14,10
India,Uttar_Pradesh,Greater Noida,"Knowledge Park - III, Greater Noida - UPPCB",18-06-2024 07:00:00,28.47272,77.482000,CO,15,66,41
India,Uttar_Pradesh,Greater Noida,"Knowledge Park - V, Greater Noida - UPPCB",18-06-2024 07:00:00,28.557054,77.453663,CO,30,64,46
India,Uttar_Pradesh,Hapur,"Anand Vihar, Hapur - UPPCB",18-06-2024 07:00:00,28.725645,77.749675,SO2,7,52,21
India,Uttar_Pradesh,Jhansi,"Shivaji Nagar, Jhansi - UPPCB",18-06-2024 07:00:00,25.4547,78.6039,PM2.5,8,123,77
India,Uttar_Pradesh,Jhansi,"Shivaji Nagar, Jhansi - UPPCB",18-06-2024 07:00:00,25.4547,78.6039,PM10,8,100,67
India,Uttar_Pradesh,Jhansi,"Shivaji Nagar, Jhansi - UPPCB",18-06-2024 07:00:00,25.4547,78.6039,NH3,5,6,6
India,Uttar_Pradesh,Kanpur,"FTI Kidwai Nagar, Kanpur - UPPCB",18-06-2024 07:00:00,26.428282,80.327067,NO2,NA,NA,NA
India,Uttar_Pradesh,Kanpur,"FTI Kidwai Nagar, Kanpur - UPPCB",18-06-2024 07:00:00,26.428282,80.327067,NH3,NA,NA,NA
India,Uttar_Pradesh,Kanpur,"FTI Kidwai Nagar, Kanpur - UPPCB",18-06-2024 07:00:00,26.428282,80.327067,OZONE,NA,NA,NA
India,Uttar_Pradesh,Kanpur,"NSI Kalyanpur, Kanpur - UPPCB",18-06-2024 07:00:00,26.509954,80.249612,SO2,17,23,19
India,Uttar_Pradesh,Lucknow,"B R Ambedkar University, Lucknow - UPPCB",18-06-2024 07:00:00,26.766433,80.927299,PM10,71,157,123
India,Uttar_Pradesh,Lucknow,"B R Ambedkar University, Lucknow - UPPCB",18-06-2024 07:00:00,26.766433,80.927299,NO2,11,12,11
India,Uttar_Pradesh,Lucknow,"Gomti Nagar, Lucknow - UPPCB",18-06-2024 07:00:00,26.868120,81.005119,PM10,22,138,89
India,Uttar_Pradesh,Lucknow,"Gomti Nagar, Lucknow - UPPCB",18-06-2024 07:00:00,26.868120,81.005119,OZONE,46,58,49
India,Uttar_Pradesh,Lucknow,"Kendriya Vidyalaya, Lucknow - CPCB",18-06-2024 07:00:00,26.906111,80.948222,PM2.5,45,257,142
India,Uttar_Pradesh,Lucknow,"Kendriya Vidyalaya, Lucknow - CPCB",18-06-2024 07:00:00,26.906111,80.948222,NO2,2,42,16
India,Uttar_Pradesh,Lucknow,"Kendriya Vidyalaya, Lucknow - CPCB",18-06-2024 07:00:00,26.906111,80.948222,SO2,2,11,8
India,Uttar_Pradesh,Lucknow,"Kukrail Picnic Spot-1, Lucknow - UPPCB",18-06-2024 07:00:00,26.90723,80.98579,NH3,2,2,2
India,Uttar_Pradesh,Lucknow,"Kukrail Picnic Spot-1, Lucknow - UPPCB",18-06-2024 07:00:00,26.90723,80.98579,CO,8,34,16
India,Uttar_Pradesh,Lucknow,"Talkatora District Industries Center, Lucknow - CPCB",18-06-2024 07:00:00,26.83399722,80.8917361,PM10,92,182,153
India,Uttar_Pradesh,Lucknow,"Talkatora District Industries Center, Lucknow - CPCB",18-06-2024 07:00:00,26.83399722,80.8917361,CO,4,41,19
India,Uttar_Pradesh,Meerut,"Ganga Nagar, Meerut - UPPCB",18-06-2024 07:00:00,28.999264,77.7590354,NH3,6,13,9
India,Uttar_Pradesh,Meerut,"Pallavpuram Phase 2, Meerut - UPPCB",18-06-2024 07:00:00,29.063510,77.709723,NH3,7,11,9
India,Uttar_Pradesh,Moradabad,"Buddhi Vihar, Moradabad - UPPCB",18-06-2024 07:00:00,28.83526,78.74460,CO,16,30,28
India,Uttar_Pradesh,Moradabad,"Eco Herbal Park, Moradabad - UPPCB",18-06-2024 07:00:00,28.840739,78.697531,SO2,1,68,29
India,Uttar_Pradesh,Moradabad,"Jigar Colony, Moradabad - UPPCB",18-06-2024 07:00:00,28.856664,78.772638,PM2.5,31,86,50
India,Uttar_Pradesh,Moradabad,"Jigar Colony, Moradabad - UPPCB",18-06-2024 07:00:00,28.856664,78.772638,NO2,11,12,12
India,Uttar_Pradesh,Moradabad,"Transport Nagar, Moradabad - UPPCB",18-06-2024 07:00:00,28.802625,78.753728,PM2.5,NA,NA,NA
India,Uttar_Pradesh,Moradabad,"Transport Nagar, Moradabad - UPPCB",18-06-2024 07:00:00,28.802625,78.753728,PM10,NA,NA,NA
India,Uttar_Pradesh,Moradabad,"Transport Nagar, Moradabad - UPPCB",18-06-2024 07:00:00,28.802625,78.753728,NH3,5,5,5
India,Uttar_Pradesh,Moradabad,"Transport Nagar, Moradabad - UPPCB",18-06-2024 07:00:00,28.802625,78.753728,SO2,19,55,29
India,Uttar_Pradesh,Moradabad,"Transport Nagar, Moradabad - UPPCB",18-06-2024 07:00:00,28.802625,78.753728,OZONE,7,100,20
India,Uttar_Pradesh,Muzaffarnagar,"New Mandi, Muzaffarnagar - UPPCB",18-06-2024 07:00:00,29.4723508,77.7194031,PM2.5,52,160,89
India,Uttar_Pradesh,Muzaffarnagar,"New Mandi, Muzaffarnagar - UPPCB",18-06-2024 07:00:00,29.4723508,77.7194031,PM10,133,267,184
India,Uttar_Pradesh,Noida,"Sector-116, Noida - UPPCB",18-06-2024 07:00:00,28.569230,77.393848,PM2.5,38,86,62
India,Uttar_Pradesh,Prayagraj,"Motilal Nehru NIT, Prayagraj - UPPCB",18-06-2024 07:00:00,25.494,81.863,PM2.5,11,56,26
India,Uttar_Pradesh,Prayagraj,"Nagar Nigam, Prayagraj - UPPCB",18-06-2024 07:00:00,25.44919916 ,81.82735986 ,PM10,33,154,62
India,Uttar_Pradesh,Prayagraj,"Nagar Nigam, Prayagraj - UPPCB",18-06-2024 07:00:00,25.44919916 ,81.82735986 ,NO2,5,5,5
India,Uttar_Pradesh,Prayagraj,"Nagar Nigam, Prayagraj - UPPCB",18-06-2024 07:00:00,25.44919916 ,81.82735986 ,OZONE,10,12,11
India,Uttar_Pradesh,Varanasi,"Ardhali Bazar, Varanasi - UPPCB",18-06-2024 07:00:00,25.3505986,82.9083074,SO2,32,45,36
India,Uttar_Pradesh,Varanasi,"Bhelupur, Varanasi - UPPCB",18-06-2024 07:00:00,25.301778,82.996789,PM2.5,4,9,6
India,Uttar_Pradesh,Varanasi,"Bhelupur, Varanasi - UPPCB",18-06-2024 07:00:00,25.301778,82.996789,SO2,32,32,32
India,Uttar_Pradesh,Varanasi,"Bhelupur, Varanasi - UPPCB",18-06-2024 07:00:00,25.301778,82.996789,OZONE,4,30,7
India,Uttar_Pradesh,Varanasi,"IESD Banaras Hindu University, Varanasi - UPPCB",18-06-2024 07:00:00,25.262326,82.995408,NH3,2,4,3
India,Uttar_Pradesh,Varanasi,"Maldahiya, Varanasi - UPPCB",18-06-2024 07:00:00,25.32393,82.99687,PM10,14,94,31
India,Uttar_Pradesh,Varanasi,"Maldahiya, Varanasi - UPPCB",18-06-2024 07:00:00,25.32393,82.99687,SO2,28,42,33
India,Uttarakhand,Dehradun,"Doon University, Dehradun - UKPCB",18-06-2024 07:00:00,30.269444,78.044167,NO2,1,5,2
India,Uttarakhand,Kashipur,"Govt. Girls Inter College, Kashipur - UKPCB",18-06-2024 07:00:00,29.2124114,78.9611753,PM10,119,154,132
India,Uttarakhand,Kashipur,"Govt. Girls Inter College, Kashipur - UKPCB",18-06-2024 07:00:00,29.2124114,78.9611753,NH3,1,4,3
India,Uttarakhand,Kashipur,"Govt. Girls Inter College, Kashipur - UKPCB",18-06-2024 07:00:00,29.2124114,78.9611753,OZONE,16,78,31
India,Uttarakhand,Rishikesh,"Shivaji Nagar, Rishikesh - UKPCB",18-06-2024 07:00:00,30.075911,78.2859547,NO2,NA,NA,NA
India,Uttarakhand,Rishikesh,"Shivaji Nagar, Rishikesh - UKPCB",18-06-2024 07:00:00,30.075911,78.2859547,SO2,NA,NA,NA
India,Uttarakhand,Rishikesh,"Shivaji Nagar, Rishikesh - UKPCB",18-06-2024 07:00:00,30.075911,78.2859547,OZONE,17,108,26
India,West_Bengal,Asansol,"Evelyn Lodge, Asansol - WBPCB",18-06-2024 07:00:00,23.6979360,86.9443950,PM2.5,29,134,83
India,West_Bengal,Barrackpore,"SVSPA Campus, Barrackpore - WBPCB",18-06-2024 07:00:00,22.7605581,88.3617589,SO2,8,14,11
India,West_Bengal,Durgapur,"Sidhu Kanhu Indoor Stadium, Durgapur - WBPCB",18-06-2024 07:00:00,23.5404352,87.2892225,PM2.5,33,300,139
India,West_Bengal,Durgapur,"Sidhu Kanhu Indoor Stadium, Durgapur - WBPCB",18-06-2024 07:00:00,23.5404352,87.2892225,NO2,16,42,22
India,West_Bengal,Durgapur,"Sidhu Kanhu Indoor Stadium, Durgapur - WBPCB",18-06-2024 07:00:00,23.5404352,87.2892225,CO,23,47,26
India,West_Bengal,Haldia,"Priyambada Housing Estate, Haldia - WBPCB",18-06-2024 07:00:00,22.06047,88.109737,PM10,40,101,59
India,West_Bengal,Howrah,"Belur Math, Howrah - WBPCB",18-06-2024 07:00:00,22.629801,88.352017,NH3,1,4,1
India,West_Bengal,Howrah,"Botanical Garden, Howrah - WBPCB",18-06-2024 07:00:00,22.554954,88.292568,NO2,6,32,11
India,West_Bengal,Howrah,"Botanical Garden, Howrah - WBPCB",18-06-2024 07:00:00,22.554954,88.292568,NH3,1,1,1
India,West_Bengal,Howrah,"Ghusuri, Howrah - WBPCB",18-06-2024 07:00:00,22.611968,88.347422,NH3,6,6,6
India,West_Bengal,Kolkata,"Ballygunge, Kolkata - WBPCB",18-06-2024 07:00:00,22.5367507,88.3638022,SO2,3,8,6
India,West_Bengal,Kolkata,"Ballygunge, Kolkata - WBPCB",18-06-2024 07:00:00,22.5367507,88.3638022,CO,8,16,10
India,West_Bengal,Kolkata,"Fort William, Kolkata - WBPCB",18-06-2024 07:00:00,22.556640,88.342674,PM10,42,64,55
India,West_Bengal,Kolkata,"Fort William, Kolkata - WBPCB",18-06-2024 07:00:00,22.556640,88.342674,NO2,10,16,12
India,West_Bengal,Kolkata,"Fort William, Kolkata - WBPCB",18-06-2024 07:00:00,22.556640,88.342674,CO,16,21,17
India,West_Bengal,Kolkata,"Jadavpur, Kolkata - WBPCB",18-06-2024 07:00:00,22.49929,88.36917,PM10,30,178,51
India,West_Bengal,Kolkata,"Rabindra Bharati University, Kolkata - WBPCB",18-06-2024 07:00:00,22.627847,88.380669,PM2.5,18,39,27
India,West_Bengal,Kolkata,"Rabindra Bharati University, Kolkata - WBPCB",18-06-2024 07:00:00,22.627847,88.380669,OZONE,32,122,83
India,West_Bengal,Kolkata,"Rabindra Sarobar, Kolkata - WBPCB",18-06-2024 07:00:00,22.51106,88.35142,PM10,48,66,56
India,West_Bengal,Kolkata,"Rabindra Sarobar, Kolkata - WBPCB",18-06-2024 07:00:00,22.51106,88.35142,NO2,15,26,18
India,West_Bengal,Kolkata,"Rabindra Sarobar, Kolkata - WBPCB",18-06-2024 07:00:00,22.51106,88.35142,NH3,11,12,11
India,West_Bengal,Kolkata,"Victoria, Kolkata - WBPCB",18-06-2024 07:00:00,22.5448082,88.3403691,PM10,81,108,97
India,West_Bengal,Kolkata,"Victoria, Kolkata - WBPCB",18-06-2024 07:00:00,22.5448082,88.3403691,CO,8,22,13
India,West_Bengal,Kolkata,"Victoria, Kolkata - WBPCB",18-06-2024 07:00:00,22.5448082,88.3403691,OZONE,26,47,31
India,West_Bengal,Siliguri,"Ward-32 Bapupara, Siliguri - WBPCB",18-06-2024 07:00:00,26.6879226,88.4152495,NH3,9,11,10
India,West_Bengal,Siliguri,"Ward-32 Bapupara, Siliguri - WBPCB",18-06-2024 07:00:00,26.6879226,88.4152495,CO,11,50,22
India,Andhra_Pradesh,Anantapur,"Gulzarpet, Anantapur - APPCB",18-06-2024 07:00:00,14.675886,77.593027,NH3,4,4,4
India,Andhra_Pradesh,Kadapa,"Yerramukkapalli, Kadapa - APPCB",18-06-2024 07:00:00,14.465052,78.824187,PM2.5,36,56,44
India,Andhra_Pradesh,Kadapa,"Yerramukkapalli, Kadapa - APPCB",18-06-2024 07:00:00,14.465052,78.824187,NH3,1,1,1
India,Andhra_Pradesh,Kadapa,"Yerramukkapalli, Kadapa - APPCB",18-06-2024 07:00:00,14.465052,78.824187,OZONE,6,27,16
India,Andhra_Pradesh,Rajamahendravaram,"Anand Kala Kshetram, Rajamahendravaram - APPCB",18-06-2024 07:00:00,16.9872867,81.7363176,PM10,28,76,45
India,Andhra_Pradesh,Rajamahendravaram,"Anand Kala Kshetram, Rajamahendravaram - APPCB",18-06-2024 07:00:00,16.9872867,81.7363176,OZONE,40,130,67
India,Andhra_Pradesh,Tirupati,"Tirumala, Tirupati - APPCB",18-06-2024 07:00:00,13.67,79.35,PM10,8,40,25
India,Andhra_Pradesh,Tirupati,"Tirumala, Tirupati - APPCB",18-06-2024 07:00:00,13.67,79.35,NO2,16,41,27
India,Andhra_Pradesh,Vijayawada,"HB Colony, Vijayawada - APPCB",18-06-2024 07:00:00,16.536107,80.594233,OZONE,13,28,22
India,Andhra_Pradesh,Vijayawada,"Kanuru, Vijayawada - APPCB",18-06-2024 07:00:00,16.486692,80.699436,PM10,61,87,66
India,Andhra_Pradesh,Vijayawada,"Kanuru, Vijayawada - APPCB",18-06-2024 07:00:00,16.486692,80.699436,OZONE,40,40,40
India,Andhra_Pradesh,Vijayawada,"Rajiv Gandhi Park, Vijayawada - APPCB",18-06-2024 07:00:00,16.509717,80.612222,PM2.5,39,58,48
India,Andhra_Pradesh,Vijayawada,"Rajiv Nagar, Vijayawada - APPCB",18-06-2024 07:00:00,16.554731,80.649110,PM2.5,47,51,48
India,Andhra_Pradesh,Vijayawada,"Rajiv Nagar, Vijayawada - APPCB",18-06-2024 07:00:00,16.554731,80.649110,NO2,10,10,10
India,Andhra_Pradesh,Vijayawada,"Rajiv Nagar, Vijayawada - APPCB",18-06-2024 07:00:00,16.554731,80.649110,OZONE,21,58,37
India,Andhra_Pradesh,Visakhapatnam,"GVM Corporation, Visakhapatnam - APPCB",18-06-2024 07:00:00,17.72,83.3,OZONE,8,51,12
India,Assam,Byrnihat,"Central Academy for SFS, Byrnihat - PCBA",18-06-2024 07:00:00,26.071318,91.87488,NO2,2,12,6
India,Assam,Guwahati,"LGBI Airport, Guwahati - PCBA",18-06-2024 07:00:00,26.10887,91.589544,PM2.5,3,326,118
India,Assam,Guwahati,"LGBI Airport, Guwahati - PCBA",18-06-2024 07:00:00,26.10887,91.589544,OZONE,23,33,26
India,Assam,Guwahati,"Pan Bazaar, Guwahati - PCBA",18-06-2024 07:00:00,26.187500,91.744194,NO2,1,2,1
India,Assam,Nagaon,"Christianpatty, Nagaon - PCBA",18-06-2024 07:00:00,26.349082,92.68449,OZONE,3,29,4
India,Assam,Nalbari,"Bata Chowk, Nalbari - PCBA",18-06-2024 07:00:00,26.446912,91.439057,PM2.5,NA,NA,NA
India,Assam,Sivasagar,"Girls College, Sivasagar - PCBA",18-06-2024 07:00:00,26.987634,94.636574,PM10,44,61,51
India,Bihar,Arrah,"New DM Office, Arrah - BSPCB",18-06-2024 07:00:00,25.5626095,84.663264,PM2.5,28,68,46
India,Bihar,Arrah,"New DM Office, Arrah - BSPCB",18-06-2024 07:00:00,25.5626095,84.663264,NO2,8,13,10
India,Bihar,Arrah,"New DM Office, Arrah - BSPCB",18-06-2024 07:00:00,25.5626095,84.663264,NH3,2,3,2
India,Bihar,Aurangabad,"Gurdeo Nagar, Aurangabad - BSPCB",18-06-2024 07:00:00,24.75746,84.366208,NO2,1,13,6
India,Bihar,Aurangabad,"Gurdeo Nagar, Aurangabad - BSPCB",18-06-2024 07:00:00,24.75746,84.366208,SO2,1,20,14
India,Bihar,Bettiah,"Kamalnath Nagar, Bettiah - BSPCB",18-06-2024 07:00:00,26.80365,84.51954,NH3,26,52,38
India,Bihar,Bettiah,"Kamalnath Nagar, Bettiah - BSPCB",18-06-2024 07:00:00,26.80365,84.51954,SO2,9,23,17
India,Bihar,Bhagalpur,"DM Office_Kachari Chowk, Bhagalpur - BSPCB",18-06-2024 07:00:00,25.251013,86.989001,NO2,18,42,26
India,Bihar,Bhagalpur,"DM Office_Kachari Chowk, Bhagalpur - BSPCB",18-06-2024 07:00:00,25.251013,86.989001,SO2,18,26,20
India,Bihar,Bhagalpur,"Mayaganj, Bhagalpur - BSPCB",18-06-2024 07:00:00,25.265194,87.012947,SO2,6,31,16
India,Bihar,Buxar,"Charitra Van, Buxar - BSPCB (Formerly known as Central Jail)",18-06-2024 07:00:00,25.567520,83.966379,OZONE,5,92,27
India,Bihar,Chhapra,"Darshan Nagar, Chhapra - BSPCB",18-06-2024 07:00:00,25.7808257,84.7446768,OZONE,1,18,2
India,Bihar,Gaya,"Collectorate, Gaya - BSPCB",18-06-2024 07:00:00,24.7955,84.9994,OZONE,38,95,69
India,Bihar,Gaya,"SFTI Kusdihra, Gaya - BSPCB",18-06-2024 07:00:00,24.762518,84.982348,NO2,30,32,31
India,Bihar,Manguraha,"Forest Rest House, Manguraha - BSPCB",18-06-2024 07:00:00,27.308328,84.531742,PM10,NA,NA,NA
India,Bihar,Manguraha,"Forest Rest House, Manguraha - BSPCB",18-06-2024 07:00:00,27.308328,84.531742,NO2,NA,NA,NA
India,Bihar,Manguraha,"Forest Rest House, Manguraha - BSPCB",18-06-2024 07:00:00,27.308328,84.531742,NH3,NA,NA,NA
India,Bihar,Motihari,"Gandak Colony, Motihari - BSPCB",18-06-2024 07:00:00,26.63086,84.90051,PM2.5,NA,NA,NA
India,Bihar,Motihari,"Gandak Colony, Motihari - BSPCB",18-06-2024 07:00:00,26.63086,84.90051,PM10,NA,NA,NA
India,Bihar,Motihari,"Gandak Colony, Motihari - BSPCB",18-06-2024 07:00:00,26.63086,84.90051,NH3,NA,NA,NA
India,Bihar,Munger,"Town Hall, Munger - BSPCB",18-06-2024 07:00:00,25.376776,86.471523,PM10,98,500,295
India,Bihar,Munger,"Town Hall, Munger - BSPCB",18-06-2024 07:00:00,25.376776,86.471523,NO2,4,6,5
India,Bihar,Munger,"Town Hall, Munger - BSPCB",18-06-2024 07:00:00,25.376776,86.471523,NH3,2,3,3
India,Bihar,Munger,"Town Hall, Munger - BSPCB",18-06-2024 07:00:00,25.376776,86.471523,SO2,20,36,26
India,Bihar,Muzaffarpur,"Buddha Colony, Muzaffarpur - BSPCB",18-06-2024 07:00:00,26.11442,85.39813,NH3,4,8,6
India,Bihar,Muzaffarpur,"Buddha Colony, Muzaffarpur - BSPCB",18-06-2024 07:00:00,26.11442,85.39813,CO,20,26,23
India,Bihar,Muzaffarpur,"MIT-Daudpur Kothi, Muzaffarpur - BSPCB",18-06-2024 07:00:00,26.1403345,85.3650192,PM2.5,23,123,49
India,Bihar,Muzaffarpur,"MIT-Daudpur Kothi, Muzaffarpur - BSPCB",18-06-2024 07:00:00,26.1403345,85.3650192,CO,8,102,37
India,Bihar,Muzaffarpur,"MIT-Daudpur Kothi, Muzaffarpur - BSPCB",18-06-2024 07:00:00,26.1403345,85.3650192,OZONE,14,43,20
India,Bihar,Patna,"DRM Office Danapur, Patna - BSPCB",18-06-2024 07:00:00,25.586562,85.043586,PM2.5,50,249,123
India,Bihar,Patna,"DRM Office Danapur, Patna - BSPCB",18-06-2024 07:00:00,25.586562,85.043586,NH3,2,3,3
India,Bihar,Patna,"DRM Office Danapur, Patna - BSPCB",18-06-2024 07:00:00,25.586562,85.043586,OZONE,4,53,15
India,Bihar,Patna,"Rajbansi Nagar, Patna - BSPCB",18-06-2024 07:00:00,25.599486,85.113666,PM2.5,45,120,87
India,Bihar,Patna,"Rajbansi Nagar, Patna - BSPCB",18-06-2024 07:00:00,25.599486,85.113666,PM10,95,138,115
India,Bihar,Purnia,"Mariam Nagar, Purnia - BSPCB",18-06-2024 07:00:00,25.366336,87.117468,NH3,1,1,1
India,Bihar,Rajgir,"Dangi Tola, Rajgir - BSPCB",18-06-2024 07:00:00,25.03280,85.41948,PM2.5,33,500,153
India,Bihar,Rajgir,"Dangi Tola, Rajgir - BSPCB",18-06-2024 07:00:00,25.03280,85.41948,SO2,4,4,4
India,Bihar,Saharsa,"Police Line, Saharsa - BSPCB",18-06-2024 07:00:00,25.892357,86.590325,NH3,9,9,9
India,Bihar,Samastipur,"DM Office_Kasipur, Samastipur - BSPCB",18-06-2024 07:00:00,25.859655,85.77944,PM2.5,NA,NA,NA
India,Bihar,Sasaram,"Dada Peer, Sasaram - BSPCB",18-06-2024 07:00:00,24.952822,84.002396,PM10,NA,NA,NA
India,Bihar,Sasaram,"Dada Peer, Sasaram - BSPCB",18-06-2024 07:00:00,24.952822,84.002396,NH3,NA,NA,NA
India,Chandigarh,Chandigarh,"Sector 22, Chandigarh - CPCC",18-06-2024 07:00:00,30.735567,76.775714,PM10,74,167,122
India,Chandigarh,Chandigarh,"Sector-25, Chandigarh - CPCC",18-06-2024 07:00:00,30.751462,76.762879,NH3,9,16,12
India,Chandigarh,Chandigarh,"Sector-25, Chandigarh - CPCC",18-06-2024 07:00:00,30.751462,76.762879,SO2,1,23,11
India,Chandigarh,Chandigarh,"Sector-53, Chandigarh - CPCC",18-06-2024 07:00:00,30.719859,76.738637,PM2.5,40,107,69
India,Chandigarh,Chandigarh,"Sector-53, Chandigarh - CPCC",18-06-2024 07:00:00,30.719859,76.738637,PM10,NA,NA,NA
India,Chhattisgarh,Bhilai,"32Bungalows, Bhilai - CECB",18-06-2024 07:00:00,21.194815,81.314770,NO2,11,13,12
India,Chhattisgarh,Bhilai,"32Bungalows, Bhilai - CECB",18-06-2024 07:00:00,21.194815,81.314770,NH3,9,10,9
India,Chhattisgarh,Bhilai,"32Bungalows, Bhilai - CECB",18-06-2024 07:00:00,21.194815,81.314770,SO2,9,15,10
India,Chhattisgarh,Bhilai,"Civic Center, Bhilai - Bhilai Steel Plant",18-06-2024 07:00:00,21.185571,81.343175,SO2,10,11,10
India,Chhattisgarh,Bhilai,"Hathkhoj, Bhilai - CECB",18-06-2024 07:00:00,21.224231,81.408350,PM2.5,7,42,20
India,Chhattisgarh,Chhal,"Nawapara SECL Colony, Chhal - CECB",18-06-2024 07:00:00,22.118125,83.140608,SO2,11,26,17
India,Chhattisgarh,Kunjemura,"OP Jindal School, Kunjemura - CECB",18-06-2024 07:00:00,22.126650,83.483212,PM2.5,37,398,117
India,Chhattisgarh,Kunjemura,"OP Jindal School, Kunjemura - CECB",18-06-2024 07:00:00,22.126650,83.483212,CO,29,56,39
India,Chhattisgarh,Milupara,"Govt. Higher Secondary School, Milupara - CECB",18-06-2024 07:00:00,22.1910172,83.5197009,NO2,15,68,41
India,Chhattisgarh,Milupara,"Govt. Higher Secondary School, Milupara - CECB",18-06-2024 07:00:00,22.1910172,83.5197009,OZONE,7,77,11
India,Chhattisgarh,Raipur,"Bhatagaon New ISBT, Raipur - CECB",18-06-2024 07:00:00,21.219665,81.630094,NH3,2,2,2
India,Chhattisgarh,Raipur,"Bhatagaon New ISBT, Raipur - CECB",18-06-2024 07:00:00,21.219665,81.630094,SO2,4,7,5
India,Chhattisgarh,Raipur,"Bhatagaon New ISBT, Raipur - CECB",18-06-2024 07:00:00,21.219665,81.630094,CO,10,29,19
India,Chhattisgarh,Raipur,"Bhatagaon New ISBT, Raipur - CECB",18-06-2024 07:00:00,21.219665,81.630094,OZONE,4,8,5
India,Chhattisgarh,Raipur,"Krishak Nagar, Raipur - CECB",18-06-2024 07:00:00,21.237755,81.705301,NH3,1,1,1
India,Chhattisgarh,Raipur,"Siltara Phase-II, Raipur - CECB",18-06-2024 07:00:00,21.371751,81.664929,NH3,3,3,3
India,Chhattisgarh,Raipur,"Siltara Phase-II, Raipur - CECB",18-06-2024 07:00:00,21.371751,81.664929,CO,28,67,58
India,Chhattisgarh,Tumidih,"OP Jindal Industrial Park, Tumidih - CECB",18-06-2024 07:00:00,22.06631475,83.33820077,SO2,5,7,6
India,Chhattisgarh,Tumidih,"OP Jindal Industrial Park, Tumidih - CECB",18-06-2024 07:00:00,22.06631475,83.33820077,CO,20,53,31
India,Chhattisgarh,Tumidih,"OP Jindal Industrial Park, Tumidih - CECB",18-06-2024 07:00:00,22.06631475,83.33820077,OZONE,12,71,18
India,Delhi,Delhi,"Anand Vihar, Delhi - DPCC",18-06-2024 07:00:00,28.647622,77.3158090,OZONE,NA,NA,NA
India,Delhi,Delhi,"Ashok Vihar, Delhi - DPCC",18-06-2024 07:00:00,28.695381,77.181665,PM10,114,171,144
India,Delhi,Delhi,"Ashok Vihar, Delhi - DPCC",18-06-2024 07:00:00,28.695381,77.181665,NO2,24,81,44
India,Delhi,Delhi,"Aya Nagar, Delhi - IMD",18-06-2024 07:00:00,28.4706914,77.1099364,PM2.5,12,239,87
India,Delhi,Delhi,"Bawana, Delhi - DPCC",18-06-2024 07:00:00,28.776200,77.051074,PM10,135,294,200
India,Delhi,Delhi,"Bawana, Delhi - DPCC",18-06-2024 07:00:00,28.776200,77.051074,OZONE,5,86,9
India,Delhi,Delhi,"Burari Crossing, Delhi - IMD",18-06-2024 07:00:00,28.7256504,77.2011573,CO,18,40,36
India,Delhi,Delhi,"Burari Crossing, Delhi - IMD",18-06-2024 07:00:00,28.7256504,77.2011573,OZONE,1,56,6
India,Delhi,Delhi,"CRRI Mathura Road, Delhi - IMD",18-06-2024 07:00:00,28.5512005,77.2735737,CO,25,77,58
India,Delhi,Delhi,"Chandni Chowk, Delhi - IITM",18-06-2024 07:00:00,28.656756,77.227234,CO,52,70,56
India,Delhi,Delhi,"DTU, Delhi - CPCB",18-06-2024 07:00:00,28.7500499,77.1112615,NH3,7,8,7
India,Delhi,Delhi,"DTU, Delhi - CPCB",18-06-2024 07:00:00,28.7500499,77.1112615,SO2,41,63,47
India,Delhi,Delhi,"Dr. Karni Singh Shooting Range, Delhi - DPCC",18-06-2024 07:00:00,28.498571,77.264840,SO2,7,23,12
India,Delhi,Delhi,"Dr. Karni Singh Shooting Range, Delhi - DPCC",18-06-2024 07:00:00,28.498571,77.264840,OZONE,18,173,32
India,Delhi,Delhi,"IGI Airport (T3), Delhi - IMD",18-06-2024 07:00:00,28.5627763,77.1180053,PM10,NA,NA,NA
India,Delhi,Delhi,"IGI Airport (T3), Delhi - IMD",18-06-2024 07:00:00,28.5627763,77.1180053,NO2,13,32,21
India,Delhi,Delhi,"IGI Airport (T3), Delhi - IMD",18-06-2024 07:00:00,28.5627763,77.1180053,OZONE,2,32,2
India,Delhi,Delhi,"Jahangirpuri, Delhi - DPCC",18-06-2024 07:00:00,28.732820,77.170633,PM2.5,45,233,122
India,Delhi,Delhi,"Jahangirpuri, Delhi - DPCC",18-06-2024 07:00:00,28.732820,77.170633,CO,34,96,67
India,Delhi,Delhi,"Jahangirpuri, Delhi - DPCC",18-06-2024 07:00:00,28.732820,77.170633,OZONE,2,78,5
India,Delhi,Delhi,"Lodhi Road, Delhi - IMD",18-06-2024 07:00:00,28.5918245,77.2273074,CO,26,37,33
India,Delhi,Delhi,"Major Dhyan Chand National Stadium, Delhi - DPCC",18-06-2024 07:00:00,28.611281,77.237738,SO2,10,39,21
India,Delhi,Delhi,"Major Dhyan Chand National Stadium, Delhi - DPCC",18-06-2024 07:00:00,28.611281,77.237738,OZONE,1,108,2
India,Delhi,Delhi,"Mandir Marg, Delhi - DPCC",18-06-2024 07:00:00,28.636429,77.201067,CO,35,68,58
India,Delhi,Delhi,"Mundka, Delhi - DPCC",18-06-2024 07:00:00,28.684678,77.076574,PM2.5,42,315,118
India,Delhi,Delhi,"Najafgarh, Delhi - DPCC",18-06-2024 07:00:00,28.570173,76.933762,PM10,113,232,154
India,Delhi,Delhi,"Narela, Delhi - DPCC",18-06-2024 07:00:00,28.822836,77.101981,PM2.5,30,285,109
India,Delhi,Delhi,"Narela, Delhi - DPCC",18-06-2024 07:00:00,28.822836,77.101981,PM10,124,285,200
India,Delhi,Delhi,"Narela, Delhi - DPCC",18-06-2024 07:00:00,28.822836,77.101981,SO2,5,76,37
India,Delhi,Delhi,"Nehru Nagar, Delhi - DPCC",18-06-2024 07:00:00,28.567890,77.250515,PM2.5,40,113,73
India,Delhi,Delhi,"North Campus, DU, Delhi - IMD",18-06-2024 07:00:00,28.6573814,77.1585447,CO,3,103,82
India,Delhi,Delhi,"Okhla Phase-2, Delhi - DPCC",18-06-2024 07:00:00,28.530785,77.271255,NO2,25,111,56
India,Delhi,Delhi,"Okhla Phase-2, Delhi - DPCC",18-06-2024 07:00:00,28.530785,77.271255,SO2,7,14,10
India,Delhi,Delhi,"Patparganj, Delhi - DPCC",18-06-2024 07:00:00,28.623763,77.287209,OZONE,2,111,4
India,Delhi,Delhi,"Punjabi Bagh, Delhi - DPCC",18-06-2024 07:00:00,28.674045,77.131023,CO,24,64,48
India,Delhi,Delhi,"Pusa, Delhi - DPCC",18-06-2024 07:00:00,28.639652,77.146275,PM2.5,27,113,61
India,Delhi,Delhi,"Pusa, Delhi - DPCC",18-06-2024 07:00:00,28.639652,77.146275,NO2,42,107,63
India,Delhi,Delhi,"Rohini, Delhi - DPCC",18-06-2024 07:00:00,28.732528,77.119920,NH3,8,14,10
India,Delhi,Delhi,"Rohini, Delhi - DPCC",18-06-2024 07:00:00,28.732528,77.119920,CO,14,38,32
India,Delhi,Delhi,"Shadipur, Delhi - CPCB",18-06-2024 07:00:00,28.6514781,77.1473105,PM2.5,176,403,300
India,Delhi,Delhi,"Shadipur, Delhi - CPCB",18-06-2024 07:00:00,28.6514781,77.1473105,PM10,159,474,284
India,Delhi,Delhi,"Shadipur, Delhi - CPCB",18-06-2024 07:00:00,28.6514781,77.1473105,SO2,8,28,20
India,Delhi,Delhi,"Shadipur, Delhi - CPCB",18-06-2024 07:00:00,28.6514781,77.1473105,OZONE,12,192,24
India,Delhi,Delhi,"Sirifort, Delhi - CPCB",18-06-2024 07:00:00,28.5504249,77.2159377,NO2,30,95,57
India,Delhi,Delhi,"Sirifort, Delhi - CPCB",18-06-2024 07:00:00,28.5504249,77.2159377,OZONE,4,64,4
India,Delhi,Delhi,"Sri Aurobindo Marg, Delhi - DPCC",18-06-2024 07:00:00,28.531346,77.190156,PM10,134,189,158
India,Delhi,Delhi,"Vivek Vihar, Delhi - DPCC",18-06-2024 07:00:00,28.672342,77.315260,PM2.5,37,200,85
India,Gujarat,Ahmedabad,"Chandkheda, Ahmedabad - IITM",18-06-2024 07:00:00,23.107969,72.574648,PM10,43,152,70
India,Gujarat,Ahmedabad,"Gyaspur, Ahmedabad - IITM",18-06-2024 07:00:00,22.977134,72.553024,PM2.5,57,205,80
India,Gujarat,Ahmedabad,"Rakhial, Ahmedabad - IITM",18-06-2024 07:00:00,23.016834,72.625775,PM10,55,124,78
India,Gujarat,Ahmedabad,"SVPI Airport Hansol, Ahmedabad - IITM",18-06-2024 07:00:00,23.076793,72.627874,NO2,7,32,24
India,Gujarat,Ahmedabad,"SVPI Airport Hansol, Ahmedabad - IITM",18-06-2024 07:00:00,23.076793,72.627874,NH3,1,7,5
India,Gujarat,Ahmedabad,"Sardar Vallabhbhai Patel Stadium, Ahmedabad - IITM",18-06-2024 07:00:00,23.043070,72.562968,NO2,46,67,55
India,Gujarat,Ankleshwar,"GIDC, Ankleshwar - GPCB",18-06-2024 07:00:00,21.613267,73.010555,NO2,24,45,31
India,Gujarat,Ankleshwar,"GIDC, Ankleshwar - GPCB",18-06-2024 07:00:00,21.613267,73.010555,NH3,3,3,3
India,Gujarat,Ankleshwar,"GIDC, Ankleshwar - GPCB",18-06-2024 07:00:00,21.613267,73.010555,OZONE,22,29,23
India,Gujarat,Gandhinagar,"Sector-10, Gandhinagar - GPCB",18-06-2024 07:00:00,23.221714,72.654328,NH3,NA,NA,NA
India,Gujarat,Gandhinagar,"Sector-10, Gandhinagar - GPCB",18-06-2024 07:00:00,23.221714,72.654328,SO2,NA,NA,NA
India,Gujarat,Nandesari,"GIDC, Nandesari - Nandesari Ind. Association",18-06-2024 07:00:00,22.410802,73.097923,PM2.5,63,167,99
India,Gujarat,Surat,"Science Center, Surat - SMC",18-06-2024 07:00:00,21.170046,72.795405,PM10,NA,NA,NA
India,Gujarat,Surat,"Science Center, Surat - SMC",18-06-2024 07:00:00,21.170046,72.795405,NO2,19,30,22
India,Gujarat,Vapi,"Phase-1 GIDC, Vapi - GPCB",18-06-2024 07:00:00,20.362421,72.918013,PM2.5,NA,NA,NA
India,Gujarat,Vapi,"Phase-1 GIDC, Vapi - GPCB",18-06-2024 07:00:00,20.362421,72.918013,NO2,NA,NA,NA
India,Gujarat,Vapi,"Phase-1 GIDC, Vapi - GPCB",18-06-2024 07:00:00,20.362421,72.918013,SO2,NA,NA,NA
India,Haryana,Ambala,"Patti Mehar, Ambala - HSPCB",18-06-2024 07:00:00,30.379589,76.778328,OZONE,NA,NA,NA
India,Haryana,Charkhi Dadri,"Mini Secretariat, Charkhi Dadri - HSPCB",18-06-2024 07:00:00,28.593883,76.270653,NO2,14,23,18
India,Haryana,Dharuhera,"Municipal Corporation Office, Dharuhera -  HSPCB",18-06-2024 07:00:00,28.206800,76.799700,OZONE,12,36,18
India,Haryana,Faridabad,"New Industrial Town, Faridabad - HSPCB",18-06-2024 07:00:00,28.39072,77.30059,NH3,1,3,2
India,Haryana,Faridabad,"New Industrial Town, Faridabad - HSPCB",18-06-2024 07:00:00,28.39072,77.30059,SO2,3,10,6
India,Haryana,Faridabad,"New Industrial Town, Faridabad - HSPCB",18-06-2024 07:00:00,28.39072,77.30059,OZONE,50,163,70
India,Haryana,Faridabad,"Sector 11, Faridabad - HSPCB",18-06-2024 07:00:00,28.376058,77.315741,PM2.5,138,308,235
India,Haryana,Faridabad,"Sector 11, Faridabad - HSPCB",18-06-2024 07:00:00,28.376058,77.315741,PM10,154,397,217
India,Haryana,Faridabad,"Sector 11, Faridabad - HSPCB",18-06-2024 07:00:00,28.376058,77.315741,NO2,30,32,31
India,Haryana,Faridabad,"Sector 30, Faridabad - HSPCB",18-06-2024 07:00:00,28.4417,77.3217,NH3,3,4,3
India,Haryana,Faridabad,"Sector- 16A, Faridabad - HSPCB",18-06-2024 07:00:00,28.4088421,77.3099081,SO2,NA,NA,NA
India,Haryana,Fatehabad,"Huda Sector, Fatehabad - HSPCB",18-06-2024 07:00:00,29.503664,75.467934,PM2.5,37,210,90
India,Haryana,Gurugram,"Sector-51, Gurugram - HSPCB",18-06-2024 07:00:00,28.4227,77.0667,PM2.5,85,260,142
India,Haryana,Gurugram,"Sector-51, Gurugram - HSPCB",18-06-2024 07:00:00,28.4227,77.0667,NH3,6,14,9
India,Haryana,Gurugram,"Teri Gram, Gurugram - HSPCB",18-06-2024 07:00:00,28.4275,77.1465,NO2,6,60,34
India,Haryana,Gurugram,"Teri Gram, Gurugram - HSPCB",18-06-2024 07:00:00,28.4275,77.1465,CO,4,56,31
India,Haryana,Hisar,"Urban Estate-II, Hisar - HSPCB",18-06-2024 07:00:00,29.140560,75.744941,NO2,8,17,10
India,Haryana,Hisar,"Urban Estate-II, Hisar - HSPCB",18-06-2024 07:00:00,29.140560,75.744941,SO2,3,63,32
India,Haryana,Kaithal,"Rishi Nagar, Kaithal - HSPCB",18-06-2024 07:00:00,29.8006,76.4155,NH3,8,8,8
India,Haryana,Kaithal,"Rishi Nagar, Kaithal - HSPCB",18-06-2024 07:00:00,29.8006,76.4155,CO,4,34,20
India,Haryana,Karnal,"Sector-12, Karnal - HSPCB",18-06-2024 07:00:00,29.695300,77.002700,PM10,83,129,105
India,Haryana,Karnal,"Sector-12, Karnal - HSPCB",18-06-2024 07:00:00,29.695300,77.002700,NO2,7,12,10
India,Haryana,Kurukshetra,"Sector-7, Kurukshetra - HSPCB",18-06-2024 07:00:00,29.966942,76.875879,SO2,2,3,3
India,Haryana,Manesar,"Sector-2 IMT, Manesar - HSPCB",18-06-2024 07:00:00,28.360699,76.936090,PM2.5,49,100,71
India,Haryana,Manesar,"Sector-2 IMT, Manesar - HSPCB",18-06-2024 07:00:00,28.360699,76.936090,PM10,49,99,70
India,Haryana,Palwal,"Shyam Nagar, Palwal - HSPCB",18-06-2024 07:00:00,28.1485564,77.3320667,PM2.5,43,67,53
India,Haryana,Palwal,"Shyam Nagar, Palwal - HSPCB",18-06-2024 07:00:00,28.1485564,77.3320667,SO2,3,22,12
India,Haryana,Panchkula,"Sector-6, Panchkula - HSPCB ",18-06-2024 07:00:00,30.7057778,76.8531805555555,PM2.5,92,274,166
India,Haryana,Panchkula,"Sector-6, Panchkula - HSPCB ",18-06-2024 07:00:00,30.7057778,76.8531805555555,NO2,9,11,10
India,Haryana,Panchkula,"Sector-6, Panchkula - HSPCB ",18-06-2024 07:00:00,30.7057778,76.8531805555555,CO,2,18,16
India,Haryana,Panchkula,"Sector-6, Panchkula - HSPCB ",18-06-2024 07:00:00,30.7057778,76.8531805555555,OZONE,38,46,42
India,Haryana,Panipat,"Sector-18, Panipat - HSPCB",18-06-2024 07:00:00,29.432304,76.972765,NO2,31,32,31
India,Haryana,Panipat,"Sector-18, Panipat - HSPCB",18-06-2024 07:00:00,29.432304,76.972765,NH3,2,3,3
India,Haryana,Rohtak,"MD University, Rohtak - HSPCB",18-06-2024 07:00:00,28.52123,76.37138,CO,39,63,48
India,Haryana,Sirsa,"F-Block, Sirsa - HSPCB",18-06-2024 07:00:00,29.536400,75.015800,NO2,10,12,10
India,Haryana,Sonipat,"Murthal, Sonipat - HSPCB",18-06-2024 07:00:00,29.027200,77.062100,NH3,7,10,9
India,Haryana,Yamuna Nagar,"Gobind Pura, Yamuna Nagar - HSPCB",18-06-2024 07:00:00,30.1480566,77.2893471,PM10,109,145,126
India,Haryana,Yamuna Nagar,"Gobind Pura, Yamuna Nagar - HSPCB",18-06-2024 07:00:00,30.1480566,77.2893471,NO2,11,21,16
India,Himachal Pradesh,Baddi,"HIMUDA Complex Phase-1, Baddi - HPPCB",18-06-2024 07:00:00,30.943887,76.801991,PM2.5,28,167,63
India,Himachal Pradesh,Baddi,"HIMUDA Complex Phase-1, Baddi - HPPCB",18-06-2024 07:00:00,30.943887,76.801991,OZONE,68,178,144
India,Jharkhand,Dhanbad,"Sardar Patel Nagar, Dhanbad - JSPCB",18-06-2024 07:00:00,23.80569,86.44268,NO2,NA,NA,NA
India,Jharkhand,Dhanbad,"Sardar Patel Nagar, Dhanbad - JSPCB",18-06-2024 07:00:00,23.80569,86.44268,CO,NA,NA,NA
India,Karnataka,Bagalkot,"Vidayagiri, Bagalkot - KSPCB",18-06-2024 07:00:00,16.172806,75.659694,NO2,9,11,9
India,Karnataka,Belgaum,"Ramteerth Nagar, Belgaum - KSPCB",18-06-2024 07:00:00,15.888653,74.541751,NH3,8,10,9
India,Karnataka,Bengaluru,"Bapuji Nagar, Bengaluru - KSPCB",18-06-2024 07:00:00,12.951913,77.539784,NH3,1,1,1
India,Karnataka,Bengaluru,"Hebbal, Bengaluru - KSPCB",18-06-2024 07:00:00,13.029152,77.585901,PM2.5,3,33,15
India,Karnataka,Bengaluru,"Hebbal, Bengaluru - KSPCB",18-06-2024 07:00:00,13.029152,77.585901,SO2,16,23,20
India,Karnataka,Bengaluru,"Hombegowda Nagar, Bengaluru - KSPCB",18-06-2024 07:00:00,12.938539,77.590100,PM2.5,4,21,14
India,Karnataka,Bengaluru,"Hombegowda Nagar, Bengaluru - KSPCB",18-06-2024 07:00:00,12.938539,77.590100,NO2,8,20,14
India,Karnataka,Bengaluru,"Hombegowda Nagar, Bengaluru - KSPCB",18-06-2024 07:00:00,12.938539,77.590100,OZONE,14,30,22
India,Karnataka,Bengaluru,"Jigani, Bengaluru - KSPCB",18-06-2024 07:00:00,12.7816279,77.6299145,NH3,3,4,3
India,Karnataka,Bengaluru,"Kasturi Nagar, Bengaluru - KSPCB",18-06-2024 07:00:00,13.003872,77.664217,NH3,3,4,4
India,Karnataka,Bengaluru,"Peenya, Bengaluru - CPCB",18-06-2024 07:00:00,13.0270199,77.494094,PM2.5,34,42,38
India,Karnataka,Bengaluru,"Sanegurava Halli, Bengaluru - KSPCB",18-06-2024 07:00:00,12.990328,77.5431385,CO,14,22,17
India,Karnataka,Bengaluru,"Shivapura_Peenya, Bengaluru - KSPCB",18-06-2024 07:00:00,13.0246342,77.5080115,NH3,4,4,4
India,Karnataka,Bengaluru,"Silk Board, Bengaluru - KSPCB",18-06-2024 07:00:00,12.917348,77.622813,PM10,NA,NA,NA
India,Karnataka,Bidar,"Naubad, Bidar - KSPCB",18-06-2024 07:00:00,17.930306,77.482194,OZONE,NA,NA,NA
India,Karnataka,Chamarajanagar,"Urban, Chamarajanagar - KSPCB",18-06-2024 07:00:00,11.55358,76.55521,NH3,1,2,2
India,Karnataka,Chikkaballapur,"Chikkaballapur Rural, Chikkaballapur - KSPCB",18-06-2024 07:00:00,13.428828,77.731418,PM10,6,43,20
India,Karnataka,Chikkamagaluru,"Kalyana Nagara, Chikkamagaluru - KSPCB",18-06-2024 07:00:00,13.328028,75.797056,NH3,2,3,2
India,Karnataka,Chikkamagaluru,"Kalyana Nagara, Chikkamagaluru - KSPCB",18-06-2024 07:00:00,13.328028,75.797056,CO,11,162,28
India,Karnataka,Chikkamagaluru,"Kalyana Nagara, Chikkamagaluru - KSPCB",18-06-2024 07:00:00,13.328028,75.797056,OZONE,10,51,21
India,Karnataka,Davanagere,"Devaraj Urs Badavane, Davanagere - KSPCB",18-06-2024 07:00:00,14.475800,75.905200,NO2,9,13,11
India,Karnataka,Dharwad,"Kalabhavan, Dharwad - KSPCB",18-06-2024 07:00:00,15.459706,75.008381,PM2.5,15,39,30
India,Karnataka,Dharwad,"Kalabhavan, Dharwad - KSPCB",18-06-2024 07:00:00,15.459706,75.008381,SO2,NA,NA,NA
India,Karnataka,Gadag,"Panchal Nagar, Gadag - KSPCB",18-06-2024 07:00:00,15.411456,75.638133,NH3,NA,NA,NA
India,Karnataka,Hubballi,"Lingaraj Nagar, Hubballi - KSPCB",18-06-2024 07:00:00,15.3714823,75.1160168,NH3,2,4,3
India,Karnataka,Kalaburagi,"Lal Bahadur Shastri Nagar, Kalaburagi - KSPCB",18-06-2024 07:00:00,17.321993,76.822628,SO2,7,21,12
India,Karnataka,Kalaburagi,"Lal Bahadur Shastri Nagar, Kalaburagi - KSPCB",18-06-2024 07:00:00,17.321993,76.822628,OZONE,4,31,6
India,Karnataka,Kalaburagi,"Mahatma Basaveswar Colony, Kalaburgi - KSPCB",18-06-2024 07:00:00,17.336318,76.847397,PM2.5,NA,NA,NA
India,Karnataka,Madikeri,"Stuart Hill, Madikeri - KSPCB",18-06-2024 07:00:00,12.415911,75.735050,NO2,1,6,2
India,Karnataka,Mangalore,"Kadri, Mangalore - KSPCB",18-06-2024 07:00:00,12.889250,74.853000,NH3,2,2,2
India,Karnataka,Mysuru,"Hebbal 1st Stage, Mysuru - KSPCB",18-06-2024 07:00:00,12.21041,76.37376,CO,3,24,7
India,Karnataka,Mysuru,"Hebbal 1st Stage, Mysuru - KSPCB",18-06-2024 07:00:00,12.21041,76.37376,OZONE,10,58,16
India,Karnataka,Raichur,"Haji Colony, Raichur - KSPCB",18-06-2024 07:00:00,16.208139,77.348417,PM2.5,2,30,11
India,Karnataka,Raichur,"Haji Colony, Raichur - KSPCB",18-06-2024 07:00:00,16.208139,77.348417,NO2,7,23,15
India,Karnataka,Raichur,"Haji Colony, Raichur - KSPCB",18-06-2024 07:00:00,16.208139,77.348417,SO2,69,78,73
India,Karnataka,Raichur,"Haji Colony, Raichur - KSPCB",18-06-2024 07:00:00,16.208139,77.348417,CO,97,141,109
India,Karnataka,Ramanagara,"Vijay Nagar, Ramanagara - KSPCB",18-06-2024 07:00:00,12.733409,77.298051,PM10,4,62,19
India,Karnataka,Ramanagara,"Vijay Nagar, Ramanagara - KSPCB",18-06-2024 07:00:00,12.733409,77.298051,CO,4,24,15
India,Karnataka,Shivamogga,"Vinoba Nagara, Shivamogga - KSPCB",18-06-2024 07:00:00,13.940000,75.555917,PM2.5,12,92,36
India,Karnataka,Tumakuru,"Thimmalapura, Tumakuru - KSPCB",18-06-2024 07:00:00,13.377516,77.099072,NH3,NA,NA,NA
India,Karnataka,Yadgir,"Collector Office, Yadgir - KSPCB",18-06-2024 07:00:00,16.7602,77.1428,NH3,1,2,1
India,Karnataka,Yadgir,"Collector Office, Yadgir - KSPCB",18-06-2024 07:00:00,16.7602,77.1428,CO,12,20,14
India,Karnataka,Yadgir,"Collector Office, Yadgir - KSPCB",18-06-2024 07:00:00,16.7602,77.1428,OZONE,8,24,21
India,Kerala,Eloor,"Udyogamandal, Eloor - Kerala PCB",18-06-2024 07:00:00,10.073232,76.302765,SO2,1,2,1
India,Kerala,Eloor,"Udyogamandal, Eloor - Kerala PCB",18-06-2024 07:00:00,10.073232,76.302765,CO,14,96,22
India,Kerala,Thiruvananthapuram,"Kariavattom, Thiruvananthapuram - Kerala PCB",18-06-2024 07:00:00,8.563700,76.886500,SO2,1,12,5
India,Kerala,Thiruvananthapuram,"Plammoodu, Thiruvananthapuram - Kerala PCB",18-06-2024 07:00:00,8.5149093,76.9435879,NO2,8,10,9
India,Kerala,Thrissur,"Corporation Ground, Thrissur - Kerala PCB",18-06-2024 07:00:00,10.532400,76.215900,OZONE,27,32,30
India,Madhya Pradesh,Bhopal,"Idgah Hills, Bhopal - MPPCB",18-06-2024 07:00:00,23.264759,77.381568,PM2.5,38,90,63
India,Madhya Pradesh,Bhopal,"Idgah Hills, Bhopal - MPPCB",18-06-2024 07:00:00,23.264759,77.381568,NO2,8,55,26
India,Madhya Pradesh,Bhopal,"Idgah Hills, Bhopal - MPPCB",18-06-2024 07:00:00,23.264759,77.381568,OZONE,12,45,28
India,Madhya Pradesh,Bhopal,"Paryavaran Parisar, Bhopal - MPPCB",18-06-2024 07:00:00,23.210494,77.425409,NO2,10,117,36
India,Madhya Pradesh,Bhopal,"Paryavaran Parisar, Bhopal - MPPCB",18-06-2024 07:00:00,23.210494,77.425409,CO,1,120,28
India,Madhya Pradesh,Bhopal,"Paryavaran Parisar, Bhopal - MPPCB",18-06-2024 07:00:00,23.210494,77.425409,OZONE,1,52,37
India,Madhya Pradesh,Dewas,"Bhopal Chauraha, Dewas - MPPCB",18-06-2024 07:00:00,22.9682591,76.064118,SO2,18,28,25
India,Madhya Pradesh,Dewas,"Bhopal Chauraha, Dewas - MPPCB",18-06-2024 07:00:00,22.9682591,76.064118,CO,24,46,30
India,Madhya Pradesh,Gwalior,"City Center, Gwalior - MPPCB",18-06-2024 07:00:00,26.203442,78.193251,SO2,17,43,34
India,Madhya Pradesh,Gwalior,"City Center, Gwalior - MPPCB",18-06-2024 07:00:00,26.203442,78.193251,OZONE,44,97,77
India,Madhya Pradesh,Gwalior,"Deen Dayal Nagar, Gwalior - MPPCB",18-06-2024 07:00:00,26.259242,78.216432,NO2,4,24,11
India,Madhya Pradesh,Gwalior,"Maharaj Bada, Gwalior - MPPCB",18-06-2024 07:00:00,26.200388,78.147714,PM2.5,8,95,25
India,Madhya Pradesh,Gwalior,"Phool Bagh, Gwalior - Mondelez Ind. Food",18-06-2024 07:00:00,26.210536,78.171,PM10,19,132,73
India,Madhya Pradesh,Indore,"Chhoti Gwaltoli, Indore - MPPCB",18-06-2024 07:00:00,22.4310,75.5213,PM2.5,19,57,33
India,Madhya Pradesh,Indore,"Chhoti Gwaltoli, Indore - MPPCB",18-06-2024 07:00:00,22.4310,75.5213,PM10,55,92,72
India,Madhya Pradesh,Indore,"Maguda Nagar, Indore - IMC",18-06-2024 07:00:00,22.7524,75.8872,NH3,1,1,1
India,Madhya Pradesh,Indore,"Maguda Nagar, Indore - IMC",18-06-2024 07:00:00,22.7524,75.8872,SO2,26,37,33
India,Madhya Pradesh,Jabalpur,"Gupteshwar, Jabalpur - JMC",18-06-2024 07:00:00,23.142888,79.916147,NO2,15,55,25
India,Madhya Pradesh,Jabalpur,"Gupteshwar, Jabalpur - JMC",18-06-2024 07:00:00,23.142888,79.916147,SO2,3,17,7
India,Madhya Pradesh,Jabalpur,"Marhatal, Jabalpur - MPPCB",18-06-2024 07:00:00,23.168606,79.932247,NO2,12,58,24
India,Madhya Pradesh,Jabalpur,"Suhagi, Jabalpur - JMC",18-06-2024 07:00:00,23.218135,79.957770,NH3,NA,NA,NA
India,Madhya Pradesh,Katni,"Gole Bazar, Katni - MPPCB",18-06-2024 07:00:00,23.50016,80.23284,OZONE,16,80,24
India,Madhya Pradesh,Maihar,"Sahilara, Maihar - KJS Cements",18-06-2024 07:00:00,24.2613009,80.7231783,PM2.5,1,78,34
India,Madhya Pradesh,Mandideep,"Sector-D Industrial Area, Mandideep - MPPCB",18-06-2024 07:00:00,23.108440,77.511428,SO2,7,79,18
India,Madhya Pradesh,Pithampur,"Sector-2 Industrial Area, Pithampur - MPPCB",18-06-2024 07:00:00,22.624758,75.675238,CO,31,45,40
India,Madhya Pradesh,Ratlam,"Shasthri Nagar, Ratlam - IPCA Lab",18-06-2024 07:00:00,23.331731,75.045981,PM10,60,109,89
India,Madhya Pradesh,Sagar,"Civil Lines, Sagar - MPPCB",18-06-2024 07:00:00,23.838586,78.759431,CO,6,24,21
India,Madhya Pradesh,Satna,"Bandhavgar Colony, Satna - Birla Cement",18-06-2024 07:00:00,24.58434363,80.8549414,PM2.5,42,42,42
India,Madhya Pradesh,Satna,"Bandhavgar Colony, Satna - Birla Cement",18-06-2024 07:00:00,24.58434363,80.8549414,PM10,38,38,38
India,Madhya Pradesh,Singrauli,"Suryakiran Bhawan NCL, Singrauli - MPPCB",18-06-2024 07:00:00,24.108970,82.645580,NH3,NA,NA,NA
India,Madhya Pradesh,Singrauli,"Suryakiran Bhawan NCL, Singrauli - MPPCB",18-06-2024 07:00:00,24.108970,82.645580,OZONE,48,93,87
India,Madhya Pradesh,Ujjain,"Mahakaleshwar Temple, Ujjain - MPPCB",18-06-2024 07:00:00,23.182719 ,75.768218 ,PM10,66,92,80
India,Madhya Pradesh,Ujjain,"Mahakaleshwar Temple, Ujjain - MPPCB",18-06-2024 07:00:00,23.182719 ,75.768218 ,NO2,11,19,13
India,Madhya Pradesh,Ujjain,"Mahakaleshwar Temple, Ujjain - MPPCB",18-06-2024 07:00:00,23.182719 ,75.768218 ,SO2,3,9,5
India,Maharashtra,Amravati,"Shri Shivaji Science College, Amaravati - MPCB",18-06-2024 07:00:00,20.939198,77.765701,PM2.5,23,90,41
India,Maharashtra,Amravati,"Shri Shivaji Science College, Amaravati - MPCB",18-06-2024 07:00:00,20.939198,77.765701,SO2,2,4,3
India,Maharashtra,Amravati,"Shri Shivaji Science College, Amaravati - MPCB",18-06-2024 07:00:00,20.939198,77.765701,OZONE,11,44,16
India,Maharashtra,Badlapur,"Katrap, Badlapur - MPCB",18-06-2024 07:00:00,19.16485,73.23409,PM10,41,185,118
India,Maharashtra,Badlapur,"Katrap, Badlapur - MPCB",18-06-2024 07:00:00,19.16485,73.23409,CO,23,100,35
India,Maharashtra,Belapur,"CBD Belapur, Belapur - MPCB",18-06-2024 07:00:00,19.0243902,73.0406721,NH3,2,3,3
India,Maharashtra,Bhiwandi,"Gokul Nagar, Bhiwandi - MPCB",18-06-2024 07:00:00,19.309073,73.057223,PM10,51,112,76
India,Maharashtra,Bhiwandi,"Gokul Nagar, Bhiwandi - MPCB",18-06-2024 07:00:00,19.309073,73.057223,NO2,12,59,30
India,Maharashtra,Chandrapur,"MIDC Khutala, Chandrapur - MPCB",18-06-2024 07:00:00,19.9775302,79.2337086,PM10,NA,NA,NA
India,Maharashtra,Chandrapur,"MIDC Khutala, Chandrapur - MPCB",18-06-2024 07:00:00,19.9775302,79.2337086,OZONE,11,64,27
