country,state,city,station,last_update,latitude,longitude,pollutant_id,pollutant_min,pollutant_max,pollutant_avg
India,Andhra_Pradesh,Amaravati,"Secretariat, Amaravati - APPCB",03-03-2024 08:00:00,16.5150833,80.5181667,NH3,4,5,4
India,Andhra_Pradesh,Anantapur,"Gulzarpet, Anantapur - APPCB",03-03-2024 08:00:00,14.675886,77.593027,SO2,1,7,4
India,Andhra_Pradesh,Anantapur,"Gulzarpet, Anantapur - APPCB",03-03-2024 08:00:00,14.675886,77.593027,OZONE,4,60,15
India,Andhra_Pradesh,Chittoor,"Gangineni Cheruvu, Chittoor - APPCB",03-03-2024 08:00:00,13.204880,79.097889,SO2,1,21,9
India,Andhra_Pradesh,Rajamahendravaram,"Anand Kala Kshetram, Rajamahendravaram - APPCB",03-03-2024 08:00:00,16.9872867,81.7363176,NH3,4,6,4
India,Andhra_Pradesh,Tirupati,"Vaikuntapuram, Tirupati - APPCB",03-03-2024 08:00:00,13.615387,79.409230,NH3,2,4,3
India,Andhra_Pradesh,Vijayawada,"HB Colony, Vijayawada - APPCB",03-03-2024 08:00:00,16.536107,80.594233,NO2,7,19,13
India,Andhra_Pradesh,Vijayawada,"HB Colony, Vijayawada - APPCB",03-03-2024 08:00:00,16.536107,80.594233,OZONE,10,45,13
India,Andhra_Pradesh,Vijayawada,"Kanuru, Vijayawada - APPCB",03-03-2024 08:00:00,16.486692,80.699436,NO2,14,21,16
India,Andhra_Pradesh,Vijayawada,"Kanuru, Vijayawada - APPCB",03-03-2024 08:00:00,16.486692,80.699436,SO2,8,11,10
India,Andhra_Pradesh,Vijayawada,"Rajiv Nagar, Vijayawada - APPCB",03-03-2024 08:00:00,16.554731,80.649110,OZONE,8,35,11
India,Assam,Byrnihat,"Central Academy for SFS, Byrnihat - PCBA",03-03-2024 08:00:00,26.071318,91.87488,CO,30,122,72
India,Assam,Guwahati,"LGBI Airport, Guwahati - PCBA",03-03-2024 08:00:00,26.10887,91.589544,PM2.5,213,360,284
India,Assam,Guwahati,"LGBI Airport, Guwahati - PCBA",03-03-2024 08:00:00,26.10887,91.589544,CO,16,82,38
India,Assam,Guwahati,"LGBI Airport, Guwahati - PCBA",03-03-2024 08:00:00,26.10887,91.589544,OZONE,4,79,15
India,Assam,Guwahati,"Pan Bazaar, Guwahati - PCBA",03-03-2024 08:00:00,26.187500,91.744194,PM2.5,97,327,224
India,Assam,Guwahati,"Pan Bazaar, Guwahati - PCBA",03-03-2024 08:00:00,26.187500,91.744194,OZONE,18,19,18
India,Assam,Guwahati,"Railway Colony, Guwahati - PCBA",03-03-2024 08:00:00,26.181742,91.78063,PM2.5,23,353,247
India,Assam,Nagaon,"Christianpatty, Nagaon - PCBA",03-03-2024 08:00:00,26.349082,92.68449,PM2.5,93,396,222
India,Assam,Nagaon,"Christianpatty, Nagaon - PCBA",03-03-2024 08:00:00,26.349082,92.68449,PM10,105,415,186
India,Assam,Nagaon,"Christianpatty, Nagaon - PCBA",03-03-2024 08:00:00,26.349082,92.68449,CO,4,102,5
India,Assam,Nagaon,"Christianpatty, Nagaon - PCBA",03-03-2024 08:00:00,26.349082,92.68449,OZONE,7,130,25
India,Assam,Nalbari,"Bata Chowk, Nalbari - PCBA",03-03-2024 08:00:00,26.446912,91.439057,PM2.5,140,404,288
India,Assam,Nalbari,"Bata Chowk, Nalbari - PCBA",03-03-2024 08:00:00,26.446912,91.439057,CO,47,121,86
India,Assam,Sivasagar,"Girls College, Sivasagar - PCBA",03-03-2024 08:00:00,26.987634,94.636574,CO,15,64,43
India,Bihar,Arrah,"New DM Office, Arrah - BSPCB",03-03-2024 08:00:00,25.5626095,84.663264,NH3,4,7,5
India,Bihar,Arrah,"New DM Office, Arrah - BSPCB",03-03-2024 08:00:00,25.5626095,84.663264,SO2,11,21,18
India,Bihar,Arrah,"New DM Office, Arrah - BSPCB",03-03-2024 08:00:00,25.5626095,84.663264,CO,5,16,11
India,Bihar,Arrah,"New DM Office, Arrah - BSPCB",03-03-2024 08:00:00,25.5626095,84.663264,OZONE,10,53,21
India,Bihar,Aurangabad,"Gurdeo Nagar, Aurangabad - BSPCB",03-03-2024 08:00:00,24.75746,84.366208,PM10,53,137,88
India,Bihar,Aurangabad,"Gurdeo Nagar, Aurangabad - BSPCB",03-03-2024 08:00:00,24.75746,84.366208,SO2,5,10,8
India,Bihar,Bettiah,"Kamalnath Nagar, Bettiah - BSPCB",03-03-2024 08:00:00,26.80365,84.51954,PM10,67,168,112
India,Bihar,Bhagalpur,"DM Office_Kachari Chowk, Bhagalpur - BSPCB",03-03-2024 08:00:00,25.251013,86.989001,PM2.5,53,227,140
India,Bihar,Bhagalpur,"Mayaganj, Bhagalpur - BSPCB",03-03-2024 08:00:00,25.265194,87.012947,PM2.5,NA,NA,NA
India,Bihar,Bihar Sharif,"D M Colony, Bihar Sharif - BSPCB",03-03-2024 08:00:00,25.204762,85.514960,PM2.5,NA,NA,NA
India,Bihar,Bihar Sharif,"D M Colony, Bihar Sharif - BSPCB",03-03-2024 08:00:00,25.204762,85.514960,NO2,8,10,9
India,Bihar,Buxar,"Charitra Van, Buxar - BSPCB (Formerly known as Central Jail)",03-03-2024 08:00:00,25.567520,83.966379,NH3,NA,NA,NA
India,Bihar,Chhapra,"Darshan Nagar, Chhapra - BSPCB",03-03-2024 08:00:00,25.7808257,84.7446768,NH3,7,15,11
India,Bihar,Gaya,"Collectorate, Gaya - BSPCB",03-03-2024 08:00:00,24.7955,84.9994,PM2.5,72,312,163
India,Bihar,Gaya,"Collectorate, Gaya - BSPCB",03-03-2024 08:00:00,24.7955,84.9994,OZONE,53,80,63
India,Bihar,Gaya,"SFTI Kusdihra, Gaya - BSPCB",03-03-2024 08:00:00,24.762518,84.982348,SO2,8,12,9
India,Bihar,Gaya,"SFTI Kusdihra, Gaya - BSPCB",03-03-2024 08:00:00,24.762518,84.982348,OZONE,NA,NA,NA
India,Bihar,Hajipur,"Industrial Area, Hajipur - BSPCB",03-03-2024 08:00:00,25.697189,85.245900,OZONE,4,11,5
India,Bihar,Katihar,"Mirchaibari, Katihar - BSPCB",03-03-2024 08:00:00,25.560083,87.553265,SO2,15,25,22
India,Bihar,Katihar,"Mirchaibari, Katihar - BSPCB",03-03-2024 08:00:00,25.560083,87.553265,OZONE,17,27,25
India,Bihar,Kishanganj,"SDM Office_Khagra, Kishanganj - BSPCB",03-03-2024 08:00:00,26.0881305,87.93840336,PM2.5,NA,NA,NA
India,Bihar,Manguraha,"Forest Rest House, Manguraha - BSPCB",03-03-2024 08:00:00,27.308328,84.531742,PM2.5,NA,NA,NA
India,Bihar,Manguraha,"Forest Rest House, Manguraha - BSPCB",03-03-2024 08:00:00,27.308328,84.531742,SO2,3,3,3
India,Bihar,Manguraha,"Forest Rest House, Manguraha - BSPCB",03-03-2024 08:00:00,27.308328,84.531742,CO,NA,NA,NA
India,Bihar,Motihari,"Gandak Colony, Motihari - BSPCB",03-03-2024 08:00:00,26.63086,84.90051,PM2.5,50,305,114
India,Bihar,Motihari,"Gandak Colony, Motihari - BSPCB",03-03-2024 08:00:00,26.63086,84.90051,SO2,NA,NA,NA
India,Bihar,Muzaffarpur,"MIT-Daudpur Kothi, Muzaffarpur - BSPCB",03-03-2024 08:00:00,26.1403345,85.3650192,PM2.5,NA,NA,NA
India,Bihar,Muzaffarpur,"MIT-Daudpur Kothi, Muzaffarpur - BSPCB",03-03-2024 08:00:00,26.1403345,85.3650192,NO2,1,61,17
India,Bihar,Muzaffarpur,"MIT-Daudpur Kothi, Muzaffarpur - BSPCB",03-03-2024 08:00:00,26.1403345,85.3650192,NH3,1,4,2
India,Bihar,Muzaffarpur,"Muzaffarpur Collectorate, Muzaffarpur - BSPCB",03-03-2024 08:00:00,26.1209,85.3647,PM2.5,55,328,169
India,Bihar,Patna,"Govt. High School Shikarpur, Patna - BSPCB",03-03-2024 08:00:00,25.592539,85.227158,CO,28,86,37
India,Bihar,Patna,"IGSC Planetarium Complex, Patna - BSPCB",03-03-2024 08:00:00,25.610369,85.132568,OZONE,10,104,67
India,Bihar,Patna,"Muradpur, Patna - BSPCB",03-03-2024 08:00:00,25.619651,85.147382,NO2,9,23,16
India,Bihar,Patna,"Muradpur, Patna - BSPCB",03-03-2024 08:00:00,25.619651,85.147382,SO2,6,13,10
India,Bihar,Patna,"Samanpura, Patna - BSPCB",03-03-2024 08:00:00,25.596727,85.085624,PM2.5,6,237,143
India,Bihar,Purnia,"Mariam Nagar, Purnia - BSPCB",03-03-2024 08:00:00,25.366336,87.117468,PM2.5,53,177,117
India,Bihar,Purnia,"Mariam Nagar, Purnia - BSPCB",03-03-2024 08:00:00,25.366336,87.117468,PM10,83,173,113
India,Bihar,Purnia,"Mariam Nagar, Purnia - BSPCB",03-03-2024 08:00:00,25.366336,87.117468,SO2,15,21,19
India,Bihar,Saharsa,"Police Line, Saharsa - BSPCB",03-03-2024 08:00:00,25.892357,86.590325,PM10,75,161,111
India,Bihar,Sasaram,"Dada Peer, Sasaram - BSPCB",03-03-2024 08:00:00,24.952822,84.002396,PM10,53,152,108
India,Bihar,Sasaram,"Dada Peer, Sasaram - BSPCB",03-03-2024 08:00:00,24.952822,84.002396,NO2,10,28,20
India,Bihar,Sasaram,"Dada Peer, Sasaram - BSPCB",03-03-2024 08:00:00,24.952822,84.002396,SO2,22,23,22
India,Bihar,Siwan,"Chitragupta Nagar, Siwan - BSPCB",03-03-2024 08:00:00,26.2271665,84.3570427,NO2,8,47,25
India,Chandigarh,Chandigarh,"Sector 22, Chandigarh - CPCC",03-03-2024 08:00:00,30.735567,76.775714,OZONE,25,92,55
India,Chandigarh,Chandigarh,"Sector-25, Chandigarh - CPCC",03-03-2024 08:00:00,30.751462,76.762879,SO2,7,42,13
India,Chandigarh,Chandigarh,"Sector-25, Chandigarh - CPCC",03-03-2024 08:00:00,30.751462,76.762879,OZONE,1,73,12
India,Chhattisgarh,Bhilai,"32Bungalows, Bhilai - CECB",03-03-2024 08:00:00,21.194815,81.314770,PM2.5,19,46,32
India,Chhattisgarh,Bhilai,"32Bungalows, Bhilai - CECB",03-03-2024 08:00:00,21.194815,81.314770,PM10,46,89,65
India,Chhattisgarh,Bhilai,"Civic Center, Bhilai - Bhilai Steel Plant",03-03-2024 08:00:00,21.185571,81.343175,OZONE,11,45,19
India,Chhattisgarh,Bhilai,"Hathkhoj, Bhilai - CECB",03-03-2024 08:00:00,21.224231,81.408350,PM2.5,40,96,62
India,Chhattisgarh,Chhal,"Nawapara SECL Colony, Chhal - CECB",03-03-2024 08:00:00,22.118125,83.140608,NH3,2,2,2
India,Chhattisgarh,Chhal,"Nawapara SECL Colony, Chhal - CECB",03-03-2024 08:00:00,22.118125,83.140608,SO2,12,43,23
India,Chhattisgarh,Kunjemura,"OP Jindal School, Kunjemura - CECB",03-03-2024 08:00:00,22.126650,83.483212,PM10,23,319,117
India,Chhattisgarh,Kunjemura,"OP Jindal School, Kunjemura - CECB",03-03-2024 08:00:00,22.126650,83.483212,NH3,1,4,2
India,Chhattisgarh,Raipur,"AIIMS, Raipur - CECB",03-03-2024 08:00:00,21.258815,81.578979,PM10,NA,NA,NA
India,Chhattisgarh,Raipur,"Bhatagaon New ISBT, Raipur - CECB",03-03-2024 08:00:00,21.219665,81.630094,SO2,4,7,6
India,Chhattisgarh,Raipur,"Bhatagaon New ISBT, Raipur - CECB",03-03-2024 08:00:00,21.219665,81.630094,CO,25,46,29
India,Chhattisgarh,Raipur,"Krishak Nagar, Raipur - CECB",03-03-2024 08:00:00,21.237755,81.705301,PM10,NA,NA,NA
India,Chhattisgarh,Raipur,"Siltara Phase-II, Raipur - CECB",03-03-2024 08:00:00,21.371751,81.664929,PM10,63,161,105
India,Chhattisgarh,Raipur,"Siltara Phase-II, Raipur - CECB",03-03-2024 08:00:00,21.371751,81.664929,CO,32,74,40
India,Delhi,Delhi,"Alipur, Delhi - DPCC",03-03-2024 08:00:00,28.815329,77.153010,PM2.5,NA,NA,NA
India,Delhi,Delhi,"Alipur, Delhi - DPCC",03-03-2024 08:00:00,28.815329,77.153010,NO2,NA,NA,NA
India,Delhi,Delhi,"Anand Vihar, Delhi - DPCC",03-03-2024 08:00:00,28.647622,77.3158090,NO2,25,101,46
India,Delhi,Delhi,"Ashok Vihar, Delhi - DPCC",03-03-2024 08:00:00,28.695381,77.181665,PM2.5,25,81,45
India,Delhi,Delhi,"Ashok Vihar, Delhi - DPCC",03-03-2024 08:00:00,28.695381,77.181665,SO2,21,28,23
India,Delhi,Delhi,"Aya Nagar, Delhi - IMD",03-03-2024 08:00:00,28.4706914,77.1099364,PM10,NA,NA,NA
India,Delhi,Delhi,"Aya Nagar, Delhi - IMD",03-03-2024 08:00:00,28.4706914,77.1099364,NO2,NA,NA,NA
India,Delhi,Delhi,"Bawana, Delhi - DPCC",03-03-2024 08:00:00,28.776200,77.051074,SO2,4,8,5
India,Delhi,Delhi,"Bawana, Delhi - DPCC",03-03-2024 08:00:00,28.776200,77.051074,OZONE,9,57,20
India,Delhi,Delhi,"DTU, Delhi - CPCB",03-03-2024 08:00:00,28.7500499,77.1112615,NH3,10,15,12
India,Delhi,Delhi,"Dr. Karni Singh Shooting Range, Delhi - DPCC",03-03-2024 08:00:00,28.498571,77.264840,NO2,21,52,28
India,Delhi,Delhi,"Dr. Karni Singh Shooting Range, Delhi - DPCC",03-03-2024 08:00:00,28.498571,77.264840,CO,24,36,32
India,Delhi,Delhi,"Dwarka-Sector 8, Delhi - DPCC ",03-03-2024 08:00:00,28.5710274,77.0719006,PM10,48,272,105
India,Delhi,Delhi,"Dwarka-Sector 8, Delhi - DPCC ",03-03-2024 08:00:00,28.5710274,77.0719006,NH3,6,13,11
India,Delhi,Delhi,"IGI Airport (T3), Delhi - IMD",03-03-2024 08:00:00,28.5627763,77.1180053,NO2,NA,NA,NA
India,Delhi,Delhi,"IGI Airport (T3), Delhi - IMD",03-03-2024 08:00:00,28.5627763,77.1180053,OZONE,NA,NA,NA
India,Delhi,Delhi,"IHBAS, Dilshad Garden, Delhi - CPCB",03-03-2024 08:00:00,28.6811736,77.3025234,PM10,38,91,63
India,Delhi,Delhi,"IHBAS, Dilshad Garden, Delhi - CPCB",03-03-2024 08:00:00,28.6811736,77.3025234,NO2,29,55,38
India,Delhi,Delhi,"ITO, Delhi - CPCB",03-03-2024 08:00:00,28.628624,77.241060,SO2,6,26,15
India,Delhi,Delhi,"Jahangirpuri, Delhi - DPCC",03-03-2024 08:00:00,28.732820,77.170633,CO,50,85,56
India,Delhi,Delhi,"Lodhi Road, Delhi - IITM",03-03-2024 08:00:00,28.588333,77.221667,NO2,74,86,82
India,Delhi,Delhi,"Lodhi Road, Delhi - IMD",03-03-2024 08:00:00,28.5918245,77.2273074,PM10,NA,NA,NA
India,Delhi,Delhi,"Mandir Marg, Delhi - DPCC",03-03-2024 08:00:00,28.636429,77.201067,PM2.5,18,72,44
India,Delhi,Delhi,"Mandir Marg, Delhi - DPCC",03-03-2024 08:00:00,28.636429,77.201067,NO2,111,130,122
India,Delhi,Delhi,"Mundka, Delhi - DPCC",03-03-2024 08:00:00,28.684678,77.076574,NO2,24,64,37
India,Delhi,Delhi,"Mundka, Delhi - DPCC",03-03-2024 08:00:00,28.684678,77.076574,NH3,6,10,8
India,Delhi,Delhi,"Mundka, Delhi - DPCC",03-03-2024 08:00:00,28.684678,77.076574,CO,38,44,40
India,Delhi,Delhi,"NSIT Dwarka, Delhi - CPCB",03-03-2024 08:00:00,28.60909,77.0325413,SO2,12,22,16
India,Delhi,Delhi,"NSIT Dwarka, Delhi - CPCB",03-03-2024 08:00:00,28.60909,77.0325413,OZONE,16,57,23
India,Delhi,Delhi,"Najafgarh, Delhi - DPCC",03-03-2024 08:00:00,28.570173,76.933762,PM10,34,409,93
India,Delhi,Delhi,"Najafgarh, Delhi - DPCC",03-03-2024 08:00:00,28.570173,76.933762,SO2,12,19,15
India,Delhi,Delhi,"Narela, Delhi - DPCC",03-03-2024 08:00:00,28.822836,77.101981,NO2,12,44,29
India,Delhi,Delhi,"Narela, Delhi - DPCC",03-03-2024 08:00:00,28.822836,77.101981,NH3,4,19,9
India,Delhi,Delhi,"Nehru Nagar, Delhi - DPCC",03-03-2024 08:00:00,28.567890,77.250515,NO2,13,29,23
India,Delhi,Delhi,"Nehru Nagar, Delhi - DPCC",03-03-2024 08:00:00,28.567890,77.250515,CO,22,101,62
India,Delhi,Delhi,"New Moti Bagh, Delhi - MHUA",03-03-2024 08:00:00,28.57834,77.18400,PM2.5,40,307,110
India,Delhi,Delhi,"New Moti Bagh, Delhi - MHUA",03-03-2024 08:00:00,28.57834,77.18400,CO,14,24,21
India,Delhi,Delhi,"Punjabi Bagh, Delhi - DPCC",03-03-2024 08:00:00,28.674045,77.131023,PM2.5,NA,NA,NA
India,Delhi,Delhi,"Punjabi Bagh, Delhi - DPCC",03-03-2024 08:00:00,28.674045,77.131023,CO,NA,NA,NA
India,Delhi,Delhi,"Pusa, Delhi - DPCC",03-03-2024 08:00:00,28.639652,77.146275,OZONE,13,55,19
India,Delhi,Delhi,"Rohini, Delhi - DPCC",03-03-2024 08:00:00,28.732528,77.119920,NO2,19,47,32
India,Delhi,Delhi,"Shadipur, Delhi - CPCB",03-03-2024 08:00:00,28.6514781,77.1473105,NO2,48,61,53
India,Delhi,Delhi,"Shadipur, Delhi - CPCB",03-03-2024 08:00:00,28.6514781,77.1473105,CO,NA,NA,NA
India,Delhi,Delhi,"Sonia Vihar, Delhi - DPCC",03-03-2024 08:00:00,28.710508,77.249485,OZONE,9,58,21
India,Delhi,Delhi,"Vivek Vihar, Delhi - DPCC",03-03-2024 08:00:00,28.672342,77.315260,CO,16,38,21
India,Delhi,Delhi,"Wazirpur, Delhi - DPCC",03-03-2024 08:00:00,28.699793,77.165453,PM10,52,284,122
India,Gujarat,Ahmedabad,"Chandkheda, Ahmedabad - IITM",03-03-2024 08:00:00,23.107969,72.574648,NO2,NA,NA,NA
India,Gujarat,Ahmedabad,"Raikhad, Ahmedabad - IITM",03-03-2024 08:00:00,23.020509,72.579261,NH3,1,3,2
India,Gujarat,Ahmedabad,"Raikhad, Ahmedabad - IITM",03-03-2024 08:00:00,23.020509,72.579261,CO,NA,NA,NA
India,Gujarat,Ahmedabad,"Rakhial, Ahmedabad - IITM",03-03-2024 08:00:00,23.016834,72.625775,PM10,20,211,80
India,Gujarat,Ahmedabad,"Rakhial, Ahmedabad - IITM",03-03-2024 08:00:00,23.016834,72.625775,CO,14,103,80
India,Gujarat,Ahmedabad,"SAC ISRO Bopal, Ahmedabad - IITM",03-03-2024 08:00:00,23.041137,72.456691,PM2.5,18,81,51
India,Gujarat,Ahmedabad,"SAC ISRO Bopal, Ahmedabad - IITM",03-03-2024 08:00:00,23.041137,72.456691,CO,20,24,22
India,Gujarat,Ahmedabad,"SAC ISRO Satellite, Ahmedabad - IITM",03-03-2024 08:00:00,23.023389,72.515201,PM2.5,103,111,106
India,Gujarat,Ahmedabad,"SAC ISRO Satellite, Ahmedabad - IITM",03-03-2024 08:00:00,23.023389,72.515201,NH3,3,3,3
India,Gujarat,Ahmedabad,"SVPI Airport Hansol, Ahmedabad - IITM",03-03-2024 08:00:00,23.076793,72.627874,PM10,46,121,92
India,Gujarat,Ahmedabad,"SVPI Airport Hansol, Ahmedabad - IITM",03-03-2024 08:00:00,23.076793,72.627874,CO,6,28,10
India,Gujarat,Ahmedabad,"Sardar Vallabhbhai Patel Stadium, Ahmedabad - IITM",03-03-2024 08:00:00,23.043070,72.562968,SO2,4,10,8
India,Gujarat,Ahmedabad,"Sardar Vallabhbhai Patel Stadium, Ahmedabad - IITM",03-03-2024 08:00:00,23.043070,72.562968,OZONE,16,23,21
India,Gujarat,Gandhinagar,"IIPHG Lekawada, Gandhinagar - IITM",03-03-2024 08:00:00,23.243639,72.68994,NO2,32,33,32
India,Gujarat,Gandhinagar,"IIPHG Lekawada, Gandhinagar - IITM",03-03-2024 08:00:00,23.243639,72.68994,OZONE,8,87,52
India,Gujarat,Gandhinagar,"Sector-10, Gandhinagar - GPCB",03-03-2024 08:00:00,23.221714,72.654328,NO2,7,13,9
India,Gujarat,Gandhinagar,"Sector-10, Gandhinagar - GPCB",03-03-2024 08:00:00,23.221714,72.654328,CO,8,30,12
India,Gujarat,Surat,"Science Center, Surat - SMC",03-03-2024 08:00:00,21.170046,72.795405,CO,38,52,40
India,Gujarat,Vapi,"Phase-1 GIDC, Vapi - GPCB",03-03-2024 08:00:00,20.362421,72.918013,NH3,8,10,9
India,Gujarat,Vapi,"Phase-1 GIDC, Vapi - GPCB",03-03-2024 08:00:00,20.362421,72.918013,OZONE,1,2,1
India,Gujarat,Vatva,"Phase-4 GIDC, Vatva - GPCB",03-03-2024 08:00:00,22.969611,72.643500,NH3,1,2,1
India,Haryana,Ambala,"Patti Mehar, Ambala - HSPCB",03-03-2024 08:00:00,30.379589,76.778328,NH3,8,8,8
India,Haryana,Ballabgarh,"Nathu Colony, Ballabgarh - HSPCB",03-03-2024 08:00:00,28.3419248,77.319699,PM2.5,28,90,48
India,Haryana,Bhiwani,"H.B. Colony, Bhiwani - HSPCB",03-03-2024 08:00:00,28.806223,76.141105,OZONE,7,69,22
India,Haryana,Charkhi Dadri,"Mini Secretariat, Charkhi Dadri - HSPCB",03-03-2024 08:00:00,28.593883,76.270653,NO2,8,11,10
India,Haryana,Charkhi Dadri,"Mini Secretariat, Charkhi Dadri - HSPCB",03-03-2024 08:00:00,28.593883,76.270653,SO2,50,54,52
India,Haryana,Dharuhera,"Municipal Corporation Office, Dharuhera -  HSPCB",03-03-2024 08:00:00,28.206800,76.799700,NH3,NA,NA,NA
India,Haryana,Dharuhera,"Municipal Corporation Office, Dharuhera -  HSPCB",03-03-2024 08:00:00,28.206800,76.799700,CO,18,131,66
India,Haryana,Dharuhera,"Municipal Corporation Office, Dharuhera -  HSPCB",03-03-2024 08:00:00,28.206800,76.799700,OZONE,15,71,15
India,Haryana,Fatehabad,"Huda Sector, Fatehabad - HSPCB",03-03-2024 08:00:00,29.503664,75.467934,OZONE,NA,NA,NA
India,Haryana,Gurugram,"Sector-51, Gurugram - HSPCB",03-03-2024 08:00:00,28.4227,77.0667,NO2,13,29,24
India,Haryana,Gurugram,"Sector-51, Gurugram - HSPCB",03-03-2024 08:00:00,28.4227,77.0667,OZONE,35,67,42
India,Haryana,Gurugram,"Teri Gram, Gurugram - HSPCB",03-03-2024 08:00:00,28.4275,77.1465,OZONE,10,46,40
India,Haryana,Gurugram,"Vikas Sadan, Gurugram - HSPCB",03-03-2024 08:00:00,28.4501238,77.0263051,SO2,24,47,40
India,Haryana,Gurugram,"Vikas Sadan, Gurugram - HSPCB",03-03-2024 08:00:00,28.4501238,77.0263051,OZONE,8,68,10
India,Haryana,Hisar,"Urban Estate-II, Hisar - HSPCB",03-03-2024 08:00:00,29.140560,75.744941,NO2,1,13,1
India,Haryana,Jind,"Police Lines, Jind - HSPCB",03-03-2024 08:00:00,29.307814,76.337619,SO2,1,9,5
India,Haryana,Kaithal,"Rishi Nagar, Kaithal - HSPCB",03-03-2024 08:00:00,29.8006,76.4155,PM10,25,208,80
India,Haryana,Kaithal,"Rishi Nagar, Kaithal - HSPCB",03-03-2024 08:00:00,29.8006,76.4155,NH3,9,25,15
India,Haryana,Karnal,"Sector-12, Karnal - HSPCB",03-03-2024 08:00:00,29.695300,77.002700,PM2.5,6,50,36
India,Haryana,Karnal,"Sector-12, Karnal - HSPCB",03-03-2024 08:00:00,29.695300,77.002700,NO2,7,13,10
India,Haryana,Mandikhera,"General Hospital, Mandikhera - HSPCB",03-03-2024 08:00:00,27.9002,76.9938,NO2,17,22,19
India,Haryana,Mandikhera,"General Hospital, Mandikhera - HSPCB",03-03-2024 08:00:00,27.9002,76.9938,NH3,18,21,20
India,Haryana,Mandikhera,"General Hospital, Mandikhera - HSPCB",03-03-2024 08:00:00,27.9002,76.9938,SO2,32,37,34
India,Haryana,Manesar,"Sector-2 IMT, Manesar - HSPCB",03-03-2024 08:00:00,28.360699,76.936090,PM10,NA,NA,NA
India,Haryana,Manesar,"Sector-2 IMT, Manesar - HSPCB",03-03-2024 08:00:00,28.360699,76.936090,NO2,NA,NA,NA
India,Haryana,Narnaul,"Shastri Nagar, Narnaul - HSPCB",03-03-2024 08:00:00,28.060249,76.113115,PM10,18,182,56
India,Haryana,Narnaul,"Shastri Nagar, Narnaul - HSPCB",03-03-2024 08:00:00,28.060249,76.113115,NH3,5,18,11
India,Haryana,Palwal,"Shyam Nagar, Palwal - HSPCB",03-03-2024 08:00:00,28.1485564,77.3320667,PM2.5,49,86,65
India,Haryana,Sirsa,"F-Block, Sirsa - HSPCB",03-03-2024 08:00:00,29.536400,75.015800,CO,26,76,34
India,Haryana,Sirsa,"F-Block, Sirsa - HSPCB",03-03-2024 08:00:00,29.536400,75.015800,OZONE,20,59,20
India,Haryana,Yamuna Nagar,"Gobind Pura, Yamuna Nagar - HSPCB",03-03-2024 08:00:00,30.1480566,77.2893471,PM2.5,NA,NA,NA
India,Haryana,Yamuna Nagar,"Gobind Pura, Yamuna Nagar - HSPCB",03-03-2024 08:00:00,30.1480566,77.2893471,CO,2,54,32
India,Himachal Pradesh,Baddi,"HIMUDA Complex Phase-1, Baddi - HPPCB",03-03-2024 08:00:00,30.943887,76.801991,NO2,8,31,17
India,Himachal Pradesh,Baddi,"HIMUDA Complex Phase-1, Baddi - HPPCB",03-03-2024 08:00:00,30.943887,76.801991,OZONE,23,68,46
India,Jammu_and_Kashmir,Srinagar,"Rajbagh, Srinagar - JKSPCB",03-03-2024 08:00:00,34.066206,74.819820,PM2.5,NA,NA,NA
India,Jammu_and_Kashmir,Srinagar,"Rajbagh, Srinagar - JKSPCB",03-03-2024 08:00:00,34.066206,74.819820,PM10,NA,NA,NA
India,Jammu_and_Kashmir,Srinagar,"Rajbagh, Srinagar - JKSPCB",03-03-2024 08:00:00,34.066206,74.819820,OZONE,6,14,13
India,Jharkhand,Dhanbad,"Sardar Patel Nagar, Dhanbad - JSPCB",03-03-2024 08:00:00,23.80569,86.44268,PM2.5,19,148,50
India,Karnataka,Bagalkot,"Vidayagiri, Bagalkot - KSPCB",03-03-2024 08:00:00,16.172806,75.659694,NO2,9,11,9
India,Karnataka,Bagalkot,"Vidayagiri, Bagalkot - KSPCB",03-03-2024 08:00:00,16.172806,75.659694,NH3,1,2,1
India,Karnataka,Belgaum,"Ramteerth Nagar, Belgaum - KSPCB",03-03-2024 08:00:00,15.888653,74.541751,CO,36,68,55
India,Karnataka,Bengaluru,"Hebbal, Bengaluru - KSPCB",03-03-2024 08:00:00,13.029152,77.585901,PM10,58,232,102
India,Karnataka,Bengaluru,"Hombegowda Nagar, Bengaluru - KSPCB",03-03-2024 08:00:00,12.938539,77.590100,NH3,2,5,3
India,Karnataka,Bengaluru,"Hombegowda Nagar, Bengaluru - KSPCB",03-03-2024 08:00:00,12.938539,77.590100,CO,8,22,19
India,Karnataka,Bengaluru,"Jayanagar 5th Block, Bengaluru - KSPCB",03-03-2024 08:00:00,12.920984,77.584908,NH3,1,3,2
India,Karnataka,Bengaluru,"Kasturi Nagar, Bengaluru - KSPCB",03-03-2024 08:00:00,13.003872,77.664217,PM10,112,190,145
India,Karnataka,Bengaluru,"Kasturi Nagar, Bengaluru - KSPCB",03-03-2024 08:00:00,13.003872,77.664217,NO2,16,17,16
India,Karnataka,Bengaluru,"Kasturi Nagar, Bengaluru - KSPCB",03-03-2024 08:00:00,13.003872,77.664217,SO2,10,10,10
India,Karnataka,Bengaluru,"Peenya, Bengaluru - CPCB",03-03-2024 08:00:00,13.0270199,77.494094,NO2,17,26,22
India,Karnataka,Bengaluru,"Peenya, Bengaluru - CPCB",03-03-2024 08:00:00,13.0270199,77.494094,NH3,2,3,3
India,Karnataka,Bengaluru,"Peenya, Bengaluru - CPCB",03-03-2024 08:00:00,13.0270199,77.494094,CO,12,54,28
India,Karnataka,Bengaluru,"Peenya, Bengaluru - CPCB",03-03-2024 08:00:00,13.0270199,77.494094,OZONE,15,79,48
India,Karnataka,Bengaluru,"RVCE-Mailasandra, Bengaluru - KSPCB",03-03-2024 08:00:00,12.921418,77.502466,OZONE,15,70,16
India,Karnataka,Bengaluru,"Sanegurava Halli, Bengaluru - KSPCB",03-03-2024 08:00:00,12.990328,77.5431385,SO2,2,3,3
India,Karnataka,Bengaluru,"Silk Board, Bengaluru - KSPCB",03-03-2024 08:00:00,12.917348,77.622813,PM10,79,184,112
India,Karnataka,Bidar,"Naubad, Bidar - KSPCB",03-03-2024 08:00:00,17.930306,77.482194,NO2,7,8,8
India,Karnataka,Bidar,"Naubad, Bidar - KSPCB",03-03-2024 08:00:00,17.930306,77.482194,OZONE,14,40,24
India,Karnataka,Chamarajanagar,"Urban, Chamarajanagar - KSPCB",03-03-2024 08:00:00,11.55358,76.55521,NO2,24,42,30
India,Karnataka,Chamarajanagar,"Urban, Chamarajanagar - KSPCB",03-03-2024 08:00:00,11.55358,76.55521,SO2,4,9,5
India,Karnataka,Chikkaballapur,"Chikkaballapur Rural, Chikkaballapur - KSPCB",03-03-2024 08:00:00,13.428828,77.731418,CO,8,40,30
India,Karnataka,Chikkaballapur,"Chikkaballapur Rural, Chikkaballapur - KSPCB",03-03-2024 08:00:00,13.428828,77.731418,OZONE,24,27,26
India,Karnataka,Chikkamagaluru,"Kalyana Nagara, Chikkamagaluru - KSPCB",03-03-2024 08:00:00,13.328028,75.797056,PM2.5,41,86,64
India,Karnataka,Davanagere,"Devaraj Urs Badavane, Davanagere - KSPCB",03-03-2024 08:00:00,14.475800,75.905200,PM2.5,22,94,57
India,Karnataka,Davanagere,"Devaraj Urs Badavane, Davanagere - KSPCB",03-03-2024 08:00:00,14.475800,75.905200,OZONE,22,27,23
India,Karnataka,Dharwad,"Kalabhavan, Dharwad - KSPCB",03-03-2024 08:00:00,15.459706,75.008381,OZONE,2,18,6
India,Karnataka,Gadag,"Panchal Nagar, Gadag - KSPCB",03-03-2024 08:00:00,15.411456,75.638133,PM2.5,23,50,33
India,Karnataka,Gadag,"Panchal Nagar, Gadag - KSPCB",03-03-2024 08:00:00,15.411456,75.638133,NO2,5,18,12
India,Karnataka,Haveri,"Ashwini Nagar, Haveri - KSPCB",03-03-2024 08:00:00,14.791800,75.389600,PM10,55,69,63
India,Karnataka,Hubballi,"Deshpande Nagar, Hubballi - KSPCB",03-03-2024 08:00:00,15.351773,75.140726,NH3,5,8,6
India,Karnataka,Hubballi,"Deshpande Nagar, Hubballi - KSPCB",03-03-2024 08:00:00,15.351773,75.140726,OZONE,1,36,10
India,Karnataka,Hubballi,"Lingaraj Nagar, Hubballi - KSPCB",03-03-2024 08:00:00,15.3714823,75.1160168,SO2,1,2,1
India,Karnataka,Kalaburagi,"Mahatma Basaveswar Colony, Kalaburgi - KSPCB",03-03-2024 08:00:00,17.336318,76.847397,PM10,36,98,62
India,Karnataka,Mysuru,"Hebbal 1st Stage, Mysuru - KSPCB",03-03-2024 08:00:00,12.21041,76.37376,NH3,1,3,2
India,Karnataka,Raichur,"Haji Colony, Raichur - KSPCB",03-03-2024 08:00:00,16.208139,77.348417,PM2.5,12,70,28
India,Karnataka,Raichur,"Haji Colony, Raichur - KSPCB",03-03-2024 08:00:00,16.208139,77.348417,NH3,1,3,2
India,Karnataka,Raichur,"Haji Colony, Raichur - KSPCB",03-03-2024 08:00:00,16.208139,77.348417,OZONE,2,14,5
India,Karnataka,Shivamogga,"Vinoba Nagara, Shivamogga - KSPCB",03-03-2024 08:00:00,13.940000,75.555917,OZONE,7,96,51
India,Karnataka,Tumakuru,"Thimmalapura, Tumakuru - KSPCB",03-03-2024 08:00:00,13.377516,77.099072,PM10,14,35,23
India,Karnataka,Udupi,"Brahmagiri, Udupi - KSPCB",03-03-2024 08:00:00,13.34194444,74.74694444,NO2,28,32,29
India,Karnataka,Udupi,"Brahmagiri, Udupi - KSPCB",03-03-2024 08:00:00,13.34194444,74.74694444,NH3,1,1,1
India,Karnataka,Yadgir,"Collector Office, Yadgir - KSPCB",03-03-2024 08:00:00,16.7602,77.1428,PM10,50,136,77
India,Karnataka,Yadgir,"Collector Office, Yadgir - KSPCB",03-03-2024 08:00:00,16.7602,77.1428,SO2,7,25,16
India,Kerala,Kannur,"Thavakkara, Kannur - Kerala PCB",03-03-2024 08:00:00,11.875000,75.373200,PM10,63,80,70
India,Kerala,Thiruvananthapuram,"Kariavattom, Thiruvananthapuram - Kerala PCB",03-03-2024 08:00:00,8.563700,76.886500,NH3,1,1,1
India,Kerala,Thiruvananthapuram,"Plammoodu, Thiruvananthapuram - Kerala PCB",03-03-2024 08:00:00,8.5149093,76.9435879,NH3,2,2,2
India,Madhya Pradesh,Bhopal,"Paryavaran Parisar, Bhopal - MPPCB",03-03-2024 08:00:00,23.210494,77.425409,NH3,9,13,11
India,Madhya Pradesh,Bhopal,"T T Nagar, Bhopal - MPPCB",03-03-2024 08:00:00,23.233584,77.400574,NH3,6,7,7
India,Madhya Pradesh,Dewas,"Bhopal Chauraha, Dewas - MPPCB",03-03-2024 08:00:00,22.9682591,76.064118,PM2.5,18,169,52
India,Madhya Pradesh,Dewas,"Bhopal Chauraha, Dewas - MPPCB",03-03-2024 08:00:00,22.9682591,76.064118,OZONE,6,65,15
India,Madhya Pradesh,Gwalior,"City Center, Gwalior - MPPCB",03-03-2024 08:00:00,26.203442,78.193251,CO,21,60,31
India,Madhya Pradesh,Gwalior,"Deen Dayal Nagar, Gwalior - MPPCB",03-03-2024 08:00:00,26.259242,78.216432,NO2,25,61,39
India,Madhya Pradesh,Gwalior,"Deen Dayal Nagar, Gwalior - MPPCB",03-03-2024 08:00:00,26.259242,78.216432,SO2,16,19,18
India,Madhya Pradesh,Gwalior,"Maharaj Bada, Gwalior - MPPCB",03-03-2024 08:00:00,26.200388,78.147714,PM10,24,180,62
India,Madhya Pradesh,Gwalior,"Maharaj Bada, Gwalior - MPPCB",03-03-2024 08:00:00,26.200388,78.147714,SO2,13,19,15
India,Madhya Pradesh,Indore,"Chhoti Gwaltoli, Indore - MPPCB",03-03-2024 08:00:00,22.4310,75.5213,PM10,52,143,82
India,Madhya Pradesh,Indore,"Chhoti Gwaltoli, Indore - MPPCB",03-03-2024 08:00:00,22.4310,75.5213,NH3,5,7,6
India,Madhya Pradesh,Indore,"Regional Park, Indore - IMC",03-03-2024 08:00:00,22.6780,75.8559,PM10,13,58,32
India,Madhya Pradesh,Indore,"Regional Park, Indore - IMC",03-03-2024 08:00:00,22.6780,75.8559,OZONE,5,12,7
India,Madhya Pradesh,Indore,"Residency Area, Indore - IMC",03-03-2024 08:00:00,22.7084,75.8815,NO2,37,53,42
India,Madhya Pradesh,Indore,"Residency Area, Indore - IMC",03-03-2024 08:00:00,22.7084,75.8815,SO2,22,24,23
India,Madhya Pradesh,Jabalpur,"Govindh Bhavan Colony, Jabalpur - JMC",03-03-2024 08:00:00,23.163174,79.973061,PM10,38,67,53
India,Madhya Pradesh,Jabalpur,"Govindh Bhavan Colony, Jabalpur - JMC",03-03-2024 08:00:00,23.163174,79.973061,OZONE,19,115,38
India,Madhya Pradesh,Jabalpur,"Gupteshwar, Jabalpur - JMC",03-03-2024 08:00:00,23.142888,79.916147,PM2.5,47,163,78
India,Madhya Pradesh,Jabalpur,"Gupteshwar, Jabalpur - JMC",03-03-2024 08:00:00,23.142888,79.916147,OZONE,4,74,19
India,Madhya Pradesh,Mandideep,"Sector-D Industrial Area, Mandideep - MPPCB",03-03-2024 08:00:00,23.108440,77.511428,OZONE,32,62,40
India,Madhya Pradesh,Pithampur,"Sector-2 Industrial Area, Pithampur - MPPCB",03-03-2024 08:00:00,22.624758,75.675238,CO,50,62,56
India,Madhya Pradesh,Ratlam,"Shasthri Nagar, Ratlam - IPCA Lab",03-03-2024 08:00:00,23.331731,75.045981,PM10,29,155,96
India,Madhya Pradesh,Sagar,"Civil Lines, Sagar - MPPCB",03-03-2024 08:00:00,23.838586,78.759431,NH3,9,12,10
India,Madhya Pradesh,Satna,"Bandhavgar Colony, Satna - Birla Cement",03-03-2024 08:00:00,24.58434363,80.8549414,PM10,20,35,28
India,Madhya Pradesh,Satna,"Bandhavgar Colony, Satna - Birla Cement",03-03-2024 08:00:00,24.58434363,80.8549414,NO2,22,54,30
India,Madhya Pradesh,Singrauli,"Suryakiran Bhawan NCL, Singrauli - MPPCB",03-03-2024 08:00:00,24.108970,82.645580,NH3,4,5,4
India,Madhya Pradesh,Singrauli,"Suryakiran Bhawan NCL, Singrauli - MPPCB",03-03-2024 08:00:00,24.108970,82.645580,SO2,45,113,74
India,Madhya Pradesh,Ujjain,"Mahakaleshwar Temple, Ujjain - MPPCB",03-03-2024 08:00:00,23.182719 ,75.768218 ,PM2.5,15,46,32
India,Madhya Pradesh,Ujjain,"Mahakaleshwar Temple, Ujjain - MPPCB",03-03-2024 08:00:00,23.182719 ,75.768218 ,NO2,7,26,14
India,Maharashtra,Ahmednagar,"Tarakpur, Ahmednagar - MPCB",03-03-2024 08:00:00,19.10122,74.73339,PM10,40,142,82
India,Maharashtra,Ahmednagar,"Tarakpur, Ahmednagar - MPCB",03-03-2024 08:00:00,19.10122,74.73339,NH3,3,5,4
India,Maharashtra,Akola,"Ramdaspeth, Akola - MPCB",03-03-2024 08:00:00,20.719516,77.000253,NO2,11,53,22
India,Maharashtra,Amravati,"Shivneri Colony, Amravati - MPCB",03-03-2024 08:00:00,20.9402359,77.7895248,NH3,1,2,1
India,Maharashtra,Amravati,"Shivneri Colony, Amravati - MPCB",03-03-2024 08:00:00,20.9402359,77.7895248,SO2,3,26,12
India,Maharashtra,Amravati,"Shri Shivaji Science College, Amaravati - MPCB",03-03-2024 08:00:00,20.939198,77.765701,PM10,59,133,95
India,Maharashtra,Amravati,"Shri Shivaji Science College, Amaravati - MPCB",03-03-2024 08:00:00,20.939198,77.765701,OZONE,30,80,39
India,Maharashtra,Aurangabad,"MIDC Chilkalthana, Aurangabad - MPCB",03-03-2024 08:00:00,19.875620,75.387310,NH3,3,4,4
India,Maharashtra,Aurangabad,"MIDC Chilkalthana, Aurangabad - MPCB",03-03-2024 08:00:00,19.875620,75.387310,OZONE,8,65,10
India,Maharashtra,Aurangabad,"Rachnakar Colony, Aurangabad - MPCB",03-03-2024 08:00:00,19.863756,75.321188,NH3,1,2,1
India,Maharashtra,Aurangabad,"Rachnakar Colony, Aurangabad - MPCB",03-03-2024 08:00:00,19.863756,75.321188,OZONE,23,111,24
India,Maharashtra,Badlapur,"Katrap, Badlapur - MPCB",03-03-2024 08:00:00,19.16485,73.23409,NO2,11,75,28
India,Maharashtra,Badlapur,"Katrap, Badlapur - MPCB",03-03-2024 08:00:00,19.16485,73.23409,SO2,8,61,24
India,Maharashtra,Belapur,"CBD Belapur, Belapur - MPCB",03-03-2024 08:00:00,19.0243902,73.0406721,OZONE,1,63,4
India,Maharashtra,Chandrapur,"Chauhan Colony, Chandrapur - MPCB",03-03-2024 08:00:00,19.962900,79.298714,PM2.5,56,95,73
India,Maharashtra,Chandrapur,"MIDC Khutala, Chandrapur - MPCB",03-03-2024 08:00:00,19.9775302,79.2337086,SO2,NA,NA,NA
India,Maharashtra,Chandrapur,"MIDC Khutala, Chandrapur - MPCB",03-03-2024 08:00:00,19.9775302,79.2337086,OZONE,1,1,1
India,Maharashtra,Dhule,"Deopur, Dhule - MPCB",03-03-2024 08:00:00,20.918946,74.776388,SO2,1,13,7
India,Maharashtra,Jalna,"Old MIDC, Jalna - MPCB",03-03-2024 08:00:00,19.854616,75.905894,CO,26,48,29
India,Maharashtra,Kalyan,"Khadakpada, Kalyan - MPCB",03-03-2024 08:00:00,19.25292,73.142019,PM2.5,23,321,53
India,Maharashtra,Kalyan,"Khadakpada, Kalyan - MPCB",03-03-2024 08:00:00,19.25292,73.142019,NO2,28,44,34
India,Maharashtra,Kolhapur,"Shivaji University, Kolhapur - MPCB",03-03-2024 08:00:00,16.6870449,74.2505872,NO2,8,38,22
India,Maharashtra,Kolhapur,"Sinchan Bhavan, Kolhapur - MPCB",03-03-2024 08:00:00,16.7143745,74.2426398,NH3,7,8,8
India,Maharashtra,Kolhapur,"Sinchan Bhavan, Kolhapur - MPCB",03-03-2024 08:00:00,16.7143745,74.2426398,SO2,1,5,2
India,Maharashtra,Kolhapur,"Sinchan Bhavan, Kolhapur - MPCB",03-03-2024 08:00:00,16.7143745,74.2426398,CO,4,42,11
India,Maharashtra,Latur,"Sawe Wadi, Latur - MPCB",03-03-2024 08:00:00,18.39963,76.57452,PM2.5,76,147,103
India,Maharashtra,Mahad,"Kamble Tarf Birwadi, Mahad - MPCB",03-03-2024 08:00:00,18.1023399,73.4783687,NO2,19,91,35
India,Maharashtra,Mahad,"Kamble Tarf Birwadi, Mahad - MPCB",03-03-2024 08:00:00,18.1023399,73.4783687,NH3,13,16,14
India,Maharashtra,Malegaon,"Mahesh Nagar, Malegaon - MPCB",03-03-2024 08:00:00,20.555712,74.529236,CO,12,58,21
India,Maharashtra,Mira-Bhayandar,"Bhayandar West, Mira-Bhayandar - MPCB",03-03-2024 08:00:00,19.296481,72.840923,PM2.5,33,140,54
India,Maharashtra,Mira-Bhayandar,"Bhayandar West, Mira-Bhayandar - MPCB",03-03-2024 08:00:00,19.296481,72.840923,NO2,11,12,12
India,Maharashtra,Mira-Bhayandar,"Bhayandar West, Mira-Bhayandar - MPCB",03-03-2024 08:00:00,19.296481,72.840923,CO,10,30,18
India,Maharashtra,Mira-Bhayandar,"Bhayandar West, Mira-Bhayandar - MPCB",03-03-2024 08:00:00,19.296481,72.840923,OZONE,3,61,18
India,Maharashtra,Mumbai,"Bandra Kurla Complex, Mumbai - MPCB",03-03-2024 08:00:00,19.065931,72.862131,PM2.5,14,69,32
India,Maharashtra,Mumbai,"Bandra Kurla Complex, Mumbai - MPCB",03-03-2024 08:00:00,19.065931,72.862131,NH3,10,13,11
India,Maharashtra,Mumbai,"Borivali East, Mumbai - IITM",03-03-2024 08:00:00,19.23241,72.86895,CO,14,48,24
India,Maharashtra,Mumbai,"Borivali East, Mumbai - IITM",03-03-2024 08:00:00,19.23241,72.86895,OZONE,23,53,30
India,Maharashtra,Mumbai,"Borivali East, Mumbai - MPCB",03-03-2024 08:00:00,19.2243333,72.8658113,NH3,NA,NA,NA
India,Maharashtra,Mumbai,"Borivali East, Mumbai - MPCB",03-03-2024 08:00:00,19.2243333,72.8658113,CO,NA,NA,NA
India,Maharashtra,Mumbai,"Byculla, Mumbai - BMC",03-03-2024 08:00:00,18.9767,72.8380,PM10,18,67,35
India,Maharashtra,Mumbai,"Chakala-Andheri East, Mumbai - IITM",03-03-2024 08:00:00,19.11074,72.86084,PM2.5,27,81,49
India,Maharashtra,Mumbai,"Chakala-Andheri East, Mumbai - IITM",03-03-2024 08:00:00,19.11074,72.86084,CO,8,34,13
India,Maharashtra,Mumbai,"Chembur, Mumbai - MPCB",03-03-2024 08:00:00,19.0364585,72.8954371,PM2.5,21,152,47
India,Maharashtra,Mumbai,"Chembur, Mumbai - MPCB",03-03-2024 08:00:00,19.0364585,72.8954371,SO2,1,41,4
India,Maharashtra,Mumbai,"Chhatrapati Shivaji Intl. Airport (T2), Mumbai - MPCB",03-03-2024 08:00:00,19.10078,72.87462,PM2.5,13,33,19
India,Maharashtra,Mumbai,"Chhatrapati Shivaji Intl. Airport (T2), Mumbai - MPCB",03-03-2024 08:00:00,19.10078,72.87462,NO2,3,44,20
India,Maharashtra,Mumbai,"Colaba, Mumbai - MPCB",03-03-2024 08:00:00,18.910000,72.820000,SO2,NA,NA,NA
India,Maharashtra,Mumbai,"Ghatkopar, Mumbai - BMC",03-03-2024 08:00:00,19.083694,72.920967,PM2.5,13,55,31
India,Maharashtra,Mumbai,"Kandivali East, Mumbai - MPCB",03-03-2024 08:00:00,19.205800,72.868200,PM2.5,2,31,13
India,Maharashtra,Mumbai,"Kandivali East, Mumbai - MPCB",03-03-2024 08:00:00,19.205800,72.868200,OZONE,29,31,30
India,Maharashtra,Mumbai,"Kherwadi_Bandra East, Mumbai - MPCB",03-03-2024 08:00:00,19.0632143,72.8456324,PM10,25,84,49
India,Maharashtra,Mumbai,"Khindipada-Bhandup West, Mumbai - IITM",03-03-2024 08:00:00,19.1653323,72.922099,SO2,1,7,3
India,Maharashtra,Mumbai,"Khindipada-Bhandup West, Mumbai - IITM",03-03-2024 08:00:00,19.1653323,72.922099,CO,46,74,53
India,Maharashtra,Mumbai,"Khindipada-Bhandup West, Mumbai - IITM",03-03-2024 08:00:00,19.1653323,72.922099,OZONE,1,25,4
India,Maharashtra,Mumbai,"Mazgaon, Mumbai - IITM",03-03-2024 08:00:00,18.96702,72.84214,NO2,38,162,82
India,Maharashtra,Mumbai,"Mazgaon, Mumbai - IITM",03-03-2024 08:00:00,18.96702,72.84214,SO2,2,30,11
India,Maharashtra,Mumbai,"Mulund West, Mumbai - MPCB",03-03-2024 08:00:00,19.1750,72.9419,PM2.5,14,52,24
India,Maharashtra,Mumbai,"Powai, Mumbai - MPCB",03-03-2024 08:00:00,19.137500,72.915056,NO2,14,29,21
India,Maharashtra,Mumbai,"Sewri, Mumbai - BMC",03-03-2024 08:00:00,19.000084,72.856730,PM10,19,55,42
India,Maharashtra,Mumbai,"Sewri, Mumbai - BMC",03-03-2024 08:00:00,19.000084,72.856730,NH3,7,11,9
India,Maharashtra,Mumbai,"Sewri, Mumbai - BMC",03-03-2024 08:00:00,19.000084,72.856730,SO2,2,11,5
India,Maharashtra,Mumbai,"Shivaji Nagar, Mumbai - BMC",03-03-2024 08:00:00,19.060498,72.923356,NO2,23,71,48
India,Maharashtra,Mumbai,"Shivaji Nagar, Mumbai - BMC",03-03-2024 08:00:00,19.060498,72.923356,OZONE,1,37,6
India,Maharashtra,Mumbai,"Siddharth Nagar-Worli, Mumbai - IITM",03-03-2024 08:00:00,19.000083,72.813993,PM10,30,87,62
India,Maharashtra,Mumbai,"Sion, Mumbai - MPCB",03-03-2024 08:00:00,19.047000,72.874600,PM10,47,121,66
India,Maharashtra,Mumbai,"Vasai West, Mumbai - MPCB",03-03-2024 08:00:00,19.383200,72.820400,OZONE,7,30,11
India,Maharashtra,Nagpur,"Ambazari, Nagpur - MPCB",03-03-2024 08:00:00,21.121801,79.04952,OZONE,13,83,21
India,Maharashtra,Nagpur,"Ram Nagar, Nagpur - MPCB",03-03-2024 08:00:00,21.143383,79.048912,NO2,8,38,21
India,Maharashtra,Nashik,"Gangapur Road, Nashik - MPCB",03-03-2024 08:00:00,20.0073285,73.7762427,NO2,13,13,13
India,Maharashtra,Nashik,"Gangapur Road, Nashik - MPCB",03-03-2024 08:00:00,20.0073285,73.7762427,NH3,2,2,2
India,Maharashtra,Nashik,"Hirawadi, Nashik - MPCB",03-03-2024 08:00:00,20.021503,73.813844,NH3,1,2,1
India,Maharashtra,Nashik,"Pandav Nagari, Nashik - MPCB",03-03-2024 08:00:00,19.9591346,73.7788008,NO2,14,36,21
India,Maharashtra,Navi Mumbai,"Kopripada-Vashi, Navi Mumbai - MPCB",03-03-2024 08:00:00,19.090337,73.014232,PM10,34,200,71
India,Maharashtra,Navi Mumbai,"Sanpada, Navi Mumbai - MPCB",03-03-2024 08:00:00,19.0575752,73.0151367,PM2.5,17,66,35
India,Maharashtra,Navi Mumbai,"Sanpada, Navi Mumbai - MPCB",03-03-2024 08:00:00,19.0575752,73.0151367,CO,2,18,11
India,Maharashtra,Navi Mumbai,"Sector-19A Nerul, Navi Mumbai - IITM",03-03-2024 08:00:00,19.044,73.0325,PM2.5,30,178,70
India,Maharashtra,Navi Mumbai,"Sector-2E Kalamboli, Navi Mumbai - MPCB",03-03-2024 08:00:00,19.02579,73.10297,PM2.5,21,62,32
India,Maharashtra,Navi Mumbai,"Sector-2E Kalamboli, Navi Mumbai - MPCB",03-03-2024 08:00:00,19.02579,73.10297,NO2,23,35,28
India,Maharashtra,Navi Mumbai,"Tondare-Taloja, Navi Mumbai - MPCB",03-03-2024 08:00:00,19.0630,73.1209,PM10,74,143,98
India,Maharashtra,Parbhani,"Masoom Colony, Parbhani - MPCB",03-03-2024 08:00:00,19.265594,76.761463,PM2.5,67,133,92
India,Maharashtra,Parbhani,"Masoom Colony, Parbhani - MPCB",03-03-2024 08:00:00,19.265594,76.761463,OZONE,33,46,42
India,Maharashtra,Pimpri-Chinchwad,"Gavalinagar, Pimpri Chinchwad - MPCB",03-03-2024 08:00:00,18.63673,73.82487,PM10,34,90,65
India,Maharashtra,Pimpri-Chinchwad,"Gavalinagar, Pimpri Chinchwad - MPCB",03-03-2024 08:00:00,18.63673,73.82487,NO2,4,44,18
India,Maharashtra,Pimpri-Chinchwad,"Thergaon, Pimpri Chinchwad - MPCB",03-03-2024 08:00:00,18.616318,73.765797,PM2.5,33,165,83
India,Maharashtra,Pune,"Katraj Dairy, Pune - MPCB",03-03-2024 08:00:00,18.454450,73.854155,PM10,31,85,54
India,Maharashtra,Pune,"Mhada Colony, Pune - IITM",03-03-2024 08:00:00,18.573040,73.927715,OZONE,NA,NA,NA
India,Maharashtra,Pune,"Revenue Colony-Shivajinagar, Pune - IITM",03-03-2024 08:00:00,18.530085,73.849598,SO2,93,133,115
India,Maharashtra,Pune,"Transport Nagar-Nigdi, Pune - IITM",03-03-2024 08:00:00,18.664282,73.763966,NO2,15,18,17
India,Maharashtra,Pune,"Transport Nagar-Nigdi, Pune - IITM",03-03-2024 08:00:00,18.664282,73.763966,OZONE,3,62,7
India,Maharashtra,Sangli,"Vijay Nagar, Sangli - MPCB",03-03-2024 08:00:00, 16.5038,74.3623,OZONE,1,47,7
India,Maharashtra,Solapur,"Dnyaneshwar Nagar, Solapur - MPCB",03-03-2024 08:00:00,17.6336264,75.9132495,PM2.5,56,140,94
India,Maharashtra,Solapur,"Dnyaneshwar Nagar, Solapur - MPCB",03-03-2024 08:00:00,17.6336264,75.9132495,PM10,59,120,97
India,Maharashtra,Solapur,"Ratandeep Housing Society, Solapur - MPCB",03-03-2024 08:00:00,17.65439,75.90649,PM10,69,117,91
India,Maharashtra,Solapur,"Ratandeep Housing Society, Solapur - MPCB",03-03-2024 08:00:00,17.65439,75.90649,CO,15,113,21
India,Maharashtra,Solapur,"Solapur, Solapur - MPCB",03-03-2024 08:00:00,17.6599188,75.9063906,NO2,55,55,55
India,Maharashtra,Thane,"Kasarvadavali, Thane - MPCB",03-03-2024 08:00:00,19.26777,72.97182,PM10,37,77,57
India,Maharashtra,Thane,"Pimpleshwar Mandir, Thane - MPCB",03-03-2024 08:00:00,19.192056,72.9585188,PM10,80,165,115
India,Maharashtra,Thane,"Upvan Fort, Thane - MPCB",03-03-2024 08:00:00,19.222279,72.957979,PM2.5,NA,NA,NA
India,Maharashtra,Thane,"Upvan Fort, Thane - MPCB",03-03-2024 08:00:00,19.222279,72.957979,CO,NA,NA,NA
India,Maharashtra,Ulhasnagar,"Sidhi Vinayak Nagar, Ulhasnagar - MPCB",03-03-2024 08:00:00,19.235581,73.159121,PM2.5,45,109,61
India,Maharashtra,Ulhasnagar,"Sidhi Vinayak Nagar, Ulhasnagar - MPCB",03-03-2024 08:00:00,19.235581,73.159121,NO2,13,28,22
India,Maharashtra,Virar,"Bolinj, Virar - MPCB",03-03-2024 08:00:00,19.4458210,72.7988231,PM10,49,143,74
India,Maharashtra,Virar,"Bolinj, Virar - MPCB",03-03-2024 08:00:00,19.4458210,72.7988231,NH3,5,9,6
India,Maharashtra,Virar,"Bolinj, Virar - MPCB",03-03-2024 08:00:00,19.4458210,72.7988231,SO2,1,7,6
India,Maharashtra,Virar,"Bolinj, Virar - MPCB",03-03-2024 08:00:00,19.4458210,72.7988231,OZONE,7,66,32
India,Manipur,Imphal,"DM College of Science, Imphal - Manipur PCB",03-03-2024 08:00:00,24.8207389,93.9423085,NH3,2,2,2
India,Meghalaya,Shillong,"Lumpyngngad, Shillong - Meghalaya PCB",03-03-2024 08:00:00,25.5586,91.8985,NO2,6,6,6
India,Meghalaya,Shillong,"Lumpyngngad, Shillong - Meghalaya PCB",03-03-2024 08:00:00,25.5586,91.8985,OZONE,58,88,79
India,Mizoram,Aizawl,"Sikulpuikawn, Aizawl - Mizoram PCB",03-03-2024 08:00:00,23.7176342,92.7192841,PM2.5,35,67,52
India,Nagaland,Kohima,"PWD Juction, Kohima - NPCB",03-03-2024 08:00:00,25.6635413,94.0989878,NO2,3,4,4
India,Odisha,Angul,"Hakimapada, Angul - OSPCB",03-03-2024 08:00:00,20.832874,85.104082,CO,24,117,30
India,Odisha,Balasore,"Kalidaspur, Balasore - OSPCB",03-03-2024 08:00:00,21.51161,86.89088,PM10,83,173,123
India,Odisha,Bhubaneswar,"Patia, Bhubaneswar - OSPCB",03-03-2024 08:00:00,20.34652,85.81630,PM2.5,45,117,68
India,Odisha,Bileipada,"Tata Township, Bileipada - OSPCB",03-03-2024 08:00:00,22.06156703,85.47409613,OZONE,19,26,20
India,Odisha,Brajrajnagar,"GM Office, Brajrajnagar - OSPCB",03-03-2024 08:00:00,21.8004996,83.8396977,NH3,1,2,2
India,Odisha,Brajrajnagar,"GM Office, Brajrajnagar - OSPCB",03-03-2024 08:00:00,21.8004996,83.8396977,CO,50,107,58
India,Odisha,Brajrajnagar,"GM Office, Brajrajnagar - OSPCB",03-03-2024 08:00:00,21.8004996,83.8396977,OZONE,19,25,19
India,Odisha,Byasanagar,"Ferro Chrome Colony, Byasanagar - OSPCB",03-03-2024 08:00:00,20.94185,86.11510,PM10,67,135,95
India,Odisha,Byasanagar,"Ferro Chrome Colony, Byasanagar - OSPCB",03-03-2024 08:00:00,20.94185,86.11510,NH3,2,4,2
India,Odisha,Nayagarh,"Dabuna, Nayagarh - OSPCB",03-03-2024 08:00:00,21.847279,85.416905,SO2,1,28,5
India,Odisha,Rourkela,"Fertilizer Township, Rourkela - OSPCB",03-03-2024 08:00:00,22.18972222,84.86277778,PM10,81,160,113
India,Odisha,Rourkela,"Raghunathpali, Rourkela - OSPCB",03-03-2024 08:00:00,22.220833,84.809444,NO2,17,162,48
India,Odisha,Rourkela,"Sector-2, Rourkela - OSPCB",03-03-2024 08:00:00,22.24500000,84.88111111,PM10,61,148,99
India,Odisha,Rourkela,"Sector-2, Rourkela - OSPCB",03-03-2024 08:00:00,22.24500000,84.88111111,CO,12,46,19
India,Odisha,Suakati,"OMC Colony, Suakati - OSPCB",03-03-2024 08:00:00,21.606865,85.510538,NH3,NA,NA,NA
India,Odisha,Talcher,"Talcher Coalfields,Talcher - OSPCB",03-03-2024 08:00:00,20.9360711,85.1707021,NH3,7,8,7
India,Odisha,Talcher,"Talcher Coalfields,Talcher - OSPCB",03-03-2024 08:00:00,20.9360711,85.1707021,SO2,18,87,47
India,Odisha,Talcher,"Talcher Coalfields,Talcher - OSPCB",03-03-2024 08:00:00,20.9360711,85.1707021,OZONE,1,24,10
India,Odisha,Tensa,"Barsua Iron Ore Mines, Tensa - OSPCB",03-03-2024 08:00:00,21.869985,85.167016,NO2,28,62,40
India,Puducherry,Puducherry,"Jawahar Nagar, Puducherry - PPCC",03-03-2024 08:00:00,11.9309,79.8027,NO2,3,43,12
India,Puducherry,Puducherry,"Jawahar Nagar, Puducherry - PPCC",03-03-2024 08:00:00,11.9309,79.8027,NH3,2,4,3
India,Puducherry,Puducherry,"Jawahar Nagar, Puducherry - PPCC",03-03-2024 08:00:00,11.9309,79.8027,CO,20,54,29
India,Puducherry,Puducherry,"Jawahar Nagar, Puducherry - PPCC",03-03-2024 08:00:00,11.9309,79.8027,OZONE,5,54,36
India,Punjab,Amritsar,"Golden Temple, Amritsar - PPCB",03-03-2024 08:00:00,31.620000,74.876512,NH3,6,8,7
India,Punjab,Amritsar,"Golden Temple, Amritsar - PPCB",03-03-2024 08:00:00,31.620000,74.876512,SO2,13,29,23
India,Punjab,Bathinda,"Hardev Nagar, Bathinda - PPCB",03-03-2024 08:00:00,30.233011,74.907758,SO2,1,16,6
India,Punjab,Jalandhar,"Civil Line, Jalandhar - PPCB",03-03-2024 08:00:00,31.321907,75.578914,PM10,12,134,54
India,Punjab,Jalandhar,"Civil Line, Jalandhar - PPCB",03-03-2024 08:00:00,31.321907,75.578914,SO2,2,5,3
India,Punjab,Khanna,"Kalal Majra, Khanna - PPCB",03-03-2024 08:00:00,30.736056 ,76.209694,PM2.5,NA,NA,NA
India,Punjab,Patiala,"Model Town, Patiala - PPCB",03-03-2024 08:00:00,30.349388,76.366642,PM2.5,10,100,34
India,Punjab,Patiala,"Model Town, Patiala - PPCB",03-03-2024 08:00:00,30.349388,76.366642,CO,24,56,44
India,Rajasthan,Ajmer,"Civil Lines,  Ajmer - RSPCB",03-03-2024 08:00:00,26.470859,74.646594,CO,20,38,25
India,Rajasthan,Banswara,"Rati Talai, Banswara - RSPCB",03-03-2024 08:00:00,23.555190,74.440010,OZONE,27,100,46
India,Rajasthan,Baran,"Bamboliya, Baran - RSPCB",03-03-2024 08:00:00,25.106006,76.469948,PM2.5,14,67,36
India,Rajasthan,Baran,"Bamboliya, Baran - RSPCB",03-03-2024 08:00:00,25.106006,76.469948,PM10,18,70,41
India,Rajasthan,Baran,"Bamboliya, Baran - RSPCB",03-03-2024 08:00:00,25.106006,76.469948,NH3,3,4,3
India,Rajasthan,Barmer,"Railway Colony, Barmer - RSPCB",03-03-2024 08:00:00,25.747299,71.393989,OZONE,66,95,81
India,Rajasthan,Bhilwara,"Pratap Nagar, Bhilwara - RSPCB",03-03-2024 08:00:00,25.339605,74.618883,PM2.5,46,97,67
India,Rajasthan,Bhiwadi,"RIICO Ind. Area III, Bhiwadi - RSPCB",03-03-2024 08:00:00,28.194909,76.862296,PM10,63,449,139
India,Rajasthan,Bhiwadi,"RIICO Ind. Area III, Bhiwadi - RSPCB",03-03-2024 08:00:00,28.194909,76.862296,NO2,11,25,18
India,Rajasthan,Bhiwadi,"RIICO Ind. Area III, Bhiwadi - RSPCB",03-03-2024 08:00:00,28.194909,76.862296,NH3,8,17,12
India,Rajasthan,Bhiwadi,"RIICO Ind. Area III, Bhiwadi - RSPCB",03-03-2024 08:00:00,28.194909,76.862296,CO,1,116,40
India,Rajasthan,Bhiwadi,"RIICO Ind. Area III, Bhiwadi - RSPCB",03-03-2024 08:00:00,28.194909,76.862296,OZONE,23,58,35
India,Rajasthan,Bhiwadi,"Vasundhara Nagar_UIT, Bhiwadi - RSPCB",03-03-2024 08:00:00,28.207266,76.829265,SO2,2,22,9
India,Rajasthan,Bikaner,"MM Ground, Bikaner - RSPCB",03-03-2024 08:00:00,28.018792,73.292658,PM2.5,17,242,71
India,Rajasthan,Bikaner,"MM Ground, Bikaner - RSPCB",03-03-2024 08:00:00,28.018792,73.292658,NH3,6,15,9
India,Rajasthan,Bikaner,"MM Ground, Bikaner - RSPCB",03-03-2024 08:00:00,28.018792,73.292658,CO,10,31,14
India,Rajasthan,Chittorgarh,"Shastri Nagar, Chittorgarh - RSPCB",03-03-2024 08:00:00,24.892047,74.623527,SO2,2,35,10
India,Rajasthan,Churu,"Subash Chowk, Churu - RSPCB",03-03-2024 08:00:00,28.296139,74.961696,PM2.5,16,321,80
India,Rajasthan,Churu,"Subash Chowk, Churu - RSPCB",03-03-2024 08:00:00,28.296139,74.961696,PM10,55,500,193
India,Rajasthan,Churu,"Subash Chowk, Churu - RSPCB",03-03-2024 08:00:00,28.296139,74.961696,OZONE,26,91,61
India,Rajasthan,Dausa,"Khatikan Mohalla, Dausa - RSPCB",03-03-2024 08:00:00,26.895552,76.334753,NO2,37,64,50
India,Rajasthan,Dausa,"Khatikan Mohalla, Dausa - RSPCB",03-03-2024 08:00:00,26.895552,76.334753,NH3,9,15,12
India,Rajasthan,Dungarpur,"Bhoiwada, Dungarpur - RSPCB",03-03-2024 08:00:00,23.837789,73.714926,OZONE,18,53,30
India,Rajasthan,Hanumangarh,"Housing Board, Hanumangarh - RSPCB",03-03-2024 08:00:00,29.610750,74.283608,NO2,12,27,17
India,Rajasthan,Jaipur,"Adarsh Nagar, Jaipur - RSPCB",03-03-2024 08:00:00,26.902909,75.836858,NO2,26,59,35
India,Rajasthan,Jaipur,"Adarsh Nagar, Jaipur - RSPCB",03-03-2024 08:00:00,26.902909,75.836858,CO,12,36,23
India,Rajasthan,Jaipur,"Mansarovar Sector-12, Jaipur - RSPCB",03-03-2024 08:00:00,26.843698,75.766894,PM10,40,118,66
India,Rajasthan,Jaipur,"Mansarovar Sector-12, Jaipur - RSPCB",03-03-2024 08:00:00,26.843698,75.766894,NO2,24,41,33
India,Rajasthan,Jaipur,"Police Commissionerate, Jaipur - RSPCB",03-03-2024 08:00:00,26.9164092,75.7994901,NH3,13,15,14
India,Rajasthan,Jaipur,"Police Commissionerate, Jaipur - RSPCB",03-03-2024 08:00:00,26.9164092,75.7994901,CO,12,44,28
India,Rajasthan,Jaipur,"Police Commissionerate, Jaipur - RSPCB",03-03-2024 08:00:00,26.9164092,75.7994901,OZONE,14,67,31
India,Rajasthan,Jaipur,"Sector-2 Murlipura, Jaipur - RSPCB",03-03-2024 08:00:00,26.960669,75.771817,NO2,7,18,11
India,Rajasthan,Jaipur,"Sector-2 Murlipura, Jaipur - RSPCB",03-03-2024 08:00:00,26.960669,75.771817,NH3,3,8,5
India,Rajasthan,Jaipur,"Sector-2 Murlipura, Jaipur - RSPCB",03-03-2024 08:00:00,26.960669,75.771817,CO,7,40,13
India,Rajasthan,Jaipur,"Shastri Nagar, Jaipur - RSPCB",03-03-2024 08:00:00,26.9502929,75.730943,PM10,50,132,85
India,Rajasthan,Jalore,"Mudtra Sili, Jalore - RSPCB",03-03-2024 08:00:00,25.344694,72.626208,OZONE,33,98,78
India,Rajasthan,Jhalawar,"Rajlaxmi Nagar, Jhalawar - RSPCB",03-03-2024 08:00:00,24.588397,76.172782,PM2.5,22,161,50
India,Rajasthan,Jhalawar,"Rajlaxmi Nagar, Jhalawar - RSPCB",03-03-2024 08:00:00,24.588397,76.172782,NH3,5,13,6
India,Rajasthan,Jhalawar,"Rajlaxmi Nagar, Jhalawar - RSPCB",03-03-2024 08:00:00,24.588397,76.172782,CO,20,84,25
India,Rajasthan,Jhunjhunu,"Indra Nagar, Jhunjhunu - RSPCB",03-03-2024 08:00:00,28.108988,75.386577,OZONE,34,59,54
India,Rajasthan,Jodhpur,"Collectorate, Jodhpur - RSPCB",03-03-2024 08:00:00,26.268249,73.0193853,SO2,2,53,19
India,Rajasthan,Jodhpur,"Digari Kalan, Jodhpur - RSPCB",03-03-2024 08:00:00,26.295810,73.082283,PM2.5,4,49,24
India,Rajasthan,Jodhpur,"Digari Kalan, Jodhpur - RSPCB",03-03-2024 08:00:00,26.295810,73.082283,NO2,7,39,15
India,Rajasthan,Jodhpur,"Jhalamand, Jodhpur - RSPCB",03-03-2024 08:00:00,26.215415,73.070156,PM10,28,129,69
India,Rajasthan,Jodhpur,"Jhalamand, Jodhpur - RSPCB",03-03-2024 08:00:00,26.215415,73.070156,CO,12,38,16
India,Rajasthan,Jodhpur,"Mandor, Jodhpur - RSPCB",03-03-2024 08:00:00,26.358805,73.047444,PM2.5,11,47,28
India,Rajasthan,Jodhpur,"Mandor, Jodhpur - RSPCB",03-03-2024 08:00:00,26.358805,73.047444,SO2,1,43,4
India,Rajasthan,Kota,"Dhanmandi, Kota - RSPCB",03-03-2024 08:00:00,25.164090,75.858137,PM10,21,123,80
India,Rajasthan,Kota,"Nayapura, Kota - RSPCB",03-03-2024 08:00:00,25.196024,75.855668,PM2.5,43,116,68
India,Rajasthan,Kota,"Shrinath Puram, Kota - RSPCB",03-03-2024 08:00:00,25.14389,75.821256,PM2.5,51,203,131
India,Rajasthan,Kota,"Shrinath Puram, Kota - RSPCB",03-03-2024 08:00:00,25.14389,75.821256,SO2,6,28,11
India,Rajasthan,Nagaur,"Karni Colony, Nagaur - RSPCB",03-03-2024 08:00:00,27.213494,73.734444,PM10,42,419,182
India,Rajasthan,Nagaur,"Karni Colony, Nagaur - RSPCB",03-03-2024 08:00:00,27.213494,73.734444,NO2,5,26,13
India,Rajasthan,Pali,"Indira Colony Vistar, Pali - RSPCB",03-03-2024 08:00:00,25.771061, 73.340227,NO2,19,70,47
India,Rajasthan,Pali,"Indira Colony Vistar, Pali - RSPCB",03-03-2024 08:00:00,25.771061, 73.340227,NH3,2,17,13
India,Rajasthan,Pratapgarh,"Pragati Nagar, Pratapgarh - RSPCB",03-03-2024 08:00:00,24.041198,74.780702,PM10,21,138,76
India,Rajasthan,Pratapgarh,"Pragati Nagar, Pratapgarh - RSPCB",03-03-2024 08:00:00,24.041198,74.780702,SO2,1,30,9
India,Rajasthan,Pratapgarh,"Pragati Nagar, Pratapgarh - RSPCB",03-03-2024 08:00:00,24.041198,74.780702,CO,14,32,16
India,Rajasthan,Rajsamand,"Dhoinda, Rajsamand - RSPCB",03-03-2024 08:00:00,25.036360,73.883502,SO2,5,11,8
India,Rajasthan,Sawai Madhopur,"Sahu Nagar, Sawai Madhopur - RSPCB",03-03-2024 08:00:00,26.031443,76.359327,PM2.5,19,84,32
India,Rajasthan,Sawai Madhopur,"Sahu Nagar, Sawai Madhopur - RSPCB",03-03-2024 08:00:00,26.031443,76.359327,NH3,4,31,15
India,Rajasthan,Sawai Madhopur,"Sahu Nagar, Sawai Madhopur - RSPCB",03-03-2024 08:00:00,26.031443,76.359327,OZONE,13,95,27
India,Rajasthan,Sikar,"Radhakishan Pura, Sikar - RSPCB",03-03-2024 08:00:00,27.608912,75.153302,NO2,5,14,8
India,Rajasthan,Sikar,"Radhakishan Pura, Sikar - RSPCB",03-03-2024 08:00:00,27.608912,75.153302,SO2,1,10,5
India,Rajasthan,Sikar,"Radhakishan Pura, Sikar - RSPCB",03-03-2024 08:00:00,27.608912,75.153302,OZONE,48,93,70
India,Rajasthan,Sirohi,"Vedhaynath Colony, Sirohi - RSPCB",03-03-2024 08:00:00,24.885261,72.857549,PM10,8,102,44
India,Rajasthan,Sirohi,"Vedhaynath Colony, Sirohi - RSPCB",03-03-2024 08:00:00,24.885261,72.857549,SO2,3,9,6
India,Rajasthan,Sri Ganganagar,"Old City, Sri Ganganagar - RSPCB",03-03-2024 08:00:00,29.931624,73.864511,CO,11,37,14
India,Rajasthan,Tonk,"Shastri Nagar, Tonk - RSPCB",03-03-2024 08:00:00,26.159933,75.780517,NH3,5,11,8
India,Rajasthan,Tonk,"Shastri Nagar, Tonk - RSPCB",03-03-2024 08:00:00,26.159933,75.780517,OZONE,7,38,9
India,Rajasthan,Udaipur,"Ashok Nagar, Udaipur - RSPCB",03-03-2024 08:00:00,24.5886166,73.6321397,NO2,79,108,94
India,Sikkim,Gangtok,"Zero Point GICI, Gangtok - SSPCB",03-03-2024 08:00:00,27.338530,88.614099,NO2,1,8,4
India,Sikkim,Gangtok,"Zero Point GICI, Gangtok - SSPCB",03-03-2024 08:00:00,27.338530,88.614099,CO,20,30,24
India,TamilNadu,Ariyalur,"Keelapalur, Ariyalur - TNPCB",03-03-2024 08:00:00,11.06825,79.07033,SO2,32,82,35
India,TamilNadu,Ariyalur,"Keelapalur, Ariyalur - TNPCB",03-03-2024 08:00:00,11.06825,79.07033,CO,NA,NA,NA
India,TamilNadu,Chengalpattu,"Crescent University, Chengalpattu - TNPCB",03-03-2024 08:00:00,12.8777316,80.0834807,CO,NA,NA,NA
India,TamilNadu,Chengalpattu,"Crescent University, Chengalpattu - TNPCB",03-03-2024 08:00:00,12.8777316,80.0834807,OZONE,NA,NA,NA
India,TamilNadu,Chennai,"Alandur Bus Depot, Chennai - CPCB",03-03-2024 08:00:00,12.9099161,80.1076538,PM2.5,NA,NA,NA
India,TamilNadu,Chennai,"Alandur Bus Depot, Chennai - CPCB",03-03-2024 08:00:00,12.9099161,80.1076538,PM10,23,171,124
India,TamilNadu,Chennai,"Arumbakkam, Chennai - TNPCB",03-03-2024 08:00:00,13.0664,80.2112 ,PM10,NA,NA,NA
India,TamilNadu,Chennai,"Gandhi Nagar_Ennore, Chennai - TNPCB",03-03-2024 08:00:00,13.218341,80.32027,NH3,NA,NA,NA
India,TamilNadu,Chennai,"Kodungaiyur, Chennai - TNPCB",03-03-2024 08:00:00,13.1278,80.2642,PM2.5,19,48,34
India,TamilNadu,Chennai,"Kodungaiyur, Chennai - TNPCB",03-03-2024 08:00:00,13.1278,80.2642,NO2,9,17,12
India,TamilNadu,Chennai,"Kodungaiyur, Chennai - TNPCB",03-03-2024 08:00:00,13.1278,80.2642,NH3,3,4,4
India,TamilNadu,Chennai,"Manali, Chennai - CPCB",03-03-2024 08:00:00,13.164544,80.26285,PM2.5,36,99,49
India,TamilNadu,Chennai,"Perungudi, Chennai - TNPCB",03-03-2024 08:00:00,12.9533,80.2357,PM2.5,54,192,81
India,TamilNadu,Chennai,"Perungudi, Chennai - TNPCB",03-03-2024 08:00:00,12.9533,80.2357,PM10,50,136,81
India,TamilNadu,Chennai,"Royapuram, Chennai - TNPCB",03-03-2024 08:00:00,13.1036,80.2909,OZONE,8,12,9
India,TamilNadu,Chennai,"Velachery Res. Area, Chennai - CPCB",03-03-2024 08:00:00,13.0052189,80.2398125,NO2,NA,NA,NA
India,TamilNadu,Chennai,"Velachery Res. Area, Chennai - CPCB",03-03-2024 08:00:00,13.0052189,80.2398125,CO,5,107,46
India,TamilNadu,Coimbatore,"PSG College of Arts and Science, Coimbatore - TNPCB",03-03-2024 08:00:00,11.0328,77.0349,NO2,6,25,11
India,TamilNadu,Coimbatore,"PSG College of Arts and Science, Coimbatore - TNPCB",03-03-2024 08:00:00,11.0328,77.0349,NH3,1,1,1
India,TamilNadu,Coimbatore,"PSG College of Arts and Science, Coimbatore - TNPCB",03-03-2024 08:00:00,11.0328,77.0349,OZONE,3,5,4
India,TamilNadu,Cuddalore,"Semmandalam, Cuddalore - TNPCB",03-03-2024 08:00:00,11.7637683,79.7499835,OZONE,1,2,2
India,TamilNadu,Gummidipoondi,"Anthoni Pillai Nagar, Gummidipoondi - TNPCB",03-03-2024 08:00:00,13.4127,80.1081,SO2,1,43,10
India,TamilNadu,Palkalaiperur,"Bharathidasan University, Palkalaiperur - TNPCB",03-03-2024 08:00:00,10.681158,78.741746,PM2.5,25,69,40
India,TamilNadu,Palkalaiperur,"Bharathidasan University, Palkalaiperur - TNPCB",03-03-2024 08:00:00,10.681158,78.741746,PM10,31,88,50
India,TamilNadu,Palkalaiperur,"Bharathidasan University, Palkalaiperur - TNPCB",03-03-2024 08:00:00,10.681158,78.741746,CO,2,6,4
India,TamilNadu,Ramanathapuram,"Chalai Bazaar, Ramanathapuram - TNPCB",03-03-2024 08:00:00,9.36399,78.831977,NH3,1,1,1
India,TamilNadu,Tirupur,"Kumaran College, Tirupur - TNPCB",03-03-2024 08:00:00,11.0973603,77.3228673,PM10,NA,NA,NA
India,TamilNadu,Virudhunagar,"Collectorate Office, Virudhunagar - TNPCB",03-03-2024 08:00:00,9.559382,77.948828,PM2.5,42,172,73
India,TamilNadu,Virudhunagar,"Collectorate Office, Virudhunagar - TNPCB",03-03-2024 08:00:00,9.559382,77.948828,PM10,51,151,87
India,TamilNadu,Virudhunagar,"Collectorate Office, Virudhunagar - TNPCB",03-03-2024 08:00:00,9.559382,77.948828,NO2,12,19,14
India,TamilNadu,Virudhunagar,"Collectorate Office, Virudhunagar - TNPCB",03-03-2024 08:00:00,9.559382,77.948828,NH3,6,7,6
India,TamilNadu,Virudhunagar,"Collectorate Office, Virudhunagar - TNPCB",03-03-2024 08:00:00,9.559382,77.948828,SO2,4,32,7
India,TamilNadu,Virudhunagar,"Collectorate Office, Virudhunagar - TNPCB",03-03-2024 08:00:00,9.559382,77.948828,CO,25,26,26
India,Telangana,Hyderabad,"Bollaram Industrial Area, Hyderabad - TSPCB",03-03-2024 08:00:00,17.540891,78.358528,PM2.5,46,81,62
India,Telangana,Hyderabad,"Bollaram Industrial Area, Hyderabad - TSPCB",03-03-2024 08:00:00,17.540891,78.358528,PM10,76,147,111
India,Telangana,Hyderabad,"ECIL Kapra, Hyderabad - TSPCB",03-03-2024 08:00:00,17.470431,78.566959,PM10,65,85,72
India,Telangana,Hyderabad,"ECIL Kapra, Hyderabad - TSPCB",03-03-2024 08:00:00,17.470431,78.566959,NO2,11,13,11
India,Telangana,Hyderabad,"ICRISAT Patancheru, Hyderabad - TSPCB",03-03-2024 08:00:00,17.518400,78.278777,OZONE,36,95,49
India,Telangana,Hyderabad,"Kokapet, Hyderabad - TSPCB",03-03-2024 08:00:00,17.393559,78.339194,PM10,72,90,80
India,Telangana,Hyderabad,"Kokapet, Hyderabad - TSPCB",03-03-2024 08:00:00,17.393559,78.339194,SO2,7,10,7
India,Telangana,Hyderabad,"Kompally Municipal Office, Hyderabad - TSPCB",03-03-2024 08:00:00,17.544899,78.486949,PM10,41,108,62
India,Telangana,Hyderabad,"Kompally Municipal Office, Hyderabad - TSPCB",03-03-2024 08:00:00,17.544899,78.486949,OZONE,16,88,22
India,Telangana,Hyderabad,"Nacharam_TSIIC IALA, Hyderabad - TSPCB",03-03-2024 08:00:00,17.429398,78.569354,CO,13,40,26
India,Telangana,Hyderabad,"New Malakpet, Hyderabad - TSPCB",03-03-2024 08:00:00,17.37206,78.50864,NO2,17,29,21
India,Telangana,Hyderabad,"Ramachandrapuram, Hyderabad - TSPCB",03-03-2024 08:00:00,17.528544,78.286195,OZONE,7,44,12
India,Telangana,Hyderabad,"Sanathnagar, Hyderabad - TSPCB",03-03-2024 08:00:00,17.4559458,78.4332152,NO2,20,174,43
India,Telangana,Hyderabad,"Sanathnagar, Hyderabad - TSPCB",03-03-2024 08:00:00,17.4559458,78.4332152,OZONE,8,100,15
India,Telangana,Hyderabad,"Zoo Park, Hyderabad - TSPCB",03-03-2024 08:00:00,17.349694,78.451437,PM10,46,153,93
India,Telangana,Hyderabad,"Zoo Park, Hyderabad - TSPCB",03-03-2024 08:00:00,17.349694,78.451437,NO2,23,44,31
India,Telangana,Hyderabad,"Zoo Park, Hyderabad - TSPCB",03-03-2024 08:00:00,17.349694,78.451437,SO2,2,8,5
India,Telangana,Hyderabad,"Zoo Park, Hyderabad - TSPCB",03-03-2024 08:00:00,17.349694,78.451437,OZONE,18,31,19
India,Tripura,Agartala,"Bardowali, Agartala - Tripura SPCB",03-03-2024 08:00:00,23.8175497,91.2726974,PM2.5,89,343,244
India,Tripura,Agartala,"Bardowali, Agartala - Tripura SPCB",03-03-2024 08:00:00,23.8175497,91.2726974,PM10,126,380,208
India,Tripura,Agartala,"Bardowali, Agartala - Tripura SPCB",03-03-2024 08:00:00,23.8175497,91.2726974,SO2,26,29,28
India,Uttar_Pradesh,Agra,"Manoharpur, Agra - UPPCB",03-03-2024 08:00:00,27.23711,78.01936,NO2,18,18,18
India,Uttar_Pradesh,Agra,"Manoharpur, Agra - UPPCB",03-03-2024 08:00:00,27.23711,78.01936,SO2,13,15,14
India,Uttar_Pradesh,Agra,"Manoharpur, Agra - UPPCB",03-03-2024 08:00:00,27.23711,78.01936,OZONE,NA,NA,NA
India,Uttar_Pradesh,Agra,"Rohta, Agra - UPPCB",03-03-2024 08:00:00,27.106972,78.000111,NH3,NA,NA,NA
India,Uttar_Pradesh,Agra,"Sanjay Palace, Agra - UPPCB",03-03-2024 08:00:00,27.19865833,78.00598056,PM10,17,500,55
India,Uttar_Pradesh,Agra,"Shastripuram, Agra - UPPCB",03-03-2024 08:00:00,27.19862,77.92066,PM2.5,18,47,28
India,Uttar_Pradesh,Agra,"Shastripuram, Agra - UPPCB",03-03-2024 08:00:00,27.19862,77.92066,NO2,21,29,27
India,Uttar_Pradesh,Baghpat,"Sardar Patel Inter College, Baghpat - UPPCB",03-03-2024 08:00:00,28.964949,77.278761,NO2,NA,NA,NA
India,Uttar_Pradesh,Baghpat,"Sardar Patel Inter College, Baghpat - UPPCB",03-03-2024 08:00:00,28.964949,77.278761,SO2,NA,NA,NA
India,Uttar_Pradesh,Baghpat,"Sardar Patel Inter College, Baghpat - UPPCB",03-03-2024 08:00:00,28.964949,77.278761,OZONE,NA,NA,NA
India,Uttar_Pradesh,Bareilly,"Civil Lines, Bareilly - UPPCB",03-03-2024 08:00:00,28.359581,79.414455,CO,12,41,22
India,Uttar_Pradesh,Bareilly,"Civil Lines, Bareilly - UPPCB",03-03-2024 08:00:00,28.359581,79.414455,OZONE,7,36,20
India,Uttar_Pradesh,Bareilly,"Rajendra Nagar, Bareilly - UPPCB",03-03-2024 08:00:00,28.38910936,79.42963708,NH3,1,2,1
India,Uttar_Pradesh,Firozabad,"Vibhab Nagar, Firozabad - UPPCB",03-03-2024 08:00:00,27.1594,78.3953,PM2.5,16,49,31
India,Uttar_Pradesh,Firozabad,"Vibhab Nagar, Firozabad - UPPCB",03-03-2024 08:00:00,27.1594,78.3953,NH3,2,2,2
India,Uttar_Pradesh,Ghaziabad,"Loni, Ghaziabad - UPPCB",03-03-2024 08:00:00,28.757294,77.278792,NH3,1,4,3
India,Uttar_Pradesh,Ghaziabad,"Loni, Ghaziabad - UPPCB",03-03-2024 08:00:00,28.757294,77.278792,SO2,3,19,10
India,Uttar_Pradesh,Ghaziabad,"Sanjay Nagar, Ghaziabad - UPPCB",03-03-2024 08:00:00,28.685382,77.453839,NO2,19,49,32
India,Uttar_Pradesh,Gorakhpur,"Madan Mohan Malaviya University of Technology, Gorakhpur - UPPCB",03-03-2024 08:00:00,26.730136,83.433859,SO2,26,35,29
India,Uttar_Pradesh,Gorakhpur,"Madan Mohan Malaviya University of Technology, Gorakhpur - UPPCB",03-03-2024 08:00:00,26.730136,83.433859,OZONE,7,48,10
India,Uttar_Pradesh,Greater Noida,"Knowledge Park - III, Greater Noida - UPPCB",03-03-2024 08:00:00,28.47272,77.482000,PM2.5,28,97,55
India,Uttar_Pradesh,Greater Noida,"Knowledge Park - III, Greater Noida - UPPCB",03-03-2024 08:00:00,28.47272,77.482000,CO,26,54,44
India,Uttar_Pradesh,Greater Noida,"Knowledge Park - V, Greater Noida - UPPCB",03-03-2024 08:00:00,28.557054,77.453663,PM2.5,30,78,49
India,Uttar_Pradesh,Greater Noida,"Knowledge Park - V, Greater Noida - UPPCB",03-03-2024 08:00:00,28.557054,77.453663,NO2,10,26,16
India,Uttar_Pradesh,Jhansi,"Shivaji Nagar, Jhansi - UPPCB",03-03-2024 08:00:00,25.4547,78.6039,OZONE,7,18,10
India,Uttar_Pradesh,Kanpur,"NSI Kalyanpur, Kanpur - UPPCB",03-03-2024 08:00:00,26.509954,80.249612,PM2.5,6,82,56
India,Uttar_Pradesh,Kanpur,"NSI Kalyanpur, Kanpur - UPPCB",03-03-2024 08:00:00,26.509954,80.249612,NH3,2,2,2
India,Uttar_Pradesh,Kanpur,"Nehru Nagar, Kanpur - UPPCB",03-03-2024 08:00:00,26.4703136,80.3229863,PM10,34,70,52
India,Uttar_Pradesh,Kanpur,"Nehru Nagar, Kanpur - UPPCB",03-03-2024 08:00:00,26.4703136,80.3229863,SO2,5,15,9
India,Uttar_Pradesh,Kanpur,"Nehru Nagar, Kanpur - UPPCB",03-03-2024 08:00:00,26.4703136,80.3229863,CO,28,82,50
India,Uttar_Pradesh,Kanpur,"Nehru Nagar, Kanpur - UPPCB",03-03-2024 08:00:00,26.4703136,80.3229863,OZONE,31,61,55
India,Uttar_Pradesh,Lucknow,"Gomti Nagar, Lucknow - UPPCB",03-03-2024 08:00:00,26.868120,81.005119,CO,32,42,41
India,Uttar_Pradesh,Lucknow,"Gomti Nagar, Lucknow - UPPCB",03-03-2024 08:00:00,26.868120,81.005119,OZONE,51,80,76
India,Uttar_Pradesh,Lucknow,"Kendriya Vidyalaya, Lucknow - CPCB",03-03-2024 08:00:00,26.906111,80.948222,NO2,7,25,15
India,Uttar_Pradesh,Lucknow,"Kendriya Vidyalaya, Lucknow - CPCB",03-03-2024 08:00:00,26.906111,80.948222,NH3,3,18,12
India,Uttar_Pradesh,Lucknow,"Kendriya Vidyalaya, Lucknow - CPCB",03-03-2024 08:00:00,26.906111,80.948222,SO2,6,12,8
India,Uttar_Pradesh,Lucknow,"Kendriya Vidyalaya, Lucknow - CPCB",03-03-2024 08:00:00,26.906111,80.948222,OZONE,5,62,24
India,Uttar_Pradesh,Lucknow,"Kukrail Picnic Spot-1, Lucknow - UPPCB",03-03-2024 08:00:00,26.90723,80.98579,NO2,8,8,8
India,Uttar_Pradesh,Lucknow,"Lalbagh, Lucknow - CPCB",03-03-2024 08:00:00,26.8458805,80.9365541,PM2.5,38,103,78
India,Uttar_Pradesh,Lucknow,"Lalbagh, Lucknow - CPCB",03-03-2024 08:00:00,26.8458805,80.9365541,NH3,11,12,11
India,Uttar_Pradesh,Lucknow,"Lalbagh, Lucknow - CPCB",03-03-2024 08:00:00,26.8458805,80.9365541,SO2,1,12,6
India,Uttar_Pradesh,Lucknow,"Talkatora District Industries Center, Lucknow - CPCB",03-03-2024 08:00:00,26.83399722,80.8917361,PM2.5,53,171,93
India,Uttar_Pradesh,Lucknow,"Talkatora District Industries Center, Lucknow - CPCB",03-03-2024 08:00:00,26.83399722,80.8917361,NH3,6,22,14
India,Uttar_Pradesh,Meerut,"Ganga Nagar, Meerut - UPPCB",03-03-2024 08:00:00,28.999264,77.7590354,NH3,6,11,8
India,Uttar_Pradesh,Meerut,"Pallavpuram Phase 2, Meerut - UPPCB",03-03-2024 08:00:00,29.063510,77.709723,NO2,3,57,17
India,Uttar_Pradesh,Meerut,"Pallavpuram Phase 2, Meerut - UPPCB",03-03-2024 08:00:00,29.063510,77.709723,CO,32,57,37
India,Uttar_Pradesh,Moradabad,"Buddhi Vihar, Moradabad - UPPCB",03-03-2024 08:00:00,28.83526,78.74460,NO2,23,24,23
India,Uttar_Pradesh,Moradabad,"Eco Herbal Park, Moradabad - UPPCB",03-03-2024 08:00:00,28.840739,78.697531,OZONE,5,15,9
India,Uttar_Pradesh,Moradabad,"Kashiram Nagar, Moradabad - UPPCB",03-03-2024 08:00:00,28.849399,78.742362,PM2.5,12,66,28
India,Uttar_Pradesh,Moradabad,"Kashiram Nagar, Moradabad - UPPCB",03-03-2024 08:00:00,28.849399,78.742362,PM10,26,77,39
India,Uttar_Pradesh,Moradabad,"Kashiram Nagar, Moradabad - UPPCB",03-03-2024 08:00:00,28.849399,78.742362,NO2,11,40,21
India,Uttar_Pradesh,Moradabad,"Transport Nagar, Moradabad - UPPCB",03-03-2024 08:00:00,28.802625,78.753728,PM2.5,10,40,27
India,Uttar_Pradesh,Muzaffarnagar,"New Mandi, Muzaffarnagar - UPPCB",03-03-2024 08:00:00,29.4723508,77.7194031,OZONE,NA,NA,NA
India,Uttar_Pradesh,Noida,"Sector - 62, Noida - IMD",03-03-2024 08:00:00,28.6245479,77.3577104,PM10,NA,NA,NA
India,Uttar_Pradesh,Noida,"Sector - 62, Noida - IMD",03-03-2024 08:00:00,28.6245479,77.3577104,NO2,NA,NA,NA
India,Uttar_Pradesh,Noida,"Sector-1, Noida - UPPCB",03-03-2024 08:00:00,28.5898,77.3101,OZONE,3,67,21
India,Uttar_Pradesh,Noida,"Sector-116, Noida - UPPCB",03-03-2024 08:00:00,28.569230,77.393848,NO2,7,19,13
India,Uttar_Pradesh,Prayagraj,"Jhunsi, Prayagraj - UPPCB",03-03-2024 08:00:00,25.425602,81.917152,NO2,6,6,6
India,Uttar_Pradesh,Prayagraj,"Motilal Nehru NIT, Prayagraj - UPPCB",03-03-2024 08:00:00,25.494,81.863,OZONE,NA,NA,NA
India,Uttar_Pradesh,Prayagraj,"Nagar Nigam, Prayagraj - UPPCB",03-03-2024 08:00:00,25.44919916 ,81.82735986 ,NH3,6,16,9
India,Uttar_Pradesh,Prayagraj,"Nagar Nigam, Prayagraj - UPPCB",03-03-2024 08:00:00,25.44919916 ,81.82735986 ,OZONE,10,11,11
India,Uttar_Pradesh,Varanasi,"Bhelupur, Varanasi - UPPCB",03-03-2024 08:00:00,25.301778,82.996789,NO2,8,8,8
India,Uttar_Pradesh,Varanasi,"Bhelupur, Varanasi - UPPCB",03-03-2024 08:00:00,25.301778,82.996789,OZONE,NA,NA,NA
India,Uttar_Pradesh,Varanasi,"IESD Banaras Hindu University, Varanasi - UPPCB",03-03-2024 08:00:00,25.262326,82.995408,PM2.5,6,24,12
India,Uttar_Pradesh,Varanasi,"IESD Banaras Hindu University, Varanasi - UPPCB",03-03-2024 08:00:00,25.262326,82.995408,NH3,1,4,2
India,Uttar_Pradesh,Varanasi,"IESD Banaras Hindu University, Varanasi - UPPCB",03-03-2024 08:00:00,25.262326,82.995408,CO,15,27,17
India,Uttar_Pradesh,Varanasi,"IESD Banaras Hindu University, Varanasi - UPPCB",03-03-2024 08:00:00,25.262326,82.995408,OZONE,NA,NA,NA
India,Uttar_Pradesh,Varanasi,"Maldahiya, Varanasi - UPPCB",03-03-2024 08:00:00,25.32393,82.99687,PM10,11,45,25
India,Uttar_Pradesh,Varanasi,"Maldahiya, Varanasi - UPPCB",03-03-2024 08:00:00,25.32393,82.99687,SO2,44,53,48
India,Uttar_Pradesh,Varanasi,"Maldahiya, Varanasi - UPPCB",03-03-2024 08:00:00,25.32393,82.99687,OZONE,1,6,1
India,Uttarakhand,Dehradun,"Doon University, Dehradun - UKPCB",03-03-2024 08:00:00,30.269444,78.044167,PM2.5,1,33,18
India,Uttarakhand,Dehradun,"Doon University, Dehradun - UKPCB",03-03-2024 08:00:00,30.269444,78.044167,CO,20,32,23
India,Uttarakhand,Rishikesh,"Shivaji Nagar, Rishikesh - UKPCB",03-03-2024 08:00:00,30.075911,78.2859547,OZONE,19,47,26
India,West_Bengal,Barrackpore,"SVSPA Campus, Barrackpore - WBPCB",03-03-2024 08:00:00,22.7605581,88.3617589,CO,49,103,77
India,West_Bengal,Haldia,"Priyambada Housing Estate, Haldia - WBPCB",03-03-2024 08:00:00,22.06047,88.109737,PM2.5,48,82,60
India,West_Bengal,Haldia,"Priyambada Housing Estate, Haldia - WBPCB",03-03-2024 08:00:00,22.06047,88.109737,SO2,6,22,12
India,West_Bengal,Howrah,"Belur Math, Howrah - WBPCB",03-03-2024 08:00:00,22.629801,88.352017,PM10,105,179,132
India,West_Bengal,Howrah,"Ghusuri, Howrah - WBPCB",03-03-2024 08:00:00,22.611968,88.347422,PM2.5,167,313,245
India,West_Bengal,Howrah,"Padmapukur, Howrah - WBPCB",03-03-2024 08:00:00,22.5687319,88.2797276,NO2,22,81,39
India,West_Bengal,Kolkata,"Bidhannagar, Kolkata - WBPCB",03-03-2024 08:00:00,22.58157048,88.41002457,NO2,15,42,24
India,West_Bengal,Kolkata,"Bidhannagar, Kolkata - WBPCB",03-03-2024 08:00:00,22.58157048,88.41002457,NH3,9,11,10
India,West_Bengal,Kolkata,"Fort William, Kolkata - WBPCB",03-03-2024 08:00:00,22.556640,88.342674,PM2.5,117,271,192
India,West_Bengal,Kolkata,"Jadavpur, Kolkata - WBPCB",03-03-2024 08:00:00,22.49929,88.36917,PM2.5,71,206,131
India,West_Bengal,Kolkata,"Jadavpur, Kolkata - WBPCB",03-03-2024 08:00:00,22.49929,88.36917,SO2,5,20,10
India,West_Bengal,Kolkata,"Rabindra Bharati University, Kolkata - WBPCB",03-03-2024 08:00:00,22.627847,88.380669,PM2.5,68,168,98
India,West_Bengal,Kolkata,"Rabindra Sarobar, Kolkata - WBPCB",03-03-2024 08:00:00,22.51106,88.35142,OZONE,3,90,9
India,West_Bengal,Siliguri,"Ward-32 Bapupara, Siliguri - WBPCB",03-03-2024 08:00:00,26.6879226,88.4152495,PM10,102,172,130
India,Andhra_Pradesh,Amaravati,"Secretariat, Amaravati - APPCB",03-03-2024 08:00:00,16.5150833,80.5181667,SO2,12,18,14
India,Andhra_Pradesh,Anantapur,"Gulzarpet, Anantapur - APPCB",03-03-2024 08:00:00,14.675886,77.593027,NO2,17,104,36
India,Andhra_Pradesh,Chittoor,"Gangineni Cheruvu, Chittoor - APPCB",03-03-2024 08:00:00,13.204880,79.097889,NH3,1,3,2
India,Andhra_Pradesh,Chittoor,"Gangineni Cheruvu, Chittoor - APPCB",03-03-2024 08:00:00,13.204880,79.097889,CO,14,75,28
India,Andhra_Pradesh,Chittoor,"Gangineni Cheruvu, Chittoor - APPCB",03-03-2024 08:00:00,13.204880,79.097889,OZONE,18,142,32
India,Andhra_Pradesh,Kadapa,"Yerramukkapalli, Kadapa - APPCB",03-03-2024 08:00:00,14.465052,78.824187,PM2.5,20,362,70
India,Andhra_Pradesh,Rajamahendravaram,"Anand Kala Kshetram, Rajamahendravaram - APPCB",03-03-2024 08:00:00,16.9872867,81.7363176,PM10,70,110,85
India,Andhra_Pradesh,Tirupati,"Tirumala, Tirupati - APPCB",03-03-2024 08:00:00,13.67,79.35,PM10,40,85,64
India,Andhra_Pradesh,Tirupati,"Tirumala, Tirupati - APPCB",03-03-2024 08:00:00,13.67,79.35,OZONE,17,47,30
India,Andhra_Pradesh,Tirupati,"Vaikuntapuram, Tirupati - APPCB",03-03-2024 08:00:00,13.615387,79.409230,CO,8,16,12
India,Andhra_Pradesh,Tirupati,"Vaikuntapuram, Tirupati - APPCB",03-03-2024 08:00:00,13.615387,79.409230,OZONE,4,45,16
India,Andhra_Pradesh,Vijayawada,"HB Colony, Vijayawada - APPCB",03-03-2024 08:00:00,16.536107,80.594233,CO,24,34,30
India,Andhra_Pradesh,Vijayawada,"Kanuru, Vijayawada - APPCB",03-03-2024 08:00:00,16.486692,80.699436,CO,48,48,48
India,Andhra_Pradesh,Vijayawada,"Rajiv Gandhi Park, Vijayawada - APPCB",03-03-2024 08:00:00,16.509717,80.612222,SO2,6,11,8
India,Andhra_Pradesh,Vijayawada,"Rajiv Nagar, Vijayawada - APPCB",03-03-2024 08:00:00,16.554731,80.649110,CO,48,48,48
India,Assam,Byrnihat,"Central Academy for SFS, Byrnihat - PCBA",03-03-2024 08:00:00,26.071318,91.87488,PM2.5,100,465,283
India,Assam,Byrnihat,"Central Academy for SFS, Byrnihat - PCBA",03-03-2024 08:00:00,26.071318,91.87488,PM10,90,500,277
India,Assam,Byrnihat,"Central Academy for SFS, Byrnihat - PCBA",03-03-2024 08:00:00,26.071318,91.87488,NH3,2,8,6
India,Assam,Guwahati,"IITG, Guwahati - PCBA",03-03-2024 08:00:00,26.2028636,91.70046436,PM10,109,243,165
India,Assam,Guwahati,"Pan Bazaar, Guwahati - PCBA",03-03-2024 08:00:00,26.187500,91.744194,NO2,3,13,8
India,Assam,Guwahati,"Pan Bazaar, Guwahati - PCBA",03-03-2024 08:00:00,26.187500,91.744194,NH3,5,7,6
India,Assam,Guwahati,"Pan Bazaar, Guwahati - PCBA",03-03-2024 08:00:00,26.187500,91.744194,SO2,64,98,78
India,Assam,Guwahati,"Railway Colony, Guwahati - PCBA",03-03-2024 08:00:00,26.181742,91.78063,NO2,3,3,3
India,Assam,Guwahati,"Railway Colony, Guwahati - PCBA",03-03-2024 08:00:00,26.181742,91.78063,SO2,7,13,10
India,Assam,Nagaon,"Christianpatty, Nagaon - PCBA",03-03-2024 08:00:00,26.349082,92.68449,SO2,1,30,16
India,Assam,Nalbari,"Bata Chowk, Nalbari - PCBA",03-03-2024 08:00:00,26.446912,91.439057,NO2,18,41,26
India,Assam,Silchar,"Tarapur, Silchar - PCBA",03-03-2024 08:00:00,24.82827,92.79525,PM10,48,49,48
India,Assam,Silchar,"Tarapur, Silchar - PCBA",03-03-2024 08:00:00,24.82827,92.79525,NH3,1,1,1
India,Assam,Sivasagar,"Girls College, Sivasagar - PCBA",03-03-2024 08:00:00,26.987634,94.636574,PM2.5,36,64,48
India,Bihar,Araria,"Kharahiya Basti, Araria - BSPCB",03-03-2024 08:00:00,26.146529,87.454184,NO2,6,8,7
India,Bihar,Araria,"Kharahiya Basti, Araria - BSPCB",03-03-2024 08:00:00,26.146529,87.454184,CO,20,30,28
India,Bihar,Bettiah,"Kamalnath Nagar, Bettiah - BSPCB",03-03-2024 08:00:00,26.80365,84.51954,NH3,3,6,3
India,Bihar,Bhagalpur,"DM Office_Kachari Chowk, Bhagalpur - BSPCB",03-03-2024 08:00:00,25.251013,86.989001,NO2,28,85,48
India,Bihar,Bhagalpur,"DM Office_Kachari Chowk, Bhagalpur - BSPCB",03-03-2024 08:00:00,25.251013,86.989001,CO,26,70,35
India,Bihar,Bihar Sharif,"D M Colony, Bihar Sharif - BSPCB",03-03-2024 08:00:00,25.204762,85.514960,PM10,NA,NA,NA
India,Bihar,Bihar Sharif,"D M Colony, Bihar Sharif - BSPCB",03-03-2024 08:00:00,25.204762,85.514960,SO2,1,16,8
India,Bihar,Bihar Sharif,"D M Colony, Bihar Sharif - BSPCB",03-03-2024 08:00:00,25.204762,85.514960,OZONE,2,18,18
India,Bihar,Chhapra,"Darshan Nagar, Chhapra - BSPCB",03-03-2024 08:00:00,25.7808257,84.7446768,PM10,59,225,128
India,Bihar,Gaya,"Collectorate, Gaya - BSPCB",03-03-2024 08:00:00,24.7955,84.9994,SO2,4,23,12
India,Bihar,Gaya,"Collectorate, Gaya - BSPCB",03-03-2024 08:00:00,24.7955,84.9994,CO,3,121,24
India,Bihar,Gaya,"Kareemganj, Gaya - BSPCB",03-03-2024 08:00:00,24.792403,84.992416,NH3,1,5,3
India,Bihar,Hajipur,"Industrial Area, Hajipur - BSPCB",03-03-2024 08:00:00,25.697189,85.245900,PM10,78,190,135
India,Bihar,Hajipur,"Industrial Area, Hajipur - BSPCB",03-03-2024 08:00:00,25.697189,85.245900,NO2,2,80,15
India,Bihar,Hajipur,"Industrial Area, Hajipur - BSPCB",03-03-2024 08:00:00,25.697189,85.245900,NH3,9,16,15
India,Bihar,Katihar,"Mirchaibari, Katihar - BSPCB",03-03-2024 08:00:00,25.560083,87.553265,PM2.5,32,309,172
India,Bihar,Kishanganj,"SDM Office_Khagra, Kishanganj - BSPCB",03-03-2024 08:00:00,26.0881305,87.93840336,PM10,119,284,159
India,Bihar,Kishanganj,"SDM Office_Khagra, Kishanganj - BSPCB",03-03-2024 08:00:00,26.0881305,87.93840336,SO2,39,56,44
India,Bihar,Manguraha,"Forest Rest House, Manguraha - BSPCB",03-03-2024 08:00:00,27.308328,84.531742,OZONE,8,76,14
India,Bihar,Munger,"Town Hall, Munger - BSPCB",03-03-2024 08:00:00,25.376776,86.471523,SO2,23,44,37
India,Bihar,Muzaffarpur,"Buddha Colony, Muzaffarpur - BSPCB",03-03-2024 08:00:00,26.11442,85.39813,NH3,10,22,16
India,Bihar,Muzaffarpur,"Buddha Colony, Muzaffarpur - BSPCB",03-03-2024 08:00:00,26.11442,85.39813,OZONE,22,70,38
India,Bihar,Muzaffarpur,"MIT-Daudpur Kothi, Muzaffarpur - BSPCB",03-03-2024 08:00:00,26.1403345,85.3650192,OZONE,10,81,15
India,Bihar,Muzaffarpur,"Muzaffarpur Collectorate, Muzaffarpur - BSPCB",03-03-2024 08:00:00,26.1209,85.3647,OZONE,16,95,32
India,Bihar,Patna,"DRM Office Danapur, Patna - BSPCB",03-03-2024 08:00:00,25.586562,85.043586,NO2,NA,NA,NA
India,Bihar,Patna,"DRM Office Danapur, Patna - BSPCB",03-03-2024 08:00:00,25.586562,85.043586,NH3,NA,NA,NA
India,Bihar,Patna,"DRM Office Danapur, Patna - BSPCB",03-03-2024 08:00:00,25.586562,85.043586,CO,NA,NA,NA
India,Bihar,Patna,"IGSC Planetarium Complex, Patna - BSPCB",03-03-2024 08:00:00,25.610369,85.132568,NO2,14,14,14
India,Bihar,Patna,"Rajbansi Nagar, Patna - BSPCB",03-03-2024 08:00:00,25.599486,85.113666,PM10,77,410,155
India,Bihar,Rajgir,"Dangi Tola, Rajgir - BSPCB",03-03-2024 08:00:00,25.03280,85.41948,CO,8,11,10
India,Bihar,Rajgir,"Dangi Tola, Rajgir - BSPCB",03-03-2024 08:00:00,25.03280,85.41948,OZONE,21,27,22
India,Bihar,Saharsa,"Police Line, Saharsa - BSPCB",03-03-2024 08:00:00,25.892357,86.590325,CO,12,48,22
India,Bihar,Saharsa,"Police Line, Saharsa - BSPCB",03-03-2024 08:00:00,25.892357,86.590325,OZONE,23,69,28
India,Bihar,Samastipur,"DM Office_Kasipur, Samastipur - BSPCB",03-03-2024 08:00:00,25.859655,85.77944,PM2.5,32,280,98
India,Bihar,Sasaram,"Dada Peer, Sasaram - BSPCB",03-03-2024 08:00:00,24.952822,84.002396,NH3,8,14,10
India,Bihar,Sasaram,"Dada Peer, Sasaram - BSPCB",03-03-2024 08:00:00,24.952822,84.002396,OZONE,6,89,22
India,Bihar,Siwan,"Chitragupta Nagar, Siwan - BSPCB",03-03-2024 08:00:00,26.2271665,84.3570427,SO2,24,34,32
India,Chandigarh,Chandigarh,"Sector 22, Chandigarh - CPCC",03-03-2024 08:00:00,30.735567,76.775714,NO2,6,29,16
India,Chandigarh,Chandigarh,"Sector-25, Chandigarh - CPCC",03-03-2024 08:00:00,30.751462,76.762879,PM10,61,87,74
India,Chandigarh,Chandigarh,"Sector-25, Chandigarh - CPCC",03-03-2024 08:00:00,30.751462,76.762879,NH3,17,20,19
India,Chhattisgarh,Bhilai,"32Bungalows, Bhilai - CECB",03-03-2024 08:00:00,21.194815,81.314770,NO2,31,38,35
India,Chhattisgarh,Bhilai,"Civic Center, Bhilai - Bhilai Steel Plant",03-03-2024 08:00:00,21.185571,81.343175,PM2.5,21,37,32
India,Chhattisgarh,Bhilai,"Civic Center, Bhilai - Bhilai Steel Plant",03-03-2024 08:00:00,21.185571,81.343175,NH3,2,2,2
India,Chhattisgarh,Bhilai,"Hathkhoj, Bhilai - CECB",03-03-2024 08:00:00,21.224231,81.408350,PM10,83,135,103
India,Chhattisgarh,Bhilai,"Hathkhoj, Bhilai - CECB",03-03-2024 08:00:00,21.224231,81.408350,SO2,14,46,22
India,Chhattisgarh,Bilaspur,"Mangala, Bilaspur - NTPC",03-03-2024 08:00:00,22.08815,82.13737,NO2,16,20,19
India,Chhattisgarh,Chhal,"Nawapara SECL Colony, Chhal - CECB",03-03-2024 08:00:00,22.118125,83.140608,PM10,51,124,81
India,Chhattisgarh,Chhal,"Nawapara SECL Colony, Chhal - CECB",03-03-2024 08:00:00,22.118125,83.140608,CO,24,46,28
India,Chhattisgarh,Korba,"Rampur, Korba - CECB",03-03-2024 08:00:00,22.368195,82.746431,PM2.5,26,43,32
India,Chhattisgarh,Korba,"Rampur, Korba - CECB",03-03-2024 08:00:00,22.368195,82.746431,NO2,23,84,41
India,Chhattisgarh,Korba,"Urja Nagar, Korba - CECB",03-03-2024 08:00:00,22.348441,82.549611,PM2.5,14,56,30
India,Chhattisgarh,Korba,"Urja Nagar, Korba - CECB",03-03-2024 08:00:00,22.348441,82.549611,CO,18,38,30
India,Chhattisgarh,Korba,"Urja Nagar, Korba - CECB",03-03-2024 08:00:00,22.348441,82.549611,OZONE,1,2,1
India,Chhattisgarh,Kunjemura,"OP Jindal School, Kunjemura - CECB",03-03-2024 08:00:00,22.126650,83.483212,SO2,5,53,17
India,Chhattisgarh,Kunjemura,"OP Jindal School, Kunjemura - CECB",03-03-2024 08:00:00,22.126650,83.483212,CO,26,47,36
India,Chhattisgarh,Raipur,"AIIMS, Raipur - CECB",03-03-2024 08:00:00,21.258815,81.578979,PM2.5,NA,NA,NA
India,Chhattisgarh,Raipur,"AIIMS, Raipur - CECB",03-03-2024 08:00:00,21.258815,81.578979,NO2,NA,NA,NA
India,Chhattisgarh,Raipur,"AIIMS, Raipur - CECB",03-03-2024 08:00:00,21.258815,81.578979,SO2,NA,NA,NA
India,Chhattisgarh,Raipur,"Bhatagaon New ISBT, Raipur - CECB",03-03-2024 08:00:00,21.219665,81.630094,OZONE,3,8,3
India,Chhattisgarh,Raipur,"Krishak Nagar, Raipur - CECB",03-03-2024 08:00:00,21.237755,81.705301,PM2.5,NA,NA,NA
India,Chhattisgarh,Raipur,"Krishak Nagar, Raipur - CECB",03-03-2024 08:00:00,21.237755,81.705301,NH3,NA,NA,NA
India,Chhattisgarh,Raipur,"Krishak Nagar, Raipur - CECB",03-03-2024 08:00:00,21.237755,81.705301,CO,NA,NA,NA
India,Chhattisgarh,Raipur,"Siltara Phase-II, Raipur - CECB",03-03-2024 08:00:00,21.371751,81.664929,SO2,8,36,13
India,Chhattisgarh,Tumidih,"OP Jindal Industrial Park, Tumidih - CECB",03-03-2024 08:00:00,22.06631475,83.33820077,PM10,34,201,75
India,Chhattisgarh,Tumidih,"OP Jindal Industrial Park, Tumidih - CECB",03-03-2024 08:00:00,22.06631475,83.33820077,NO2,7,21,16
India,Chhattisgarh,Tumidih,"OP Jindal Industrial Park, Tumidih - CECB",03-03-2024 08:00:00,22.06631475,83.33820077,SO2,5,12,7
India,Chhattisgarh,Tumidih,"OP Jindal Industrial Park, Tumidih - CECB",03-03-2024 08:00:00,22.06631475,83.33820077,CO,20,58,30
India,Chhattisgarh,Tumidih,"OP Jindal Industrial Park, Tumidih - CECB",03-03-2024 08:00:00,22.06631475,83.33820077,OZONE,18,84,22
India,Delhi,Delhi,"Anand Vihar, Delhi - DPCC",03-03-2024 08:00:00,28.647622,77.3158090,CO,56,98,85
India,Delhi,Delhi,"Anand Vihar, Delhi - DPCC",03-03-2024 08:00:00,28.647622,77.3158090,OZONE,12,35,13
India,Delhi,Delhi,"Ashok Vihar, Delhi - DPCC",03-03-2024 08:00:00,28.695381,77.181665,NO2,14,36,21
India,Delhi,Delhi,"Ashok Vihar, Delhi - DPCC",03-03-2024 08:00:00,28.695381,77.181665,NH3,11,14,12
India,Delhi,Delhi,"Ashok Vihar, Delhi - DPCC",03-03-2024 08:00:00,28.695381,77.181665,CO,13,26,19
India,Delhi,Delhi,"Ashok Vihar, Delhi - DPCC",03-03-2024 08:00:00,28.695381,77.181665,OZONE,5,9,5
India,Delhi,Delhi,"Bawana, Delhi - DPCC",03-03-2024 08:00:00,28.776200,77.051074,CO,16,28,21
India,Delhi,Delhi,"Burari Crossing, Delhi - IMD",03-03-2024 08:00:00,28.7256504,77.2011573,PM2.5,NA,NA,NA
India,Delhi,Delhi,"CRRI Mathura Road, Delhi - IMD",03-03-2024 08:00:00,28.5512005,77.2735737,NO2,NA,NA,NA
India,Delhi,Delhi,"CRRI Mathura Road, Delhi - IMD",03-03-2024 08:00:00,28.5512005,77.2735737,OZONE,NA,NA,NA
India,Delhi,Delhi,"Chandni Chowk, Delhi - IITM",03-03-2024 08:00:00,28.656756,77.227234,CO,95,106,105
India,Delhi,Delhi,"Dr. Karni Singh Shooting Range, Delhi - DPCC",03-03-2024 08:00:00,28.498571,77.264840,PM10,31,136,65
India,Delhi,Delhi,"Dr. Karni Singh Shooting Range, Delhi - DPCC",03-03-2024 08:00:00,28.498571,77.264840,SO2,5,13,8
India,Delhi,Delhi,"Dwarka-Sector 8, Delhi - DPCC ",03-03-2024 08:00:00,28.5710274,77.0719006,PM2.5,28,81,53
India,Delhi,Delhi,"Dwarka-Sector 8, Delhi - DPCC ",03-03-2024 08:00:00,28.5710274,77.0719006,NO2,54,78,65
India,Delhi,Delhi,"Dwarka-Sector 8, Delhi - DPCC ",03-03-2024 08:00:00,28.5710274,77.0719006,OZONE,5,47,10
India,Delhi,Delhi,"IGI Airport (T3), Delhi - IMD",03-03-2024 08:00:00,28.5627763,77.1180053,CO,NA,NA,NA
India,Delhi,Delhi,"IHBAS, Dilshad Garden, Delhi - CPCB",03-03-2024 08:00:00,28.6811736,77.3025234,NH3,6,9,8
India,Delhi,Delhi,"IHBAS, Dilshad Garden, Delhi - CPCB",03-03-2024 08:00:00,28.6811736,77.3025234,SO2,15,28,21
India,Delhi,Delhi,"IHBAS, Dilshad Garden, Delhi - CPCB",03-03-2024 08:00:00,28.6811736,77.3025234,CO,48,82,78
India,Delhi,Delhi,"Jahangirpuri, Delhi - DPCC",03-03-2024 08:00:00,28.732820,77.170633,OZONE,4,7,5
India,Delhi,Delhi,"Jawaharlal Nehru Stadium, Delhi - DPCC",03-03-2024 08:00:00,28.580280,77.233829,PM2.5,21,60,39
India,Delhi,Delhi,"Lodhi Road, Delhi - IITM",03-03-2024 08:00:00,28.588333,77.221667,PM2.5,29,500,96
India,Delhi,Delhi,"Lodhi Road, Delhi - IITM",03-03-2024 08:00:00,28.588333,77.221667,OZONE,15,16,15
India,Delhi,Delhi,"Lodhi Road, Delhi - IMD",03-03-2024 08:00:00,28.5918245,77.2273074,CO,NA,NA,NA
India,Delhi,Delhi,"Lodhi Road, Delhi - IMD",03-03-2024 08:00:00,28.5918245,77.2273074,OZONE,NA,NA,NA
India,Delhi,Delhi,"Major Dhyan Chand National Stadium, Delhi - DPCC",03-03-2024 08:00:00,28.611281,77.237738,OZONE,3,73,17
India,Delhi,Delhi,"Mandir Marg, Delhi - DPCC",03-03-2024 08:00:00,28.636429,77.201067,CO,56,66,62
India,Delhi,Delhi,"Mandir Marg, Delhi - DPCC",03-03-2024 08:00:00,28.636429,77.201067,OZONE,9,18,10
India,Delhi,Delhi,"Najafgarh, Delhi - DPCC",03-03-2024 08:00:00,28.570173,76.933762,PM2.5,22,95,46
India,Delhi,Delhi,"Narela, Delhi - DPCC",03-03-2024 08:00:00,28.822836,77.101981,OZONE,19,102,31
India,Delhi,Delhi,"Nehru Nagar, Delhi - DPCC",03-03-2024 08:00:00,28.567890,77.250515,OZONE,2,88,17
India,Delhi,Delhi,"Okhla Phase-2, Delhi - DPCC",03-03-2024 08:00:00,28.530785,77.271255,PM10,47,145,81
India,Delhi,Delhi,"Okhla Phase-2, Delhi - DPCC",03-03-2024 08:00:00,28.530785,77.271255,NO2,27,54,38
India,Delhi,Delhi,"Patparganj, Delhi - DPCC",03-03-2024 08:00:00,28.623763,77.287209,NH3,6,14,9
India,Delhi,Delhi,"Patparganj, Delhi - DPCC",03-03-2024 08:00:00,28.623763,77.287209,OZONE,4,53,20
India,Delhi,Delhi,"Punjabi Bagh, Delhi - DPCC",03-03-2024 08:00:00,28.674045,77.131023,NO2,NA,NA,NA
India,Delhi,Delhi,"Pusa, Delhi - DPCC",03-03-2024 08:00:00,28.639652,77.146275,NO2,22,91,39
India,Delhi,Delhi,"Pusa, Delhi - DPCC",03-03-2024 08:00:00,28.639652,77.146275,SO2,6,14,9
India,Delhi,Delhi,"R K Puram, Delhi - DPCC",03-03-2024 08:00:00,28.563262,77.186937,PM10,56,264,89
India,Delhi,Delhi,"R K Puram, Delhi - DPCC",03-03-2024 08:00:00,28.563262,77.186937,NO2,3,29,15
India,Delhi,Delhi,"R K Puram, Delhi - DPCC",03-03-2024 08:00:00,28.563262,77.186937,NH3,1,4,2
India,Delhi,Delhi,"R K Puram, Delhi - DPCC",03-03-2024 08:00:00,28.563262,77.186937,SO2,17,46,21
India,Delhi,Delhi,"Rohini, Delhi - DPCC",03-03-2024 08:00:00,28.732528,77.119920,PM10,47,286,122
India,Delhi,Delhi,"Rohini, Delhi - DPCC",03-03-2024 08:00:00,28.732528,77.119920,CO,12,33,23
India,Delhi,Delhi,"Shadipur, Delhi - CPCB",03-03-2024 08:00:00,28.6514781,77.1473105,SO2,9,17,13
India,Delhi,Delhi,"Shadipur, Delhi - CPCB",03-03-2024 08:00:00,28.6514781,77.1473105,OZONE,9,43,22
India,Delhi,Delhi,"Sirifort, Delhi - CPCB",03-03-2024 08:00:00,28.5504249,77.2159377,PM10,43,158,72
India,Delhi,Delhi,"Sonia Vihar, Delhi - DPCC",03-03-2024 08:00:00,28.710508,77.249485,PM2.5,32,73,56
India,Delhi,Delhi,"Sonia Vihar, Delhi - DPCC",03-03-2024 08:00:00,28.710508,77.249485,NO2,27,52,37
India,Delhi,Delhi,"Sonia Vihar, Delhi - DPCC",03-03-2024 08:00:00,28.710508,77.249485,SO2,6,14,10
India,Delhi,Delhi,"Sonia Vihar, Delhi - DPCC",03-03-2024 08:00:00,28.710508,77.249485,CO,48,72,57
India,Delhi,Delhi,"Sri Aurobindo Marg, Delhi - DPCC",03-03-2024 08:00:00,28.531346,77.190156,SO2,5,18,11
India,Delhi,Delhi,"Wazirpur, Delhi - DPCC",03-03-2024 08:00:00,28.699793,77.165453,CO,56,80,62
India,Delhi,Delhi,"Wazirpur, Delhi - DPCC",03-03-2024 08:00:00,28.699793,77.165453,OZONE,16,38,19
India,Gujarat,Ahmedabad,"Chandkheda, Ahmedabad - IITM",03-03-2024 08:00:00,23.107969,72.574648,PM2.5,NA,NA,NA
India,Gujarat,Ahmedabad,"Chandkheda, Ahmedabad - IITM",03-03-2024 08:00:00,23.107969,72.574648,SO2,NA,NA,NA
India,Gujarat,Ahmedabad,"Gyaspur, Ahmedabad - IITM",03-03-2024 08:00:00,22.977134,72.553024,PM2.5,26,224,66
India,Gujarat,Ahmedabad,"Maninagar, Ahmedabad - GPCB",03-03-2024 08:00:00,23.002657,72.591912,NO2,10,37,31
India,Gujarat,Ahmedabad,"Maninagar, Ahmedabad - GPCB",03-03-2024 08:00:00,23.002657,72.591912,SO2,1,59,29
India,Gujarat,Ahmedabad,"Raikhad, Ahmedabad - IITM",03-03-2024 08:00:00,23.020509,72.579261,PM10,25,111,69
India,Gujarat,Ahmedabad,"Raikhad, Ahmedabad - IITM",03-03-2024 08:00:00,23.020509,72.579261,SO2,3,6,5
India,Gujarat,Ahmedabad,"Raikhad, Ahmedabad - IITM",03-03-2024 08:00:00,23.020509,72.579261,OZONE,6,29,23
India,Gujarat,Ahmedabad,"Rakhial, Ahmedabad - IITM",03-03-2024 08:00:00,23.016834,72.625775,SO2,3,24,10
India,Gujarat,Ahmedabad,"SAC ISRO Bopal, Ahmedabad - IITM",03-03-2024 08:00:00,23.041137,72.456691,NH3,3,4,3
India,Gujarat,Ahmedabad,"SAC ISRO Bopal, Ahmedabad - IITM",03-03-2024 08:00:00,23.041137,72.456691,SO2,8,9,9
India,Gujarat,Ahmedabad,"SAC ISRO Satellite, Ahmedabad - IITM",03-03-2024 08:00:00,23.023389,72.515201,OZONE,10,29,26
India,Gujarat,Ahmedabad,"SVPI Airport Hansol, Ahmedabad - IITM",03-03-2024 08:00:00,23.076793,72.627874,PM2.5,58,219,148
India,Gujarat,Ahmedabad,"Sardar Vallabhbhai Patel Stadium, Ahmedabad - IITM",03-03-2024 08:00:00,23.043070,72.562968,PM10,33,218,91
India,Gujarat,Ahmedabad,"Sardar Vallabhbhai Patel Stadium, Ahmedabad - IITM",03-03-2024 08:00:00,23.043070,72.562968,NO2,11,14,13
India,Gujarat,Ankleshwar,"GIDC, Ankleshwar - GPCB",03-03-2024 08:00:00,21.613267,73.010555,NO2,NA,NA,NA
India,Gujarat,Gandhinagar,"IIPHG Lekawada, Gandhinagar - IITM",03-03-2024 08:00:00,23.243639,72.68994,NH3,3,4,3
India,Gujarat,Gandhinagar,"Sector-10, Gandhinagar - GPCB",03-03-2024 08:00:00,23.221714,72.654328,PM10,18,80,49
India,Gujarat,Gandhinagar,"Sector-10, Gandhinagar - GPCB",03-03-2024 08:00:00,23.221714,72.654328,SO2,4,9,6
India,Gujarat,Surat,"Science Center, Surat - SMC",03-03-2024 08:00:00,21.170046,72.795405,PM2.5,3,22,10
India,Gujarat,Vatva,"Phase-4 GIDC, Vatva - GPCB",03-03-2024 08:00:00,22.969611,72.643500,PM2.5,30,101,75
India,Gujarat,Vatva,"Phase-4 GIDC, Vatva - GPCB",03-03-2024 08:00:00,22.969611,72.643500,NO2,16,60,34
India,Gujarat,Vatva,"Phase-4 GIDC, Vatva - GPCB",03-03-2024 08:00:00,22.969611,72.643500,SO2,17,17,17
India,Gujarat,Vatva,"Phase-4 GIDC, Vatva - GPCB",03-03-2024 08:00:00,22.969611,72.643500,CO,27,111,35
India,Gujarat,Vatva,"Phase-4 GIDC, Vatva - GPCB",03-03-2024 08:00:00,22.969611,72.643500,OZONE,10,30,23
India,Haryana,Ambala,"Patti Mehar, Ambala - HSPCB",03-03-2024 08:00:00,30.379589,76.778328,OZONE,1,11,5
India,Haryana,Bahadurgarh,"Arya Nagar, Bahadurgarh - HSPCB",03-03-2024 08:00:00,28.6701,76.9254,PM2.5,31,140,55
India,Haryana,Bahadurgarh,"Arya Nagar, Bahadurgarh - HSPCB",03-03-2024 08:00:00,28.6701,76.9254,OZONE,39,48,43
India,Haryana,Ballabgarh,"Nathu Colony, Ballabgarh - HSPCB",03-03-2024 08:00:00,28.3419248,77.319699,NO2,12,14,12
India,Haryana,Dharuhera,"Municipal Corporation Office, Dharuhera -  HSPCB",03-03-2024 08:00:00,28.206800,76.799700,NO2,NA,NA,NA
India,Haryana,Faridabad,"Sector 11, Faridabad - HSPCB",03-03-2024 08:00:00,28.376058,77.315741,SO2,NA,NA,NA
India,Haryana,Faridabad,"Sector 30, Faridabad - HSPCB",03-03-2024 08:00:00,28.4417,77.3217,PM10,104,141,110
India,Haryana,Faridabad,"Sector 30, Faridabad - HSPCB",03-03-2024 08:00:00,28.4417,77.3217,NO2,29,32,31
India,Haryana,Fatehabad,"Huda Sector, Fatehabad - HSPCB",03-03-2024 08:00:00,29.503664,75.467934,NH3,NA,NA,NA
India,Haryana,Gurugram,"Sector-51, Gurugram - HSPCB",03-03-2024 08:00:00,28.4227,77.0667,PM2.5,38,70,57
India,Haryana,Gurugram,"Sector-51, Gurugram - HSPCB",03-03-2024 08:00:00,28.4227,77.0667,SO2,3,4,3
India,Haryana,Gurugram,"Teri Gram, Gurugram - HSPCB",03-03-2024 08:00:00,28.4275,77.1465,NH3,21,26,23
India,Haryana,Gurugram,"Vikas Sadan, Gurugram - HSPCB",03-03-2024 08:00:00,28.4501238,77.0263051,NO2,5,24,14
India,Haryana,Hisar,"Urban Estate-II, Hisar - HSPCB",03-03-2024 08:00:00,29.140560,75.744941,PM10,NA,NA,NA
India,Haryana,Hisar,"Urban Estate-II, Hisar - HSPCB",03-03-2024 08:00:00,29.140560,75.744941,NH3,NA,NA,NA
India,Haryana,Hisar,"Urban Estate-II, Hisar - HSPCB",03-03-2024 08:00:00,29.140560,75.744941,SO2,NA,NA,NA
India,Haryana,Hisar,"Urban Estate-II, Hisar - HSPCB",03-03-2024 08:00:00,29.140560,75.744941,OZONE,29,74,57
India,Haryana,Jind,"Police Lines, Jind - HSPCB",03-03-2024 08:00:00,29.307814,76.337619,PM2.5,26,65,38
India,Haryana,Jind,"Police Lines, Jind - HSPCB",03-03-2024 08:00:00,29.307814,76.337619,OZONE,9,30,13
India,Haryana,Kaithal,"Rishi Nagar, Kaithal - HSPCB",03-03-2024 08:00:00,29.8006,76.4155,PM2.5,32,105,52
India,Haryana,Kaithal,"Rishi Nagar, Kaithal - HSPCB",03-03-2024 08:00:00,29.8006,76.4155,NO2,27,120,88
India,Haryana,Kaithal,"Rishi Nagar, Kaithal - HSPCB",03-03-2024 08:00:00,29.8006,76.4155,SO2,1,48,13
India,Haryana,Kurukshetra,"Sector-7, Kurukshetra - HSPCB",03-03-2024 08:00:00,29.966942,76.875879,PM10,28,105,50
India,Haryana,Kurukshetra,"Sector-7, Kurukshetra - HSPCB",03-03-2024 08:00:00,29.966942,76.875879,OZONE,10,46,23
India,Haryana,Mandikhera,"General Hospital, Mandikhera - HSPCB",03-03-2024 08:00:00,27.9002,76.9938,PM10,24,76,43
India,Haryana,Manesar,"Sector-2 IMT, Manesar - HSPCB",03-03-2024 08:00:00,28.360699,76.936090,NH3,NA,NA,NA
India,Haryana,Manesar,"Sector-2 IMT, Manesar - HSPCB",03-03-2024 08:00:00,28.360699,76.936090,SO2,NA,NA,NA
India,Haryana,Manesar,"Sector-2 IMT, Manesar - HSPCB",03-03-2024 08:00:00,28.360699,76.936090,OZONE,NA,NA,NA
India,Haryana,Palwal,"Shyam Nagar, Palwal - HSPCB",03-03-2024 08:00:00,28.1485564,77.3320667,CO,18,28,25
India,Haryana,Panchkula,"Sector-6, Panchkula - HSPCB ",03-03-2024 08:00:00,30.7057778,76.8531805555555,NO2,28,31,29
India,Haryana,Yamuna Nagar,"Gobind Pura, Yamuna Nagar - HSPCB",03-03-2024 08:00:00,30.1480566,77.2893471,PM10,NA,NA,NA
India,Haryana,Yamuna Nagar,"Gobind Pura, Yamuna Nagar - HSPCB",03-03-2024 08:00:00,30.1480566,77.2893471,OZONE,5,45,25
India,Jammu_and_Kashmir,Srinagar,"Rajbagh, Srinagar - JKSPCB",03-03-2024 08:00:00,34.066206,74.819820,SO2,NA,NA,NA
India,Jharkhand,Dhanbad,"Sardar Patel Nagar, Dhanbad - JSPCB",03-03-2024 08:00:00,23.80569,86.44268,SO2,8,123,30
India,Jharkhand,Dhanbad,"Sardar Patel Nagar, Dhanbad - JSPCB",03-03-2024 08:00:00,23.80569,86.44268,OZONE,9,40,10
India,Jharkhand,Pathardih,"Mohalbani Ghat, Pathardih - DMC",03-03-2024 08:00:00,23.669880,86.411725,PM2.5,33,168,63
India,Jharkhand,Pathardih,"Mohalbani Ghat, Pathardih - DMC",03-03-2024 08:00:00,23.669880,86.411725,OZONE,8,39,9
India,Karnataka,Bagalkot,"Vidayagiri, Bagalkot - KSPCB",03-03-2024 08:00:00,16.172806,75.659694,CO,22,61,41
India,Karnataka,Belgaum,"Ramteerth Nagar, Belgaum - KSPCB",03-03-2024 08:00:00,15.888653,74.541751,OZONE,19,20,19
India,Karnataka,Bengaluru,"BTM Layout, Bengaluru - CPCB",03-03-2024 08:00:00,12.9135218,77.5950804,OZONE,35,97,73
India,Karnataka,Bengaluru,"City Railway Station, Bengaluru - KSPCB",03-03-2024 08:00:00,12.9756843,77.5660749,PM10,62,94,72
India,Karnataka,Bengaluru,"Hombegowda Nagar, Bengaluru - KSPCB",03-03-2024 08:00:00,12.938539,77.590100,PM10,65,160,98
India,Karnataka,Bengaluru,"Jayanagar 5th Block, Bengaluru - KSPCB",03-03-2024 08:00:00,12.920984,77.584908,PM10,97,206,127
India,Karnataka,Bengaluru,"Jayanagar 5th Block, Bengaluru - KSPCB",03-03-2024 08:00:00,12.920984,77.584908,SO2,13,37,21
India,Karnataka,Bengaluru,"Jayanagar 5th Block, Bengaluru - KSPCB",03-03-2024 08:00:00,12.920984,77.584908,CO,9,105,21
India,Karnataka,Bengaluru,"Kasturi Nagar, Bengaluru - KSPCB",03-03-2024 08:00:00,13.003872,77.664217,NH3,3,4,4
India,Karnataka,Bengaluru,"Kasturi Nagar, Bengaluru - KSPCB",03-03-2024 08:00:00,13.003872,77.664217,OZONE,31,98,71
India,Karnataka,Bengaluru,"RVCE-Mailasandra, Bengaluru - KSPCB",03-03-2024 08:00:00,12.921418,77.502466,SO2,8,20,11
India,Karnataka,Bengaluru,"RVCE-Mailasandra, Bengaluru - KSPCB",03-03-2024 08:00:00,12.921418,77.502466,CO,37,73,45
India,Karnataka,Bengaluru,"Sanegurava Halli, Bengaluru - KSPCB",03-03-2024 08:00:00,12.990328,77.5431385,PM10,33,79,43
India,Karnataka,Bengaluru,"Shivapura_Peenya, Bengaluru - KSPCB",03-03-2024 08:00:00,13.0246342,77.5080115,PM10,63,109,83
India,Karnataka,Bengaluru,"Shivapura_Peenya, Bengaluru - KSPCB",03-03-2024 08:00:00,13.0246342,77.5080115,NH3,4,4,4
India,Karnataka,Bengaluru,"Silk Board, Bengaluru - KSPCB",03-03-2024 08:00:00,12.917348,77.622813,NO2,6,28,21
India,Karnataka,Bengaluru,"Silk Board, Bengaluru - KSPCB",03-03-2024 08:00:00,12.917348,77.622813,NH3,1,2,1
India,Karnataka,Bidar,"Naubad, Bidar - KSPCB",03-03-2024 08:00:00,17.930306,77.482194,CO,48,88,69
India,Karnataka,Chamarajanagar,"Urban, Chamarajanagar - KSPCB",03-03-2024 08:00:00,11.55358,76.55521,PM2.5,25,51,36
India,Karnataka,Chamarajanagar,"Urban, Chamarajanagar - KSPCB",03-03-2024 08:00:00,11.55358,76.55521,OZONE,25,52,27
India,Karnataka,Chikkaballapur,"Chikkaballapur Rural, Chikkaballapur - KSPCB",03-03-2024 08:00:00,13.428828,77.731418,NO2,2,17,6
India,Karnataka,Chikkamagaluru,"Kalyana Nagara, Chikkamagaluru - KSPCB",03-03-2024 08:00:00,13.328028,75.797056,CO,11,88,13
India,Karnataka,Davanagere,"Devaraj Urs Badavane, Davanagere - KSPCB",03-03-2024 08:00:00,14.475800,75.905200,NH3,1,1,1
India,Karnataka,Gadag,"Panchal Nagar, Gadag - KSPCB",03-03-2024 08:00:00,15.411456,75.638133,NH3,2,3,2
India,Karnataka,Hassan,"B.Katihalli, Hassan - KSPCB",03-03-2024 08:00:00,13.008556,76.125258,PM2.5,NA,NA,NA
India,Karnataka,Haveri,"Ashwini Nagar, Haveri - KSPCB",03-03-2024 08:00:00,14.791800,75.389600,NO2,29,42,33
India,Karnataka,Haveri,"Ashwini Nagar, Haveri - KSPCB",03-03-2024 08:00:00,14.791800,75.389600,NH3,3,4,3
India,Karnataka,Haveri,"Ashwini Nagar, Haveri - KSPCB",03-03-2024 08:00:00,14.791800,75.389600,CO,32,36,36
India,Karnataka,Haveri,"Ashwini Nagar, Haveri - KSPCB",03-03-2024 08:00:00,14.791800,75.389600,OZONE,18,20,19
India,Karnataka,Hubballi,"Lingaraj Nagar, Hubballi - KSPCB",03-03-2024 08:00:00,15.3714823,75.1160168,NH3,2,2,2
India,Karnataka,Kalaburagi,"Lal Bahadur Shastri Nagar, Kalaburagi - KSPCB",03-03-2024 08:00:00,17.321993,76.822628,SO2,NA,NA,NA
India,Karnataka,Kalaburagi,"Lal Bahadur Shastri Nagar, Kalaburagi - KSPCB",03-03-2024 08:00:00,17.321993,76.822628,CO,39,47,47
India,Karnataka,Kalaburagi,"Mahatma Basaveswar Colony, Kalaburgi - KSPCB",03-03-2024 08:00:00,17.336318,76.847397,SO2,6,17,8
India,Karnataka,Kalaburagi,"Mahatma Basaveswar Colony, Kalaburgi - KSPCB",03-03-2024 08:00:00,17.336318,76.847397,CO,36,68,48
India,Karnataka,Karwar,"KHB Colony, Karwar - KSPCB",03-03-2024 08:00:00,14.816666,74.141003,PM10,34,113,71
India,Karnataka,Karwar,"KHB Colony, Karwar - KSPCB",03-03-2024 08:00:00,14.816666,74.141003,CO,7,8,8
India,Karnataka,Kolar,"Tamaka Ind. Area, Kolar - KSPCB",03-03-2024 08:00:00,13.1276288,78.1570122,PM2.5,NA,NA,NA
India,Karnataka,Kolar,"Tamaka Ind. Area, Kolar - KSPCB",03-03-2024 08:00:00,13.1276288,78.1570122,NH3,NA,NA,NA
India,Karnataka,Koppal,"Diwator Nagar, Koppal - KSPCB",03-03-2024 08:00:00,15.347630,76.181767,OZONE,12,53,32
India,Karnataka,Madikeri,"Stuart Hill, Madikeri - KSPCB",03-03-2024 08:00:00,12.415911,75.735050,NO2,4,8,5
India,Karnataka,Madikeri,"Stuart Hill, Madikeri - KSPCB",03-03-2024 08:00:00,12.415911,75.735050,NH3,1,1,1
India,Karnataka,Madikeri,"Stuart Hill, Madikeri - KSPCB",03-03-2024 08:00:00,12.415911,75.735050,SO2,4,4,4
India,Karnataka,Madikeri,"Stuart Hill, Madikeri - KSPCB",03-03-2024 08:00:00,12.415911,75.735050,OZONE,26,39,29
India,Karnataka,Mangalore,"Kadri, Mangalore - KSPCB",03-03-2024 08:00:00,12.889250,74.853000,PM2.5,62,86,71
India,Karnataka,Mangalore,"Kadri, Mangalore - KSPCB",03-03-2024 08:00:00,12.889250,74.853000,CO,38,44,40
India,Karnataka,Mysuru,"Hebbal 1st Stage, Mysuru - KSPCB",03-03-2024 08:00:00,12.21041,76.37376,PM10,67,84,76
India,Karnataka,Mysuru,"Hebbal 1st Stage, Mysuru - KSPCB",03-03-2024 08:00:00,12.21041,76.37376,CO,1,50,22
India,Karnataka,Raichur,"Haji Colony, Raichur - KSPCB",03-03-2024 08:00:00,16.208139,77.348417,NO2,20,57,34
India,Karnataka,Raichur,"Haji Colony, Raichur - KSPCB",03-03-2024 08:00:00,16.208139,77.348417,CO,92,121,101
India,Karnataka,Ramanagara,"Vijay Nagar, Ramanagara - KSPCB",03-03-2024 08:00:00,12.733409,77.298051,NH3,1,1,1
India,Karnataka,Shivamogga,"Vinoba Nagara, Shivamogga - KSPCB",03-03-2024 08:00:00,13.940000,75.555917,CO,14,40,28
India,Karnataka,Tumakuru,"Thimmalapura, Tumakuru - KSPCB",03-03-2024 08:00:00,13.377516,77.099072,PM2.5,15,25,19
India,Karnataka,Udupi,"Brahmagiri, Udupi - KSPCB",03-03-2024 08:00:00,13.34194444,74.74694444,PM2.5,28,82,45
India,Karnataka,Udupi,"Brahmagiri, Udupi - KSPCB",03-03-2024 08:00:00,13.34194444,74.74694444,CO,44,50,45
India,Karnataka,Udupi,"Brahmagiri, Udupi - KSPCB",03-03-2024 08:00:00,13.34194444,74.74694444,OZONE,23,23,23
India,Karnataka,Vijayapura,"Ibrahimpur, Vijayapura - KSPCB",03-03-2024 08:00:00,16.802639,75.722694,PM10,38,40,39
India,Karnataka,Vijayapura,"Ibrahimpur, Vijayapura - KSPCB",03-03-2024 08:00:00,16.802639,75.722694,SO2,2,34,9
India,Karnataka,Yadgir,"Collector Office, Yadgir - KSPCB",03-03-2024 08:00:00,16.7602,77.1428,NO2,6,9,7
India,Kerala,Kochi,"Vyttila, Kochi - Kerala PCB",03-03-2024 08:00:00,9.969447,76.321186,NO2,1,7,3
India,Kerala,Kochi,"Vyttila, Kochi - Kerala PCB",03-03-2024 08:00:00,9.969447,76.321186,CO,64,67,65
India,Kerala,Kollam,"Polayathode, Kollam - Kerala PCB",03-03-2024 08:00:00,8.8787,76.6073,PM2.5,60,263,141
India,Kerala,Kollam,"Polayathode, Kollam - Kerala PCB",03-03-2024 08:00:00,8.8787,76.6073,NH3,1,1,1
India,Kerala,Kollam,"Polayathode, Kollam - Kerala PCB",03-03-2024 08:00:00,8.8787,76.6073,CO,5,56,30
