country,state,city,station,last_update,latitude,longitude,pollutant_id,pollutant_min,pollutant_max,pollutant_avg
India,Andhra_Pradesh,Amaravati,"Secretariat, Amaravati - APPCB",25-06-2024 12:00:00,16.5150833,80.5181667,PM10,14,44,30
India,Andhra_Pradesh,Anantapur,"Gulzarpet, Anantapur - APPCB",25-06-2024 12:00:00,14.675886,77.593027,NO2,NA,NA,NA
India,Andhra_Pradesh,Tirupati,"Tirumala, Tirupati - APPCB",25-06-2024 12:00:00,13.67,79.35,OZONE,15,29,19
India,Andhra_Pradesh,Tirupati,"Vaikuntapuram, Tirupati - APPCB",25-06-2024 12:00:00,13.615387,79.409230,PM10,43,320,87
India,Andhra_Pradesh,Tirupati,"Vaikuntapuram, Tirupati - APPCB",25-06-2024 12:00:00,13.615387,79.409230,NO2,14,24,17
India,Andhra_Pradesh,Vijayawada,"HB Colony, Vijayawada - APPCB",25-06-2024 12:00:00,16.536107,80.594233,CO,36,38,37
India,Andhra_Pradesh,Vijayawada,"Kanuru, Vijayawada - APPCB",25-06-2024 12:00:00,16.486692,80.699436,PM2.5,40,65,50
India,Andhra_Pradesh,Vijayawada,"Rajiv Gandhi Park, Vijayawada - APPCB",25-06-2024 12:00:00,16.509717,80.612222,OZONE,33,33,33
India,Andhra_Pradesh,Vijayawada,"Rajiv Nagar, Vijayawada - APPCB",25-06-2024 12:00:00,16.554731,80.649110,NO2,10,10,10
India,Andhra_Pradesh,Vijayawada,"Rajiv Nagar, Vijayawada - APPCB",25-06-2024 12:00:00,16.554731,80.649110,OZONE,19,30,23
India,Assam,Byrnihat,"Central Academy for SFS, Byrnihat - PCBA",25-06-2024 12:00:00,26.071318,91.87488,OZONE,23,26,24
India,Assam,Guwahati,"IITG, Guwahati - PCBA",25-06-2024 12:00:00,26.2028636,91.70046436,SO2,NA,NA,NA
India,Assam,Guwahati,"IITG, Guwahati - PCBA",25-06-2024 12:00:00,26.2028636,91.70046436,CO,6,10,8
India,Assam,Guwahati,"LGBI Airport, Guwahati - PCBA",25-06-2024 12:00:00,26.10887,91.589544,PM2.5,12,373,138
India,Assam,Guwahati,"Pan Bazaar, Guwahati - PCBA",25-06-2024 12:00:00,26.187500,91.744194,OZONE,17,18,17
India,Assam,Guwahati,"Railway Colony, Guwahati - PCBA",25-06-2024 12:00:00,26.181742,91.78063,PM2.5,23,89,56
India,Assam,Guwahati,"Railway Colony, Guwahati - PCBA",25-06-2024 12:00:00,26.181742,91.78063,PM10,23,92,58
India,Assam,Guwahati,"Railway Colony, Guwahati - PCBA",25-06-2024 12:00:00,26.181742,91.78063,SO2,2,2,2
India,Assam,Nagaon,"Christianpatty, Nagaon - PCBA",25-06-2024 12:00:00,26.349082,92.68449,PM10,16,54,19
India,Assam,Silchar,"Tarapur, Silchar - PCBA",25-06-2024 12:00:00,24.82827,92.79525,CO,18,32,24
India,Assam,Sivasagar,"Girls College, Sivasagar - PCBA",25-06-2024 12:00:00,26.987634,94.636574,PM10,51,63,56
India,Assam,Sivasagar,"Girls College, Sivasagar - PCBA",25-06-2024 12:00:00,26.987634,94.636574,NO2,6,12,9
India,Bihar,Araria,"Kharahiya Basti, Araria - BSPCB",25-06-2024 12:00:00,26.146529,87.454184,NH3,5,6,5
India,Bihar,Arrah,"New DM Office, Arrah - BSPCB",25-06-2024 12:00:00,25.5626095,84.663264,PM10,NA,NA,NA
India,Bihar,Arrah,"New DM Office, Arrah - BSPCB",25-06-2024 12:00:00,25.5626095,84.663264,SO2,7,11,9
India,Bihar,Aurangabad,"Gurdeo Nagar, Aurangabad - BSPCB",25-06-2024 12:00:00,24.75746,84.366208,NO2,1,14,6
India,Bihar,Aurangabad,"Gurdeo Nagar, Aurangabad - BSPCB",25-06-2024 12:00:00,24.75746,84.366208,CO,7,54,31
India,Bihar,Bettiah,"Kamalnath Nagar, Bettiah - BSPCB",25-06-2024 12:00:00,26.80365,84.51954,SO2,NA,NA,NA
India,Bihar,Bettiah,"Kamalnath Nagar, Bettiah - BSPCB",25-06-2024 12:00:00,26.80365,84.51954,CO,22,54,38
India,Bihar,Bhagalpur,"DM Office_Kachari Chowk, Bhagalpur - BSPCB",25-06-2024 12:00:00,25.251013,86.989001,NO2,35,64,53
India,Bihar,Bhagalpur,"DM Office_Kachari Chowk, Bhagalpur - BSPCB",25-06-2024 12:00:00,25.251013,86.989001,SO2,19,21,20
India,Bihar,Bhagalpur,"Mayaganj, Bhagalpur - BSPCB",25-06-2024 12:00:00,25.265194,87.012947,PM2.5,45,300,104
India,Bihar,Bihar Sharif,"D M Colony, Bihar Sharif - BSPCB",25-06-2024 12:00:00,25.204762,85.514960,PM2.5,NA,NA,NA
India,Bihar,Bihar Sharif,"D M Colony, Bihar Sharif - BSPCB",25-06-2024 12:00:00,25.204762,85.514960,NO2,8,9,9
India,Bihar,Bihar Sharif,"D M Colony, Bihar Sharif - BSPCB",25-06-2024 12:00:00,25.204762,85.514960,NH3,1,1,1
India,Bihar,Buxar,"Charitra Van, Buxar - BSPCB (Formerly known as Central Jail)",25-06-2024 12:00:00,25.567520,83.966379,SO2,3,4,4
India,Bihar,Chhapra,"Darshan Nagar, Chhapra - BSPCB",25-06-2024 12:00:00,25.7808257,84.7446768,NO2,NA,NA,NA
India,Bihar,Chhapra,"Darshan Nagar, Chhapra - BSPCB",25-06-2024 12:00:00,25.7808257,84.7446768,NH3,NA,NA,NA
India,Bihar,Chhapra,"Darshan Nagar, Chhapra - BSPCB",25-06-2024 12:00:00,25.7808257,84.7446768,SO2,NA,NA,NA
India,Bihar,Gaya,"SFTI Kusdihra, Gaya - BSPCB",25-06-2024 12:00:00,24.762518,84.982348,OZONE,40,94,63
India,Bihar,Hajipur,"Industrial Area, Hajipur - BSPCB",25-06-2024 12:00:00,25.697189,85.245900,PM2.5,76,178,102
India,Bihar,Hajipur,"Industrial Area, Hajipur - BSPCB",25-06-2024 12:00:00,25.697189,85.245900,OZONE,29,186,51
India,Bihar,Katihar,"Mirchaibari, Katihar - BSPCB",25-06-2024 12:00:00,25.560083,87.553265,PM10,36,124,60
India,Bihar,Katihar,"Mirchaibari, Katihar - BSPCB",25-06-2024 12:00:00,25.560083,87.553265,NO2,3,4,4
India,Bihar,Kishanganj,"SDM Office_Khagra, Kishanganj - BSPCB",25-06-2024 12:00:00,26.0881305,87.93840336,OZONE,55,82,59
India,Bihar,Manguraha,"Forest Rest House, Manguraha - BSPCB",25-06-2024 12:00:00,27.308328,84.531742,NH3,1,3,2
India,Bihar,Manguraha,"Forest Rest House, Manguraha - BSPCB",25-06-2024 12:00:00,27.308328,84.531742,SO2,NA,NA,NA
India,Bihar,Motihari,"Gandak Colony, Motihari - BSPCB",25-06-2024 12:00:00,26.63086,84.90051,PM10,16,88,55
India,Bihar,Motihari,"Gandak Colony, Motihari - BSPCB",25-06-2024 12:00:00,26.63086,84.90051,NH3,1,5,3
India,Bihar,Motihari,"Gandak Colony, Motihari - BSPCB",25-06-2024 12:00:00,26.63086,84.90051,OZONE,16,56,25
India,Bihar,Muzaffarpur,"Buddha Colony, Muzaffarpur - BSPCB",25-06-2024 12:00:00,26.11442,85.39813,NH3,3,8,5
India,Bihar,Muzaffarpur,"Buddha Colony, Muzaffarpur - BSPCB",25-06-2024 12:00:00,26.11442,85.39813,OZONE,36,98,55
India,Bihar,Muzaffarpur,"MIT-Daudpur Kothi, Muzaffarpur - BSPCB",25-06-2024 12:00:00,26.1403345,85.3650192,PM10,NA,NA,NA
India,Bihar,Muzaffarpur,"MIT-Daudpur Kothi, Muzaffarpur - BSPCB",25-06-2024 12:00:00,26.1403345,85.3650192,NH3,12,14,12
India,Bihar,Muzaffarpur,"MIT-Daudpur Kothi, Muzaffarpur - BSPCB",25-06-2024 12:00:00,26.1403345,85.3650192,SO2,6,12,10
India,Bihar,Muzaffarpur,"Muzaffarpur Collectorate, Muzaffarpur - BSPCB",25-06-2024 12:00:00,26.1209,85.3647,SO2,7,17,9
India,Bihar,Patna,"DRM Office Danapur, Patna - BSPCB",25-06-2024 12:00:00,25.586562,85.043586,PM2.5,60,121,79
India,Bihar,Patna,"DRM Office Danapur, Patna - BSPCB",25-06-2024 12:00:00,25.586562,85.043586,CO,19,46,37
India,Bihar,Patna,"IGSC Planetarium Complex, Patna - BSPCB",25-06-2024 12:00:00,25.610369,85.132568,NO2,12,12,12
India,Bihar,Patna,"IGSC Planetarium Complex, Patna - BSPCB",25-06-2024 12:00:00,25.610369,85.132568,SO2,4,8,5
India,Bihar,Patna,"Muradpur, Patna - BSPCB",25-06-2024 12:00:00,25.619651,85.147382,NH3,1,2,1
India,Bihar,Patna,"Samanpura, Patna - BSPCB",25-06-2024 12:00:00,25.596727,85.085624,PM10,103,162,125
India,Bihar,Patna,"Samanpura, Patna - BSPCB",25-06-2024 12:00:00,25.596727,85.085624,NH3,5,18,8
India,Bihar,Patna,"Samanpura, Patna - BSPCB",25-06-2024 12:00:00,25.596727,85.085624,OZONE,5,100,16
India,Bihar,Rajgir,"Dangi Tola, Rajgir - BSPCB",25-06-2024 12:00:00,25.03280,85.41948,PM10,NA,NA,NA
India,Bihar,Rajgir,"Dangi Tola, Rajgir - BSPCB",25-06-2024 12:00:00,25.03280,85.41948,NO2,14,16,15
India,Bihar,Rajgir,"Dangi Tola, Rajgir - BSPCB",25-06-2024 12:00:00,25.03280,85.41948,CO,38,38,38
India,Bihar,Samastipur,"DM Office_Kasipur, Samastipur - BSPCB",25-06-2024 12:00:00,25.859655,85.77944,NO2,NA,NA,NA
India,Bihar,Sasaram,"Dada Peer, Sasaram - BSPCB",25-06-2024 12:00:00,24.952822,84.002396,NO2,2,62,23
India,Bihar,Sasaram,"Dada Peer, Sasaram - BSPCB",25-06-2024 12:00:00,24.952822,84.002396,NH3,4,14,9
India,Bihar,Sasaram,"Dada Peer, Sasaram - BSPCB",25-06-2024 12:00:00,24.952822,84.002396,CO,47,104,52
India,Chandigarh,Chandigarh,"Sector 22, Chandigarh - CPCC",25-06-2024 12:00:00,30.735567,76.775714,PM10,57,152,104
India,Chandigarh,Chandigarh,"Sector 22, Chandigarh - CPCC",25-06-2024 12:00:00,30.735567,76.775714,NH3,6,20,11
India,Chandigarh,Chandigarh,"Sector 22, Chandigarh - CPCC",25-06-2024 12:00:00,30.735567,76.775714,SO2,3,52,15
India,Chandigarh,Chandigarh,"Sector-53, Chandigarh - CPCC",25-06-2024 12:00:00,30.719859,76.738637,CO,40,56,49
India,Chandigarh,Chandigarh,"Sector-53, Chandigarh - CPCC",25-06-2024 12:00:00,30.719859,76.738637,OZONE,9,62,28
India,Chhattisgarh,Bhilai,"32Bungalows, Bhilai - CECB",25-06-2024 12:00:00,21.194815,81.314770,NO2,5,9,6
India,Chhattisgarh,Bhilai,"Civic Center, Bhilai - Bhilai Steel Plant",25-06-2024 12:00:00,21.185571,81.343175,PM2.5,14,30,21
India,Chhattisgarh,Bhilai,"Civic Center, Bhilai - Bhilai Steel Plant",25-06-2024 12:00:00,21.185571,81.343175,PM10,13,28,20
India,Chhattisgarh,Bhilai,"Civic Center, Bhilai - Bhilai Steel Plant",25-06-2024 12:00:00,21.185571,81.343175,SO2,10,11,10
India,Chhattisgarh,Bilaspur,"Mangala, Bilaspur - NTPC",25-06-2024 12:00:00,22.08815,82.13737,NO2,11,15,13
India,Chhattisgarh,Korba,"Rampur, Korba - CECB",25-06-2024 12:00:00,22.368195,82.746431,PM10,19,50,37
India,Chhattisgarh,Korba,"Rampur, Korba - CECB",25-06-2024 12:00:00,22.368195,82.746431,NH3,1,1,1
India,Chhattisgarh,Korba,"Urja Nagar, Korba - CECB",25-06-2024 12:00:00,22.348441,82.549611,CO,16,102,90
India,Chhattisgarh,Kunjemura,"OP Jindal School, Kunjemura - CECB",25-06-2024 12:00:00,22.126650,83.483212,NO2,13,102,48
India,Chhattisgarh,Kunjemura,"OP Jindal School, Kunjemura - CECB",25-06-2024 12:00:00,22.126650,83.483212,CO,20,34,26
India,Chhattisgarh,Kunjemura,"OP Jindal School, Kunjemura - CECB",25-06-2024 12:00:00,22.126650,83.483212,OZONE,4,12,6
India,Chhattisgarh,Milupara,"Govt. Higher Secondary School, Milupara - CECB",25-06-2024 12:00:00,22.1910172,83.5197009,PM10,NA,NA,NA
India,Chhattisgarh,Milupara,"Govt. Higher Secondary School, Milupara - CECB",25-06-2024 12:00:00,22.1910172,83.5197009,SO2,NA,NA,NA
India,Chhattisgarh,Milupara,"Govt. Higher Secondary School, Milupara - CECB",25-06-2024 12:00:00,22.1910172,83.5197009,OZONE,41,90,87
India,Chhattisgarh,Raipur,"Bhatagaon New ISBT, Raipur - CECB",25-06-2024 12:00:00,21.219665,81.630094,PM10,13,59,32
India,Chhattisgarh,Raipur,"Bhatagaon New ISBT, Raipur - CECB",25-06-2024 12:00:00,21.219665,81.630094,NH3,2,2,2
India,Chhattisgarh,Raipur,"Krishak Nagar, Raipur - CECB",25-06-2024 12:00:00,21.237755,81.705301,NO2,5,5,5
India,Chhattisgarh,Raipur,"Siltara Phase-II, Raipur - CECB",25-06-2024 12:00:00,21.371751,81.664929,NO2,13,43,25
India,Chhattisgarh,Tumidih,"OP Jindal Industrial Park, Tumidih - CECB",25-06-2024 12:00:00,22.06631475,83.33820077,NH3,NA,NA,NA
India,Chhattisgarh,Tumidih,"OP Jindal Industrial Park, Tumidih - CECB",25-06-2024 12:00:00,22.06631475,83.33820077,SO2,NA,NA,NA
India,Delhi,Delhi,"Alipur, Delhi - DPCC",25-06-2024 12:00:00,28.815329,77.153010,CO,34,52,44
India,Delhi,Delhi,"Alipur, Delhi - DPCC",25-06-2024 12:00:00,28.815329,77.153010,OZONE,4,112,19
India,Delhi,Delhi,"Aya Nagar, Delhi - IMD",25-06-2024 12:00:00,28.4706914,77.1099364,PM10,59,140,93
India,Delhi,Delhi,"Aya Nagar, Delhi - IMD",25-06-2024 12:00:00,28.4706914,77.1099364,OZONE,7,47,20
India,Delhi,Delhi,"Bawana, Delhi - DPCC",25-06-2024 12:00:00,28.776200,77.051074,SO2,4,34,14
India,Delhi,Delhi,"Bawana, Delhi - DPCC",25-06-2024 12:00:00,28.776200,77.051074,CO,40,78,67
India,Delhi,Delhi,"Burari Crossing, Delhi - IMD",25-06-2024 12:00:00,28.7256504,77.2011573,NO2,3,11,7
India,Delhi,Delhi,"CRRI Mathura Road, Delhi - IMD",25-06-2024 12:00:00,28.5512005,77.2735737,PM10,47,158,100
India,Delhi,Delhi,"Dr. Karni Singh Shooting Range, Delhi - DPCC",25-06-2024 12:00:00,28.498571,77.264840,NO2,18,49,33
India,Delhi,Delhi,"Dr. Karni Singh Shooting Range, Delhi - DPCC",25-06-2024 12:00:00,28.498571,77.264840,SO2,5,11,7
India,Delhi,Delhi,"Dwarka-Sector 8, Delhi - DPCC ",25-06-2024 12:00:00,28.5710274,77.0719006,PM2.5,55,200,95
India,Delhi,Delhi,"Dwarka-Sector 8, Delhi - DPCC ",25-06-2024 12:00:00,28.5710274,77.0719006,NH3,5,50,17
India,Delhi,Delhi,"Dwarka-Sector 8, Delhi - DPCC ",25-06-2024 12:00:00,28.5710274,77.0719006,SO2,9,13,11
India,Delhi,Delhi,"IGI Airport (T3), Delhi - IMD",25-06-2024 12:00:00,28.5627763,77.1180053,PM2.5,38,136,77
India,Delhi,Delhi,"IHBAS, Dilshad Garden, Delhi - CPCB",25-06-2024 12:00:00,28.6811736,77.3025234,NO2,29,68,45
India,Delhi,Delhi,"ITO, Delhi - CPCB",25-06-2024 12:00:00,28.628624,77.241060,PM2.5,13,163,86
India,Delhi,Delhi,"ITO, Delhi - CPCB",25-06-2024 12:00:00,28.628624,77.241060,NH3,4,5,4
India,Delhi,Delhi,"ITO, Delhi - CPCB",25-06-2024 12:00:00,28.628624,77.241060,SO2,14,33,19
India,Delhi,Delhi,"Jahangirpuri, Delhi - DPCC",25-06-2024 12:00:00,28.732820,77.170633,OZONE,2,96,13
India,Delhi,Delhi,"Jawaharlal Nehru Stadium, Delhi - DPCC",25-06-2024 12:00:00,28.580280,77.233829,PM2.5,28,92,60
India,Delhi,Delhi,"Jawaharlal Nehru Stadium, Delhi - DPCC",25-06-2024 12:00:00,28.580280,77.233829,CO,40,70,48
India,Delhi,Delhi,"Lodhi Road, Delhi - IMD",25-06-2024 12:00:00,28.5918245,77.2273074,PM10,56,160,88
India,Delhi,Delhi,"Major Dhyan Chand National Stadium, Delhi - DPCC",25-06-2024 12:00:00,28.611281,77.237738,PM2.5,52,237,118
India,Delhi,Delhi,"Mandir Marg, Delhi - DPCC",25-06-2024 12:00:00,28.636429,77.201067,NO2,40,95,71
India,Delhi,Delhi,"Mundka, Delhi - DPCC",25-06-2024 12:00:00,28.684678,77.076574,CO,44,78,61
India,Delhi,Delhi,"NSIT Dwarka, Delhi - CPCB",25-06-2024 12:00:00,28.60909,77.0325413,CO,38,75,51
India,Delhi,Delhi,"Najafgarh, Delhi - DPCC",25-06-2024 12:00:00,28.570173,76.933762,PM10,76,110,92
India,Delhi,Delhi,"Narela, Delhi - DPCC",25-06-2024 12:00:00,28.822836,77.101981,CO,39,56,50
India,Delhi,Delhi,"New Moti Bagh, Delhi - MHUA",25-06-2024 12:00:00,28.57834,77.18400,PM2.5,63,500,320
India,Delhi,Delhi,"Okhla Phase-2, Delhi - DPCC",25-06-2024 12:00:00,28.530785,77.271255,OZONE,7,84,30
India,Delhi,Delhi,"Patparganj, Delhi - DPCC",25-06-2024 12:00:00,28.623763,77.287209,SO2,3,34,18
India,Delhi,Delhi,"Pusa, Delhi - DPCC",25-06-2024 12:00:00,28.639652,77.146275,NO2,36,99,60
India,Delhi,Delhi,"Pusa, Delhi - DPCC",25-06-2024 12:00:00,28.639652,77.146275,NH3,4,9,7
India,Delhi,Delhi,"Pusa, Delhi - DPCC",25-06-2024 12:00:00,28.639652,77.146275,SO2,1,7,4
India,Delhi,Delhi,"R K Puram, Delhi - DPCC",25-06-2024 12:00:00,28.563262,77.186937,NH3,3,12,4
India,Delhi,Delhi,"Rohini, Delhi - DPCC",25-06-2024 12:00:00,28.732528,77.119920,SO2,6,16,9
India,Delhi,Delhi,"Shadipur, Delhi - CPCB",25-06-2024 12:00:00,28.6514781,77.1473105,PM2.5,48,177,76
India,Delhi,Delhi,"Shadipur, Delhi - CPCB",25-06-2024 12:00:00,28.6514781,77.1473105,PM10,68,159,95
India,Delhi,Delhi,"Sonia Vihar, Delhi - DPCC",25-06-2024 12:00:00,28.710508,77.249485,PM10,91,319,134
India,Delhi,Delhi,"Sonia Vihar, Delhi - DPCC",25-06-2024 12:00:00,28.710508,77.249485,SO2,2,13,6
India,Delhi,Delhi,"Sri Aurobindo Marg, Delhi - DPCC",25-06-2024 12:00:00,28.531346,77.190156,PM10,NA,NA,NA
India,Delhi,Delhi,"Sri Aurobindo Marg, Delhi - DPCC",25-06-2024 12:00:00,28.531346,77.190156,NH3,17,62,31
India,Delhi,Delhi,"Sri Aurobindo Marg, Delhi - DPCC",25-06-2024 12:00:00,28.531346,77.190156,OZONE,1,66,19
India,Delhi,Delhi,"Wazirpur, Delhi - DPCC",25-06-2024 12:00:00,28.699793,77.165453,SO2,10,29,18
India,Delhi,Delhi,"Wazirpur, Delhi - DPCC",25-06-2024 12:00:00,28.699793,77.165453,OZONE,2,19,5
India,Gujarat,Ahmedabad,"Chandkheda, Ahmedabad - IITM",25-06-2024 12:00:00,23.107969,72.574648,PM10,20,112,58
India,Gujarat,Ahmedabad,"Chandkheda, Ahmedabad - IITM",25-06-2024 12:00:00,23.107969,72.574648,OZONE,3,44,27
India,Gujarat,Ahmedabad,"Gyaspur, Ahmedabad - IITM",25-06-2024 12:00:00,22.977134,72.553024,SO2,NA,NA,NA
India,Gujarat,Ahmedabad,"Maninagar, Ahmedabad - GPCB",25-06-2024 12:00:00,23.002657,72.591912,PM2.5,36,91,61
India,Gujarat,Ahmedabad,"Maninagar, Ahmedabad - GPCB",25-06-2024 12:00:00,23.002657,72.591912,SO2,16,23,19
India,Gujarat,Ahmedabad,"Maninagar, Ahmedabad - GPCB",25-06-2024 12:00:00,23.002657,72.591912,OZONE,77,198,92
India,Gujarat,Ahmedabad,"Raikhad, Ahmedabad - IITM",25-06-2024 12:00:00,23.020509,72.579261,PM2.5,9,50,20
India,Gujarat,Ahmedabad,"Raikhad, Ahmedabad - IITM",25-06-2024 12:00:00,23.020509,72.579261,CO,34,80,44
India,Gujarat,Ahmedabad,"Rakhial, Ahmedabad - IITM",25-06-2024 12:00:00,23.016834,72.625775,NO2,13,59,28
India,Gujarat,Ahmedabad,"SVPI Airport Hansol, Ahmedabad - IITM",25-06-2024 12:00:00,23.076793,72.627874,PM2.5,NA,NA,NA
India,Gujarat,Ahmedabad,"Sardar Vallabhbhai Patel Stadium, Ahmedabad - IITM",25-06-2024 12:00:00,23.043070,72.562968,PM2.5,3,112,56
India,Gujarat,Ahmedabad,"Sardar Vallabhbhai Patel Stadium, Ahmedabad - IITM",25-06-2024 12:00:00,23.043070,72.562968,PM10,4,114,64
India,Gujarat,Ahmedabad,"Sardar Vallabhbhai Patel Stadium, Ahmedabad - IITM",25-06-2024 12:00:00,23.043070,72.562968,CO,43,65,52
India,Gujarat,Ankleshwar,"GIDC, Ankleshwar - GPCB",25-06-2024 12:00:00,21.613267,73.010555,PM2.5,46,91,65
India,Gujarat,Ankleshwar,"GIDC, Ankleshwar - GPCB",25-06-2024 12:00:00,21.613267,73.010555,PM10,48,85,71
India,Gujarat,Ankleshwar,"GIDC, Ankleshwar - GPCB",25-06-2024 12:00:00,21.613267,73.010555,NO2,31,60,44
India,Gujarat,Ankleshwar,"GIDC, Ankleshwar - GPCB",25-06-2024 12:00:00,21.613267,73.010555,NH3,3,4,3
India,Gujarat,Gandhinagar,"GIFT City, Gandhinagar - IITM",25-06-2024 12:00:00,23.163798,72.677768,PM10,31,146,84
India,Gujarat,Gandhinagar,"Sector-10, Gandhinagar - GPCB",25-06-2024 12:00:00,23.221714,72.654328,SO2,6,7,7
India,Gujarat,Nandesari,"GIDC, Nandesari - Nandesari Ind. Association",25-06-2024 12:00:00,22.410802,73.097923,NO2,1,14,6
India,Haryana,Ambala,"Patti Mehar, Ambala - HSPCB",25-06-2024 12:00:00,30.379589,76.778328,NO2,8,21,15
India,Haryana,Ambala,"Patti Mehar, Ambala - HSPCB",25-06-2024 12:00:00,30.379589,76.778328,NH3,5,12,9
India,Haryana,Bahadurgarh,"Arya Nagar, Bahadurgarh - HSPCB",25-06-2024 12:00:00,28.6701,76.9254,NH3,8,10,9
India,Haryana,Ballabgarh,"Nathu Colony, Ballabgarh - HSPCB",25-06-2024 12:00:00,28.3419248,77.319699,NO2,12,13,13
India,Haryana,Bhiwani,"H.B. Colony, Bhiwani - HSPCB",25-06-2024 12:00:00,28.806223,76.141105,NO2,6,12,8
India,Haryana,Charkhi Dadri,"Mini Secretariat, Charkhi Dadri - HSPCB",25-06-2024 12:00:00,28.593883,76.270653,PM2.5,6,500,170
India,Haryana,Charkhi Dadri,"Mini Secretariat, Charkhi Dadri - HSPCB",25-06-2024 12:00:00,28.593883,76.270653,NO2,14,24,18
India,Haryana,Charkhi Dadri,"Mini Secretariat, Charkhi Dadri - HSPCB",25-06-2024 12:00:00,28.593883,76.270653,OZONE,13,18,16
India,Haryana,Dharuhera,"Municipal Corporation Office, Dharuhera -  HSPCB",25-06-2024 12:00:00,28.206800,76.799700,NO2,NA,NA,NA
India,Haryana,Faridabad,"Sector 11, Faridabad - HSPCB",25-06-2024 12:00:00,28.376058,77.315741,NO2,30,33,31
India,Haryana,Faridabad,"Sector 11, Faridabad - HSPCB",25-06-2024 12:00:00,28.376058,77.315741,SO2,3,29,26
India,Haryana,Faridabad,"Sector 30, Faridabad - HSPCB",25-06-2024 12:00:00,28.4417,77.3217,NO2,30,33,31
India,Haryana,Faridabad,"Sector 30, Faridabad - HSPCB",25-06-2024 12:00:00,28.4417,77.3217,CO,18,46,31
India,Haryana,Faridabad,"Sector- 16A, Faridabad - HSPCB",25-06-2024 12:00:00,28.4088421,77.3099081,NO2,36,64,48
India,Haryana,Fatehabad,"Huda Sector, Fatehabad - HSPCB",25-06-2024 12:00:00,29.503664,75.467934,NO2,29,32,30
India,Haryana,Gurugram,"NISE Gwal Pahari, Gurugram - IMD",25-06-2024 12:00:00,28.422681,77.148944,PM10,26,146,73
India,Haryana,Gurugram,"Sector-51, Gurugram - HSPCB",25-06-2024 12:00:00,28.4227,77.0667,PM2.5,74,214,140
India,Haryana,Gurugram,"Sector-51, Gurugram - HSPCB",25-06-2024 12:00:00,28.4227,77.0667,PM10,100,122,106
India,Haryana,Gurugram,"Sector-51, Gurugram - HSPCB",25-06-2024 12:00:00,28.4227,77.0667,NO2,13,29,23
India,Haryana,Gurugram,"Sector-51, Gurugram - HSPCB",25-06-2024 12:00:00,28.4227,77.0667,OZONE,28,59,32
India,Haryana,Gurugram,"Teri Gram, Gurugram - HSPCB",25-06-2024 12:00:00,28.4275,77.1465,NO2,16,56,33
India,Haryana,Hisar,"Urban Estate-II, Hisar - HSPCB",25-06-2024 12:00:00,29.140560,75.744941,NH3,3,4,4
India,Haryana,Hisar,"Urban Estate-II, Hisar - HSPCB",25-06-2024 12:00:00,29.140560,75.744941,OZONE,31,127,49
India,Haryana,Jind,"Police Lines, Jind - HSPCB",25-06-2024 12:00:00,29.307814,76.337619,PM2.5,44,68,56
India,Haryana,Kaithal,"Rishi Nagar, Kaithal - HSPCB",25-06-2024 12:00:00,29.8006,76.4155,NO2,24,26,25
India,Haryana,Kaithal,"Rishi Nagar, Kaithal - HSPCB",25-06-2024 12:00:00,29.8006,76.4155,CO,2,51,41
India,Haryana,Karnal,"Sector-12, Karnal - HSPCB",25-06-2024 12:00:00,29.695300,77.002700,PM10,52,112,74
India,Haryana,Kurukshetra,"Sector-7, Kurukshetra - HSPCB",25-06-2024 12:00:00,29.966942,76.875879,CO,14,34,26
India,Haryana,Mandikhera,"General Hospital, Mandikhera - HSPCB",25-06-2024 12:00:00,27.9002,76.9938,PM10,NA,NA,NA
India,Haryana,Mandikhera,"General Hospital, Mandikhera - HSPCB",25-06-2024 12:00:00,27.9002,76.9938,NO2,19,23,21
India,Haryana,Mandikhera,"General Hospital, Mandikhera - HSPCB",25-06-2024 12:00:00,27.9002,76.9938,NH3,17,20,18
India,Haryana,Mandikhera,"General Hospital, Mandikhera - HSPCB",25-06-2024 12:00:00,27.9002,76.9938,SO2,30,38,33
India,Haryana,Manesar,"Sector-2 IMT, Manesar - HSPCB",25-06-2024 12:00:00,28.360699,76.936090,CO,8,16,14
India,Haryana,Manesar,"Sector-2 IMT, Manesar - HSPCB",25-06-2024 12:00:00,28.360699,76.936090,OZONE,6,38,13
India,Haryana,Palwal,"Shyam Nagar, Palwal - HSPCB",25-06-2024 12:00:00,28.1485564,77.3320667,PM10,47,100,66
India,Haryana,Palwal,"Shyam Nagar, Palwal - HSPCB",25-06-2024 12:00:00,28.1485564,77.3320667,NH3,8,9,9
India,Haryana,Panchkula,"Sector-6, Panchkula - HSPCB ",25-06-2024 12:00:00,30.7057778,76.8531805555555,PM2.5,68,226,117
India,Haryana,Panchkula,"Sector-6, Panchkula - HSPCB ",25-06-2024 12:00:00,30.7057778,76.8531805555555,OZONE,24,46,32
India,Haryana,Panipat,"Sector-18, Panipat - HSPCB",25-06-2024 12:00:00,29.432304,76.972765,CO,NA,NA,NA
India,Haryana,Panipat,"Sector-18, Panipat - HSPCB",25-06-2024 12:00:00,29.432304,76.972765,OZONE,NA,NA,NA
India,Himachal Pradesh,Baddi,"HIMUDA Complex Phase-1, Baddi - HPPCB",25-06-2024 12:00:00,30.943887,76.801991,PM2.5,32,305,128
India,Jammu_and_Kashmir,Srinagar,"Rajbagh, Srinagar - JKSPCB",25-06-2024 12:00:00,34.066206,74.819820,PM2.5,NA,NA,NA
India,Jammu_and_Kashmir,Srinagar,"Rajbagh, Srinagar - JKSPCB",25-06-2024 12:00:00,34.066206,74.819820,CO,21,24,21
India,Karnataka,Bagalkot,"Vidayagiri, Bagalkot - KSPCB",25-06-2024 12:00:00,16.172806,75.659694,NO2,9,10,9
India,Karnataka,Bagalkot,"Vidayagiri, Bagalkot - KSPCB",25-06-2024 12:00:00,16.172806,75.659694,SO2,NA,NA,NA
India,Karnataka,Bagalkot,"Vidayagiri, Bagalkot - KSPCB",25-06-2024 12:00:00,16.172806,75.659694,OZONE,22,22,22
India,Karnataka,Belgaum,"Ramteerth Nagar, Belgaum - KSPCB",25-06-2024 12:00:00,15.888653,74.541751,OZONE,19,20,19
India,Karnataka,Bengaluru,"Bapuji Nagar, Bengaluru - KSPCB",25-06-2024 12:00:00,12.951913,77.539784,PM10,30,146,51
India,Karnataka,Bengaluru,"Bapuji Nagar, Bengaluru - KSPCB",25-06-2024 12:00:00,12.951913,77.539784,NH3,1,1,1
India,Karnataka,Bengaluru,"City Railway Station, Bengaluru - KSPCB",25-06-2024 12:00:00,12.9756843,77.5660749,CO,51,90,66
India,Karnataka,Bengaluru,"Hebbal, Bengaluru - KSPCB",25-06-2024 12:00:00,13.029152,77.585901,NH3,1,1,1
India,Karnataka,Bengaluru,"Hebbal, Bengaluru - KSPCB",25-06-2024 12:00:00,13.029152,77.585901,OZONE,7,45,11
India,Karnataka,Bengaluru,"Hombegowda Nagar, Bengaluru - KSPCB",25-06-2024 12:00:00,12.938539,77.590100,NO2,8,15,12
India,Karnataka,Bengaluru,"Hombegowda Nagar, Bengaluru - KSPCB",25-06-2024 12:00:00,12.938539,77.590100,NH3,1,1,1
India,Karnataka,Bengaluru,"Hombegowda Nagar, Bengaluru - KSPCB",25-06-2024 12:00:00,12.938539,77.590100,OZONE,15,32,17
India,Karnataka,Bengaluru,"Jayanagar 5th Block, Bengaluru - KSPCB",25-06-2024 12:00:00,12.920984,77.584908,NO2,7,16,9
India,Karnataka,Bengaluru,"Jigani, Bengaluru - KSPCB",25-06-2024 12:00:00,12.7816279,77.6299145,PM10,NA,NA,NA
India,Karnataka,Bengaluru,"Kasturi Nagar, Bengaluru - KSPCB",25-06-2024 12:00:00,13.003872,77.664217,PM10,42,53,46
India,Karnataka,Bengaluru,"Kasturi Nagar, Bengaluru - KSPCB",25-06-2024 12:00:00,13.003872,77.664217,NO2,16,17,17
India,Karnataka,Bengaluru,"Kasturi Nagar, Bengaluru - KSPCB",25-06-2024 12:00:00,13.003872,77.664217,SO2,10,10,10
India,Karnataka,Bengaluru,"Sanegurava Halli, Bengaluru - KSPCB",25-06-2024 12:00:00,12.990328,77.5431385,PM10,34,101,49
India,Karnataka,Bengaluru,"Shivapura_Peenya, Bengaluru - KSPCB",25-06-2024 12:00:00,13.0246342,77.5080115,NH3,4,4,4
India,Karnataka,Chamarajanagar,"Urban, Chamarajanagar - KSPCB",25-06-2024 12:00:00,11.55358,76.55521,NH3,2,2,2
India,Karnataka,Chamarajanagar,"Urban, Chamarajanagar - KSPCB",25-06-2024 12:00:00,11.55358,76.55521,OZONE,25,35,28
India,Karnataka,Chikkaballapur,"Chikkaballapur Rural, Chikkaballapur - KSPCB",25-06-2024 12:00:00,13.428828,77.731418,CO,12,17,14
India,Karnataka,Chikkamagaluru,"Kalyana Nagara, Chikkamagaluru - KSPCB",25-06-2024 12:00:00,13.328028,75.797056,NO2,15,31,20
India,Karnataka,Davanagere,"Devaraj Urs Badavane, Davanagere - KSPCB",25-06-2024 12:00:00,14.475800,75.905200,OZONE,18,22,18
India,Karnataka,Dharwad,"Kalabhavan, Dharwad - KSPCB",25-06-2024 12:00:00,15.459706,75.008381,PM10,26,93,62
India,Karnataka,Dharwad,"Kalabhavan, Dharwad - KSPCB",25-06-2024 12:00:00,15.459706,75.008381,CO,16,66,36
India,Karnataka,Dharwad,"Kalabhavan, Dharwad - KSPCB",25-06-2024 12:00:00,15.459706,75.008381,OZONE,24,35,27
India,Karnataka,Hassan,"B.Katihalli, Hassan - KSPCB",25-06-2024 12:00:00,13.008556,76.125258,NO2,8,36,20
India,Karnataka,Hubballi,"Lingaraj Nagar, Hubballi - KSPCB",25-06-2024 12:00:00,15.3714823,75.1160168,NO2,9,19,14
India,Karnataka,Kalaburagi,"Mahatma Basaveswar Colony, Kalaburgi - KSPCB",25-06-2024 12:00:00,17.336318,76.847397,OZONE,9,21,13
India,Karnataka,Karwar,"KHB Colony, Karwar - KSPCB",25-06-2024 12:00:00,14.816666,74.141003,PM10,18,62,31
India,Karnataka,Kolar,"Tamaka Ind. Area, Kolar - KSPCB",25-06-2024 12:00:00,13.1276288,78.1570122,OZONE,13,14,13
India,Karnataka,Koppal,"Diwator Nagar, Koppal - KSPCB",25-06-2024 12:00:00,15.347630,76.181767,PM2.5,NA,NA,NA
India,Karnataka,Koppal,"Diwator Nagar, Koppal - KSPCB",25-06-2024 12:00:00,15.347630,76.181767,NH3,2,9,7
India,Karnataka,Madikeri,"Stuart Hill, Madikeri - KSPCB",25-06-2024 12:00:00,12.415911,75.735050,PM2.5,17,35,24
India,Karnataka,Madikeri,"Stuart Hill, Madikeri - KSPCB",25-06-2024 12:00:00,12.415911,75.735050,OZONE,14,23,18
India,Karnataka,Mangalore,"Kadri, Mangalore - KSPCB",25-06-2024 12:00:00,12.889250,74.853000,PM10,37,86,54
India,Karnataka,Mangalore,"Kadri, Mangalore - KSPCB",25-06-2024 12:00:00,12.889250,74.853000,SO2,10,10,10
India,Karnataka,Mangalore,"Kadri, Mangalore - KSPCB",25-06-2024 12:00:00,12.889250,74.853000,CO,33,82,38
India,Karnataka,Mysuru,"Hebbal 1st Stage, Mysuru - KSPCB",25-06-2024 12:00:00,12.21041,76.37376,PM2.5,8,32,15
India,Karnataka,Mysuru,"Hebbal 1st Stage, Mysuru - KSPCB",25-06-2024 12:00:00,12.21041,76.37376,NH3,1,3,2
India,Karnataka,Mysuru,"Hebbal 1st Stage, Mysuru - KSPCB",25-06-2024 12:00:00,12.21041,76.37376,SO2,NA,NA,NA
India,Karnataka,Mysuru,"Hebbal 1st Stage, Mysuru - KSPCB",25-06-2024 12:00:00,12.21041,76.37376,OZONE,13,54,14
India,Karnataka,Raichur,"Haji Colony, Raichur - KSPCB",25-06-2024 12:00:00,16.208139,77.348417,NH3,2,7,3
India,Karnataka,Ramanagara,"Vijay Nagar, Ramanagara - KSPCB",25-06-2024 12:00:00,12.733409,77.298051,NO2,5,20,9
India,Karnataka,Udupi,"Brahmagiri, Udupi - KSPCB",25-06-2024 12:00:00,13.34194444,74.74694444,NH3,NA,NA,NA
India,Karnataka,Udupi,"Brahmagiri, Udupi - KSPCB",25-06-2024 12:00:00,13.34194444,74.74694444,OZONE,NA,NA,NA
India,Karnataka,Yadgir,"Collector Office, Yadgir - KSPCB",25-06-2024 12:00:00,16.7602,77.1428,NO2,6,17,10
India,Karnataka,Yadgir,"Collector Office, Yadgir - KSPCB",25-06-2024 12:00:00,16.7602,77.1428,NH3,1,1,1
India,Karnataka,Yadgir,"Collector Office, Yadgir - KSPCB",25-06-2024 12:00:00,16.7602,77.1428,CO,10,19,15
India,Kerala,Eloor,"Udyogamandal, Eloor - Kerala PCB",25-06-2024 12:00:00,10.073232,76.302765,NO2,5,6,5
India,Kerala,Thiruvananthapuram,"Kariavattom, Thiruvananthapuram - Kerala PCB",25-06-2024 12:00:00,8.563700,76.886500,PM2.5,33,39,36
India,Kerala,Thiruvananthapuram,"Kariavattom, Thiruvananthapuram - Kerala PCB",25-06-2024 12:00:00,8.563700,76.886500,CO,18,50,33
India,Kerala,Thiruvananthapuram,"Plammoodu, Thiruvananthapuram - Kerala PCB",25-06-2024 12:00:00,8.5149093,76.9435879,OZONE,3,61,10
India,Madhya Pradesh,Bhopal,"T T Nagar, Bhopal - MPPCB",25-06-2024 12:00:00,23.233584,77.400574,CO,21,48,25
India,Madhya Pradesh,Bhopal,"T T Nagar, Bhopal - MPPCB",25-06-2024 12:00:00,23.233584,77.400574,OZONE,7,34,13
India,Madhya Pradesh,Damoh,"Shrivastav Colony, Damoh - MPPCB",25-06-2024 12:00:00,23.81748678,79.446246,PM10,26,70,44
India,Madhya Pradesh,Gwalior,"City Center, Gwalior - MPPCB",25-06-2024 12:00:00,26.203442,78.193251,NH3,2,2,2
India,Madhya Pradesh,Gwalior,"City Center, Gwalior - MPPCB",25-06-2024 12:00:00,26.203442,78.193251,SO2,6,19,13
India,Madhya Pradesh,Gwalior,"City Center, Gwalior - MPPCB",25-06-2024 12:00:00,26.203442,78.193251,CO,42,67,51
India,Madhya Pradesh,Gwalior,"Deen Dayal Nagar, Gwalior - MPPCB",25-06-2024 12:00:00,26.259242,78.216432,PM10,35,104,72
India,Madhya Pradesh,Gwalior,"Maharaj Bada, Gwalior - MPPCB",25-06-2024 12:00:00,26.200388,78.147714,NH3,2,9,4
India,Madhya Pradesh,Indore,"Chhoti Gwaltoli, Indore - MPPCB",25-06-2024 12:00:00,22.4310,75.5213,PM2.5,25,90,49
India,Madhya Pradesh,Indore,"Chhoti Gwaltoli, Indore - MPPCB",25-06-2024 12:00:00,22.4310,75.5213,PM10,29,93,62
India,Madhya Pradesh,Indore,"Chhoti Gwaltoli, Indore - MPPCB",25-06-2024 12:00:00,22.4310,75.5213,CO,82,106,96
India,Madhya Pradesh,Indore,"Maguda Nagar, Indore - IMC",25-06-2024 12:00:00,22.7524,75.8872,PM2.5,7,68,34
India,Madhya Pradesh,Indore,"Maguda Nagar, Indore - IMC",25-06-2024 12:00:00,22.7524,75.8872,NH3,1,1,1
India,Madhya Pradesh,Indore,"Maguda Nagar, Indore - IMC",25-06-2024 12:00:00,22.7524,75.8872,CO,18,34,31
India,Madhya Pradesh,Indore,"Regional Park, Indore - IMC",25-06-2024 12:00:00,22.6780,75.8559,OZONE,6,13,7
India,Madhya Pradesh,Indore,"Residency Area, Indore - IMC",25-06-2024 12:00:00,22.7084,75.8815,PM10,13,46,30
India,Madhya Pradesh,Indore,"Residency Area, Indore - IMC",25-06-2024 12:00:00,22.7084,75.8815,SO2,20,22,22
India,Madhya Pradesh,Jabalpur,"Govindh Bhavan Colony, Jabalpur - JMC",25-06-2024 12:00:00,23.163174,79.973061,CO,8,14,12
India,Madhya Pradesh,Jabalpur,"Gupteshwar, Jabalpur - JMC",25-06-2024 12:00:00,23.142888,79.916147,CO,9,30,14
India,Madhya Pradesh,Jabalpur,"Marhatal, Jabalpur - MPPCB",25-06-2024 12:00:00,23.168606,79.932247,NO2,1,22,13
India,Madhya Pradesh,Jabalpur,"Marhatal, Jabalpur - MPPCB",25-06-2024 12:00:00,23.168606,79.932247,SO2,9,19,17
India,Madhya Pradesh,Jabalpur,"Marhatal, Jabalpur - MPPCB",25-06-2024 12:00:00,23.168606,79.932247,CO,40,64,54
India,Madhya Pradesh,Katni,"Gole Bazar, Katni - MPPCB",25-06-2024 12:00:00,23.50016,80.23284,PM10,44,100,62
India,Madhya Pradesh,Katni,"Gole Bazar, Katni - MPPCB",25-06-2024 12:00:00,23.50016,80.23284,NH3,3,4,3
India,Madhya Pradesh,Maihar,"Sahilara, Maihar - KJS Cements",25-06-2024 12:00:00,24.2613009,80.7231783,SO2,11,15,13
India,Madhya Pradesh,Mandideep,"Sector-D Industrial Area, Mandideep - MPPCB",25-06-2024 12:00:00,23.108440,77.511428,NH3,6,9,6
India,Madhya Pradesh,Pithampur,"Sector-2 Industrial Area, Pithampur - MPPCB",25-06-2024 12:00:00,22.624758,75.675238,SO2,12,22,17
India,Madhya Pradesh,Sagar,"Civil Lines, Sagar - MPPCB",25-06-2024 12:00:00,23.838586,78.759431,CO,15,31,16
India,Madhya Pradesh,Sagar,"Deen Dayal Nagar, Sagar - MPPCB",25-06-2024 12:00:00,23.8640158,78.80289321,PM10,22,132,75
India,Madhya Pradesh,Sagar,"Deen Dayal Nagar, Sagar - MPPCB",25-06-2024 12:00:00,23.8640158,78.80289321,SO2,12,16,14
India,Madhya Pradesh,Sagar,"Deen Dayal Nagar, Sagar - MPPCB",25-06-2024 12:00:00,23.8640158,78.80289321,CO,58,62,60
India,Madhya Pradesh,Satna,"Bandhavgar Colony, Satna - Birla Cement",25-06-2024 12:00:00,24.58434363,80.8549414,NO2,18,83,33
India,Madhya Pradesh,Singrauli,"Suryakiran Bhawan NCL, Singrauli - MPPCB",25-06-2024 12:00:00,24.108970,82.645580,NH3,NA,NA,NA
India,Madhya Pradesh,Singrauli,"Suryakiran Bhawan NCL, Singrauli - MPPCB",25-06-2024 12:00:00,24.108970,82.645580,CO,NA,NA,NA
India,Madhya Pradesh,Ujjain,"Mahakaleshwar Temple, Ujjain - MPPCB",25-06-2024 12:00:00,23.182719 ,75.768218 ,OZONE,55,60,56
India,Maharashtra,Ahmednagar,"Tarakpur, Ahmednagar - MPCB",25-06-2024 12:00:00,19.10122,74.73339,OZONE,10,53,20
India,Maharashtra,Akola,"Ramdaspeth, Akola - MPCB",25-06-2024 12:00:00,20.719516,77.000253,NH3,3,5,4
India,Maharashtra,Akola,"Ramdaspeth, Akola - MPCB",25-06-2024 12:00:00,20.719516,77.000253,OZONE,7,41,19
India,Maharashtra,Amravati,"Shivneri Colony, Amravati - MPCB",25-06-2024 12:00:00,20.9402359,77.7895248,NH3,3,5,4
India,Maharashtra,Amravati,"Shri Shivaji Science College, Amaravati - MPCB",25-06-2024 12:00:00,20.939198,77.765701,NH3,2,5,3
India,Maharashtra,Belapur,"CBD Belapur, Belapur - MPCB",25-06-2024 12:00:00,19.0243902,73.0406721,CO,5,26,12
India,Maharashtra,Belapur,"CBD Belapur, Belapur - MPCB",25-06-2024 12:00:00,19.0243902,73.0406721,OZONE,7,72,21
India,Maharashtra,Boisar,"Khaira, Boisar - MPCB",25-06-2024 12:00:00,19.786089,72.757971,NH3,1,4,2
India,Maharashtra,Boisar,"Khaira, Boisar - MPCB",25-06-2024 12:00:00,19.786089,72.757971,SO2,1,13,10
India,Maharashtra,Chandrapur,"MIDC Khutala, Chandrapur - MPCB",25-06-2024 12:00:00,19.9775302,79.2337086,NH3,NA,NA,NA
India,Maharashtra,Chandrapur,"MIDC Khutala, Chandrapur - MPCB",25-06-2024 12:00:00,19.9775302,79.2337086,CO,12,36,19
India,Maharashtra,Dhule,"Deopur, Dhule - MPCB",25-06-2024 12:00:00,20.918946,74.776388,PM2.5,23,66,44
India,Maharashtra,Dhule,"Deopur, Dhule - MPCB",25-06-2024 12:00:00,20.918946,74.776388,CO,2,24,12
India,Maharashtra,Jalgaon,"Prabhat Colony, Jalgaon - MPCB",25-06-2024 12:00:00,21.001264,75.565602,NO2,7,16,11
India,Maharashtra,Jalna,"Old MIDC, Jalna - MPCB",25-06-2024 12:00:00,19.854616,75.905894,PM2.5,26,208,40
India,Maharashtra,Jalna,"Old MIDC, Jalna - MPCB",25-06-2024 12:00:00,19.854616,75.905894,CO,23,31,25
India,Maharashtra,Jalna,"Old MIDC, Jalna - MPCB",25-06-2024 12:00:00,19.854616,75.905894,OZONE,15,44,19
India,Maharashtra,Kolhapur,"Shivaji University, Kolhapur - MPCB",25-06-2024 12:00:00,16.6870449,74.2505872,NH3,4,6,5
India,Maharashtra,Kolhapur,"Shivaji University, Kolhapur - MPCB",25-06-2024 12:00:00,16.6870449,74.2505872,SO2,1,3,2
India,Maharashtra,Kolhapur,"Shivaji University, Kolhapur - MPCB",25-06-2024 12:00:00,16.6870449,74.2505872,CO,2,21,10
India,Maharashtra,Kolhapur,"Shivaji University, Kolhapur - MPCB",25-06-2024 12:00:00,16.6870449,74.2505872,OZONE,23,46,33
India,Maharashtra,Kolhapur,"Sinchan Bhavan, Kolhapur - MPCB",25-06-2024 12:00:00,16.7143745,74.2426398,PM10,20,96,62
India,Maharashtra,Kolhapur,"Sinchan Bhavan, Kolhapur - MPCB",25-06-2024 12:00:00,16.7143745,74.2426398,SO2,1,2,1
India,Maharashtra,Kolhapur,"Sinchan Bhavan, Kolhapur - MPCB",25-06-2024 12:00:00,16.7143745,74.2426398,CO,11,29,18
India,Maharashtra,Kolhapur,"Sinchan Bhavan, Kolhapur - MPCB",25-06-2024 12:00:00,16.7143745,74.2426398,OZONE,19,60,28
India,Maharashtra,Mahad,"Kamble Tarf Birwadi, Mahad - MPCB",25-06-2024 12:00:00,18.1023399,73.4783687,CO,5,32,11
India,Maharashtra,Mahad,"Kamble Tarf Birwadi, Mahad - MPCB",25-06-2024 12:00:00,18.1023399,73.4783687,OZONE,8,27,14
India,Maharashtra,Malegaon,"Mahesh Nagar, Malegaon - MPCB",25-06-2024 12:00:00,20.555712,74.529236,NO2,7,33,17
India,Maharashtra,Malegaon,"Mahesh Nagar, Malegaon - MPCB",25-06-2024 12:00:00,20.555712,74.529236,NH3,2,7,4
India,Maharashtra,Mumbai,"Borivali East, Mumbai - IITM",25-06-2024 12:00:00,19.23241,72.86895,NH3,4,6,6
India,Maharashtra,Mumbai,"Borivali East, Mumbai - MPCB",25-06-2024 12:00:00,19.2243333,72.8658113,NO2,NA,NA,NA
India,Maharashtra,Mumbai,"Byculla, Mumbai - BMC",25-06-2024 12:00:00,18.9767,72.8380,OZONE,3,38,13
India,Maharashtra,Mumbai,"Chakala-Andheri East, Mumbai - IITM",25-06-2024 12:00:00,19.11074,72.86084,PM2.5,23,47,30
India,Maharashtra,Mumbai,"Chembur, Mumbai - MPCB",25-06-2024 12:00:00,19.0364585,72.8954371,SO2,1,93,14
India,Maharashtra,Mumbai,"Chhatrapati Shivaji Intl. Airport (T2), Mumbai - MPCB",25-06-2024 12:00:00,19.10078,72.87462,PM2.5,17,56,23
India,Maharashtra,Mumbai,"Chhatrapati Shivaji Intl. Airport (T2), Mumbai - MPCB",25-06-2024 12:00:00,19.10078,72.87462,NO2,10,47,24
India,Maharashtra,Mumbai,"Colaba, Mumbai - MPCB",25-06-2024 12:00:00,18.910000,72.820000,NH3,1,1,1
India,Maharashtra,Mumbai,"Kandivali East, Mumbai - MPCB",25-06-2024 12:00:00,19.205800,72.868200,NO2,16,40,29
India,Maharashtra,Mumbai,"Kandivali East, Mumbai - MPCB",25-06-2024 12:00:00,19.205800,72.868200,CO,34,39,36
India,Maharashtra,Mumbai,"Kherwadi_Bandra East, Mumbai - MPCB",25-06-2024 12:00:00,19.0632143,72.8456324,NO2,4,45,16
India,Maharashtra,Mumbai,"Kherwadi_Bandra East, Mumbai - MPCB",25-06-2024 12:00:00,19.0632143,72.8456324,CO,9,43,30
India,Maharashtra,Mumbai,"Kherwadi_Bandra East, Mumbai - MPCB",25-06-2024 12:00:00,19.0632143,72.8456324,OZONE,1,54,12
India,Maharashtra,Mumbai,"Khindipada-Bhandup West, Mumbai - IITM",25-06-2024 12:00:00,19.1653323,72.922099,NO2,4,8,6
India,Maharashtra,Mumbai,"Khindipada-Bhandup West, Mumbai - IITM",25-06-2024 12:00:00,19.1653323,72.922099,SO2,1,4,2
India,Maharashtra,Mumbai,"Mindspace-Malad West, Mumbai - MPCB",25-06-2024 12:00:00,19.1878657,72.8304069,PM2.5,16,38,24
India,Maharashtra,Mumbai,"Mindspace-Malad West, Mumbai - MPCB",25-06-2024 12:00:00,19.1878657,72.8304069,PM10,27,44,34
India,Maharashtra,Mumbai,"Mindspace-Malad West, Mumbai - MPCB",25-06-2024 12:00:00,19.1878657,72.8304069,NH3,5,6,5
India,Maharashtra,Mumbai,"Navy Nagar-Colaba, Mumbai - IITM",25-06-2024 12:00:00,18.897756,72.813320,NO2,27,43,34
India,Maharashtra,Mumbai,"Sewri, Mumbai - BMC",25-06-2024 12:00:00,19.000084,72.856730,PM10,16,38,26
India,Maharashtra,Mumbai,"Sewri, Mumbai - BMC",25-06-2024 12:00:00,19.000084,72.856730,CO,12,102,60
India,Maharashtra,Mumbai,"Siddharth Nagar-Worli, Mumbai - IITM",25-06-2024 12:00:00,19.000083,72.813993,PM2.5,4,24,10
India,Maharashtra,Mumbai,"Siddharth Nagar-Worli, Mumbai - IITM",25-06-2024 12:00:00,19.000083,72.813993,PM10,27,51,37
India,Maharashtra,Mumbai,"Siddharth Nagar-Worli, Mumbai - IITM",25-06-2024 12:00:00,19.000083,72.813993,OZONE,6,47,17
India,Maharashtra,Mumbai,"Sion, Mumbai - MPCB",25-06-2024 12:00:00,19.047000,72.874600,PM10,NA,NA,NA
India,Maharashtra,Mumbai,"Sion, Mumbai - MPCB",25-06-2024 12:00:00,19.047000,72.874600,NO2,NA,NA,NA
India,Maharashtra,Mumbai,"Sion, Mumbai - MPCB",25-06-2024 12:00:00,19.047000,72.874600,SO2,NA,NA,NA
India,Maharashtra,Mumbai,"Sion, Mumbai - MPCB",25-06-2024 12:00:00,19.047000,72.874600,CO,48,66,57
India,Maharashtra,Mumbai,"Vasai West, Mumbai - MPCB",25-06-2024 12:00:00,19.383200,72.820400,PM2.5,14,164,40
India,Maharashtra,Mumbai,"Vasai West, Mumbai - MPCB",25-06-2024 12:00:00,19.383200,72.820400,NO2,26,28,27
India,Maharashtra,Mumbai,"Vile Parle West, Mumbai - MPCB",25-06-2024 12:00:00,19.10861,72.83622,PM2.5,3,44,18
India,Maharashtra,Nagpur,"Ambazari, Nagpur - MPCB",25-06-2024 12:00:00,21.121801,79.04952,SO2,11,19,16
India,Maharashtra,Nagpur,"Ambazari, Nagpur - MPCB",25-06-2024 12:00:00,21.121801,79.04952,CO,16,62,33
India,Maharashtra,Nagpur,"Ambazari, Nagpur - MPCB",25-06-2024 12:00:00,21.121801,79.04952,OZONE,2,39,19
India,Maharashtra,Nagpur,"Mahal, Nagpur - MPCB",25-06-2024 12:00:00,21.14472,79.107595,NH3,2,4,3
India,Maharashtra,Nagpur,"Mahal, Nagpur - MPCB",25-06-2024 12:00:00,21.14472,79.107595,SO2,10,28,15
India,Maharashtra,Nagpur,"Opp GPO Civil Lines, Nagpur - MPCB",25-06-2024 12:00:00,21.152875,79.0517531,PM2.5,28,74,48
India,Maharashtra,Nagpur,"Opp GPO Civil Lines, Nagpur - MPCB",25-06-2024 12:00:00,21.152875,79.0517531,NH3,3,4,3
India,Maharashtra,Nagpur,"Opp GPO Civil Lines, Nagpur - MPCB",25-06-2024 12:00:00,21.152875,79.0517531,SO2,2,8,4
India,Maharashtra,Nagpur,"Ram Nagar, Nagpur - MPCB",25-06-2024 12:00:00,21.143383,79.048912,OZONE,1,46,22
India,Maharashtra,Nanded,"Sneh Nagar, Nanded - MPCB",25-06-2024 12:00:00,19.173852,77.296291,NO2,4,22,9
India,Maharashtra,Nanded,"Sneh Nagar, Nanded - MPCB",25-06-2024 12:00:00,19.173852,77.296291,CO,16,28,23
India,Maharashtra,Nashik,"Gangapur Road, Nashik - MPCB",25-06-2024 12:00:00,20.0073285,73.7762427,PM2.5,NA,NA,NA
India,Maharashtra,Nashik,"Hirawadi, Nashik - MPCB",25-06-2024 12:00:00,20.021503,73.813844,PM2.5,23,45,32
India,Maharashtra,Nashik,"Hirawadi, Nashik - MPCB",25-06-2024 12:00:00,20.021503,73.813844,PM10,24,40,30
India,Maharashtra,Nashik,"MIDC Ambad, Nashik - MPCB",25-06-2024 12:00:00,19.950220,73.731480,NO2,NA,NA,NA
India,Maharashtra,Navi Mumbai,"Kopripada-Vashi, Navi Mumbai - MPCB",25-06-2024 12:00:00,19.090337,73.014232,PM2.5,13,26,19
India,Maharashtra,Navi Mumbai,"Kopripada-Vashi, Navi Mumbai - MPCB",25-06-2024 12:00:00,19.090337,73.014232,NO2,13,32,21
India,Maharashtra,Navi Mumbai,"Nerul, Navi Mumbai - MPCB",25-06-2024 12:00:00,19.008751,73.016620,PM10,33,103,53
India,Maharashtra,Navi Mumbai,"Nerul, Navi Mumbai - MPCB",25-06-2024 12:00:00,19.008751,73.016620,CO,14,26,20
India,Maharashtra,Navi Mumbai,"Sanpada, Navi Mumbai - MPCB",25-06-2024 12:00:00,19.0575752,73.0151367,PM2.5,6,47,15
India,Maharashtra,Navi Mumbai,"Sanpada, Navi Mumbai - MPCB",25-06-2024 12:00:00,19.0575752,73.0151367,CO,7,13,8
India,Maharashtra,Navi Mumbai,"Sector-19A Nerul, Navi Mumbai - IITM",25-06-2024 12:00:00,19.044,73.0325,OZONE,1,20,6
India,Maharashtra,Navi Mumbai,"Sector-2E Kalamboli, Navi Mumbai - MPCB",25-06-2024 12:00:00,19.02579,73.10297,NH3,1,3,2
India,Maharashtra,Navi Mumbai,"Sector-2E Kalamboli, Navi Mumbai - MPCB",25-06-2024 12:00:00,19.02579,73.10297,OZONE,2,51,14
India,Maharashtra,Navi Mumbai,"Tondare-Taloja, Navi Mumbai - MPCB",25-06-2024 12:00:00,19.0630,73.1209,NH3,NA,NA,NA
India,Maharashtra,Pimpri-Chinchwad,"Gavalinagar, Pimpri Chinchwad - MPCB",25-06-2024 12:00:00,18.63673,73.82487,SO2,1,3,3
India,Maharashtra,Pimpri-Chinchwad,"Park Street Wakad, Pimpri Chinchwad - MPCB",25-06-2024 12:00:00,18.59051,73.77946,PM10,37,79,55
India,Maharashtra,Pimpri-Chinchwad,"Park Street Wakad, Pimpri Chinchwad - MPCB",25-06-2024 12:00:00,18.59051,73.77946,SO2,1,7,4
India,Maharashtra,Pune,"Alandi, Pune - IITM",25-06-2024 12:00:00,18.675076,73.892743,PM2.5,17,43,26
India,Maharashtra,Pune,"Alandi, Pune - IITM",25-06-2024 12:00:00,18.675076,73.892743,PM10,17,63,36
India,Maharashtra,Pune,"Alandi, Pune - IITM",25-06-2024 12:00:00,18.675076,73.892743,CO,34,62,51
India,Maharashtra,Pune,"Bhumkar Nagar, Pune - IITM",25-06-2024 12:00:00,18.605770,73.749976,PM2.5,1,66,13
India,Maharashtra,Pune,"Bhumkar Nagar, Pune - IITM",25-06-2024 12:00:00,18.605770,73.749976,PM10,4,78,24
India,Maharashtra,Pune,"Bhumkar Nagar, Pune - IITM",25-06-2024 12:00:00,18.605770,73.749976,OZONE,15,48,28
India,Maharashtra,Pune,"Karve Road, Pune - MPCB",25-06-2024 12:00:00,18.5011743,73.8165527,CO,2,16,8
India,Maharashtra,Pune,"Mhada Colony, Pune - IITM",25-06-2024 12:00:00,18.573040,73.927715,PM2.5,18,42,28
India,Maharashtra,Pune,"Mhada Colony, Pune - IITM",25-06-2024 12:00:00,18.573040,73.927715,PM10,29,52,38
India,Maharashtra,Pune,"Mhada Colony, Pune - IITM",25-06-2024 12:00:00,18.573040,73.927715,NO2,20,44,34
India,Maharashtra,Pune,"Revenue Colony-Shivajinagar, Pune - IITM",25-06-2024 12:00:00,18.530085,73.849598,PM10,19,48,31
India,Maharashtra,Pune,"Revenue Colony-Shivajinagar, Pune - IITM",25-06-2024 12:00:00,18.530085,73.849598,NO2,20,57,33
India,Maharashtra,Pune,"Savitribai Phule Pune University, Pune - MPCB",25-06-2024 12:00:00,18.547056,73.826908,SO2,2,17,5
India,Maharashtra,Sangli,"Vijay Nagar, Sangli - MPCB",25-06-2024 12:00:00, 16.5038,74.3623,PM2.5,4,20,11
India,Maharashtra,Solapur,"Dnyaneshwar Nagar, Solapur - MPCB",25-06-2024 12:00:00,17.6336264,75.9132495,NH3,11,34,15
India,Maharashtra,Solapur,"Ratandeep Housing Society, Solapur - MPCB",25-06-2024 12:00:00,17.65439,75.90649,NH3,7,12,9
India,Maharashtra,Solapur,"Solapur, Solapur - MPCB",25-06-2024 12:00:00,17.6599188,75.9063906,PM2.5,47,47,47
India,Maharashtra,Solapur,"Solapur, Solapur - MPCB",25-06-2024 12:00:00,17.6599188,75.9063906,SO2,3,107,29
India,Maharashtra,Thane,"Kasarvadavali, Thane - MPCB",25-06-2024 12:00:00,19.26777,72.97182,SO2,3,13,5
India,Maharashtra,Thane,"Kasarvadavali, Thane - MPCB",25-06-2024 12:00:00,19.26777,72.97182,OZONE,1,37,5
India,Maharashtra,Thane,"Pimpleshwar Mandir, Thane - MPCB",25-06-2024 12:00:00,19.192056,72.9585188,CO,6,100,38
India,Maharashtra,Thane,"Upvan Fort, Thane - MPCB",25-06-2024 12:00:00,19.222279,72.957979,PM2.5,13,48,29
India,Maharashtra,Thane,"Upvan Fort, Thane - MPCB",25-06-2024 12:00:00,19.222279,72.957979,NH3,1,2,2
India,Maharashtra,Ulhasnagar,"Sidhi Vinayak Nagar, Ulhasnagar - MPCB",25-06-2024 12:00:00,19.235581,73.159121,PM10,54,88,72
India,Maharashtra,Virar,"Bolinj, Virar - MPCB",25-06-2024 12:00:00,19.4458210,72.7988231,SO2,2,5,4
India,Maharashtra,Virar,"Bolinj, Virar - MPCB",25-06-2024 12:00:00,19.4458210,72.7988231,CO,18,57,31
India,Manipur,Imphal,"Manipur University, Imphal - Manipur PCB",25-06-2024 12:00:00,24.7524239,93.9286218,NH3,1,2,1
India,Meghalaya,Shillong,"Lumpyngngad, Shillong - Meghalaya PCB",25-06-2024 12:00:00,25.5586,91.8985,SO2,NA,NA,NA
India,Mizoram,Aizawl,"Sikulpuikawn, Aizawl - Mizoram PCB",25-06-2024 12:00:00,23.7176342,92.7192841,PM2.5,2,15,7
India,Mizoram,Aizawl,"Sikulpuikawn, Aizawl - Mizoram PCB",25-06-2024 12:00:00,23.7176342,92.7192841,OZONE,2,21,10
India,Nagaland,Kohima,"PWD Juction, Kohima - NPCB",25-06-2024 12:00:00,25.6635413,94.0989878,NH3,1,1,1
India,Odisha,Angul,"Hakimapada, Angul - OSPCB",25-06-2024 12:00:00,20.832874,85.104082,PM10,23,201,73
India,Odisha,Angul,"Hakimapada, Angul - OSPCB",25-06-2024 12:00:00,20.832874,85.104082,NH3,1,1,1
India,Odisha,Balasore,"Kalidaspur, Balasore - OSPCB",25-06-2024 12:00:00,21.51161,86.89088,PM2.5,10,42,27
India,Odisha,Balasore,"Kalidaspur, Balasore - OSPCB",25-06-2024 12:00:00,21.51161,86.89088,PM10,38,119,66
India,Odisha,Balasore,"Kalidaspur, Balasore - OSPCB",25-06-2024 12:00:00,21.51161,86.89088,NO2,8,28,16
India,Odisha,Barbil,"Forest Office, Barbil - OSPCB",25-06-2024 12:00:00,22.1166054,85.3945546,PM2.5,15,65,32
India,Odisha,Barbil,"Forest Office, Barbil - OSPCB",25-06-2024 12:00:00,22.1166054,85.3945546,NO2,6,16,9
India,Odisha,Barbil,"Forest Office, Barbil - OSPCB",25-06-2024 12:00:00,22.1166054,85.3945546,CO,20,78,34
India,Odisha,Baripada,"Meher Colony, Baripada - OSPCB",25-06-2024 12:00:00,21.941841,86.728318,NO2,9,17,12
India,Odisha,Baripada,"Meher Colony, Baripada - OSPCB",25-06-2024 12:00:00,21.941841,86.728318,NH3,1,2,2
India,Odisha,Baripada,"Meher Colony, Baripada - OSPCB",25-06-2024 12:00:00,21.941841,86.728318,OZONE,47,83,64
India,Odisha,Bhubaneswar,"Patia, Bhubaneswar - OSPCB",25-06-2024 12:00:00,20.34652,85.81630,PM2.5,7,40,21
India,Odisha,Bhubaneswar,"Patia, Bhubaneswar - OSPCB",25-06-2024 12:00:00,20.34652,85.81630,OZONE,17,81,50
India,Odisha,Bileipada,"Tata Township, Bileipada - OSPCB",25-06-2024 12:00:00,22.06156703,85.47409613,PM10,NA,NA,NA
India,Odisha,Brajrajnagar,"GM Office, Brajrajnagar - OSPCB",25-06-2024 12:00:00,21.8004996,83.8396977,NO2,21,31,26
India,Odisha,Byasanagar,"Ferro Chrome Colony, Byasanagar - OSPCB",25-06-2024 12:00:00,20.94185,86.11510,NO2,6,18,10
India,Odisha,Byasanagar,"Ferro Chrome Colony, Byasanagar - OSPCB",25-06-2024 12:00:00,20.94185,86.11510,CO,20,33,25
India,Odisha,Cuttack,"CDA Area, Cuttack - OSPCB",25-06-2024 12:00:00,20.48891     ,85.84768     ,PM2.5,8,43,26
India,Odisha,Cuttack,"CDA Area, Cuttack - OSPCB",25-06-2024 12:00:00,20.48891     ,85.84768     ,NO2,6,23,10
India,Odisha,Keonjhar,"Jagamohanpur, Keonjhar - OSPCB",25-06-2024 12:00:00,21.643900,85.599355,SO2,NA,NA,NA
India,Odisha,Nayagarh,"Dabuna, Nayagarh - OSPCB",25-06-2024 12:00:00,21.847279,85.416905,PM10,NA,NA,NA
India,Odisha,Rairangpur,"Divisional Forest Office, Rairangpur - OSPCB",25-06-2024 12:00:00,22.265816,86.174829,PM2.5,42,64,51
India,Odisha,Rairangpur,"Divisional Forest Office, Rairangpur - OSPCB",25-06-2024 12:00:00,22.265816,86.174829,PM10,49,77,62
India,Odisha,Rairangpur,"Divisional Forest Office, Rairangpur - OSPCB",25-06-2024 12:00:00,22.265816,86.174829,NO2,14,14,14
India,Odisha,Rourkela,"Fertilizer Township, Rourkela - OSPCB",25-06-2024 12:00:00,22.18972222,84.86277778,CO,14,31,22
India,Odisha,Rourkela,"Raghunathpali, Rourkela - OSPCB",25-06-2024 12:00:00,22.220833,84.809444,PM10,20,76,42
India,Odisha,Rourkela,"Raghunathpali, Rourkela - OSPCB",25-06-2024 12:00:00,22.220833,84.809444,NH3,2,4,3
India,Odisha,Suakati,"OMC Colony, Suakati - OSPCB",25-06-2024 12:00:00,21.606865,85.510538,PM2.5,31,57,40
India,Odisha,Suakati,"OMC Colony, Suakati - OSPCB",25-06-2024 12:00:00,21.606865,85.510538,PM10,41,63,52
India,Odisha,Tensa,"Barsua Iron Ore Mines, Tensa - OSPCB",25-06-2024 12:00:00,21.869985,85.167016,NO2,23,53,32
India,Odisha,Tensa,"Barsua Iron Ore Mines, Tensa - OSPCB",25-06-2024 12:00:00,21.869985,85.167016,OZONE,9,31,15
India,Puducherry,Puducherry,"Jawahar Nagar, Puducherry - PPCC",25-06-2024 12:00:00,11.9309,79.8027,OZONE,26,75,41
India,Punjab,Amritsar,"Golden Temple, Amritsar - PPCB",25-06-2024 12:00:00,31.620000,74.876512,NH3,6,13,9
India,Punjab,Bathinda,"Hardev Nagar, Bathinda - PPCB",25-06-2024 12:00:00,30.233011,74.907758,PM10,NA,NA,NA
India,Punjab,Bathinda,"Hardev Nagar, Bathinda - PPCB",25-06-2024 12:00:00,30.233011,74.907758,SO2,3,84,31
India,Punjab,Jalandhar,"Civil Line, Jalandhar - PPCB",25-06-2024 12:00:00,31.321907,75.578914,PM2.5,54,209,96
India,Punjab,Khanna,"Kalal Majra, Khanna - PPCB",25-06-2024 12:00:00,30.736056 ,76.209694,CO,36,48,39
India,Punjab,Ludhiana,"Punjab Agricultural University, Ludhiana - PPCB",25-06-2024 12:00:00,30.9028,75.8086,CO,18,56,42
India,Punjab,Rupnagar,"Ratanpura, Rupnagar - Ambuja Cements",25-06-2024 12:00:00,31.0325454,76.5623046,SO2,6,7,7
India,Rajasthan,Ajmer,"Civil Lines,  Ajmer - RSPCB",25-06-2024 12:00:00,26.470859,74.646594,NO2,11,13,12
India,Rajasthan,Ajmer,"Civil Lines,  Ajmer - RSPCB",25-06-2024 12:00:00,26.470859,74.646594,CO,35,58,49
India,Rajasthan,Alwar,"Moti Doongri, Alwar - RSPCB",25-06-2024 12:00:00,27.554793,76.611536,PM10,31,111,62
India,Rajasthan,Alwar,"Moti Doongri, Alwar - RSPCB",25-06-2024 12:00:00,27.554793,76.611536,NH3,3,5,5
India,Rajasthan,Banswara,"Rati Talai, Banswara - RSPCB",25-06-2024 12:00:00,23.555190,74.440010,OZONE,33,130,49
India,Rajasthan,Baran,"Bamboliya, Baran - RSPCB",25-06-2024 12:00:00,25.106006,76.469948,NO2,8,21,12
India,Rajasthan,Barmer,"Railway Colony, Barmer - RSPCB",25-06-2024 12:00:00,25.747299,71.393989,CO,13,28,17
India,Rajasthan,Bharatpur,"Krishna Nagar, Bharatpur - RSPCB",25-06-2024 12:00:00,27.215415,77.50873,CO,4,133,109
India,Rajasthan,Bharatpur,"Krishna Nagar, Bharatpur - RSPCB",25-06-2024 12:00:00,27.215415,77.50873,OZONE,9,117,27
India,Rajasthan,Bhilwara,"Pratap Nagar, Bhilwara - RSPCB",25-06-2024 12:00:00,25.339605,74.618883,PM10,11,61,37
India,Rajasthan,Bhiwadi,"RIICO Ind. Area III, Bhiwadi - RSPCB",25-06-2024 12:00:00,28.194909,76.862296,NH3,2,17,7
India,Rajasthan,Bhiwadi,"RIICO Ind. Area III, Bhiwadi - RSPCB",25-06-2024 12:00:00,28.194909,76.862296,OZONE,10,86,34
India,Rajasthan,Bhiwadi,"Vasundhara Nagar_UIT, Bhiwadi - RSPCB",25-06-2024 12:00:00,28.207266,76.829265,PM10,55,458,135
India,Rajasthan,Bhiwadi,"Vasundhara Nagar_UIT, Bhiwadi - RSPCB",25-06-2024 12:00:00,28.207266,76.829265,NO2,14,118,36
India,Rajasthan,Bundi,"New Colony, Bundi - RSPCB",25-06-2024 12:00:00,25.435774,75.644272,PM2.5,13,42,28
India,Rajasthan,Bundi,"New Colony, Bundi - RSPCB",25-06-2024 12:00:00,25.435774,75.644272,NH3,4,8,5
India,Rajasthan,Chittorgarh,"Shastri Nagar, Chittorgarh - RSPCB",25-06-2024 12:00:00,24.892047,74.623527,NO2,NA,NA,NA
India,Rajasthan,Chittorgarh,"Shastri Nagar, Chittorgarh - RSPCB",25-06-2024 12:00:00,24.892047,74.623527,NH3,NA,NA,NA
India,Rajasthan,Churu,"Subash Chowk, Churu - RSPCB",25-06-2024 12:00:00,28.296139,74.961696,NO2,15,60,28
India,Rajasthan,Churu,"Subash Chowk, Churu - RSPCB",25-06-2024 12:00:00,28.296139,74.961696,SO2,3,5,3
India,Rajasthan,Churu,"Subash Chowk, Churu - RSPCB",25-06-2024 12:00:00,28.296139,74.961696,OZONE,29,153,46
India,Rajasthan,Dausa,"Khatikan Mohalla, Dausa - RSPCB",25-06-2024 12:00:00,26.895552,76.334753,PM10,NA,NA,NA
India,Rajasthan,Dausa,"Khatikan Mohalla, Dausa - RSPCB",25-06-2024 12:00:00,26.895552,76.334753,NO2,4,76,22
India,Rajasthan,Dholpur,"Raja Ganj, Dholpur - RSPCB",25-06-2024 12:00:00,26.699557,77.898881,CO,3,16,7
India,Rajasthan,Dungarpur,"Bhoiwada, Dungarpur - RSPCB",25-06-2024 12:00:00,23.837789,73.714926,NO2,9,19,11
India,Rajasthan,Dungarpur,"Bhoiwada, Dungarpur - RSPCB",25-06-2024 12:00:00,23.837789,73.714926,SO2,14,19,18
India,Rajasthan,Dungarpur,"Bhoiwada, Dungarpur - RSPCB",25-06-2024 12:00:00,23.837789,73.714926,CO,10,60,34
India,Rajasthan,Hanumangarh,"Housing Board, Hanumangarh - RSPCB",25-06-2024 12:00:00,29.610750,74.283608,PM10,87,475,172
India,Rajasthan,Hanumangarh,"Housing Board, Hanumangarh - RSPCB",25-06-2024 12:00:00,29.610750,74.283608,NH3,1,2,2
India,Rajasthan,Jaipur,"Adarsh Nagar, Jaipur - RSPCB",25-06-2024 12:00:00,26.902909,75.836858,PM2.5,25,105,69
India,Rajasthan,Jaipur,"Adarsh Nagar, Jaipur - RSPCB",25-06-2024 12:00:00,26.902909,75.836858,PM10,26,116,59
India,Rajasthan,Jaipur,"Mansarovar Sector-12, Jaipur - RSPCB",25-06-2024 12:00:00,26.843698,75.766894,NH3,6,9,7
India,Rajasthan,Jaipur,"Mansarovar Sector-12, Jaipur - RSPCB",25-06-2024 12:00:00,26.843698,75.766894,SO2,4,7,5
India,Rajasthan,Jaipur,"RIICO Sitapura, Jaipur - RSPCB",25-06-2024 12:00:00,26.786682,75.827928,OZONE,60,189,82
India,Rajasthan,Jaipur,"Sector-2 Murlipura, Jaipur - RSPCB",25-06-2024 12:00:00,26.960669,75.771817,PM2.5,16,53,32
India,Rajasthan,Jaipur,"Shastri Nagar, Jaipur - RSPCB",25-06-2024 12:00:00,26.9502929,75.730943,SO2,5,50,26
India,Rajasthan,Jaipur,"Shastri Nagar, Jaipur - RSPCB",25-06-2024 12:00:00,26.9502929,75.730943,OZONE,28,106,53
India,Rajasthan,Jaisalmer,"Sadar Bazar, Jaisalmer - RSPCB",25-06-2024 12:00:00,26.912329,70.909168,PM2.5,26,63,47
India,Rajasthan,Jaisalmer,"Sadar Bazar, Jaisalmer - RSPCB",25-06-2024 12:00:00,26.912329,70.909168,PM10,90,130,111
India,Rajasthan,Jalore,"Mudtra Sili, Jalore - RSPCB",25-06-2024 12:00:00,25.344694,72.626208,PM2.5,39,74,57
India,Rajasthan,Jalore,"Mudtra Sili, Jalore - RSPCB",25-06-2024 12:00:00,25.344694,72.626208,PM10,46,166,101
India,Rajasthan,Jalore,"Mudtra Sili, Jalore - RSPCB",25-06-2024 12:00:00,25.344694,72.626208,NO2,8,33,17
India,Rajasthan,Jalore,"Mudtra Sili, Jalore - RSPCB",25-06-2024 12:00:00,25.344694,72.626208,NH3,5,16,8
India,Rajasthan,Jhalawar,"Rajlaxmi Nagar, Jhalawar - RSPCB",25-06-2024 12:00:00,24.588397,76.172782,NO2,14,26,17
India,Rajasthan,Jhalawar,"Rajlaxmi Nagar, Jhalawar - RSPCB",25-06-2024 12:00:00,24.588397,76.172782,NH3,1,2,2
India,Rajasthan,Jhalawar,"Rajlaxmi Nagar, Jhalawar - RSPCB",25-06-2024 12:00:00,24.588397,76.172782,CO,24,56,49
India,Rajasthan,Jhunjhunu,"Indra Nagar, Jhunjhunu - RSPCB",25-06-2024 12:00:00,28.108988,75.386577,PM10,59,329,126
India,Rajasthan,Jodhpur,"Collectorate, Jodhpur - RSPCB",25-06-2024 12:00:00,26.268249,73.0193853,PM10,37,212,100
India,Rajasthan,Jodhpur,"Digari Kalan, Jodhpur - RSPCB",25-06-2024 12:00:00,26.295810,73.082283,NO2,6,28,11
India,Rajasthan,Jodhpur,"Digari Kalan, Jodhpur - RSPCB",25-06-2024 12:00:00,26.295810,73.082283,NH3,4,7,5
India,Rajasthan,Jodhpur,"Digari Kalan, Jodhpur - RSPCB",25-06-2024 12:00:00,26.295810,73.082283,OZONE,72,151,89
India,Rajasthan,Jodhpur,"Jhalamand, Jodhpur - RSPCB",25-06-2024 12:00:00,26.215415,73.070156,PM10,13,124,69
India,Rajasthan,Jodhpur,"Jhalamand, Jodhpur - RSPCB",25-06-2024 12:00:00,26.215415,73.070156,SO2,3,6,4
India,Rajasthan,Jodhpur,"Mandor, Jodhpur - RSPCB",25-06-2024 12:00:00,26.358805,73.047444,PM2.5,14,61,33
India,Rajasthan,Jodhpur,"Mandor, Jodhpur - RSPCB",25-06-2024 12:00:00,26.358805,73.047444,NO2,13,36,23
India,Rajasthan,Jodhpur,"Mandor, Jodhpur - RSPCB",25-06-2024 12:00:00,26.358805,73.047444,NH3,6,15,8
India,Rajasthan,Jodhpur,"Mandor, Jodhpur - RSPCB",25-06-2024 12:00:00,26.358805,73.047444,OZONE,52,102,74
India,Rajasthan,Kota,"Dhanmandi, Kota - RSPCB",25-06-2024 12:00:00,25.164090,75.858137,PM2.5,33,289,78
India,Rajasthan,Kota,"Dhanmandi, Kota - RSPCB",25-06-2024 12:00:00,25.164090,75.858137,SO2,2,54,10
India,Rajasthan,Kota,"Dhanmandi, Kota - RSPCB",25-06-2024 12:00:00,25.164090,75.858137,CO,9,102,35
India,Rajasthan,Kota,"Nayapura, Kota - RSPCB",25-06-2024 12:00:00,25.196024,75.855668,CO,10,36,18
India,Rajasthan,Kota,"Shrinath Puram, Kota - RSPCB",25-06-2024 12:00:00,25.14389,75.821256,OZONE,31,55,36
India,Rajasthan,Nagaur,"Karni Colony, Nagaur - RSPCB",25-06-2024 12:00:00,27.213494,73.734444,PM2.5,37,73,54
India,Rajasthan,Nagaur,"Karni Colony, Nagaur - RSPCB",25-06-2024 12:00:00,27.213494,73.734444,PM10,42,169,84
India,Rajasthan,Pali,"Indira Colony Vistar, Pali - RSPCB",25-06-2024 12:00:00,25.771061, 73.340227,PM10,34,467,129
India,Rajasthan,Pratapgarh,"Pragati Nagar, Pratapgarh - RSPCB",25-06-2024 12:00:00,24.041198,74.780702,PM10,12,43,25
India,Rajasthan,Pratapgarh,"Pragati Nagar, Pratapgarh - RSPCB",25-06-2024 12:00:00,24.041198,74.780702,NO2,3,21,8
India,Rajasthan,Rajsamand,"Dhoinda, Rajsamand - RSPCB",25-06-2024 12:00:00,25.036360,73.883502,NH3,1,2,2
India,Rajasthan,Sawai Madhopur,"Sahu Nagar, Sawai Madhopur - RSPCB",25-06-2024 12:00:00,26.031443,76.359327,OZONE,52,141,72
India,Rajasthan,Sikar,"Radhakishan Pura, Sikar - RSPCB",25-06-2024 12:00:00,27.608912,75.153302,PM2.5,29,103,65
India,Rajasthan,Sikar,"Radhakishan Pura, Sikar - RSPCB",25-06-2024 12:00:00,27.608912,75.153302,NH3,6,8,7
India,Rajasthan,Sirohi,"Vedhaynath Colony, Sirohi - RSPCB",25-06-2024 12:00:00,24.885261,72.857549,PM10,19,77,40
India,Rajasthan,Sri Ganganagar,"Old City, Sri Ganganagar - RSPCB",25-06-2024 12:00:00,29.931624,73.864511,PM10,200,500,345
India,Rajasthan,Sri Ganganagar,"Old City, Sri Ganganagar - RSPCB",25-06-2024 12:00:00,29.931624,73.864511,NH3,21,39,25
India,Rajasthan,Sri Ganganagar,"Old City, Sri Ganganagar - RSPCB",25-06-2024 12:00:00,29.931624,73.864511,OZONE,21,64,32
India,Sikkim,Gangtok,"Zero Point GICI, Gangtok - SSPCB",25-06-2024 12:00:00,27.338530,88.614099,PM2.5,8,17,13
India,TamilNadu,Chennai,"Alandur Bus Depot, Chennai - CPCB",25-06-2024 12:00:00,12.9099161,80.1076538,PM2.5,24,25,24
India,TamilNadu,Chennai,"Alandur Bus Depot, Chennai - CPCB",25-06-2024 12:00:00,12.9099161,80.1076538,CO,60,64,63
India,TamilNadu,Chennai,"Arumbakkam, Chennai - TNPCB",25-06-2024 12:00:00,13.0664,80.2112 ,PM2.5,10,32,18
India,TamilNadu,Chennai,"Kodungaiyur, Chennai - TNPCB",25-06-2024 12:00:00,13.1278,80.2642,PM2.5,NA,NA,NA
India,TamilNadu,Chennai,"Manali, Chennai - CPCB",25-06-2024 12:00:00,13.164544,80.26285,NH3,5,6,5
India,TamilNadu,Chennai,"Perungudi, Chennai - TNPCB",25-06-2024 12:00:00,12.9533,80.2357,NH3,3,4,3
India,TamilNadu,Chennai,"Perungudi, Chennai - TNPCB",25-06-2024 12:00:00,12.9533,80.2357,OZONE,5,16,14
India,TamilNadu,Chennai,"Royapuram, Chennai - TNPCB",25-06-2024 12:00:00,13.1036,80.2909,NO2,20,35,28
India,TamilNadu,Chennai,"Royapuram, Chennai - TNPCB",25-06-2024 12:00:00,13.1036,80.2909,SO2,2,14,4
India,TamilNadu,Chennai,"Velachery Res. Area, Chennai - CPCB",25-06-2024 12:00:00,13.0052189,80.2398125,NO2,17,26,20
India,TamilNadu,Coimbatore,"PSG College of Arts and Science, Coimbatore - TNPCB",25-06-2024 12:00:00,11.0328,77.0349,SO2,NA,NA,NA
India,TamilNadu,Coimbatore,"PSG College of Arts and Science, Coimbatore - TNPCB",25-06-2024 12:00:00,11.0328,77.0349,CO,NA,NA,NA
India,TamilNadu,Cuddalore,"Semmandalam, Cuddalore - TNPCB",25-06-2024 12:00:00,11.7637683,79.7499835,PM2.5,13,48,27
India,TamilNadu,Cuddalore,"Semmandalam, Cuddalore - TNPCB",25-06-2024 12:00:00,11.7637683,79.7499835,NH3,1,3,1
India,TamilNadu,Cuddalore,"Semmandalam, Cuddalore - TNPCB",25-06-2024 12:00:00,11.7637683,79.7499835,OZONE,1,2,1
India,TamilNadu,Ooty,"Bombay Castel, Ooty - TNPCB",25-06-2024 12:00:00,11.4068288,76.7138973,NO2,NA,NA,NA
India,TamilNadu,Ooty,"Bombay Castel, Ooty - TNPCB",25-06-2024 12:00:00,11.4068288,76.7138973,CO,22,24,24
India,TamilNadu,Ramanathapuram,"Chalai Bazaar, Ramanathapuram - TNPCB",25-06-2024 12:00:00,9.36399,78.831977,NH3,NA,NA,NA
India,TamilNadu,Thoothukudi,"Meelavittan, Thoothukudi - TNPCB",25-06-2024 12:00:00,8.816428 ,78.099039,CO,4,26,10
India,TamilNadu,Thoothukudi,"Meelavittan, Thoothukudi - TNPCB",25-06-2024 12:00:00,8.816428 ,78.099039,OZONE,1,2,1
India,TamilNadu,Vellore,"Vasanthapuram, Vellore - TNPCB",25-06-2024 12:00:00,12.909494,79.131861,PM10,11,54,35
India,Telangana,Hyderabad,"Bollaram Industrial Area, Hyderabad - TSPCB",25-06-2024 12:00:00,17.540891,78.358528,PM2.5,NA,NA,NA
India,Telangana,Hyderabad,"Bollaram Industrial Area, Hyderabad - TSPCB",25-06-2024 12:00:00,17.540891,78.358528,NO2,NA,NA,NA
India,Telangana,Hyderabad,"Central University, Hyderabad - TSPCB",25-06-2024 12:00:00,17.460103,78.334361,PM2.5,5,18,11
India,Telangana,Hyderabad,"Central University, Hyderabad - TSPCB",25-06-2024 12:00:00,17.460103,78.334361,NH3,1,6,4
India,Telangana,Hyderabad,"Central University, Hyderabad - TSPCB",25-06-2024 12:00:00,17.460103,78.334361,SO2,2,10,6
India,Telangana,Hyderabad,"ICRISAT Patancheru, Hyderabad - TSPCB",25-06-2024 12:00:00,17.518400,78.278777,NO2,1,11,7
India,Telangana,Hyderabad,"IDA Pashamylaram, Hyderabad - TSPCB",25-06-2024 12:00:00,17.5316895,78.218939,PM10,19,64,33
India,Telangana,Hyderabad,"IDA Pashamylaram, Hyderabad - TSPCB",25-06-2024 12:00:00,17.5316895,78.218939,NO2,16,41,32
India,Telangana,Hyderabad,"IDA Pashamylaram, Hyderabad - TSPCB",25-06-2024 12:00:00,17.5316895,78.218939,OZONE,1,12,3
India,Telangana,Hyderabad,"IITH Kandi, Hyderabad - TSPCB",25-06-2024 12:00:00,17.585705,78.126199,CO,3,18,15
India,Telangana,Hyderabad,"Kokapet, Hyderabad - TSPCB",25-06-2024 12:00:00,17.393559,78.339194,PM2.5,45,80,57
India,Telangana,Hyderabad,"Kokapet, Hyderabad - TSPCB",25-06-2024 12:00:00,17.393559,78.339194,NO2,10,10,10
India,Telangana,Hyderabad,"Kompally Municipal Office, Hyderabad - TSPCB",25-06-2024 12:00:00,17.544899,78.486949,NH3,3,8,5
India,Telangana,Hyderabad,"Kompally Municipal Office, Hyderabad - TSPCB",25-06-2024 12:00:00,17.544899,78.486949,SO2,2,16,8
India,Telangana,Hyderabad,"Kompally Municipal Office, Hyderabad - TSPCB",25-06-2024 12:00:00,17.544899,78.486949,OZONE,23,37,24
India,Telangana,Hyderabad,"Ramachandrapuram, Hyderabad - TSPCB",25-06-2024 12:00:00,17.528544,78.286195,NO2,10,15,13
India,Telangana,Hyderabad,"Ramachandrapuram, Hyderabad - TSPCB",25-06-2024 12:00:00,17.528544,78.286195,OZONE,29,63,40
India,Telangana,Hyderabad,"Sanathnagar, Hyderabad - TSPCB",25-06-2024 12:00:00,17.4559458,78.4332152,PM2.5,16,45,26
India,Telangana,Hyderabad,"Somajiguda, Hyderabad - TSPCB",25-06-2024 12:00:00,17.417094,78.457437,PM2.5,NA,NA,NA
India,Telangana,Hyderabad,"Somajiguda, Hyderabad - TSPCB",25-06-2024 12:00:00,17.417094,78.457437,NO2,NA,NA,NA
India,Telangana,Hyderabad,"Zoo Park, Hyderabad - TSPCB",25-06-2024 12:00:00,17.349694,78.451437,SO2,1,6,2
India,Tripura,Agartala,"Bardowali, Agartala - Tripura SPCB",25-06-2024 12:00:00,23.8175497,91.2726974,PM10,38,86,64
India,Tripura,Agartala,"Bardowali, Agartala - Tripura SPCB",25-06-2024 12:00:00,23.8175497,91.2726974,NH3,3,10,8
India,Uttar_Pradesh,Agra,"Manoharpur, Agra - UPPCB",25-06-2024 12:00:00,27.23711,78.01936,NH3,2,3,2
India,Uttar_Pradesh,Agra,"Rohta, Agra - UPPCB",25-06-2024 12:00:00,27.106972,78.000111,PM10,NA,NA,NA
India,Uttar_Pradesh,Agra,"Rohta, Agra - UPPCB",25-06-2024 12:00:00,27.106972,78.000111,NO2,4,6,5
India,Uttar_Pradesh,Agra,"Rohta, Agra - UPPCB",25-06-2024 12:00:00,27.106972,78.000111,SO2,5,8,7
India,Uttar_Pradesh,Agra,"Sanjay Palace, Agra - UPPCB",25-06-2024 12:00:00,27.19865833,78.00598056,NO2,2,7,4
India,Uttar_Pradesh,Agra,"Sector-3B Avas Vikas Colony, Agra - UPPCB",25-06-2024 12:00:00,27.19412,77.96237,OZONE,11,19,12
India,Uttar_Pradesh,Agra,"Shahjahan Garden, Agra - UPPCB",25-06-2024 12:00:00,27.169338,78.03582,PM2.5,27,78,48
India,Uttar_Pradesh,Agra,"Shahjahan Garden, Agra - UPPCB",25-06-2024 12:00:00,27.169338,78.03582,PM10,NA,NA,NA
India,Uttar_Pradesh,Agra,"Shastripuram, Agra - UPPCB",25-06-2024 12:00:00,27.19862,77.92066,SO2,14,16,15
India,Uttar_Pradesh,Agra,"Shastripuram, Agra - UPPCB",25-06-2024 12:00:00,27.19862,77.92066,OZONE,1,18,4
India,Uttar_Pradesh,Baghpat,"Sardar Patel Inter College, Baghpat - UPPCB",25-06-2024 12:00:00,28.964949,77.278761,PM2.5,13,32,25
India,Uttar_Pradesh,Baghpat,"Sardar Patel Inter College, Baghpat - UPPCB",25-06-2024 12:00:00,28.964949,77.278761,SO2,24,52,37
India,Uttar_Pradesh,Bareilly,"Civil Lines, Bareilly - UPPCB",25-06-2024 12:00:00,28.359581,79.414455,OZONE,2,11,6
India,Uttar_Pradesh,Bareilly,"Rajendra Nagar, Bareilly - UPPCB",25-06-2024 12:00:00,28.38910936,79.42963708,PM10,18,40,33
India,Uttar_Pradesh,Bareilly,"Rajendra Nagar, Bareilly - UPPCB",25-06-2024 12:00:00,28.38910936,79.42963708,CO,4,18,12
India,Uttar_Pradesh,Bulandshahr,"Yamunapuram, Bulandshahr - UPPCB",25-06-2024 12:00:00,28.406963,77.849831,OZONE,10,64,36
India,Uttar_Pradesh,Firozabad,"Nagla Bhau, Firozabad - UPPCB",25-06-2024 12:00:00,27.168897,78.376960,NH3,NA,NA,NA
India,Uttar_Pradesh,Firozabad,"Vibhab Nagar, Firozabad - UPPCB",25-06-2024 12:00:00,27.1594,78.3953,SO2,4,18,8
India,Uttar_Pradesh,Ghaziabad,"Indirapuram, Ghaziabad - UPPCB",25-06-2024 12:00:00,28.646233,77.358075,PM2.5,60,303,170
India,Uttar_Pradesh,Ghaziabad,"Indirapuram, Ghaziabad - UPPCB",25-06-2024 12:00:00,28.646233,77.358075,NH3,12,42,19
India,Uttar_Pradesh,Ghaziabad,"Indirapuram, Ghaziabad - UPPCB",25-06-2024 12:00:00,28.646233,77.358075,CO,24,52,35
India,Uttar_Pradesh,Ghaziabad,"Sanjay Nagar, Ghaziabad - UPPCB",25-06-2024 12:00:00,28.685382,77.453839,NO2,18,63,36
India,Uttar_Pradesh,Gorakhpur,"Madan Mohan Malaviya University of Technology, Gorakhpur - UPPCB",25-06-2024 12:00:00,26.730136,83.433859,NO2,11,11,11
India,Uttar_Pradesh,Gorakhpur,"Madan Mohan Malaviya University of Technology, Gorakhpur - UPPCB",25-06-2024 12:00:00,26.730136,83.433859,SO2,20,21,20
India,Uttar_Pradesh,Greater Noida,"Knowledge Park - III, Greater Noida - UPPCB",25-06-2024 12:00:00,28.47272,77.482000,PM10,46,134,73
India,Uttar_Pradesh,Greater Noida,"Knowledge Park - III, Greater Noida - UPPCB",25-06-2024 12:00:00,28.47272,77.482000,SO2,2,11,7
India,Uttar_Pradesh,Greater Noida,"Knowledge Park - III, Greater Noida - UPPCB",25-06-2024 12:00:00,28.47272,77.482000,CO,26,46,36
India,Uttar_Pradesh,Greater Noida,"Knowledge Park - III, Greater Noida - UPPCB",25-06-2024 12:00:00,28.47272,77.482000,OZONE,3,90,26
India,Uttar_Pradesh,Greater Noida,"Knowledge Park - V, Greater Noida - UPPCB",25-06-2024 12:00:00,28.557054,77.453663,NH3,5,7,6
India,Uttar_Pradesh,Hapur,"Anand Vihar, Hapur - UPPCB",25-06-2024 12:00:00,28.725645,77.749675,PM10,32,126,54
India,Uttar_Pradesh,Hapur,"Anand Vihar, Hapur - UPPCB",25-06-2024 12:00:00,28.725645,77.749675,NH3,13,24,15
India,Uttar_Pradesh,Jhansi,"Shivaji Nagar, Jhansi - UPPCB",25-06-2024 12:00:00,25.4547,78.6039,NO2,14,19,16
India,Uttar_Pradesh,Kanpur,"FTI Kidwai Nagar, Kanpur - UPPCB",25-06-2024 12:00:00,26.428282,80.327067,PM2.5,8,51,34
India,Uttar_Pradesh,Kanpur,"FTI Kidwai Nagar, Kanpur - UPPCB",25-06-2024 12:00:00,26.428282,80.327067,PM10,13,83,56
India,Uttar_Pradesh,Kanpur,"FTI Kidwai Nagar, Kanpur - UPPCB",25-06-2024 12:00:00,26.428282,80.327067,SO2,20,26,23
India,Uttar_Pradesh,Kanpur,"NSI Kalyanpur, Kanpur - UPPCB",25-06-2024 12:00:00,26.509954,80.249612,PM2.5,19,115,75
India,Uttar_Pradesh,Kanpur,"NSI Kalyanpur, Kanpur - UPPCB",25-06-2024 12:00:00,26.509954,80.249612,NO2,12,17,16
India,Uttar_Pradesh,Kanpur,"Nehru Nagar, Kanpur - UPPCB",25-06-2024 12:00:00,26.4703136,80.3229863,PM2.5,55,102,73
India,Uttar_Pradesh,Khurja,"Kalindi Kunj, Khurja - UPPCB",25-06-2024 12:00:00,28.2348927,77.8683002,PM10,NA,NA,NA
India,Uttar_Pradesh,Khurja,"Kalindi Kunj, Khurja - UPPCB",25-06-2024 12:00:00,28.2348927,77.8683002,NO2,NA,NA,NA
India,Uttar_Pradesh,Khurja,"Kalindi Kunj, Khurja - UPPCB",25-06-2024 12:00:00,28.2348927,77.8683002,SO2,NA,NA,NA
India,Uttar_Pradesh,Lucknow,"B R Ambedkar University, Lucknow - UPPCB",25-06-2024 12:00:00,26.766433,80.927299,OZONE,7,37,18
India,Uttar_Pradesh,Lucknow,"Kukrail Picnic Spot-1, Lucknow - UPPCB",25-06-2024 12:00:00,26.90723,80.98579,NH3,2,2,2
India,Uttar_Pradesh,Lucknow,"Kukrail Picnic Spot-1, Lucknow - UPPCB",25-06-2024 12:00:00,26.90723,80.98579,OZONE,4,38,17
India,Uttar_Pradesh,Lucknow,"Talkatora District Industries Center, Lucknow - CPCB",25-06-2024 12:00:00,26.83399722,80.8917361,NH3,4,5,5
India,Uttar_Pradesh,Lucknow,"Talkatora District Industries Center, Lucknow - CPCB",25-06-2024 12:00:00,26.83399722,80.8917361,SO2,4,21,11
India,Uttar_Pradesh,Lucknow,"Talkatora District Industries Center, Lucknow - CPCB",25-06-2024 12:00:00,26.83399722,80.8917361,CO,2,50,28
India,Uttar_Pradesh,Lucknow,"Talkatora District Industries Center, Lucknow - CPCB",25-06-2024 12:00:00,26.83399722,80.8917361,OZONE,3,104,15
India,Uttar_Pradesh,Meerut,"Ganga Nagar, Meerut - UPPCB",25-06-2024 12:00:00,28.999264,77.7590354,PM10,27,256,72
India,Uttar_Pradesh,Meerut,"Ganga Nagar, Meerut - UPPCB",25-06-2024 12:00:00,28.999264,77.7590354,SO2,12,19,15
India,Uttar_Pradesh,Meerut,"Pallavpuram Phase 2, Meerut - UPPCB",25-06-2024 12:00:00,29.063510,77.709723,OZONE,7,44,13
India,Uttar_Pradesh,Moradabad,"Buddhi Vihar, Moradabad - UPPCB",25-06-2024 12:00:00,28.83526,78.74460,NH3,3,3,3
India,Uttar_Pradesh,Moradabad,"Buddhi Vihar, Moradabad - UPPCB",25-06-2024 12:00:00,28.83526,78.74460,SO2,19,27,24
India,Uttar_Pradesh,Moradabad,"Buddhi Vihar, Moradabad - UPPCB",25-06-2024 12:00:00,28.83526,78.74460,CO,23,36,29
India,Uttar_Pradesh,Moradabad,"Eco Herbal Park, Moradabad - UPPCB",25-06-2024 12:00:00,28.840739,78.697531,PM2.5,12,78,38
India,Uttar_Pradesh,Moradabad,"Employment Office, Moradabad - UPPCB",25-06-2024 12:00:00,28.88528,78.73880,NO2,12,17,17
India,Uttar_Pradesh,Moradabad,"Jigar Colony, Moradabad - UPPCB",25-06-2024 12:00:00,28.856664,78.772638,OZONE,5,42,23
India,Uttar_Pradesh,Moradabad,"Kashiram Nagar, Moradabad - UPPCB",25-06-2024 12:00:00,28.849399,78.742362,NO2,11,16,12
India,Uttar_Pradesh,Moradabad,"Kashiram Nagar, Moradabad - UPPCB",25-06-2024 12:00:00,28.849399,78.742362,CO,14,36,31
India,Uttar_Pradesh,Moradabad,"Transport Nagar, Moradabad - UPPCB",25-06-2024 12:00:00,28.802625,78.753728,PM2.5,25,95,47
India,Uttar_Pradesh,Moradabad,"Transport Nagar, Moradabad - UPPCB",25-06-2024 12:00:00,28.802625,78.753728,PM10,37,116,63
India,Uttar_Pradesh,Moradabad,"Transport Nagar, Moradabad - UPPCB",25-06-2024 12:00:00,28.802625,78.753728,SO2,20,34,25
India,Uttar_Pradesh,Muzaffarnagar,"New Mandi, Muzaffarnagar - UPPCB",25-06-2024 12:00:00,29.4723508,77.7194031,NH3,10,14,11
India,Uttar_Pradesh,Noida,"Sector - 62, Noida - IMD",25-06-2024 12:00:00,28.6245479,77.3577104,OZONE,22,46,32
India,Uttar_Pradesh,Noida,"Sector-1, Noida - UPPCB",25-06-2024 12:00:00,28.5898,77.3101,PM2.5,47,266,109
India,Uttar_Pradesh,Noida,"Sector-116, Noida - UPPCB",25-06-2024 12:00:00,28.569230,77.393848,PM10,64,176,103
India,Uttar_Pradesh,Prayagraj,"Jhunsi, Prayagraj - UPPCB",25-06-2024 12:00:00,25.425602,81.917152,SO2,29,32,30
India,Uttar_Pradesh,Prayagraj,"Nagar Nigam, Prayagraj - UPPCB",25-06-2024 12:00:00,25.44919916 ,81.82735986 ,PM10,27,136,60
India,Uttar_Pradesh,Prayagraj,"Nagar Nigam, Prayagraj - UPPCB",25-06-2024 12:00:00,25.44919916 ,81.82735986 ,NO2,5,5,5
India,Uttar_Pradesh,Prayagraj,"Nagar Nigam, Prayagraj - UPPCB",25-06-2024 12:00:00,25.44919916 ,81.82735986 ,SO2,25,137,73
India,Uttar_Pradesh,Prayagraj,"Nagar Nigam, Prayagraj - UPPCB",25-06-2024 12:00:00,25.44919916 ,81.82735986 ,CO,10,36,16
India,Uttar_Pradesh,Prayagraj,"Nagar Nigam, Prayagraj - UPPCB",25-06-2024 12:00:00,25.44919916 ,81.82735986 ,OZONE,10,13,12
India,Uttar_Pradesh,Varanasi,"Ardhali Bazar, Varanasi - UPPCB",25-06-2024 12:00:00,25.3505986,82.9083074,PM2.5,35,63,43
India,Uttar_Pradesh,Varanasi,"Bhelupur, Varanasi - UPPCB",25-06-2024 12:00:00,25.301778,82.996789,PM2.5,7,13,9
India,Uttar_Pradesh,Varanasi,"Bhelupur, Varanasi - UPPCB",25-06-2024 12:00:00,25.301778,82.996789,NH3,1,1,1
India,Uttar_Pradesh,Varanasi,"Bhelupur, Varanasi - UPPCB",25-06-2024 12:00:00,25.301778,82.996789,OZONE,4,23,9
India,Uttar_Pradesh,Varanasi,"IESD Banaras Hindu University, Varanasi - UPPCB",25-06-2024 12:00:00,25.262326,82.995408,PM10,15,34,22
India,Uttar_Pradesh,Varanasi,"IESD Banaras Hindu University, Varanasi - UPPCB",25-06-2024 12:00:00,25.262326,82.995408,CO,3,8,6
India,Uttar_Pradesh,Varanasi,"IESD Banaras Hindu University, Varanasi - UPPCB",25-06-2024 12:00:00,25.262326,82.995408,OZONE,10,16,12
India,Uttar_Pradesh,Varanasi,"Maldahiya, Varanasi - UPPCB",25-06-2024 12:00:00,25.32393,82.99687,NO2,1,2,2
India,Uttar_Pradesh,Varanasi,"Maldahiya, Varanasi - UPPCB",25-06-2024 12:00:00,25.32393,82.99687,NH3,1,1,1
India,Uttar_Pradesh,Varanasi,"Maldahiya, Varanasi - UPPCB",25-06-2024 12:00:00,25.32393,82.99687,OZONE,1,17,5
India,Uttarakhand,Dehradun,"Doon University, Dehradun - UKPCB",25-06-2024 12:00:00,30.269444,78.044167,PM2.5,16,124,52
India,Uttarakhand,Dehradun,"Doon University, Dehradun - UKPCB",25-06-2024 12:00:00,30.269444,78.044167,SO2,1,1,1
India,Uttarakhand,Dehradun,"Doon University, Dehradun - UKPCB",25-06-2024 12:00:00,30.269444,78.044167,CO,26,38,32
India,Uttarakhand,Rishikesh,"Shivaji Nagar, Rishikesh - UKPCB",25-06-2024 12:00:00,30.075911,78.2859547,NO2,6,10,8
India,Uttarakhand,Rishikesh,"Shivaji Nagar, Rishikesh - UKPCB",25-06-2024 12:00:00,30.075911,78.2859547,CO,14,36,22
India,West_Bengal,Asansol,"Asansol Court Area, Asansol - WBPCB",25-06-2024 12:00:00,23.685297,86.945968,PM2.5,54,242,93
India,West_Bengal,Asansol,"Asansol Court Area, Asansol - WBPCB",25-06-2024 12:00:00,23.685297,86.945968,NO2,21,49,37
India,West_Bengal,Asansol,"Asansol Court Area, Asansol - WBPCB",25-06-2024 12:00:00,23.685297,86.945968,NH3,9,14,10
India,West_Bengal,Asansol,"Evelyn Lodge, Asansol - WBPCB",25-06-2024 12:00:00,23.6979360,86.9443950,NO2,20,42,29
India,West_Bengal,Asansol,"Evelyn Lodge, Asansol - WBPCB",25-06-2024 12:00:00,23.6979360,86.9443950,OZONE,12,56,24
India,West_Bengal,Barrackpore,"SVSPA Campus, Barrackpore - WBPCB",25-06-2024 12:00:00,22.7605581,88.3617589,PM2.5,31,74,45
India,West_Bengal,Barrackpore,"SVSPA Campus, Barrackpore - WBPCB",25-06-2024 12:00:00,22.7605581,88.3617589,CO,13,55,15
India,West_Bengal,Barrackpore,"SVSPA Campus, Barrackpore - WBPCB",25-06-2024 12:00:00,22.7605581,88.3617589,OZONE,13,163,22
India,West_Bengal,Durgapur,"PCBL Residential Complex, Durgapur - WBPCB",25-06-2024 12:00:00,23.5087640,87.3544400,NH3,1,2,1
India,West_Bengal,Durgapur,"Sidhu Kanhu Indoor Stadium, Durgapur - WBPCB",25-06-2024 12:00:00,23.5404352,87.2892225,PM2.5,30,86,63
India,West_Bengal,Durgapur,"Sidhu Kanhu Indoor Stadium, Durgapur - WBPCB",25-06-2024 12:00:00,23.5404352,87.2892225,SO2,16,39,25
India,West_Bengal,Haldia,"Priyambada Housing Estate, Haldia - WBPCB",25-06-2024 12:00:00,22.06047,88.109737,PM10,31,72,52
India,West_Bengal,Howrah,"Belur Math, Howrah - WBPCB",25-06-2024 12:00:00,22.629801,88.352017,PM2.5,17,38,29
India,West_Bengal,Howrah,"Belur Math, Howrah - WBPCB",25-06-2024 12:00:00,22.629801,88.352017,CO,2,12,5
India,West_Bengal,Howrah,"Botanical Garden, Howrah - WBPCB",25-06-2024 12:00:00,22.554954,88.292568,PM2.5,NA,NA,NA
India,West_Bengal,Howrah,"Ghusuri, Howrah - WBPCB",25-06-2024 12:00:00,22.611968,88.347422,NH3,6,6,6
India,West_Bengal,Howrah,"Ghusuri, Howrah - WBPCB",25-06-2024 12:00:00,22.611968,88.347422,OZONE,13,19,16
India,West_Bengal,Howrah,"Padmapukur, Howrah - WBPCB",25-06-2024 12:00:00,22.5687319,88.2797276,NO2,27,51,40
India,West_Bengal,Howrah,"Padmapukur, Howrah - WBPCB",25-06-2024 12:00:00,22.5687319,88.2797276,SO2,7,53,17
India,West_Bengal,Kolkata,"Ballygunge, Kolkata - WBPCB",25-06-2024 12:00:00,22.5367507,88.3638022,CO,8,14,10
India,West_Bengal,Kolkata,"Bidhannagar, Kolkata - WBPCB",25-06-2024 12:00:00,22.58157048,88.41002457,NO2,41,49,44
India,West_Bengal,Kolkata,"Bidhannagar, Kolkata - WBPCB",25-06-2024 12:00:00,22.58157048,88.41002457,OZONE,11,18,14
India,West_Bengal,Kolkata,"Fort William, Kolkata - WBPCB",25-06-2024 12:00:00,22.556640,88.342674,NO2,11,26,16
India,West_Bengal,Kolkata,"Fort William, Kolkata - WBPCB",25-06-2024 12:00:00,22.556640,88.342674,OZONE,11,21,15
India,West_Bengal,Kolkata,"Jadavpur, Kolkata - WBPCB",25-06-2024 12:00:00,22.49929,88.36917,PM2.5,31,50,39
India,West_Bengal,Kolkata,"Jadavpur, Kolkata - WBPCB",25-06-2024 12:00:00,22.49929,88.36917,SO2,4,5,4
India,West_Bengal,Kolkata,"Rabindra Bharati University, Kolkata - WBPCB",25-06-2024 12:00:00,22.627847,88.380669,NO2,25,32,28
India,West_Bengal,Kolkata,"Rabindra Bharati University, Kolkata - WBPCB",25-06-2024 12:00:00,22.627847,88.380669,OZONE,8,69,11
India,West_Bengal,Kolkata,"Victoria, Kolkata - WBPCB",25-06-2024 12:00:00,22.5448082,88.3403691,OZONE,12,27,18
India,West_Bengal,Siliguri,"Ward-32 Bapupara, Siliguri - WBPCB",25-06-2024 12:00:00,26.6879226,88.4152495,PM2.5,24,49,38
India,West_Bengal,Siliguri,"Ward-32 Bapupara, Siliguri - WBPCB",25-06-2024 12:00:00,26.6879226,88.4152495,OZONE,16,19,18
India,Andhra_Pradesh,Amaravati,"Secretariat, Amaravati - APPCB",25-06-2024 12:00:00,16.5150833,80.5181667,SO2,6,19,16
India,Andhra_Pradesh,Anantapur,"Gulzarpet, Anantapur - APPCB",25-06-2024 12:00:00,14.675886,77.593027,OZONE,11,30,13
India,Andhra_Pradesh,Chittoor,"Gangineni Cheruvu, Chittoor - APPCB",25-06-2024 12:00:00,13.204880,79.097889,PM10,35,74,51
India,Andhra_Pradesh,Chittoor,"Gangineni Cheruvu, Chittoor - APPCB",25-06-2024 12:00:00,13.204880,79.097889,NH3,3,4,3
India,Andhra_Pradesh,Kadapa,"Yerramukkapalli, Kadapa - APPCB",25-06-2024 12:00:00,14.465052,78.824187,PM2.5,NA,NA,NA
India,Andhra_Pradesh,Kadapa,"Yerramukkapalli, Kadapa - APPCB",25-06-2024 12:00:00,14.465052,78.824187,PM10,NA,NA,NA
India,Andhra_Pradesh,Kadapa,"Yerramukkapalli, Kadapa - APPCB",25-06-2024 12:00:00,14.465052,78.824187,OZONE,9,9,9
India,Andhra_Pradesh,Tirupati,"Tirumala, Tirupati - APPCB",25-06-2024 12:00:00,13.67,79.35,SO2,NA,NA,NA
India,Andhra_Pradesh,Tirupati,"Vaikuntapuram, Tirupati - APPCB",25-06-2024 12:00:00,13.615387,79.409230,CO,8,17,11
India,Andhra_Pradesh,Vijayawada,"HB Colony, Vijayawada - APPCB",25-06-2024 12:00:00,16.536107,80.594233,NO2,9,22,13
India,Andhra_Pradesh,Vijayawada,"Kanuru, Vijayawada - APPCB",25-06-2024 12:00:00,16.486692,80.699436,CO,36,36,36
India,Andhra_Pradesh,Vijayawada,"Rajiv Gandhi Park, Vijayawada - APPCB",25-06-2024 12:00:00,16.509717,80.612222,PM10,31,68,52
India,Andhra_Pradesh,Vijayawada,"Rajiv Nagar, Vijayawada - APPCB",25-06-2024 12:00:00,16.554731,80.649110,PM2.5,47,93,51
India,Andhra_Pradesh,Visakhapatnam,"GVM Corporation, Visakhapatnam - APPCB",25-06-2024 12:00:00,17.72,83.3,PM2.5,28,48,37
India,Andhra_Pradesh,Visakhapatnam,"GVM Corporation, Visakhapatnam - APPCB",25-06-2024 12:00:00,17.72,83.3,NO2,57,135,82
India,Andhra_Pradesh,Visakhapatnam,"GVM Corporation, Visakhapatnam - APPCB",25-06-2024 12:00:00,17.72,83.3,SO2,5,15,10
India,Andhra_Pradesh,Visakhapatnam,"GVM Corporation, Visakhapatnam - APPCB",25-06-2024 12:00:00,17.72,83.3,CO,6,38,14
India,Assam,Byrnihat,"Central Academy for SFS, Byrnihat - PCBA",25-06-2024 12:00:00,26.071318,91.87488,NO2,14,20,16
India,Assam,Guwahati,"LGBI Airport, Guwahati - PCBA",25-06-2024 12:00:00,26.10887,91.589544,PM10,10,251,85
India,Assam,Guwahati,"LGBI Airport, Guwahati - PCBA",25-06-2024 12:00:00,26.10887,91.589544,NH3,1,6,2
India,Assam,Guwahati,"LGBI Airport, Guwahati - PCBA",25-06-2024 12:00:00,26.10887,91.589544,SO2,10,12,11
India,Assam,Guwahati,"Pan Bazaar, Guwahati - PCBA",25-06-2024 12:00:00,26.187500,91.744194,CO,6,48,29
India,Assam,Guwahati,"Railway Colony, Guwahati - PCBA",25-06-2024 12:00:00,26.181742,91.78063,NO2,3,4,3
India,Assam,Guwahati,"Railway Colony, Guwahati - PCBA",25-06-2024 12:00:00,26.181742,91.78063,CO,22,42,27
India,Assam,Nagaon,"Christianpatty, Nagaon - PCBA",25-06-2024 12:00:00,26.349082,92.68449,NH3,NA,NA,NA
India,Assam,Nagaon,"Christianpatty, Nagaon - PCBA",25-06-2024 12:00:00,26.349082,92.68449,OZONE,9,68,15
India,Assam,Silchar,"Tarapur, Silchar - PCBA",25-06-2024 12:00:00,24.82827,92.79525,PM10,40,74,50
India,Assam,Silchar,"Tarapur, Silchar - PCBA",25-06-2024 12:00:00,24.82827,92.79525,OZONE,NA,NA,NA
India,Assam,Sivasagar,"Girls College, Sivasagar - PCBA",25-06-2024 12:00:00,26.987634,94.636574,SO2,6,11,8
India,Bihar,Arrah,"New DM Office, Arrah - BSPCB",25-06-2024 12:00:00,25.5626095,84.663264,OZONE,10,22,17
India,Bihar,Bettiah,"Kamalnath Nagar, Bettiah - BSPCB",25-06-2024 12:00:00,26.80365,84.51954,NO2,NA,NA,NA
India,Bihar,Bhagalpur,"DM Office_Kachari Chowk, Bhagalpur - BSPCB",25-06-2024 12:00:00,25.251013,86.989001,PM10,52,122,92
India,Bihar,Bhagalpur,"Mayaganj, Bhagalpur - BSPCB",25-06-2024 12:00:00,25.265194,87.012947,PM10,35,138,72
India,Bihar,Bhagalpur,"Mayaganj, Bhagalpur - BSPCB",25-06-2024 12:00:00,25.265194,87.012947,CO,18,34,30
India,Bihar,Buxar,"Charitra Van, Buxar - BSPCB (Formerly known as Central Jail)",25-06-2024 12:00:00,25.567520,83.966379,NO2,NA,NA,NA
India,Bihar,Buxar,"Charitra Van, Buxar - BSPCB (Formerly known as Central Jail)",25-06-2024 12:00:00,25.567520,83.966379,NH3,1,2,1
India,Bihar,Chhapra,"Darshan Nagar, Chhapra - BSPCB",25-06-2024 12:00:00,25.7808257,84.7446768,PM2.5,NA,NA,NA
India,Bihar,Chhapra,"Darshan Nagar, Chhapra - BSPCB",25-06-2024 12:00:00,25.7808257,84.7446768,CO,33,54,44
India,Bihar,Gaya,"Kareemganj, Gaya - BSPCB",25-06-2024 12:00:00,24.792403,84.992416,SO2,13,13,13
India,Bihar,Gaya,"SFTI Kusdihra, Gaya - BSPCB",25-06-2024 12:00:00,24.762518,84.982348,PM10,32,58,43
India,Bihar,Gaya,"SFTI Kusdihra, Gaya - BSPCB",25-06-2024 12:00:00,24.762518,84.982348,NO2,19,191,55
India,Bihar,Gaya,"SFTI Kusdihra, Gaya - BSPCB",25-06-2024 12:00:00,24.762518,84.982348,CO,20,40,25
India,Bihar,Hajipur,"Industrial Area, Hajipur - BSPCB",25-06-2024 12:00:00,25.697189,85.245900,PM10,75,107,92
India,Bihar,Hajipur,"Industrial Area, Hajipur - BSPCB",25-06-2024 12:00:00,25.697189,85.245900,NO2,9,41,20
India,Bihar,Katihar,"Mirchaibari, Katihar - BSPCB",25-06-2024 12:00:00,25.560083,87.553265,PM2.5,27,73,40
India,Bihar,Kishanganj,"SDM Office_Khagra, Kishanganj - BSPCB",25-06-2024 12:00:00,26.0881305,87.93840336,NH3,6,10,7
India,Bihar,Munger,"Town Hall, Munger - BSPCB",25-06-2024 12:00:00,25.376776,86.471523,PM10,43,114,73
India,Bihar,Munger,"Town Hall, Munger - BSPCB",25-06-2024 12:00:00,25.376776,86.471523,NH3,2,3,3
India,Bihar,Munger,"Town Hall, Munger - BSPCB",25-06-2024 12:00:00,25.376776,86.471523,CO,86,106,95
India,Bihar,Muzaffarpur,"Buddha Colony, Muzaffarpur - BSPCB",25-06-2024 12:00:00,26.11442,85.39813,SO2,1,3,2
India,Bihar,Muzaffarpur,"MIT-Daudpur Kothi, Muzaffarpur - BSPCB",25-06-2024 12:00:00,26.1403345,85.3650192,PM2.5,NA,NA,NA
India,Bihar,Muzaffarpur,"MIT-Daudpur Kothi, Muzaffarpur - BSPCB",25-06-2024 12:00:00,26.1403345,85.3650192,CO,8,108,15
India,Bihar,Patna,"DRM Office Danapur, Patna - BSPCB",25-06-2024 12:00:00,25.586562,85.043586,NH3,2,3,3
India,Bihar,Patna,"DRM Office Danapur, Patna - BSPCB",25-06-2024 12:00:00,25.586562,85.043586,SO2,1,6,4
India,Bihar,Patna,"DRM Office Danapur, Patna - BSPCB",25-06-2024 12:00:00,25.586562,85.043586,OZONE,12,60,20
India,Bihar,Patna,"Rajbansi Nagar, Patna - BSPCB",25-06-2024 12:00:00,25.599486,85.113666,OZONE,5,87,17
India,Bihar,Saharsa,"Police Line, Saharsa - BSPCB",25-06-2024 12:00:00,25.892357,86.590325,OZONE,8,191,21
India,Bihar,Sasaram,"Dada Peer, Sasaram - BSPCB",25-06-2024 12:00:00,24.952822,84.002396,PM2.5,59,316,219
India,Chandigarh,Chandigarh,"Sector-25, Chandigarh - CPCC",25-06-2024 12:00:00,30.751462,76.762879,PM2.5,92,138,112
India,Chandigarh,Chandigarh,"Sector-25, Chandigarh - CPCC",25-06-2024 12:00:00,30.751462,76.762879,NH3,13,26,17
India,Chandigarh,Chandigarh,"Sector-25, Chandigarh - CPCC",25-06-2024 12:00:00,30.751462,76.762879,SO2,2,6,4
India,Chandigarh,Chandigarh,"Sector-53, Chandigarh - CPCC",25-06-2024 12:00:00,30.719859,76.738637,PM10,54,133,94
India,Chhattisgarh,Bhilai,"Hathkhoj, Bhilai - CECB",25-06-2024 12:00:00,21.224231,81.408350,SO2,9,11,10
India,Chhattisgarh,Bilaspur,"Mangala, Bilaspur - NTPC",25-06-2024 12:00:00,22.08815,82.13737,PM2.5,NA,NA,NA
India,Chhattisgarh,Bilaspur,"Mangala, Bilaspur - NTPC",25-06-2024 12:00:00,22.08815,82.13737,SO2,3,23,19
India,Chhattisgarh,Chhal,"Nawapara SECL Colony, Chhal - CECB",25-06-2024 12:00:00,22.118125,83.140608,NO2,7,24,13
India,Chhattisgarh,Korba,"Rampur, Korba - CECB",25-06-2024 12:00:00,22.368195,82.746431,OZONE,5,9,8
India,Chhattisgarh,Korba,"Urja Nagar, Korba - CECB",25-06-2024 12:00:00,22.348441,82.549611,SO2,6,9,8
India,Chhattisgarh,Milupara,"Govt. Higher Secondary School, Milupara - CECB",25-06-2024 12:00:00,22.1910172,83.5197009,CO,5,18,6
India,Chhattisgarh,Raipur,"AIIMS, Raipur - CECB",25-06-2024 12:00:00,21.258815,81.578979,SO2,3,6,4
India,Chhattisgarh,Raipur,"AIIMS, Raipur - CECB",25-06-2024 12:00:00,21.258815,81.578979,CO,16,28,19
India,Chhattisgarh,Raipur,"Bhatagaon New ISBT, Raipur - CECB",25-06-2024 12:00:00,21.219665,81.630094,PM2.5,11,26,17
India,Chhattisgarh,Raipur,"Bhatagaon New ISBT, Raipur - CECB",25-06-2024 12:00:00,21.219665,81.630094,NO2,4,4,4
India,Chhattisgarh,Raipur,"Siltara Phase-II, Raipur - CECB",25-06-2024 12:00:00,21.371751,81.664929,PM10,66,136,91
India,Chhattisgarh,Raipur,"Siltara Phase-II, Raipur - CECB",25-06-2024 12:00:00,21.371751,81.664929,SO2,NA,NA,NA
India,Chhattisgarh,Raipur,"Siltara Phase-II, Raipur - CECB",25-06-2024 12:00:00,21.371751,81.664929,CO,10,22,16
India,Chhattisgarh,Tumidih,"OP Jindal Industrial Park, Tumidih - CECB",25-06-2024 12:00:00,22.06631475,83.33820077,NO2,NA,NA,NA
India,Chhattisgarh,Tumidih,"OP Jindal Industrial Park, Tumidih - CECB",25-06-2024 12:00:00,22.06631475,83.33820077,OZONE,26,40,33
India,Delhi,Delhi,"Alipur, Delhi - DPCC",25-06-2024 12:00:00,28.815329,77.153010,NO2,24,48,33
India,Delhi,Delhi,"Alipur, Delhi - DPCC",25-06-2024 12:00:00,28.815329,77.153010,NH3,6,13,9
India,Delhi,Delhi,"Ashok Vihar, Delhi - DPCC",25-06-2024 12:00:00,28.695381,77.181665,NO2,24,90,51
India,Delhi,Delhi,"Ashok Vihar, Delhi - DPCC",25-06-2024 12:00:00,28.695381,77.181665,SO2,6,17,12
India,Delhi,Delhi,"Ashok Vihar, Delhi - DPCC",25-06-2024 12:00:00,28.695381,77.181665,CO,30,69,51
India,Delhi,Delhi,"Ashok Vihar, Delhi - DPCC",25-06-2024 12:00:00,28.695381,77.181665,OZONE,9,163,37
India,Delhi,Delhi,"Bawana, Delhi - DPCC",25-06-2024 12:00:00,28.776200,77.051074,OZONE,8,97,37
India,Delhi,Delhi,"CRRI Mathura Road, Delhi - IMD",25-06-2024 12:00:00,28.5512005,77.2735737,NO2,8,31,10
India,Delhi,Delhi,"CRRI Mathura Road, Delhi - IMD",25-06-2024 12:00:00,28.5512005,77.2735737,CO,20,45,32
India,Delhi,Delhi,"Chandni Chowk, Delhi - IITM",25-06-2024 12:00:00,28.656756,77.227234,NH3,2,2,2
India,Delhi,Delhi,"DTU, Delhi - CPCB",25-06-2024 12:00:00,28.7500499,77.1112615,NO2,61,71,66
India,Delhi,Delhi,"DTU, Delhi - CPCB",25-06-2024 12:00:00,28.7500499,77.1112615,SO2,41,43,42
India,Delhi,Delhi,"Dr. Karni Singh Shooting Range, Delhi - DPCC",25-06-2024 12:00:00,28.498571,77.264840,PM10,72,161,107
India,Delhi,Delhi,"Dwarka-Sector 8, Delhi - DPCC ",25-06-2024 12:00:00,28.5710274,77.0719006,CO,32,76,45
India,Delhi,Delhi,"IGI Airport (T3), Delhi - IMD",25-06-2024 12:00:00,28.5627763,77.1180053,PM10,73,132,91
India,Delhi,Delhi,"IGI Airport (T3), Delhi - IMD",25-06-2024 12:00:00,28.5627763,77.1180053,CO,34,57,40
India,Delhi,Delhi,"IGI Airport (T3), Delhi - IMD",25-06-2024 12:00:00,28.5627763,77.1180053,OZONE,2,34,11
India,Delhi,Delhi,"IHBAS, Dilshad Garden, Delhi - CPCB",25-06-2024 12:00:00,28.6811736,77.3025234,SO2,15,29,22
India,Delhi,Delhi,"IHBAS, Dilshad Garden, Delhi - CPCB",25-06-2024 12:00:00,28.6811736,77.3025234,CO,8,77,41
India,Delhi,Delhi,"Jahangirpuri, Delhi - DPCC",25-06-2024 12:00:00,28.732820,77.170633,PM2.5,45,318,138
India,Delhi,Delhi,"Jahangirpuri, Delhi - DPCC",25-06-2024 12:00:00,28.732820,77.170633,NH3,2,3,3
India,Delhi,Delhi,"Jawaharlal Nehru Stadium, Delhi - DPCC",25-06-2024 12:00:00,28.580280,77.233829,OZONE,6,87,23
India,Delhi,Delhi,"Lodhi Road, Delhi - IMD",25-06-2024 12:00:00,28.5918245,77.2273074,NO2,1,5,1
India,Delhi,Delhi,"Lodhi Road, Delhi - IMD",25-06-2024 12:00:00,28.5918245,77.2273074,OZONE,3,91,23
India,Delhi,Delhi,"Major Dhyan Chand National Stadium, Delhi - DPCC",25-06-2024 12:00:00,28.611281,77.237738,NH3,NA,NA,NA
India,Delhi,Delhi,"Major Dhyan Chand National Stadium, Delhi - DPCC",25-06-2024 12:00:00,28.611281,77.237738,CO,28,74,40
India,Delhi,Delhi,"Major Dhyan Chand National Stadium, Delhi - DPCC",25-06-2024 12:00:00,28.611281,77.237738,OZONE,1,45,9
India,Delhi,Delhi,"Mundka, Delhi - DPCC",25-06-2024 12:00:00,28.684678,77.076574,NH3,6,31,15
India,Delhi,Delhi,"Mundka, Delhi - DPCC",25-06-2024 12:00:00,28.684678,77.076574,SO2,3,5,5
India,Delhi,Delhi,"Mundka, Delhi - DPCC",25-06-2024 12:00:00,28.684678,77.076574,OZONE,16,92,45
India,Delhi,Delhi,"NSIT Dwarka, Delhi - CPCB",25-06-2024 12:00:00,28.60909,77.0325413,PM10,69,151,110
India,Delhi,Delhi,"NSIT Dwarka, Delhi - CPCB",25-06-2024 12:00:00,28.60909,77.0325413,NO2,16,51,29
India,Delhi,Delhi,"Najafgarh, Delhi - DPCC",25-06-2024 12:00:00,28.570173,76.933762,OZONE,11,32,20
India,Delhi,Delhi,"Narela, Delhi - DPCC",25-06-2024 12:00:00,28.822836,77.101981,PM10,113,473,238
India,Delhi,Delhi,"Narela, Delhi - DPCC",25-06-2024 12:00:00,28.822836,77.101981,SO2,1,6,3
India,Delhi,Delhi,"Narela, Delhi - DPCC",25-06-2024 12:00:00,28.822836,77.101981,OZONE,41,123,49
India,Delhi,Delhi,"Nehru Nagar, Delhi - DPCC",25-06-2024 12:00:00,28.567890,77.250515,PM10,67,157,106
India,Delhi,Delhi,"Nehru Nagar, Delhi - DPCC",25-06-2024 12:00:00,28.567890,77.250515,NO2,10,44,24
India,Delhi,Delhi,"Nehru Nagar, Delhi - DPCC",25-06-2024 12:00:00,28.567890,77.250515,CO,55,100,65
India,Delhi,Delhi,"North Campus, DU, Delhi - IMD",25-06-2024 12:00:00,28.6573814,77.1585447,PM2.5,20,392,149
India,Delhi,Delhi,"North Campus, DU, Delhi - IMD",25-06-2024 12:00:00,28.6573814,77.1585447,NO2,12,30,14
India,Delhi,Delhi,"Patparganj, Delhi - DPCC",25-06-2024 12:00:00,28.623763,77.287209,OZONE,3,74,23
India,Delhi,Delhi,"Punjabi Bagh, Delhi - DPCC",25-06-2024 12:00:00,28.674045,77.131023,NH3,NA,NA,NA
India,Delhi,Delhi,"Pusa, Delhi - DPCC",25-06-2024 12:00:00,28.639652,77.146275,CO,21,104,41
India,Delhi,Delhi,"Rohini, Delhi - DPCC",25-06-2024 12:00:00,28.732528,77.119920,NO2,13,75,36
India,Delhi,Delhi,"Rohini, Delhi - DPCC",25-06-2024 12:00:00,28.732528,77.119920,NH3,8,84,19
India,Delhi,Delhi,"Shadipur, Delhi - CPCB",25-06-2024 12:00:00,28.6514781,77.1473105,SO2,7,28,17
India,Delhi,Delhi,"Shadipur, Delhi - CPCB",25-06-2024 12:00:00,28.6514781,77.1473105,OZONE,14,190,83
India,Delhi,Delhi,"Sirifort, Delhi - CPCB",25-06-2024 12:00:00,28.5504249,77.2159377,PM10,86,157,108
India,Delhi,Delhi,"Sonia Vihar, Delhi - DPCC",25-06-2024 12:00:00,28.710508,77.249485,NH3,5,47,22
India,Delhi,Delhi,"Sonia Vihar, Delhi - DPCC",25-06-2024 12:00:00,28.710508,77.249485,CO,2,48,28
India,Delhi,Delhi,"Sonia Vihar, Delhi - DPCC",25-06-2024 12:00:00,28.710508,77.249485,OZONE,2,94,37
India,Delhi,Delhi,"Sri Aurobindo Marg, Delhi - DPCC",25-06-2024 12:00:00,28.531346,77.190156,PM2.5,47,297,126
India,Delhi,Delhi,"Sri Aurobindo Marg, Delhi - DPCC",25-06-2024 12:00:00,28.531346,77.190156,NO2,17,82,43
India,Delhi,Delhi,"Sri Aurobindo Marg, Delhi - DPCC",25-06-2024 12:00:00,28.531346,77.190156,SO2,7,15,12
India,Delhi,Delhi,"Vivek Vihar, Delhi - DPCC",25-06-2024 12:00:00,28.672342,77.315260,NH3,18,18,18
India,Delhi,Delhi,"Wazirpur, Delhi - DPCC",25-06-2024 12:00:00,28.699793,77.165453,PM2.5,65,320,137
India,Delhi,Delhi,"Wazirpur, Delhi - DPCC",25-06-2024 12:00:00,28.699793,77.165453,NH3,7,10,9
India,Gujarat,Ahmedabad,"Gyaspur, Ahmedabad - IITM",25-06-2024 12:00:00,22.977134,72.553024,PM2.5,NA,NA,NA
India,Gujarat,Ahmedabad,"Raikhad, Ahmedabad - IITM",25-06-2024 12:00:00,23.020509,72.579261,PM10,13,60,28
India,Gujarat,Ahmedabad,"Rakhial, Ahmedabad - IITM",25-06-2024 12:00:00,23.016834,72.625775,PM10,4,46,24
India,Gujarat,Ahmedabad,"SVPI Airport Hansol, Ahmedabad - IITM",25-06-2024 12:00:00,23.076793,72.627874,NO2,NA,NA,NA
India,Gujarat,Ahmedabad,"SVPI Airport Hansol, Ahmedabad - IITM",25-06-2024 12:00:00,23.076793,72.627874,CO,NA,NA,NA
India,Gujarat,Ahmedabad,"Sardar Vallabhbhai Patel Stadium, Ahmedabad - IITM",25-06-2024 12:00:00,23.043070,72.562968,NO2,16,54,30
India,Gujarat,Ahmedabad,"Sardar Vallabhbhai Patel Stadium, Ahmedabad - IITM",25-06-2024 12:00:00,23.043070,72.562968,OZONE,11,26,18
India,Gujarat,Gandhinagar,"GIFT City, Gandhinagar - IITM",25-06-2024 12:00:00,23.163798,72.677768,CO,12,30,17
India,Gujarat,Gandhinagar,"Sector-10, Gandhinagar - GPCB",25-06-2024 12:00:00,23.221714,72.654328,PM2.5,30,85,46
India,Gujarat,Gandhinagar,"Sector-10, Gandhinagar - GPCB",25-06-2024 12:00:00,23.221714,72.654328,NO2,22,24,23
India,Gujarat,Gandhinagar,"Sector-10, Gandhinagar - GPCB",25-06-2024 12:00:00,23.221714,72.654328,CO,20,30,22
India,Gujarat,Nandesari,"GIDC, Nandesari - Nandesari Ind. Association",25-06-2024 12:00:00,22.410802,73.097923,PM2.5,62,342,179
India,Gujarat,Nandesari,"GIDC, Nandesari - Nandesari Ind. Association",25-06-2024 12:00:00,22.410802,73.097923,SO2,2,21,9
India,Gujarat,Surat,"Science Center, Surat - SMC",25-06-2024 12:00:00,21.170046,72.795405,CO,68,92,70
India,Gujarat,Vapi,"Phase-1 GIDC, Vapi - GPCB",25-06-2024 12:00:00,20.362421,72.918013,OZONE,3,5,4
India,Haryana,Ambala,"Patti Mehar, Ambala - HSPCB",25-06-2024 12:00:00,30.379589,76.778328,SO2,8,34,13
India,Haryana,Bahadurgarh,"Arya Nagar, Bahadurgarh - HSPCB",25-06-2024 12:00:00,28.6701,76.9254,PM2.5,54,130,83
India,Haryana,Bahadurgarh,"Arya Nagar, Bahadurgarh - HSPCB",25-06-2024 12:00:00,28.6701,76.9254,NO2,16,24,22
India,Haryana,Ballabgarh,"Nathu Colony, Ballabgarh - HSPCB",25-06-2024 12:00:00,28.3419248,77.319699,NH3,1,2,2
India,Haryana,Bhiwani,"H.B. Colony, Bhiwani - HSPCB",25-06-2024 12:00:00,28.806223,76.141105,CO,25,68,59
India,Haryana,Charkhi Dadri,"Mini Secretariat, Charkhi Dadri - HSPCB",25-06-2024 12:00:00,28.593883,76.270653,PM10,4,492,121
India,Haryana,Dharuhera,"Municipal Corporation Office, Dharuhera -  HSPCB",25-06-2024 12:00:00,28.206800,76.799700,PM2.5,NA,NA,NA
India,Haryana,Dharuhera,"Municipal Corporation Office, Dharuhera -  HSPCB",25-06-2024 12:00:00,28.206800,76.799700,SO2,NA,NA,NA
India,Haryana,Faridabad,"New Industrial Town, Faridabad - HSPCB",25-06-2024 12:00:00,28.39072,77.30059,PM10,102,132,113
India,Haryana,Faridabad,"New Industrial Town, Faridabad - HSPCB",25-06-2024 12:00:00,28.39072,77.30059,NO2,18,37,34
India,Haryana,Faridabad,"New Industrial Town, Faridabad - HSPCB",25-06-2024 12:00:00,28.39072,77.30059,SO2,16,18,17
India,Haryana,Faridabad,"Sector 30, Faridabad - HSPCB",25-06-2024 12:00:00,28.4417,77.3217,PM10,148,168,154
India,Haryana,Faridabad,"Sector 30, Faridabad - HSPCB",25-06-2024 12:00:00,28.4417,77.3217,SO2,5,16,6
India,Haryana,Faridabad,"Sector 30, Faridabad - HSPCB",25-06-2024 12:00:00,28.4417,77.3217,OZONE,19,24,21
India,Haryana,Faridabad,"Sector- 16A, Faridabad - HSPCB",25-06-2024 12:00:00,28.4088421,77.3099081,SO2,16,64,33
India,Haryana,Fatehabad,"Huda Sector, Fatehabad - HSPCB",25-06-2024 12:00:00,29.503664,75.467934,PM2.5,20,199,107
India,Haryana,Fatehabad,"Huda Sector, Fatehabad - HSPCB",25-06-2024 12:00:00,29.503664,75.467934,PM10,62,348,100
India,Haryana,Gurugram,"Sector-51, Gurugram - HSPCB",25-06-2024 12:00:00,28.4227,77.0667,SO2,2,4,3
India,Haryana,Gurugram,"Vikas Sadan, Gurugram - HSPCB",25-06-2024 12:00:00,28.4501238,77.0263051,NO2,5,24,14
India,Haryana,Gurugram,"Vikas Sadan, Gurugram - HSPCB",25-06-2024 12:00:00,28.4501238,77.0263051,SO2,6,47,25
India,Haryana,Gurugram,"Vikas Sadan, Gurugram - HSPCB",25-06-2024 12:00:00,28.4501238,77.0263051,CO,49,131,80
India,Haryana,Hisar,"Urban Estate-II, Hisar - HSPCB",25-06-2024 12:00:00,29.140560,75.744941,PM2.5,74,121,93
India,Haryana,Hisar,"Urban Estate-II, Hisar - HSPCB",25-06-2024 12:00:00,29.140560,75.744941,SO2,6,64,47
India,Haryana,Hisar,"Urban Estate-II, Hisar - HSPCB",25-06-2024 12:00:00,29.140560,75.744941,CO,25,43,38
India,Haryana,Kaithal,"Rishi Nagar, Kaithal - HSPCB",25-06-2024 12:00:00,29.8006,76.4155,SO2,2,76,10
India,Haryana,Karnal,"Sector-12, Karnal - HSPCB",25-06-2024 12:00:00,29.695300,77.002700,NO2,7,12,10
India,Haryana,Karnal,"Sector-12, Karnal - HSPCB",25-06-2024 12:00:00,29.695300,77.002700,NH3,10,13,11
India,Haryana,Kurukshetra,"Sector-7, Kurukshetra - HSPCB",25-06-2024 12:00:00,29.966942,76.875879,PM2.5,74,158,114
India,Haryana,Kurukshetra,"Sector-7, Kurukshetra - HSPCB",25-06-2024 12:00:00,29.966942,76.875879,SO2,2,3,2
India,Haryana,Mandikhera,"General Hospital, Mandikhera - HSPCB",25-06-2024 12:00:00,27.9002,76.9938,CO,17,38,34
India,Haryana,Mandikhera,"General Hospital, Mandikhera - HSPCB",25-06-2024 12:00:00,27.9002,76.9938,OZONE,22,32,26
India,Haryana,Manesar,"Sector-2 IMT, Manesar - HSPCB",25-06-2024 12:00:00,28.360699,76.936090,NO2,20,32,24
India,Haryana,Narnaul,"Shastri Nagar, Narnaul - HSPCB",25-06-2024 12:00:00,28.060249,76.113115,NO2,15,86,48
India,Haryana,Narnaul,"Shastri Nagar, Narnaul - HSPCB",25-06-2024 12:00:00,28.060249,76.113115,NH3,3,17,10
India,Haryana,Narnaul,"Shastri Nagar, Narnaul - HSPCB",25-06-2024 12:00:00,28.060249,76.113115,SO2,47,70,48
India,Haryana,Palwal,"Shyam Nagar, Palwal - HSPCB",25-06-2024 12:00:00,28.1485564,77.3320667,CO,19,29,26
India,Haryana,Panchkula,"Sector-6, Panchkula - HSPCB ",25-06-2024 12:00:00,30.7057778,76.8531805555555,NO2,9,11,10
India,Haryana,Panchkula,"Sector-6, Panchkula - HSPCB ",25-06-2024 12:00:00,30.7057778,76.8531805555555,CO,1,18,8
India,Haryana,Panipat,"Sector-18, Panipat - HSPCB",25-06-2024 12:00:00,29.432304,76.972765,SO2,NA,NA,NA
India,Haryana,Rohtak,"MD University, Rohtak - HSPCB",25-06-2024 12:00:00,28.52123,76.37138,CO,10,54,34
India,Haryana,Rohtak,"MD University, Rohtak - HSPCB",25-06-2024 12:00:00,28.52123,76.37138,OZONE,45,52,49
India,Haryana,Sirsa,"F-Block, Sirsa - HSPCB",25-06-2024 12:00:00,29.536400,75.015800,NO2,9,11,10
India,Haryana,Yamuna Nagar,"Gobind Pura, Yamuna Nagar - HSPCB",25-06-2024 12:00:00,30.1480566,77.2893471,PM10,84,113,98
India,Himachal Pradesh,Baddi,"HIMUDA Complex Phase-1, Baddi - HPPCB",25-06-2024 12:00:00,30.943887,76.801991,PM10,73,213,133
India,Jammu_and_Kashmir,Srinagar,"Rajbagh, Srinagar - JKSPCB",25-06-2024 12:00:00,34.066206,74.819820,PM10,NA,NA,NA
India,Jammu_and_Kashmir,Srinagar,"Rajbagh, Srinagar - JKSPCB",25-06-2024 12:00:00,34.066206,74.819820,NO2,NA,NA,NA
India,Jharkhand,Dhanbad,"Kalakusuma, Dhanbad - DMC",25-06-2024 12:00:00,23.811548,86.481238,NO2,137,368,181
India,Jharkhand,Dhanbad,"Kalakusuma, Dhanbad - DMC",25-06-2024 12:00:00,23.811548,86.481238,SO2,9,10,9
India,Jharkhand,Dhanbad,"Kalakusuma, Dhanbad - DMC",25-06-2024 12:00:00,23.811548,86.481238,OZONE,28,40,28
India,Jharkhand,Dhanbad,"Sardar Patel Nagar, Dhanbad - JSPCB",25-06-2024 12:00:00,23.80569,86.44268,PM10,27,94,60
India,Jharkhand,Dhanbad,"Sardar Patel Nagar, Dhanbad - JSPCB",25-06-2024 12:00:00,23.80569,86.44268,SO2,NA,NA,NA
India,Jharkhand,Pathardih,"Mohalbani Ghat, Pathardih - DMC",25-06-2024 12:00:00,23.669880,86.411725,PM10,10,103,71
India,Karnataka,Bagalkot,"Vidayagiri, Bagalkot - KSPCB",25-06-2024 12:00:00,16.172806,75.659694,CO,18,53,37
India,Karnataka,Belgaum,"Ramteerth Nagar, Belgaum - KSPCB",25-06-2024 12:00:00,15.888653,74.541751,PM2.5,7,25,12
India,Karnataka,Belgaum,"Ramteerth Nagar, Belgaum - KSPCB",25-06-2024 12:00:00,15.888653,74.541751,NO2,12,64,29
India,Karnataka,Bengaluru,"Bapuji Nagar, Bengaluru - KSPCB",25-06-2024 12:00:00,12.951913,77.539784,SO2,6,8,6
India,Karnataka,Bengaluru,"City Railway Station, Bengaluru - KSPCB",25-06-2024 12:00:00,12.9756843,77.5660749,PM10,32,122,65
India,Karnataka,Bengaluru,"City Railway Station, Bengaluru - KSPCB",25-06-2024 12:00:00,12.9756843,77.5660749,NO2,25,29,27
India,Karnataka,Bengaluru,"Hebbal, Bengaluru - KSPCB",25-06-2024 12:00:00,13.029152,77.585901,PM10,19,46,28
India,Karnataka,Bengaluru,"Jayanagar 5th Block, Bengaluru - KSPCB",25-06-2024 12:00:00,12.920984,77.584908,NH3,1,2,2
