country,state,city,station,last_update,latitude,longitude,pollutant_id,pollutant_min,pollutant_max,pollutant_avg
India,Andhra_Pradesh,Amaravati,"Secretariat, Amaravati - APPCB",17-04-2024 17:00:00,16.5150833,80.5181667,SO2,11,17,12
India,Andhra_Pradesh,Amaravati,"Secretariat, Amaravati - APPCB",17-04-2024 17:00:00,16.5150833,80.5181667,CO,18,42,26
India,Andhra_Pradesh,Anantapur,"Gulzarpet, Anantapur - APPCB",17-04-2024 17:00:00,14.675886,77.593027,PM2.5,NA,NA,NA
India,Andhra_Pradesh,Chittoor,"Gangineni Cheruvu, Chittoor - APPCB",17-04-2024 17:00:00,13.204880,79.097889,PM10,41,112,69
India,Andhra_Pradesh,Chittoor,"Gangineni Cheruvu, Chittoor - APPCB",17-04-2024 17:00:00,13.204880,79.097889,NH3,1,3,1
India,Andhra_Pradesh,Tirupati,"Tirumala, Tirupati - APPCB",17-04-2024 17:00:00,13.67,79.35,PM10,37,121,58
India,Andhra_Pradesh,Tirupati,"Tirumala, Tirupati - APPCB",17-04-2024 17:00:00,13.67,79.35,OZONE,25,74,53
India,Andhra_Pradesh,Tirupati,"Vaikuntapuram, Tirupati - APPCB",17-04-2024 17:00:00,13.615387,79.409230,NO2,NA,NA,NA
India,Andhra_Pradesh,Tirupati,"Vaikuntapuram, Tirupati - APPCB",17-04-2024 17:00:00,13.615387,79.409230,NH3,NA,NA,NA
India,Andhra_Pradesh,Visakhapatnam,"GVM Corporation, Visakhapatnam - APPCB",17-04-2024 17:00:00,17.72,83.3,PM10,92,145,114
India,Arunachal_Pradesh,Naharlagun,"Naharlagun, Naharlagun - APSPCB",17-04-2024 17:00:00,27.103358,93.679645,NO2,3,3,3
India,Assam,Byrnihat,"Central Academy for SFS, Byrnihat - PCBA",17-04-2024 17:00:00,26.071318,91.87488,SO2,4,12,9
India,Assam,Guwahati,"IITG, Guwahati - PCBA",17-04-2024 17:00:00,26.2028636,91.70046436,PM2.5,NA,NA,NA
India,Assam,Guwahati,"Pan Bazaar, Guwahati - PCBA",17-04-2024 17:00:00,26.187500,91.744194,CO,24,40,29
India,Assam,Guwahati,"Railway Colony, Guwahati - PCBA",17-04-2024 17:00:00,26.181742,91.78063,PM10,39,107,74
India,Assam,Nagaon,"Christianpatty, Nagaon - PCBA",17-04-2024 17:00:00,26.349082,92.68449,PM2.5,58,127,81
India,Assam,Nagaon,"Christianpatty, Nagaon - PCBA",17-04-2024 17:00:00,26.349082,92.68449,PM10,64,110,84
India,Assam,Nagaon,"Christianpatty, Nagaon - PCBA",17-04-2024 17:00:00,26.349082,92.68449,NH3,2,6,4
India,Assam,Nagaon,"Christianpatty, Nagaon - PCBA",17-04-2024 17:00:00,26.349082,92.68449,SO2,NA,NA,NA
India,Assam,Nalbari,"Bata Chowk, Nalbari - PCBA",17-04-2024 17:00:00,26.446912,91.439057,PM2.5,17,147,87
India,Assam,Nalbari,"Bata Chowk, Nalbari - PCBA",17-04-2024 17:00:00,26.446912,91.439057,NO2,8,17,11
India,Assam,Sivasagar,"Girls College, Sivasagar - PCBA",17-04-2024 17:00:00,26.987634,94.636574,NO2,7,19,14
India,Assam,Sivasagar,"Girls College, Sivasagar - PCBA",17-04-2024 17:00:00,26.987634,94.636574,NH3,2,2,2
India,Bihar,Araria,"Kharahiya Basti, Araria - BSPCB",17-04-2024 17:00:00,26.146529,87.454184,PM2.5,51,97,64
India,Bihar,Araria,"Kharahiya Basti, Araria - BSPCB",17-04-2024 17:00:00,26.146529,87.454184,PM10,61,158,90
India,Bihar,Araria,"Kharahiya Basti, Araria - BSPCB",17-04-2024 17:00:00,26.146529,87.454184,SO2,12,17,14
India,Bihar,Arrah,"New DM Office, Arrah - BSPCB",17-04-2024 17:00:00,25.5626095,84.663264,NH3,NA,NA,NA
India,Bihar,Arrah,"New DM Office, Arrah - BSPCB",17-04-2024 17:00:00,25.5626095,84.663264,OZONE,14,43,23
India,Bihar,Bhagalpur,"Mayaganj, Bhagalpur - BSPCB",17-04-2024 17:00:00,25.265194,87.012947,NH3,7,10,8
India,Bihar,Bhagalpur,"Mayaganj, Bhagalpur - BSPCB",17-04-2024 17:00:00,25.265194,87.012947,CO,8,10,9
India,Bihar,Bihar Sharif,"D M Colony, Bihar Sharif - BSPCB",17-04-2024 17:00:00,25.204762,85.514960,SO2,1,16,10
India,Bihar,Chhapra,"Darshan Nagar, Chhapra - BSPCB",17-04-2024 17:00:00,25.7808257,84.7446768,PM2.5,193,331,287
India,Bihar,Chhapra,"Darshan Nagar, Chhapra - BSPCB",17-04-2024 17:00:00,25.7808257,84.7446768,NO2,17,33,22
India,Bihar,Gaya,"SFTI Kusdihra, Gaya - BSPCB",17-04-2024 17:00:00,24.762518,84.982348,CO,10,21,13
India,Bihar,Katihar,"Mirchaibari, Katihar - BSPCB",17-04-2024 17:00:00,25.560083,87.553265,PM10,78,255,124
India,Bihar,Kishanganj,"SDM Office_Khagra, Kishanganj - BSPCB",17-04-2024 17:00:00,26.0881305,87.93840336,OZONE,52,66,58
India,Bihar,Manguraha,"Forest Rest House, Manguraha - BSPCB",17-04-2024 17:00:00,27.308328,84.531742,NO2,15,21,18
India,Bihar,Munger,"Town Hall, Munger - BSPCB",17-04-2024 17:00:00,25.376776,86.471523,NO2,7,9,8
India,Bihar,Munger,"Town Hall, Munger - BSPCB",17-04-2024 17:00:00,25.376776,86.471523,CO,1,1,1
India,Bihar,Munger,"Town Hall, Munger - BSPCB",17-04-2024 17:00:00,25.376776,86.471523,OZONE,28,101,61
India,Bihar,Muzaffarpur,"Buddha Colony, Muzaffarpur - BSPCB",17-04-2024 17:00:00,26.11442,85.39813,NO2,27,57,36
India,Bihar,Patna,"DRM Office Danapur, Patna - BSPCB",17-04-2024 17:00:00,25.586562,85.043586,OZONE,1,72,53
India,Bihar,Patna,"Govt. High School Shikarpur, Patna - BSPCB",17-04-2024 17:00:00,25.592539,85.227158,NH3,5,5,5
India,Bihar,Patna,"Govt. High School Shikarpur, Patna - BSPCB",17-04-2024 17:00:00,25.592539,85.227158,SO2,8,12,10
India,Bihar,Patna,"IGSC Planetarium Complex, Patna - BSPCB",17-04-2024 17:00:00,25.610369,85.132568,SO2,5,5,5
India,Bihar,Patna,"IGSC Planetarium Complex, Patna - BSPCB",17-04-2024 17:00:00,25.610369,85.132568,OZONE,12,42,40
India,Bihar,Patna,"Muradpur, Patna - BSPCB",17-04-2024 17:00:00,25.619651,85.147382,PM2.5,228,411,313
India,Bihar,Patna,"Muradpur, Patna - BSPCB",17-04-2024 17:00:00,25.619651,85.147382,OZONE,14,91,74
India,Bihar,Patna,"Rajbansi Nagar, Patna - BSPCB",17-04-2024 17:00:00,25.599486,85.113666,SO2,1,16,9
India,Bihar,Patna,"Rajbansi Nagar, Patna - BSPCB",17-04-2024 17:00:00,25.599486,85.113666,CO,14,63,20
India,Bihar,Patna,"Samanpura, Patna - BSPCB",17-04-2024 17:00:00,25.596727,85.085624,PM10,170,474,277
India,Bihar,Purnia,"Mariam Nagar, Purnia - BSPCB",17-04-2024 17:00:00,25.366336,87.117468,NH3,6,9,7
India,Bihar,Purnia,"Mariam Nagar, Purnia - BSPCB",17-04-2024 17:00:00,25.366336,87.117468,CO,1,87,32
India,Bihar,Rajgir,"Dangi Tola, Rajgir - BSPCB",17-04-2024 17:00:00,25.03280,85.41948,PM10,27,75,51
India,Bihar,Samastipur,"DM Office_Kasipur, Samastipur - BSPCB",17-04-2024 17:00:00,25.859655,85.77944,SO2,8,46,14
India,Bihar,Samastipur,"DM Office_Kasipur, Samastipur - BSPCB",17-04-2024 17:00:00,25.859655,85.77944,CO,16,100,20
India,Bihar,Sasaram,"Dada Peer, Sasaram - BSPCB",17-04-2024 17:00:00,24.952822,84.002396,PM10,107,218,134
India,Bihar,Sasaram,"Dada Peer, Sasaram - BSPCB",17-04-2024 17:00:00,24.952822,84.002396,NO2,8,22,13
India,Chandigarh,Chandigarh,"Sector-25, Chandigarh - CPCC",17-04-2024 17:00:00,30.751462,76.762879,NO2,3,12,7
India,Chandigarh,Chandigarh,"Sector-25, Chandigarh - CPCC",17-04-2024 17:00:00,30.751462,76.762879,NH3,8,13,10
India,Chandigarh,Chandigarh,"Sector-25, Chandigarh - CPCC",17-04-2024 17:00:00,30.751462,76.762879,CO,8,22,13
India,Chandigarh,Chandigarh,"Sector-53, Chandigarh - CPCC",17-04-2024 17:00:00,30.719859,76.738637,SO2,3,25,12
India,Chhattisgarh,Bhilai,"32Bungalows, Bhilai - CECB",17-04-2024 17:00:00,21.194815,81.314770,PM2.5,27,58,44
India,Chhattisgarh,Bhilai,"32Bungalows, Bhilai - CECB",17-04-2024 17:00:00,21.194815,81.314770,NO2,16,29,24
India,Chhattisgarh,Bhilai,"Civic Center, Bhilai - Bhilai Steel Plant",17-04-2024 17:00:00,21.185571,81.343175,PM2.5,27,53,41
India,Chhattisgarh,Bhilai,"Civic Center, Bhilai - Bhilai Steel Plant",17-04-2024 17:00:00,21.185571,81.343175,NH3,5,5,5
India,Chhattisgarh,Bhilai,"Hathkhoj, Bhilai - CECB",17-04-2024 17:00:00,21.224231,81.408350,NH3,6,8,7
India,Chhattisgarh,Chhal,"Nawapara SECL Colony, Chhal - CECB",17-04-2024 17:00:00,22.118125,83.140608,PM10,52,85,62
India,Chhattisgarh,Chhal,"Nawapara SECL Colony, Chhal - CECB",17-04-2024 17:00:00,22.118125,83.140608,NO2,12,49,24
India,Chhattisgarh,Korba,"Urja Nagar, Korba - CECB",17-04-2024 17:00:00,22.348441,82.549611,PM2.5,1,6,2
India,Chhattisgarh,Korba,"Urja Nagar, Korba - CECB",17-04-2024 17:00:00,22.348441,82.549611,NH3,4,6,5
India,Chhattisgarh,Kunjemura,"OP Jindal School, Kunjemura - CECB",17-04-2024 17:00:00,22.126650,83.483212,CO,17,57,28
India,Chhattisgarh,Raipur,"AIIMS, Raipur - CECB",17-04-2024 17:00:00,21.258815,81.578979,CO,20,60,29
India,Chhattisgarh,Raipur,"Bhatagaon New ISBT, Raipur - CECB",17-04-2024 17:00:00,21.219665,81.630094,PM10,42,122,82
India,Chhattisgarh,Raipur,"Bhatagaon New ISBT, Raipur - CECB",17-04-2024 17:00:00,21.219665,81.630094,OZONE,3,9,6
India,Chhattisgarh,Tumidih,"OP Jindal Industrial Park, Tumidih - CECB",17-04-2024 17:00:00,22.06631475,83.33820077,NO2,NA,NA,NA
India,Chhattisgarh,Tumidih,"OP Jindal Industrial Park, Tumidih - CECB",17-04-2024 17:00:00,22.06631475,83.33820077,CO,16,36,18
India,Delhi,Delhi,"Alipur, Delhi - DPCC",17-04-2024 17:00:00,28.815329,77.153010,PM2.5,15,85,44
India,Delhi,Delhi,"Alipur, Delhi - DPCC",17-04-2024 17:00:00,28.815329,77.153010,CO,35,50,40
India,Delhi,Delhi,"Anand Vihar, Delhi - DPCC",17-04-2024 17:00:00,28.647622,77.3158090,SO2,18,65,29
India,Delhi,Delhi,"Anand Vihar, Delhi - DPCC",17-04-2024 17:00:00,28.647622,77.3158090,OZONE,26,92,62
India,Delhi,Delhi,"Bawana, Delhi - DPCC",17-04-2024 17:00:00,28.776200,77.051074,PM2.5,28,328,127
India,Delhi,Delhi,"Bawana, Delhi - DPCC",17-04-2024 17:00:00,28.776200,77.051074,OZONE,20,142,86
India,Delhi,Delhi,"Chandni Chowk, Delhi - IITM",17-04-2024 17:00:00,28.656756,77.227234,OZONE,5,7,6
India,Delhi,Delhi,"Dr. Karni Singh Shooting Range, Delhi - DPCC",17-04-2024 17:00:00,28.498571,77.264840,PM2.5,13,170,59
India,Delhi,Delhi,"Dwarka-Sector 8, Delhi - DPCC ",17-04-2024 17:00:00,28.5710274,77.0719006,PM10,116,352,160
India,Delhi,Delhi,"Dwarka-Sector 8, Delhi - DPCC ",17-04-2024 17:00:00,28.5710274,77.0719006,OZONE,13,68,49
India,Delhi,Delhi,"IHBAS, Dilshad Garden, Delhi - CPCB",17-04-2024 17:00:00,28.6811736,77.3025234,NO2,21,80,48
India,Delhi,Delhi,"ITO, Delhi - CPCB",17-04-2024 17:00:00,28.628624,77.241060,OZONE,19,56,41
India,Delhi,Delhi,"Jawaharlal Nehru Stadium, Delhi - DPCC",17-04-2024 17:00:00,28.580280,77.233829,NH3,6,9,8
India,Delhi,Delhi,"Jawaharlal Nehru Stadium, Delhi - DPCC",17-04-2024 17:00:00,28.580280,77.233829,SO2,5,51,14
India,Delhi,Delhi,"Lodhi Road, Delhi - IITM",17-04-2024 17:00:00,28.588333,77.221667,NH3,7,8,8
India,Delhi,Delhi,"Major Dhyan Chand National Stadium, Delhi - DPCC",17-04-2024 17:00:00,28.611281,77.237738,NH3,6,9,7
India,Delhi,Delhi,"Major Dhyan Chand National Stadium, Delhi - DPCC",17-04-2024 17:00:00,28.611281,77.237738,OZONE,41,145,105
India,Delhi,Delhi,"Mundka, Delhi - DPCC",17-04-2024 17:00:00,28.684678,77.076574,PM2.5,22,342,129
India,Delhi,Delhi,"Mundka, Delhi - DPCC",17-04-2024 17:00:00,28.684678,77.076574,NO2,19,41,28
India,Delhi,Delhi,"Najafgarh, Delhi - DPCC",17-04-2024 17:00:00,28.570173,76.933762,PM10,51,272,125
India,Delhi,Delhi,"New Moti Bagh, Delhi - MHUA",17-04-2024 17:00:00,28.57834,77.18400,CO,16,64,32
India,Delhi,Delhi,"Okhla Phase-2, Delhi - DPCC",17-04-2024 17:00:00,28.530785,77.271255,SO2,10,18,14
India,Delhi,Delhi,"Patparganj, Delhi - DPCC",17-04-2024 17:00:00,28.623763,77.287209,PM2.5,16,103,46
India,Delhi,Delhi,"Patparganj, Delhi - DPCC",17-04-2024 17:00:00,28.623763,77.287209,NH3,7,10,9
India,Delhi,Delhi,"Patparganj, Delhi - DPCC",17-04-2024 17:00:00,28.623763,77.287209,CO,50,86,60
India,Delhi,Delhi,"Punjabi Bagh, Delhi - DPCC",17-04-2024 17:00:00,28.674045,77.131023,SO2,14,28,22
India,Delhi,Delhi,"Punjabi Bagh, Delhi - DPCC",17-04-2024 17:00:00,28.674045,77.131023,OZONE,5,29,19
India,Delhi,Delhi,"Pusa, Delhi - DPCC",17-04-2024 17:00:00,28.639652,77.146275,PM2.5,19,183,69
India,Delhi,Delhi,"R K Puram, Delhi - DPCC",17-04-2024 17:00:00,28.563262,77.186937,NO2,21,106,47
India,Delhi,Delhi,"R K Puram, Delhi - DPCC",17-04-2024 17:00:00,28.563262,77.186937,NH3,5,9,8
India,Delhi,Delhi,"Shadipur, Delhi - CPCB",17-04-2024 17:00:00,28.6514781,77.1473105,OZONE,34,173,158
India,Delhi,Delhi,"Sonia Vihar, Delhi - DPCC",17-04-2024 17:00:00,28.710508,77.249485,PM2.5,15,88,43
India,Delhi,Delhi,"Sri Aurobindo Marg, Delhi - DPCC",17-04-2024 17:00:00,28.531346,77.190156,SO2,12,37,19
India,Delhi,Delhi,"Vivek Vihar, Delhi - DPCC",17-04-2024 17:00:00,28.672342,77.315260,PM2.5,NA,NA,NA
India,Delhi,Delhi,"Vivek Vihar, Delhi - DPCC",17-04-2024 17:00:00,28.672342,77.315260,OZONE,27,95,72
India,Delhi,Delhi,"Wazirpur, Delhi - DPCC",17-04-2024 17:00:00,28.699793,77.165453,SO2,9,28,13
India,Gujarat,Ahmedabad,"Chandkheda, Ahmedabad - IITM",17-04-2024 17:00:00,23.107969,72.574648,CO,49,110,92
India,Gujarat,Ahmedabad,"Gyaspur, Ahmedabad - IITM",17-04-2024 17:00:00,22.977134,72.553024,PM2.5,47,126,72
India,Gujarat,Ahmedabad,"Raikhad, Ahmedabad - IITM",17-04-2024 17:00:00,23.020509,72.579261,OZONE,5,58,35
India,Gujarat,Ahmedabad,"Rakhial, Ahmedabad - IITM",17-04-2024 17:00:00,23.016834,72.625775,PM2.5,47,84,65
India,Gujarat,Ahmedabad,"SAC ISRO Satellite, Ahmedabad - IITM",17-04-2024 17:00:00,23.023389,72.515201,NO2,17,17,17
India,Gujarat,Ahmedabad,"SAC ISRO Satellite, Ahmedabad - IITM",17-04-2024 17:00:00,23.023389,72.515201,OZONE,12,26,21
India,Gujarat,Ahmedabad,"SVPI Airport Hansol, Ahmedabad - IITM",17-04-2024 17:00:00,23.076793,72.627874,PM2.5,36,51,43
India,Gujarat,Ahmedabad,"SVPI Airport Hansol, Ahmedabad - IITM",17-04-2024 17:00:00,23.076793,72.627874,NH3,1,2,2
India,Gujarat,Ahmedabad,"SVPI Airport Hansol, Ahmedabad - IITM",17-04-2024 17:00:00,23.076793,72.627874,CO,60,83,65
India,Gujarat,Ahmedabad,"SVPI Airport Hansol, Ahmedabad - IITM",17-04-2024 17:00:00,23.076793,72.627874,OZONE,11,39,30
India,Gujarat,Ankleshwar,"GIDC, Ankleshwar - GPCB",17-04-2024 17:00:00,21.613267,73.010555,OZONE,17,32,29
India,Gujarat,Gandhinagar,"IIPHG Lekawada, Gandhinagar - IITM",17-04-2024 17:00:00,23.243639,72.68994,CO,NA,NA,NA
India,Gujarat,Gandhinagar,"Sector-10, Gandhinagar - GPCB",17-04-2024 17:00:00,23.221714,72.654328,PM10,22,192,61
India,Gujarat,Gandhinagar,"Sector-10, Gandhinagar - GPCB",17-04-2024 17:00:00,23.221714,72.654328,SO2,3,5,4
India,Gujarat,Surat,"Science Center, Surat - SMC",17-04-2024 17:00:00,21.170046,72.795405,SO2,1,9,4
India,Gujarat,Vapi,"Phase-1 GIDC, Vapi - GPCB",17-04-2024 17:00:00,20.362421,72.918013,PM10,75,153,101
India,Gujarat,Vapi,"Phase-1 GIDC, Vapi - GPCB",17-04-2024 17:00:00,20.362421,72.918013,NO2,6,7,6
India,Gujarat,Vapi,"Phase-1 GIDC, Vapi - GPCB",17-04-2024 17:00:00,20.362421,72.918013,SO2,50,53,52
India,Gujarat,Vapi,"Phase-1 GIDC, Vapi - GPCB",17-04-2024 17:00:00,20.362421,72.918013,OZONE,3,7,4
India,Gujarat,Vatva,"Phase-4 GIDC, Vatva - GPCB",17-04-2024 17:00:00,22.969611,72.643500,PM2.5,24,45,34
India,Gujarat,Vatva,"Phase-4 GIDC, Vatva - GPCB",17-04-2024 17:00:00,22.969611,72.643500,NH3,1,10,4
India,Haryana,Ambala,"Patti Mehar, Ambala - HSPCB",17-04-2024 17:00:00,30.379589,76.778328,PM10,40,86,64
India,Haryana,Ambala,"Patti Mehar, Ambala - HSPCB",17-04-2024 17:00:00,30.379589,76.778328,NH3,8,8,8
India,Haryana,Bahadurgarh,"Arya Nagar, Bahadurgarh - HSPCB",17-04-2024 17:00:00,28.6701,76.9254,NO2,34,39,36
India,Haryana,Bahadurgarh,"Arya Nagar, Bahadurgarh - HSPCB",17-04-2024 17:00:00,28.6701,76.9254,NH3,10,12,11
India,Haryana,Bhiwani,"H.B. Colony, Bhiwani - HSPCB",17-04-2024 17:00:00,28.806223,76.141105,PM10,56,232,114
India,Haryana,Bhiwani,"H.B. Colony, Bhiwani - HSPCB",17-04-2024 17:00:00,28.806223,76.141105,SO2,4,14,7
India,Haryana,Faridabad,"New Industrial Town, Faridabad - HSPCB",17-04-2024 17:00:00,28.39072,77.30059,NH3,1,4,3
India,Haryana,Faridabad,"New Industrial Town, Faridabad - HSPCB",17-04-2024 17:00:00,28.39072,77.30059,CO,4,19,10
India,Haryana,Faridabad,"Sector 11, Faridabad - HSPCB",17-04-2024 17:00:00,28.376058,77.315741,NH3,6,7,6
India,Haryana,Faridabad,"Sector 11, Faridabad - HSPCB",17-04-2024 17:00:00,28.376058,77.315741,SO2,4,74,10
India,Haryana,Faridabad,"Sector 30, Faridabad - HSPCB",17-04-2024 17:00:00,28.4417,77.3217,PM2.5,91,103,95
India,Haryana,Faridabad,"Sector 30, Faridabad - HSPCB",17-04-2024 17:00:00,28.4417,77.3217,NH3,9,9,9
India,Haryana,Faridabad,"Sector 30, Faridabad - HSPCB",17-04-2024 17:00:00,28.4417,77.3217,CO,38,64,61
India,Haryana,Faridabad,"Sector- 16A, Faridabad - HSPCB",17-04-2024 17:00:00,28.4088421,77.3099081,PM2.5,32,129,58
India,Haryana,Fatehabad,"Huda Sector, Fatehabad - HSPCB",17-04-2024 17:00:00,29.503664,75.467934,CO,5,12,6
India,Haryana,Gurugram,"Sector-51, Gurugram - HSPCB",17-04-2024 17:00:00,28.4227,77.0667,NH3,7,14,9
India,Haryana,Gurugram,"Sector-51, Gurugram - HSPCB",17-04-2024 17:00:00,28.4227,77.0667,SO2,2,4,3
India,Haryana,Gurugram,"Sector-51, Gurugram - HSPCB",17-04-2024 17:00:00,28.4227,77.0667,OZONE,27,67,56
India,Haryana,Gurugram,"Teri Gram, Gurugram - HSPCB",17-04-2024 17:00:00,28.4275,77.1465,OZONE,28,40,35
India,Haryana,Hisar,"Urban Estate-II, Hisar - HSPCB",17-04-2024 17:00:00,29.140560,75.744941,NH3,9,10,10
India,Haryana,Jind,"Police Lines, Jind - HSPCB",17-04-2024 17:00:00,29.307814,76.337619,SO2,1,25,9
India,Haryana,Kaithal,"Rishi Nagar, Kaithal - HSPCB",17-04-2024 17:00:00,29.8006,76.4155,SO2,5,21,11
India,Haryana,Karnal,"Sector-12, Karnal - HSPCB",17-04-2024 17:00:00,29.695300,77.002700,NO2,7,12,10
India,Haryana,Karnal,"Sector-12, Karnal - HSPCB",17-04-2024 17:00:00,29.695300,77.002700,SO2,12,13,12
India,Haryana,Karnal,"Sector-12, Karnal - HSPCB",17-04-2024 17:00:00,29.695300,77.002700,CO,14,28,21
India,Haryana,Kurukshetra,"Sector-7, Kurukshetra - HSPCB",17-04-2024 17:00:00,29.966942,76.875879,PM10,50,83,67
India,Haryana,Kurukshetra,"Sector-7, Kurukshetra - HSPCB",17-04-2024 17:00:00,29.966942,76.875879,NO2,10,10,10
India,Haryana,Kurukshetra,"Sector-7, Kurukshetra - HSPCB",17-04-2024 17:00:00,29.966942,76.875879,SO2,2,116,38
India,Haryana,Mandikhera,"General Hospital, Mandikhera - HSPCB",17-04-2024 17:00:00,27.9002,76.9938,NH3,16,19,18
India,Haryana,Mandikhera,"General Hospital, Mandikhera - HSPCB",17-04-2024 17:00:00,27.9002,76.9938,CO,10,18,15
India,Haryana,Manesar,"Sector-2 IMT, Manesar - HSPCB",17-04-2024 17:00:00,28.360699,76.936090,CO,17,35,26
India,Haryana,Narnaul,"Shastri Nagar, Narnaul - HSPCB",17-04-2024 17:00:00,28.060249,76.113115,PM10,37,76,49
India,Haryana,Narnaul,"Shastri Nagar, Narnaul - HSPCB",17-04-2024 17:00:00,28.060249,76.113115,SO2,12,39,20
India,Haryana,Palwal,"Shyam Nagar, Palwal - HSPCB",17-04-2024 17:00:00,28.1485564,77.3320667,NO2,NA,NA,NA
India,Haryana,Rohtak,"MD University, Rohtak - HSPCB",17-04-2024 17:00:00,28.52123,76.37138,CO,4,54,34
India,Haryana,Sonipat,"Murthal, Sonipat - HSPCB",17-04-2024 17:00:00,29.027200,77.062100,CO,5,21,15
India,Haryana,Yamuna Nagar,"Gobind Pura, Yamuna Nagar - HSPCB",17-04-2024 17:00:00,30.1480566,77.2893471,NO2,11,29,18
India,Haryana,Yamuna Nagar,"Gobind Pura, Yamuna Nagar - HSPCB",17-04-2024 17:00:00,30.1480566,77.2893471,CO,37,54,48
India,Himachal Pradesh,Baddi,"HIMUDA Complex Phase-1, Baddi - HPPCB",17-04-2024 17:00:00,30.943887,76.801991,PM2.5,15,193,68
India,Himachal Pradesh,Baddi,"HIMUDA Complex Phase-1, Baddi - HPPCB",17-04-2024 17:00:00,30.943887,76.801991,PM10,53,162,101
India,Jharkhand,Dhanbad,"Kalakusuma, Dhanbad - DMC",17-04-2024 17:00:00,23.811548,86.481238,PM2.5,3,158,48
India,Jharkhand,Dhanbad,"Kalakusuma, Dhanbad - DMC",17-04-2024 17:00:00,23.811548,86.481238,OZONE,20,28,24
India,Jharkhand,Dhanbad,"Sardar Patel Nagar, Dhanbad - JSPCB",17-04-2024 17:00:00,23.80569,86.44268,PM2.5,7,174,63
India,Karnataka,Belgaum,"Ramteerth Nagar, Belgaum - KSPCB",17-04-2024 17:00:00,15.888653,74.541751,PM2.5,16,27,22
India,Karnataka,Belgaum,"Ramteerth Nagar, Belgaum - KSPCB",17-04-2024 17:00:00,15.888653,74.541751,NH3,3,8,6
India,Karnataka,Bengaluru,"Hombegowda Nagar, Bengaluru - KSPCB",17-04-2024 17:00:00,12.938539,77.590100,CO,10,18,13
India,Karnataka,Bengaluru,"Hombegowda Nagar, Bengaluru - KSPCB",17-04-2024 17:00:00,12.938539,77.590100,OZONE,4,5,4
India,Karnataka,Bengaluru,"Peenya, Bengaluru - CPCB",17-04-2024 17:00:00,13.0270199,77.494094,NH3,NA,NA,NA
India,Karnataka,Bengaluru,"Shivapura_Peenya, Bengaluru - KSPCB",17-04-2024 17:00:00,13.0246342,77.5080115,NH3,4,4,4
India,Karnataka,Bengaluru,"Silk Board, Bengaluru - KSPCB",17-04-2024 17:00:00,12.917348,77.622813,OZONE,23,27,25
India,Karnataka,Chamarajanagar,"Urban, Chamarajanagar - KSPCB",17-04-2024 17:00:00,11.55358,76.55521,NO2,23,35,31
India,Karnataka,Chikkaballapur,"Chikkaballapur Rural, Chikkaballapur - KSPCB",17-04-2024 17:00:00,13.428828,77.731418,PM2.5,38,235,103
India,Karnataka,Chikkaballapur,"Chikkaballapur Rural, Chikkaballapur - KSPCB",17-04-2024 17:00:00,13.428828,77.731418,NO2,6,14,9
India,Karnataka,Chikkaballapur,"Chikkaballapur Rural, Chikkaballapur - KSPCB",17-04-2024 17:00:00,13.428828,77.731418,OZONE,25,27,26
India,Karnataka,Dharwad,"Kalabhavan, Dharwad - KSPCB",17-04-2024 17:00:00,15.459706,75.008381,NH3,2,3,3
India,Karnataka,Gadag,"Panchal Nagar, Gadag - KSPCB",17-04-2024 17:00:00,15.411456,75.638133,PM10,NA,NA,NA
India,Karnataka,Gadag,"Panchal Nagar, Gadag - KSPCB",17-04-2024 17:00:00,15.411456,75.638133,SO2,NA,NA,NA
India,Karnataka,Gadag,"Panchal Nagar, Gadag - KSPCB",17-04-2024 17:00:00,15.411456,75.638133,CO,46,46,46
India,Karnataka,Hassan,"B.Katihalli, Hassan - KSPCB",17-04-2024 17:00:00,13.008556,76.125258,SO2,22,35,26
India,Karnataka,Haveri,"Ashwini Nagar, Haveri - KSPCB",17-04-2024 17:00:00,14.791800,75.389600,NH3,3,3,3
India,Karnataka,Hubballi,"Deshpande Nagar, Hubballi - KSPCB",17-04-2024 17:00:00,15.351773,75.140726,NH3,5,6,5
India,Karnataka,Kalaburagi,"Lal Bahadur Shastri Nagar, Kalaburagi - KSPCB",17-04-2024 17:00:00,17.321993,76.822628,PM2.5,17,257,63
India,Karnataka,Kalaburagi,"Lal Bahadur Shastri Nagar, Kalaburagi - KSPCB",17-04-2024 17:00:00,17.321993,76.822628,NO2,12,12,12
India,Karnataka,Kalaburagi,"Lal Bahadur Shastri Nagar, Kalaburagi - KSPCB",17-04-2024 17:00:00,17.321993,76.822628,CO,44,84,44
India,Karnataka,Kalaburagi,"Mahatma Basaveswar Colony, Kalaburgi - KSPCB",17-04-2024 17:00:00,17.336318,76.847397,NO2,10,19,14
India,Karnataka,Kalaburagi,"Mahatma Basaveswar Colony, Kalaburgi - KSPCB",17-04-2024 17:00:00,17.336318,76.847397,NH3,3,4,3
India,Karnataka,Karwar,"KHB Colony, Karwar - KSPCB",17-04-2024 17:00:00,14.816666,74.141003,SO2,19,20,19
India,Karnataka,Kolar,"Tamaka Ind. Area, Kolar - KSPCB",17-04-2024 17:00:00,13.1276288,78.1570122,PM10,NA,NA,NA
India,Karnataka,Kolar,"Tamaka Ind. Area, Kolar - KSPCB",17-04-2024 17:00:00,13.1276288,78.1570122,NH3,NA,NA,NA
India,Karnataka,Madikeri,"Stuart Hill, Madikeri - KSPCB",17-04-2024 17:00:00,12.415911,75.735050,SO2,4,4,4
India,Karnataka,Madikeri,"Stuart Hill, Madikeri - KSPCB",17-04-2024 17:00:00,12.415911,75.735050,OZONE,25,44,37
India,Karnataka,Mangalore,"Kadri, Mangalore - KSPCB",17-04-2024 17:00:00,12.889250,74.853000,CO,46,52,51
India,Karnataka,Mysuru,"Hebbal 1st Stage, Mysuru - KSPCB",17-04-2024 17:00:00,12.21041,76.37376,SO2,1,7,2
India,Karnataka,Mysuru,"Hebbal 1st Stage, Mysuru - KSPCB",17-04-2024 17:00:00,12.21041,76.37376,OZONE,20,74,35
India,Karnataka,Ramanagara,"Vijay Nagar, Ramanagara - KSPCB",17-04-2024 17:00:00,12.733409,77.298051,NH3,1,2,1
India,Karnataka,Shivamogga,"Vinoba Nagara, Shivamogga - KSPCB",17-04-2024 17:00:00,13.940000,75.555917,SO2,2,9,5
India,Karnataka,Shivamogga,"Vinoba Nagara, Shivamogga - KSPCB",17-04-2024 17:00:00,13.940000,75.555917,OZONE,33,89,71
India,Karnataka,Vijayapura,"Ibrahimpur, Vijayapura - KSPCB",17-04-2024 17:00:00,16.802639,75.722694,PM10,42,44,42
India,Karnataka,Yadgir,"Collector Office, Yadgir - KSPCB",17-04-2024 17:00:00,16.7602,77.1428,PM2.5,42,85,55
India,Karnataka,Yadgir,"Collector Office, Yadgir - KSPCB",17-04-2024 17:00:00,16.7602,77.1428,CO,20,20,20
India,Kerala,Eloor,"Udyogamandal, Eloor - Kerala PCB",17-04-2024 17:00:00,10.073232,76.302765,OZONE,12,18,15
India,Kerala,Thiruvananthapuram,"Kariavattom, Thiruvananthapuram - Kerala PCB",17-04-2024 17:00:00,8.563700,76.886500,CO,18,36,26
India,Kerala,Thiruvananthapuram,"Plammoodu, Thiruvananthapuram - Kerala PCB",17-04-2024 17:00:00,8.5149093,76.9435879,PM2.5,3,23,11
India,Kerala,Thiruvananthapuram,"Plammoodu, Thiruvananthapuram - Kerala PCB",17-04-2024 17:00:00,8.5149093,76.9435879,SO2,3,12,8
India,Kerala,Thiruvananthapuram,"Plammoodu, Thiruvananthapuram - Kerala PCB",17-04-2024 17:00:00,8.5149093,76.9435879,CO,6,24,15
India,Kerala,Thiruvananthapuram,"Plammoodu, Thiruvananthapuram - Kerala PCB",17-04-2024 17:00:00,8.5149093,76.9435879,OZONE,6,56,12
India,Kerala,Thrissur,"Corporation Ground, Thrissur - Kerala PCB",17-04-2024 17:00:00,10.532400,76.215900,PM2.5,45,50,47
India,Kerala,Thrissur,"Corporation Ground, Thrissur - Kerala PCB",17-04-2024 17:00:00,10.532400,76.215900,CO,14,14,14
India,Madhya Pradesh,Bhopal,"Idgah Hills, Bhopal - MPPCB",17-04-2024 17:00:00,23.264759,77.381568,SO2,16,22,18
India,Madhya Pradesh,Bhopal,"Idgah Hills, Bhopal - MPPCB",17-04-2024 17:00:00,23.264759,77.381568,CO,18,32,28
India,Madhya Pradesh,Bhopal,"Paryavaran Parisar, Bhopal - MPPCB",17-04-2024 17:00:00,23.210494,77.425409,PM2.5,20,73,41
India,Madhya Pradesh,Bhopal,"Paryavaran Parisar, Bhopal - MPPCB",17-04-2024 17:00:00,23.210494,77.425409,PM10,44,128,80
India,Madhya Pradesh,Bhopal,"Paryavaran Parisar, Bhopal - MPPCB",17-04-2024 17:00:00,23.210494,77.425409,NO2,10,55,30
India,Madhya Pradesh,Dewas,"Bhopal Chauraha, Dewas - MPPCB",17-04-2024 17:00:00,22.9682591,76.064118,PM10,27,73,45
India,Madhya Pradesh,Gwalior,"City Center, Gwalior - MPPCB",17-04-2024 17:00:00,26.203442,78.193251,PM10,NA,NA,NA
India,Madhya Pradesh,Gwalior,"City Center, Gwalior - MPPCB",17-04-2024 17:00:00,26.203442,78.193251,CO,33,34,33
India,Madhya Pradesh,Gwalior,"Deen Dayal Nagar, Gwalior - MPPCB",17-04-2024 17:00:00,26.259242,78.216432,PM10,88,193,142
India,Madhya Pradesh,Gwalior,"Deen Dayal Nagar, Gwalior - MPPCB",17-04-2024 17:00:00,26.259242,78.216432,CO,24,40,27
India,Madhya Pradesh,Gwalior,"Maharaj Bada, Gwalior - MPPCB",17-04-2024 17:00:00,26.200388,78.147714,CO,18,34,28
India,Madhya Pradesh,Indore,"Maguda Nagar, Indore - IMC",17-04-2024 17:00:00,22.7524,75.8872,PM10,27,82,55
India,Madhya Pradesh,Indore,"Maguda Nagar, Indore - IMC",17-04-2024 17:00:00,22.7524,75.8872,NH3,1,2,2
India,Madhya Pradesh,Indore,"Regional Park, Indore - IMC",17-04-2024 17:00:00,22.6780,75.8559,PM10,21,78,46
India,Madhya Pradesh,Indore,"Regional Park, Indore - IMC",17-04-2024 17:00:00,22.6780,75.8559,NH3,1,4,2
India,Madhya Pradesh,Indore,"Residency Area, Indore - IMC",17-04-2024 17:00:00,22.7084,75.8815,CO,13,20,14
India,Madhya Pradesh,Indore,"Residency Area, Indore - IMC",17-04-2024 17:00:00,22.7084,75.8815,OZONE,10,18,15
India,Madhya Pradesh,Jabalpur,"Govindh Bhavan Colony, Jabalpur - JMC",17-04-2024 17:00:00,23.163174,79.973061,NH3,9,32,23
India,Madhya Pradesh,Jabalpur,"Gupteshwar, Jabalpur - JMC",17-04-2024 17:00:00,23.142888,79.916147,PM2.5,NA,NA,NA
India,Madhya Pradesh,Jabalpur,"Gupteshwar, Jabalpur - JMC",17-04-2024 17:00:00,23.142888,79.916147,PM10,45,96,63
India,Madhya Pradesh,Jabalpur,"Marhatal, Jabalpur - MPPCB",17-04-2024 17:00:00,23.168606,79.932247,NO2,12,57,24
India,Madhya Pradesh,Jabalpur,"Marhatal, Jabalpur - MPPCB",17-04-2024 17:00:00,23.168606,79.932247,OZONE,12,87,71
India,Madhya Pradesh,Maihar,"Sahilara, Maihar - KJS Cements",17-04-2024 17:00:00,24.2613009,80.7231783,PM2.5,12,73,38
India,Madhya Pradesh,Maihar,"Sahilara, Maihar - KJS Cements",17-04-2024 17:00:00,24.2613009,80.7231783,SO2,14,18,15
India,Madhya Pradesh,Mandideep,"Sector-D Industrial Area, Mandideep - MPPCB",17-04-2024 17:00:00,23.108440,77.511428,PM2.5,25,103,60
India,Madhya Pradesh,Mandideep,"Sector-D Industrial Area, Mandideep - MPPCB",17-04-2024 17:00:00,23.108440,77.511428,PM10,66,207,123
India,Madhya Pradesh,Mandideep,"Sector-D Industrial Area, Mandideep - MPPCB",17-04-2024 17:00:00,23.108440,77.511428,CO,14,100,22
India,Madhya Pradesh,Mandideep,"Sector-D Industrial Area, Mandideep - MPPCB",17-04-2024 17:00:00,23.108440,77.511428,OZONE,5,48,39
India,Madhya Pradesh,Pithampur,"Sector-2 Industrial Area, Pithampur - MPPCB",17-04-2024 17:00:00,22.624758,75.675238,CO,20,68,48
India,Madhya Pradesh,Ratlam,"Shasthri Nagar, Ratlam - IPCA Lab",17-04-2024 17:00:00,23.331731,75.045981,PM10,3,164,100
India,Madhya Pradesh,Ratlam,"Shasthri Nagar, Ratlam - IPCA Lab",17-04-2024 17:00:00,23.331731,75.045981,NO2,13,66,36
India,Madhya Pradesh,Sagar,"Deen Dayal Nagar, Sagar - MPPCB",17-04-2024 17:00:00,23.8640158,78.80289321,PM10,17,87,39
India,Madhya Pradesh,Sagar,"Deen Dayal Nagar, Sagar - MPPCB",17-04-2024 17:00:00,23.8640158,78.80289321,NO2,22,25,24
India,Madhya Pradesh,Satna,"Bandhavgar Colony, Satna - Birla Cement",17-04-2024 17:00:00,24.58434363,80.8549414,PM10,45,127,78
India,Madhya Pradesh,Satna,"Bandhavgar Colony, Satna - Birla Cement",17-04-2024 17:00:00,24.58434363,80.8549414,NO2,26,77,41
India,Madhya Pradesh,Singrauli,"Suryakiran Bhawan NCL, Singrauli - MPPCB",17-04-2024 17:00:00,24.108970,82.645580,SO2,39,77,47
India,Maharashtra,Ahmednagar,"Tarakpur, Ahmednagar - MPCB",17-04-2024 17:00:00,19.10122,74.73339,NO2,22,149,51
India,Maharashtra,Ahmednagar,"Tarakpur, Ahmednagar - MPCB",17-04-2024 17:00:00,19.10122,74.73339,SO2,6,18,12
India,Maharashtra,Akola,"Ramdaspeth, Akola - MPCB",17-04-2024 17:00:00,20.719516,77.000253,OZONE,4,77,61
India,Maharashtra,Amravati,"Shivneri Colony, Amravati - MPCB",17-04-2024 17:00:00,20.9402359,77.7895248,CO,13,54,19
India,Maharashtra,Amravati,"Shri Shivaji Science College, Amaravati - MPCB",17-04-2024 17:00:00,20.939198,77.765701,PM10,64,135,95
India,Maharashtra,Amravati,"Shri Shivaji Science College, Amaravati - MPCB",17-04-2024 17:00:00,20.939198,77.765701,SO2,3,11,6
India,Maharashtra,Amravati,"Shri Shivaji Science College, Amaravati - MPCB",17-04-2024 17:00:00,20.939198,77.765701,CO,18,116,23
India,Maharashtra,Amravati,"Shri Shivaji Science College, Amaravati - MPCB",17-04-2024 17:00:00,20.939198,77.765701,OZONE,1,102,69
India,Maharashtra,Aurangabad,"MIDC Chilkalthana, Aurangabad - MPCB",17-04-2024 17:00:00,19.875620,75.387310,NO2,7,48,16
India,Maharashtra,Aurangabad,"More Chowk Waluj, Aurangabad - MPCB",17-04-2024 17:00:00,19.8389439,75.244448,NH3,8,10,9
India,Maharashtra,Aurangabad,"Rachnakar Colony, Aurangabad - MPCB",17-04-2024 17:00:00,19.863756,75.321188,PM2.5,57,119,74
India,Maharashtra,Aurangabad,"Rachnakar Colony, Aurangabad - MPCB",17-04-2024 17:00:00,19.863756,75.321188,OZONE,29,109,71
India,Maharashtra,Badlapur,"Katrap, Badlapur - MPCB",17-04-2024 17:00:00,19.16485,73.23409,PM2.5,67,328,188
India,Maharashtra,Belapur,"CBD Belapur, Belapur - MPCB",17-04-2024 17:00:00,19.0243902,73.0406721,PM2.5,62,116,85
India,Maharashtra,Belapur,"CBD Belapur, Belapur - MPCB",17-04-2024 17:00:00,19.0243902,73.0406721,PM10,61,116,90
India,Maharashtra,Belapur,"CBD Belapur, Belapur - MPCB",17-04-2024 17:00:00,19.0243902,73.0406721,SO2,1,5,3
India,Maharashtra,Bhiwandi,"Gokul Nagar, Bhiwandi - MPCB",17-04-2024 17:00:00,19.309073,73.057223,SO2,17,25,20
India,Maharashtra,Boisar,"Khaira, Boisar - MPCB",17-04-2024 17:00:00,19.786089,72.757971,OZONE,8,134,49
India,Maharashtra,Chandrapur,"Chauhan Colony, Chandrapur - MPCB",17-04-2024 17:00:00,19.962900,79.298714,PM10,65,124,91
India,Maharashtra,Chandrapur,"Chauhan Colony, Chandrapur - MPCB",17-04-2024 17:00:00,19.962900,79.298714,OZONE,8,11,9
India,Maharashtra,Chandrapur,"MIDC Khutala, Chandrapur - MPCB",17-04-2024 17:00:00,19.9775302,79.2337086,PM10,92,145,116
India,Maharashtra,Chandrapur,"MIDC Khutala, Chandrapur - MPCB",17-04-2024 17:00:00,19.9775302,79.2337086,NH3,1,3,1
India,Maharashtra,Jalgaon,"Prabhat Colony, Jalgaon - MPCB",17-04-2024 17:00:00,21.001264,75.565602,OZONE,4,149,78
India,Maharashtra,Jalna,"Old MIDC, Jalna - MPCB",17-04-2024 17:00:00,19.854616,75.905894,CO,20,28,25
India,Maharashtra,Kalyan,"Khadakpada, Kalyan - MPCB",17-04-2024 17:00:00,19.25292,73.142019,CO,18,32,20
India,Maharashtra,Kolhapur,"Sinchan Bhavan, Kolhapur - MPCB",17-04-2024 17:00:00,16.7143745,74.2426398,PM2.5,50,63,57
India,Maharashtra,Latur,"Sawe Wadi, Latur - MPCB",17-04-2024 17:00:00,18.39963,76.57452,PM2.5,55,154,98
India,Maharashtra,Mahad,"Kamble Tarf Birwadi, Mahad - MPCB",17-04-2024 17:00:00,18.1023399,73.4783687,NO2,NA,NA,NA
India,Maharashtra,Mahad,"Kamble Tarf Birwadi, Mahad - MPCB",17-04-2024 17:00:00,18.1023399,73.4783687,SO2,NA,NA,NA
India,Maharashtra,Malegaon,"Mahesh Nagar, Malegaon - MPCB",17-04-2024 17:00:00,20.555712,74.529236,NH3,2,8,4
India,Maharashtra,Mira-Bhayandar,"Bhayandar West, Mira-Bhayandar - MPCB",17-04-2024 17:00:00,19.296481,72.840923,PM2.5,56,135,92
India,Maharashtra,Mumbai,"Borivali East, Mumbai - IITM",17-04-2024 17:00:00,19.23241,72.86895,NO2,109,193,140
India,Maharashtra,Mumbai,"Borivali East, Mumbai - IITM",17-04-2024 17:00:00,19.23241,72.86895,NH3,1,3,1
India,Maharashtra,Mumbai,"Borivali East, Mumbai - IITM",17-04-2024 17:00:00,19.23241,72.86895,CO,44,101,66
India,Maharashtra,Mumbai,"Borivali East, Mumbai - IITM",17-04-2024 17:00:00,19.23241,72.86895,OZONE,31,164,64
India,Maharashtra,Mumbai,"Borivali East, Mumbai - MPCB",17-04-2024 17:00:00,19.2243333,72.8658113,NO2,10,61,26
India,Maharashtra,Mumbai,"Byculla, Mumbai - BMC",17-04-2024 17:00:00,18.9767,72.8380,PM2.5,18,46,31
India,Maharashtra,Mumbai,"Byculla, Mumbai - BMC",17-04-2024 17:00:00,18.9767,72.8380,PM10,38,84,61
India,Maharashtra,Mumbai,"Kandivali East, Mumbai - MPCB",17-04-2024 17:00:00,19.205800,72.868200,PM2.5,18,195,62
India,Maharashtra,Mumbai,"Kandivali East, Mumbai - MPCB",17-04-2024 17:00:00,19.205800,72.868200,PM10,48,359,122
India,Maharashtra,Mumbai,"Kandivali East, Mumbai - MPCB",17-04-2024 17:00:00,19.205800,72.868200,SO2,6,8,7
India,Maharashtra,Mumbai,"Kandivali West, Mumbai - BMC",17-04-2024 17:00:00,19.215859,72.831718,NH3,1,2,2
India,Maharashtra,Mumbai,"Kherwadi_Bandra East, Mumbai - MPCB",17-04-2024 17:00:00,19.0632143,72.8456324,PM2.5,48,92,70
India,Maharashtra,Mumbai,"Kherwadi_Bandra East, Mumbai - MPCB",17-04-2024 17:00:00,19.0632143,72.8456324,PM10,59,142,99
India,Maharashtra,Mumbai,"Kherwadi_Bandra East, Mumbai - MPCB",17-04-2024 17:00:00,19.0632143,72.8456324,SO2,5,15,6
India,Maharashtra,Mumbai,"Khindipada-Bhandup West, Mumbai - IITM",17-04-2024 17:00:00,19.1653323,72.922099,PM2.5,NA,NA,NA
India,Maharashtra,Mumbai,"Kurla, Mumbai - MPCB",17-04-2024 17:00:00,19.0863,72.8888,OZONE,28,42,33
India,Maharashtra,Mumbai,"Mazgaon, Mumbai - IITM",17-04-2024 17:00:00,18.96702,72.84214,OZONE,40,157,49
India,Maharashtra,Mumbai,"Mulund West, Mumbai - MPCB",17-04-2024 17:00:00,19.1750,72.9419,PM10,65,500,164
India,Maharashtra,Mumbai,"Mulund West, Mumbai - MPCB",17-04-2024 17:00:00,19.1750,72.9419,SO2,13,14,13
India,Maharashtra,Mumbai,"Mulund West, Mumbai - MPCB",17-04-2024 17:00:00,19.1750,72.9419,CO,36,36,36
India,Maharashtra,Mumbai,"Navy Nagar-Colaba, Mumbai - IITM",17-04-2024 17:00:00,18.897756,72.813320,CO,26,41,32
India,Maharashtra,Mumbai,"Powai, Mumbai - MPCB",17-04-2024 17:00:00,19.137500,72.915056,PM10,72,181,122
India,Maharashtra,Mumbai,"Powai, Mumbai - MPCB",17-04-2024 17:00:00,19.137500,72.915056,CO,38,49,39
India,Maharashtra,Mumbai,"Sewri, Mumbai - BMC",17-04-2024 17:00:00,19.000084,72.856730,SO2,1,5,1
India,Maharashtra,Mumbai,"Shivaji Nagar, Mumbai - BMC",17-04-2024 17:00:00,19.060498,72.923356,NO2,NA,NA,NA
India,Maharashtra,Mumbai,"Shivaji Nagar, Mumbai - BMC",17-04-2024 17:00:00,19.060498,72.923356,OZONE,37,75,40
India,Maharashtra,Mumbai,"Sion, Mumbai - MPCB",17-04-2024 17:00:00,19.047000,72.874600,PM10,64,194,115
India,Maharashtra,Mumbai,"Vasai West, Mumbai - MPCB",17-04-2024 17:00:00,19.383200,72.820400,SO2,15,113,25
India,Maharashtra,Mumbai,"Vile Parle West, Mumbai - MPCB",17-04-2024 17:00:00,19.10861,72.83622,NH3,7,11,10
India,Maharashtra,Mumbai,"Worli, Mumbai - MPCB",17-04-2024 17:00:00,18.9936162,72.8128113,SO2,11,12,12
India,Maharashtra,Nagpur,"Ambazari, Nagpur - MPCB",17-04-2024 17:00:00,21.121801,79.04952,NO2,9,55,22
India,Maharashtra,Nagpur,"Mahal, Nagpur - MPCB",17-04-2024 17:00:00,21.14472,79.107595,PM2.5,40,95,67
India,Maharashtra,Nagpur,"Mahal, Nagpur - MPCB",17-04-2024 17:00:00,21.14472,79.107595,PM10,72,129,99
India,Maharashtra,Nagpur,"Mahal, Nagpur - MPCB",17-04-2024 17:00:00,21.14472,79.107595,NO2,9,51,19
India,Maharashtra,Nagpur,"Opp GPO Civil Lines, Nagpur - MPCB",17-04-2024 17:00:00,21.152875,79.0517531,PM10,52,119,79
India,Maharashtra,Nagpur,"Opp GPO Civil Lines, Nagpur - MPCB",17-04-2024 17:00:00,21.152875,79.0517531,OZONE,3,88,60
India,Maharashtra,Nanded,"Sneh Nagar, Nanded - MPCB",17-04-2024 17:00:00,19.173852,77.296291,PM10,79,126,105
India,Maharashtra,Nanded,"Sneh Nagar, Nanded - MPCB",17-04-2024 17:00:00,19.173852,77.296291,NO2,12,41,23
India,Maharashtra,Nashik,"Gangapur Road, Nashik - MPCB",17-04-2024 17:00:00,20.0073285,73.7762427,NH3,1,2,2
India,Maharashtra,Nashik,"Gangapur Road, Nashik - MPCB",17-04-2024 17:00:00,20.0073285,73.7762427,CO,24,143,55
India,Maharashtra,Nashik,"Hirawadi, Nashik - MPCB",17-04-2024 17:00:00,20.021503,73.813844,SO2,1,14,9
India,Maharashtra,Nashik,"MIDC Ambad, Nashik - MPCB",17-04-2024 17:00:00,19.950220,73.731480,NH3,1,3,2
India,Maharashtra,Nashik,"MIDC Ambad, Nashik - MPCB",17-04-2024 17:00:00,19.950220,73.731480,SO2,5,51,13
India,Maharashtra,Nashik,"MIDC Ambad, Nashik - MPCB",17-04-2024 17:00:00,19.950220,73.731480,OZONE,7,169,86
India,Maharashtra,Nashik,"Pandav Nagari, Nashik - MPCB",17-04-2024 17:00:00,19.9591346,73.7788008,SO2,8,68,21
India,Maharashtra,Navi Mumbai,"Mahape, Navi Mumbai - MPCB",17-04-2024 17:00:00,19.1135051,73.008978,NO2,84,88,86
India,Maharashtra,Navi Mumbai,"Nerul, Navi Mumbai - MPCB",17-04-2024 17:00:00,19.008751,73.016620,CO,28,42,31
India,Maharashtra,Navi Mumbai,"Nerul, Navi Mumbai - MPCB",17-04-2024 17:00:00,19.008751,73.016620,OZONE,39,58,43
India,Maharashtra,Navi Mumbai,"Sanpada, Navi Mumbai - MPCB",17-04-2024 17:00:00,19.0575752,73.0151367,OZONE,3,97,60
India,Maharashtra,Navi Mumbai,"Sector-2E Kalamboli, Navi Mumbai - MPCB",17-04-2024 17:00:00,19.02579,73.10297,SO2,1,15,2
India,Maharashtra,Navi Mumbai,"Tondare-Taloja, Navi Mumbai - MPCB",17-04-2024 17:00:00,19.0630,73.1209,OZONE,7,47,24
India,Maharashtra,Parbhani,"Masoom Colony, Parbhani - MPCB",17-04-2024 17:00:00,19.265594,76.761463,PM2.5,28,164,91
India,Maharashtra,Parbhani,"Masoom Colony, Parbhani - MPCB",17-04-2024 17:00:00,19.265594,76.761463,NO2,18,39,26
India,Maharashtra,Parbhani,"Masoom Colony, Parbhani - MPCB",17-04-2024 17:00:00,19.265594,76.761463,SO2,1,5,3
India,Maharashtra,Parbhani,"Masoom Colony, Parbhani - MPCB",17-04-2024 17:00:00,19.265594,76.761463,CO,4,57,17
India,Maharashtra,Pimpri-Chinchwad,"Gavalinagar, Pimpri Chinchwad - MPCB",17-04-2024 17:00:00,18.63673,73.82487,NH3,1,8,4
India,Maharashtra,Pimpri-Chinchwad,"Gavalinagar, Pimpri Chinchwad - MPCB",17-04-2024 17:00:00,18.63673,73.82487,SO2,4,15,8
India,Maharashtra,Pimpri-Chinchwad,"Park Street Wakad, Pimpri Chinchwad - MPCB",17-04-2024 17:00:00,18.59051,73.77946,NO2,60,133,88
India,Maharashtra,Pimpri-Chinchwad,"Thergaon, Pimpri Chinchwad - MPCB",17-04-2024 17:00:00,18.616318,73.765797,CO,NA,NA,NA
India,Maharashtra,Pune,"Bhosari, Pune - IITM",17-04-2024 17:00:00,18.640051,73.848956,PM10,72,128,101
India,Maharashtra,Pune,"Karve Road, Pune - MPCB",17-04-2024 17:00:00,18.5011743,73.8165527,PM10,109,120,113
India,Maharashtra,Pune,"Karve Road, Pune - MPCB",17-04-2024 17:00:00,18.5011743,73.8165527,OZONE,5,6,5
India,Maharashtra,Pune,"Katraj Dairy, Pune - MPCB",17-04-2024 17:00:00,18.454450,73.854155,PM2.5,NA,NA,NA
India,Maharashtra,Pune,"Katraj Dairy, Pune - MPCB",17-04-2024 17:00:00,18.454450,73.854155,OZONE,37,85,73
India,Maharashtra,Pune,"Revenue Colony-Shivajinagar, Pune - IITM",17-04-2024 17:00:00,18.530085,73.849598,SO2,88,133,111
India,Maharashtra,Pune,"Savitribai Phule Pune University, Pune - MPCB",17-04-2024 17:00:00,18.547056,73.826908,OZONE,1,190,110
India,Maharashtra,Pune,"Transport Nagar-Nigdi, Pune - IITM",17-04-2024 17:00:00,18.664282,73.763966,NO2,12,17,13
India,Maharashtra,Pune,"Transport Nagar-Nigdi, Pune - IITM",17-04-2024 17:00:00,18.664282,73.763966,CO,26,56,33
India,Maharashtra,Sangli,"Vijay Nagar, Sangli - MPCB",17-04-2024 17:00:00, 16.5038,74.3623,NH3,2,3,2
India,Maharashtra,Solapur,"Dnyaneshwar Nagar, Solapur - MPCB",17-04-2024 17:00:00,17.6336264,75.9132495,PM2.5,38,155,67
India,Maharashtra,Solapur,"Dnyaneshwar Nagar, Solapur - MPCB",17-04-2024 17:00:00,17.6336264,75.9132495,PM10,81,111,97
India,Maharashtra,Solapur,"Ratandeep Housing Society, Solapur - MPCB",17-04-2024 17:00:00,17.65439,75.90649,NO2,16,138,43
India,Maharashtra,Solapur,"Ratandeep Housing Society, Solapur - MPCB",17-04-2024 17:00:00,17.65439,75.90649,NH3,9,39,18
India,Maharashtra,Thane,"Pimpleshwar Mandir, Thane - MPCB",17-04-2024 17:00:00,19.192056,72.9585188,PM10,62,129,65
India,Maharashtra,Thane,"Pimpleshwar Mandir, Thane - MPCB",17-04-2024 17:00:00,19.192056,72.9585188,NO2,13,63,36
India,Maharashtra,Thane,"Upvan Fort, Thane - MPCB",17-04-2024 17:00:00,19.222279,72.957979,NO2,10,95,42
India,Maharashtra,Thane,"Upvan Fort, Thane - MPCB",17-04-2024 17:00:00,19.222279,72.957979,SO2,1,19,6
India,Maharashtra,Thane,"Upvan Fort, Thane - MPCB",17-04-2024 17:00:00,19.222279,72.957979,OZONE,11,125,56
India,Maharashtra,Virar,"Bolinj, Virar - MPCB",17-04-2024 17:00:00,19.4458210,72.7988231,NH3,7,13,9
India,Manipur,Imphal,"Manipur University, Imphal - Manipur PCB",17-04-2024 17:00:00,24.7524239,93.9286218,SO2,87,92,89
India,Manipur,Imphal,"Manipur University, Imphal - Manipur PCB",17-04-2024 17:00:00,24.7524239,93.9286218,OZONE,4,51,33
India,Meghalaya,Shillong,"Lumpyngngad, Shillong - Meghalaya PCB",17-04-2024 17:00:00,25.5586,91.8985,SO2,39,44,40
India,Mizoram,Aizawl,"Sikulpuikawn, Aizawl - Mizoram PCB",17-04-2024 17:00:00,23.7176342,92.7192841,SO2,2,3,2
India,Odisha,Angul,"Hakimapada, Angul - OSPCB",17-04-2024 17:00:00,20.832874,85.104082,OZONE,13,141,99
India,Odisha,Balasore,"Kalidaspur, Balasore - OSPCB",17-04-2024 17:00:00,21.51161,86.89088,PM10,113,359,154
India,Odisha,Barbil,"Forest Office, Barbil - OSPCB",17-04-2024 17:00:00,22.1166054,85.3945546,PM10,107,241,162
India,Odisha,Bhubaneswar,"Lingraj Mandir, Bhubaneswar - OSPCB",17-04-2024 17:00:00,20.240790,85.836784,CO,43,79,58
India,Odisha,Bhubaneswar,"Patia, Bhubaneswar - OSPCB",17-04-2024 17:00:00,20.34652,85.81630,PM2.5,20,100,64
India,Odisha,Bhubaneswar,"Patia, Bhubaneswar - OSPCB",17-04-2024 17:00:00,20.34652,85.81630,OZONE,18,171,133
India,Odisha,Brajrajnagar,"GM Office, Brajrajnagar - OSPCB",17-04-2024 17:00:00,21.8004996,83.8396977,NO2,15,18,16
India,Odisha,Brajrajnagar,"GM Office, Brajrajnagar - OSPCB",17-04-2024 17:00:00,21.8004996,83.8396977,CO,29,99,85
India,Odisha,Byasanagar,"Ferro Chrome Colony, Byasanagar - OSPCB",17-04-2024 17:00:00,20.94185,86.11510,PM2.5,67,193,109
India,Odisha,Byasanagar,"Ferro Chrome Colony, Byasanagar - OSPCB",17-04-2024 17:00:00,20.94185,86.11510,PM10,69,161,103
India,Odisha,Byasanagar,"Ferro Chrome Colony, Byasanagar - OSPCB",17-04-2024 17:00:00,20.94185,86.11510,OZONE,12,232,200
India,Odisha,Cuttack,"CDA Area, Cuttack - OSPCB",17-04-2024 17:00:00,20.48891     ,85.84768     ,NH3,1,3,2
India,Odisha,Cuttack,"CDA Area, Cuttack - OSPCB",17-04-2024 17:00:00,20.48891     ,85.84768     ,CO,24,37,31
India,Odisha,Keonjhar,"Jagamohanpur, Keonjhar - OSPCB",17-04-2024 17:00:00,21.643900,85.599355,NO2,5,65,23
India,Odisha,Keonjhar,"Jagamohanpur, Keonjhar - OSPCB",17-04-2024 17:00:00,21.643900,85.599355,SO2,1,5,2
India,Odisha,Keonjhar,"Jagamohanpur, Keonjhar - OSPCB",17-04-2024 17:00:00,21.643900,85.599355,OZONE,10,51,29
India,Odisha,Nayagarh,"Dabuna, Nayagarh - OSPCB",17-04-2024 17:00:00,21.847279,85.416905,SO2,NA,NA,NA
India,Odisha,Rairangpur,"Divisional Forest Office, Rairangpur - OSPCB",17-04-2024 17:00:00,22.265816,86.174829,SO2,4,11,6
India,Odisha,Rourkela,"Fertilizer Township, Rourkela - OSPCB",17-04-2024 17:00:00,22.18972222,84.86277778,PM10,81,196,140
India,Odisha,Rourkela,"Sector-2, Rourkela - OSPCB",17-04-2024 17:00:00,22.24500000,84.88111111,NO2,33,34,34
India,Odisha,Suakati,"OMC Colony, Suakati - OSPCB",17-04-2024 17:00:00,21.606865,85.510538,PM2.5,84,150,103
India,Odisha,Suakati,"OMC Colony, Suakati - OSPCB",17-04-2024 17:00:00,21.606865,85.510538,SO2,7,83,24
India,Odisha,Tensa,"Barsua Iron Ore Mines, Tensa - OSPCB",17-04-2024 17:00:00,21.869985,85.167016,PM10,20,116,99
India,Odisha,Tensa,"Barsua Iron Ore Mines, Tensa - OSPCB",17-04-2024 17:00:00,21.869985,85.167016,NH3,1,3,2
India,Odisha,Tensa,"Barsua Iron Ore Mines, Tensa - OSPCB",17-04-2024 17:00:00,21.869985,85.167016,CO,8,44,23
India,Puducherry,Puducherry,"Jawahar Nagar, Puducherry - PPCC",17-04-2024 17:00:00,11.9309,79.8027,PM2.5,4,48,23
India,Punjab,Jalandhar,"Civil Line, Jalandhar - PPCB",17-04-2024 17:00:00,31.321907,75.578914,NO2,31,33,32
India,Punjab,Mandi Gobindgarh,"RIMT University, Mandi Gobindgarh - PPCB",17-04-2024 17:00:00,30.649961,76.331442,PM2.5,141,325,254
India,Punjab,Mandi Gobindgarh,"RIMT University, Mandi Gobindgarh - PPCB",17-04-2024 17:00:00,30.649961,76.331442,PM10,119,223,164
India,Punjab,Mandi Gobindgarh,"RIMT University, Mandi Gobindgarh - PPCB",17-04-2024 17:00:00,30.649961,76.331442,NH3,6,6,6
India,Rajasthan,Ajmer,"Civil Lines,  Ajmer - RSPCB",17-04-2024 17:00:00,26.470859,74.646594,OZONE,4,81,4
India,Rajasthan,Barmer,"Railway Colony, Barmer - RSPCB",17-04-2024 17:00:00,25.747299,71.393989,PM2.5,17,62,30
India,Rajasthan,Barmer,"Railway Colony, Barmer - RSPCB",17-04-2024 17:00:00,25.747299,71.393989,NO2,9,56,18
India,Rajasthan,Barmer,"Railway Colony, Barmer - RSPCB",17-04-2024 17:00:00,25.747299,71.393989,SO2,5,24,9
India,Rajasthan,Barmer,"Railway Colony, Barmer - RSPCB",17-04-2024 17:00:00,25.747299,71.393989,OZONE,25,111,96
India,Rajasthan,Bharatpur,"Krishna Nagar, Bharatpur - RSPCB",17-04-2024 17:00:00,27.215415,77.50873,PM10,115,427,188
India,Rajasthan,Bharatpur,"Krishna Nagar, Bharatpur - RSPCB",17-04-2024 17:00:00,27.215415,77.50873,NH3,1,3,2
India,Rajasthan,Bharatpur,"Krishna Nagar, Bharatpur - RSPCB",17-04-2024 17:00:00,27.215415,77.50873,OZONE,48,119,99
India,Rajasthan,Bhiwadi,"RIICO Ind. Area III, Bhiwadi - RSPCB",17-04-2024 17:00:00,28.194909,76.862296,OZONE,4,86,53
India,Rajasthan,Bhiwadi,"Vasundhara Nagar_UIT, Bhiwadi - RSPCB",17-04-2024 17:00:00,28.207266,76.829265,NH3,6,16,12
India,Rajasthan,Bikaner,"MM Ground, Bikaner - RSPCB",17-04-2024 17:00:00,28.018792,73.292658,NH3,14,32,16
India,Rajasthan,Bikaner,"MM Ground, Bikaner - RSPCB",17-04-2024 17:00:00,28.018792,73.292658,CO,14,40,26
India,Rajasthan,Chittorgarh,"Shastri Nagar, Chittorgarh - RSPCB",17-04-2024 17:00:00,24.892047,74.623527,CO,9,40,20
India,Rajasthan,Chittorgarh,"Shastri Nagar, Chittorgarh - RSPCB",17-04-2024 17:00:00,24.892047,74.623527,OZONE,5,107,88
India,Rajasthan,Churu,"Subash Chowk, Churu - RSPCB",17-04-2024 17:00:00,28.296139,74.961696,PM2.5,8,66,39
India,Rajasthan,Dholpur,"Raja Ganj, Dholpur - RSPCB",17-04-2024 17:00:00,26.699557,77.898881,PM10,75,402,170
India,Rajasthan,Dungarpur,"Bhoiwada, Dungarpur - RSPCB",17-04-2024 17:00:00,23.837789,73.714926,PM2.5,NA,NA,NA
India,Rajasthan,Dungarpur,"Bhoiwada, Dungarpur - RSPCB",17-04-2024 17:00:00,23.837789,73.714926,NO2,8,39,22
India,Rajasthan,Jaipur,"Adarsh Nagar, Jaipur - RSPCB",17-04-2024 17:00:00,26.902909,75.836858,PM2.5,33,94,62
India,Rajasthan,Jaipur,"Adarsh Nagar, Jaipur - RSPCB",17-04-2024 17:00:00,26.902909,75.836858,NH3,4,8,5
India,Rajasthan,Jaipur,"Mansarovar Sector-12, Jaipur - RSPCB",17-04-2024 17:00:00,26.843698,75.766894,PM10,95,182,131
India,Rajasthan,Jaipur,"Mansarovar Sector-12, Jaipur - RSPCB",17-04-2024 17:00:00,26.843698,75.766894,NH3,2,7,4
India,Rajasthan,Jaipur,"Mansarovar Sector-12, Jaipur - RSPCB",17-04-2024 17:00:00,26.843698,75.766894,SO2,1,10,4
India,Rajasthan,Jaipur,"Police Commissionerate, Jaipur - RSPCB",17-04-2024 17:00:00,26.9164092,75.7994901,PM2.5,41,99,67
India,Rajasthan,Jaipur,"RIICO Sitapura, Jaipur - RSPCB",17-04-2024 17:00:00,26.786682,75.827928,CO,19,44,26
India,Rajasthan,Jaisalmer,"Sadar Bazar, Jaisalmer - RSPCB",17-04-2024 17:00:00,26.912329,70.909168,PM10,69,119,94
India,Rajasthan,Jaisalmer,"Sadar Bazar, Jaisalmer - RSPCB",17-04-2024 17:00:00,26.912329,70.909168,OZONE,69,127,99
India,Rajasthan,Jalore,"Mudtra Sili, Jalore - RSPCB",17-04-2024 17:00:00,25.344694,72.626208,PM10,66,345,137
India,Rajasthan,Jalore,"Mudtra Sili, Jalore - RSPCB",17-04-2024 17:00:00,25.344694,72.626208,NH3,5,11,7
India,Rajasthan,Jhalawar,"Rajlaxmi Nagar, Jhalawar - RSPCB",17-04-2024 17:00:00,24.588397,76.172782,PM10,64,136,92
India,Rajasthan,Jhalawar,"Rajlaxmi Nagar, Jhalawar - RSPCB",17-04-2024 17:00:00,24.588397,76.172782,SO2,5,20,11
India,Rajasthan,Jhunjhunu,"Indra Nagar, Jhunjhunu - RSPCB",17-04-2024 17:00:00,28.108988,75.386577,SO2,2,7,4
India,Rajasthan,Jhunjhunu,"Indra Nagar, Jhunjhunu - RSPCB",17-04-2024 17:00:00,28.108988,75.386577,OZONE,38,92,83
India,Rajasthan,Jodhpur,"Jhalamand, Jodhpur - RSPCB",17-04-2024 17:00:00,26.215415,73.070156,NH3,6,12,8
India,Rajasthan,Jodhpur,"Jhalamand, Jodhpur - RSPCB",17-04-2024 17:00:00,26.215415,73.070156,OZONE,26,91,83
India,Rajasthan,Jodhpur,"Mandor, Jodhpur - RSPCB",17-04-2024 17:00:00,26.358805,73.047444,SO2,3,43,7
India,Rajasthan,Jodhpur,"Samrat Ashok Udhyan, Jodhpur - RSPCB",17-04-2024 17:00:00,26.253384,72.976571,PM10,52,165,101
India,Rajasthan,Jodhpur,"Samrat Ashok Udhyan, Jodhpur - RSPCB",17-04-2024 17:00:00,26.253384,72.976571,NO2,4,78,20
India,Rajasthan,Karauli,"Satyawati Vihar, Karauli - RSPCB",17-04-2024 17:00:00,26.506177,77.025989,SO2,16,28,22
India,Rajasthan,Kota,"Dhanmandi, Kota - RSPCB",17-04-2024 17:00:00,25.164090,75.858137,CO,20,112,23
India,Rajasthan,Kota,"Nayapura, Kota - RSPCB",17-04-2024 17:00:00,25.196024,75.855668,CO,14,114,20
India,Rajasthan,Kota,"Shrinath Puram, Kota - RSPCB",17-04-2024 17:00:00,25.14389,75.821256,NH3,7,12,9
India,Rajasthan,Pali,"Indira Colony Vistar, Pali - RSPCB",17-04-2024 17:00:00,25.771061, 73.340227,PM10,47,136,101
India,Rajasthan,Pali,"Indira Colony Vistar, Pali - RSPCB",17-04-2024 17:00:00,25.771061, 73.340227,NO2,24,43,31
India,Rajasthan,Pali,"Indira Colony Vistar, Pali - RSPCB",17-04-2024 17:00:00,25.771061, 73.340227,SO2,8,11,9
India,Rajasthan,Pratapgarh,"Pragati Nagar, Pratapgarh - RSPCB",17-04-2024 17:00:00,24.041198,74.780702,PM2.5,11,219,29
India,Rajasthan,Pratapgarh,"Pragati Nagar, Pratapgarh - RSPCB",17-04-2024 17:00:00,24.041198,74.780702,PM10,36,139,68
India,Rajasthan,Sikar,"Radhakishan Pura, Sikar - RSPCB",17-04-2024 17:00:00,27.608912,75.153302,PM2.5,17,90,37
India,Rajasthan,Sikar,"Radhakishan Pura, Sikar - RSPCB",17-04-2024 17:00:00,27.608912,75.153302,NH3,4,7,5
India,Rajasthan,Sikar,"Radhakishan Pura, Sikar - RSPCB",17-04-2024 17:00:00,27.608912,75.153302,CO,16,42,21
India,Rajasthan,Tonk,"Shastri Nagar, Tonk - RSPCB",17-04-2024 17:00:00,26.159933,75.780517,NO2,9,23,17
India,Rajasthan,Udaipur,"Ashok Nagar, Udaipur - RSPCB",17-04-2024 17:00:00,24.5886166,73.6321397,OZONE,6,66,52
India,Sikkim,Gangtok,"Zero Point GICI, Gangtok - SSPCB",17-04-2024 17:00:00,27.338530,88.614099,PM10,13,56,37
India,Sikkim,Gangtok,"Zero Point GICI, Gangtok - SSPCB",17-04-2024 17:00:00,27.338530,88.614099,NH3,1,1,1
India,Sikkim,Gangtok,"Zero Point GICI, Gangtok - SSPCB",17-04-2024 17:00:00,27.338530,88.614099,SO2,11,12,11
India,Sikkim,Gangtok,"Zero Point GICI, Gangtok - SSPCB",17-04-2024 17:00:00,27.338530,88.614099,OZONE,32,101,68
India,TamilNadu,Ariyalur,"Keelapalur, Ariyalur - TNPCB",17-04-2024 17:00:00,11.06825,79.07033,NO2,7,8,7
India,TamilNadu,Chengalpattu,"Crescent University, Chengalpattu - TNPCB",17-04-2024 17:00:00,12.8777316,80.0834807,PM10,15,33,24
India,TamilNadu,Chengalpattu,"Crescent University, Chengalpattu - TNPCB",17-04-2024 17:00:00,12.8777316,80.0834807,SO2,20,21,21
India,TamilNadu,Chengalpattu,"Crescent University, Chengalpattu - TNPCB",17-04-2024 17:00:00,12.8777316,80.0834807,OZONE,6,6,6
India,TamilNadu,Chennai,"Alandur Bus Depot, Chennai - CPCB",17-04-2024 17:00:00,12.9099161,80.1076538,NH3,NA,NA,NA
India,TamilNadu,Chennai,"Alandur Bus Depot, Chennai - CPCB",17-04-2024 17:00:00,12.9099161,80.1076538,CO,41,105,69
India,TamilNadu,Chennai,"Arumbakkam, Chennai - TNPCB",17-04-2024 17:00:00,13.0664,80.2112 ,PM10,27,80,57
India,TamilNadu,Chennai,"Kodungaiyur, Chennai - TNPCB",17-04-2024 17:00:00,13.1278,80.2642,PM10,16,88,54
India,TamilNadu,Chennai,"Manali, Chennai - CPCB",17-04-2024 17:00:00,13.164544,80.26285,PM2.5,36,96,68
India,TamilNadu,Chennai,"Manali, Chennai - CPCB",17-04-2024 17:00:00,13.164544,80.26285,CO,56,106,85
India,TamilNadu,Chennai,"Velachery Res. Area, Chennai - CPCB",17-04-2024 17:00:00,13.0052189,80.2398125,PM10,27,437,69
India,TamilNadu,Chennai,"Velachery Res. Area, Chennai - CPCB",17-04-2024 17:00:00,13.0052189,80.2398125,SO2,11,11,11
India,TamilNadu,Coimbatore,"PSG College of Arts and Science, Coimbatore - TNPCB",17-04-2024 17:00:00,11.0328,77.0349,NO2,1,8,3
India,TamilNadu,Coimbatore,"PSG College of Arts and Science, Coimbatore - TNPCB",17-04-2024 17:00:00,11.0328,77.0349,SO2,17,26,24
India,TamilNadu,Cuddalore,"Kudikadu, Cuddalore - TNPCB",17-04-2024 17:00:00,11.6829898,79.7532099,PM10,43,196,111
India,TamilNadu,Cuddalore,"Kudikadu, Cuddalore - TNPCB",17-04-2024 17:00:00,11.6829898,79.7532099,NH3,4,4,4
India,TamilNadu,Cuddalore,"Semmandalam, Cuddalore - TNPCB",17-04-2024 17:00:00,11.7637683,79.7499835,PM10,NA,NA,NA
India,TamilNadu,Kanchipuram,"Kilambi, Kanchipuram - TNPCB",17-04-2024 17:00:00,12.864618,79.659968,OZONE,NA,NA,NA
India,TamilNadu,Ooty,"Bombay Castel, Ooty - TNPCB",17-04-2024 17:00:00,11.4068288,76.7138973,CO,NA,NA,NA
India,TamilNadu,Palkalaiperur,"Bharathidasan University, Palkalaiperur - TNPCB",17-04-2024 17:00:00,10.681158,78.741746,OZONE,1,1,1
India,TamilNadu,Salem,"Sona College of Technology, Salem - TNPCB",17-04-2024 17:00:00,11.679111,78.125052,PM10,NA,NA,NA
India,TamilNadu,Salem,"Sona College of Technology, Salem - TNPCB",17-04-2024 17:00:00,11.679111,78.125052,NH3,NA,NA,NA
India,TamilNadu,Tirupur,"Kumaran College, Tirupur - TNPCB",17-04-2024 17:00:00,11.0973603,77.3228673,PM10,NA,NA,NA
India,TamilNadu,Vellore,"Vasanthapuram, Vellore - TNPCB",17-04-2024 17:00:00,12.909494,79.131861,NO2,6,28,15
India,Telangana,Hyderabad,"ECIL Kapra, Hyderabad - TSPCB",17-04-2024 17:00:00,17.470431,78.566959,PM2.5,50,77,60
India,Telangana,Hyderabad,"ECIL Kapra, Hyderabad - TSPCB",17-04-2024 17:00:00,17.470431,78.566959,NO2,11,13,12
India,Telangana,Hyderabad,"ICRISAT Patancheru, Hyderabad - TSPCB",17-04-2024 17:00:00,17.518400,78.278777,NH3,2,2,2
India,Telangana,Hyderabad,"IITH Kandi, Hyderabad - TSPCB",17-04-2024 17:00:00,17.585705,78.126199,SO2,9,13,10
India,Telangana,Hyderabad,"IITH Kandi, Hyderabad - TSPCB",17-04-2024 17:00:00,17.585705,78.126199,OZONE,32,49,43
India,Telangana,Hyderabad,"Kokapet, Hyderabad - TSPCB",17-04-2024 17:00:00,17.393559,78.339194,PM2.5,NA,NA,NA
India,Telangana,Hyderabad,"Kompally Municipal Office, Hyderabad - TSPCB",17-04-2024 17:00:00,17.544899,78.486949,PM2.5,NA,NA,NA
India,Telangana,Hyderabad,"Kompally Municipal Office, Hyderabad - TSPCB",17-04-2024 17:00:00,17.544899,78.486949,CO,46,51,49
India,Telangana,Hyderabad,"Nacharam_TSIIC IALA, Hyderabad - TSPCB",17-04-2024 17:00:00,17.429398,78.569354,PM10,NA,NA,NA
India,Telangana,Hyderabad,"Nacharam_TSIIC IALA, Hyderabad - TSPCB",17-04-2024 17:00:00,17.429398,78.569354,SO2,NA,NA,NA
India,Telangana,Hyderabad,"New Malakpet, Hyderabad - TSPCB",17-04-2024 17:00:00,17.37206,78.50864,PM2.5,29,90,58
India,Telangana,Hyderabad,"Ramachandrapuram, Hyderabad - TSPCB",17-04-2024 17:00:00,17.528544,78.286195,NO2,10,11,10
India,Telangana,Hyderabad,"Sanathnagar, Hyderabad - TSPCB",17-04-2024 17:00:00,17.4559458,78.4332152,PM2.5,63,88,73
India,Telangana,Hyderabad,"Somajiguda, Hyderabad - TSPCB",17-04-2024 17:00:00,17.417094,78.457437,PM10,71,91,76
India,Telangana,Hyderabad,"Somajiguda, Hyderabad - TSPCB",17-04-2024 17:00:00,17.417094,78.457437,OZONE,10,50,29
India,Telangana,Hyderabad,"Zoo Park, Hyderabad - TSPCB",17-04-2024 17:00:00,17.349694,78.451437,NH3,1,1,1
India,Telangana,Hyderabad,"Zoo Park, Hyderabad - TSPCB",17-04-2024 17:00:00,17.349694,78.451437,CO,26,102,37
India,Tripura,Agartala,"Bardowali, Agartala - Tripura SPCB",17-04-2024 17:00:00,23.8175497,91.2726974,CO,14,33,20
India,Uttar_Pradesh,Agra,"Rohta, Agra - UPPCB",17-04-2024 17:00:00,27.106972,78.000111,NH3,1,1,1
India,Uttar_Pradesh,Agra,"Rohta, Agra - UPPCB",17-04-2024 17:00:00,27.106972,78.000111,OZONE,13,15,13
India,Uttar_Pradesh,Agra,"Sanjay Palace, Agra - UPPCB",17-04-2024 17:00:00,27.19865833,78.00598056,PM10,22,129,45
India,Uttar_Pradesh,Agra,"Sector-3B Avas Vikas Colony, Agra - UPPCB",17-04-2024 17:00:00,27.19412,77.96237,PM2.5,12,34,23
India,Uttar_Pradesh,Agra,"Sector-3B Avas Vikas Colony, Agra - UPPCB",17-04-2024 17:00:00,27.19412,77.96237,SO2,9,13,10
India,Uttar_Pradesh,Agra,"Shahjahan Garden, Agra - UPPCB",17-04-2024 17:00:00,27.169338,78.03582,PM2.5,13,67,37
India,Uttar_Pradesh,Agra,"Shahjahan Garden, Agra - UPPCB",17-04-2024 17:00:00,27.169338,78.03582,PM10,35,148,89
India,Uttar_Pradesh,Agra,"Shastripuram, Agra - UPPCB",17-04-2024 17:00:00,27.19862,77.92066,PM10,26,186,100
India,Uttar_Pradesh,Agra,"Shastripuram, Agra - UPPCB",17-04-2024 17:00:00,27.19862,77.92066,SO2,14,16,15
India,Uttar_Pradesh,Agra,"Shastripuram, Agra - UPPCB",17-04-2024 17:00:00,27.19862,77.92066,CO,8,12,10
India,Uttar_Pradesh,Baghpat,"Sardar Patel Inter College, Baghpat - UPPCB",17-04-2024 17:00:00,28.964949,77.278761,PM2.5,23,99,59
India,Uttar_Pradesh,Bareilly,"Civil Lines, Bareilly - UPPCB",17-04-2024 17:00:00,28.359581,79.414455,NO2,NA,NA,NA
India,Uttar_Pradesh,Bareilly,"Civil Lines, Bareilly - UPPCB",17-04-2024 17:00:00,28.359581,79.414455,SO2,NA,NA,NA
India,Uttar_Pradesh,Bareilly,"Civil Lines, Bareilly - UPPCB",17-04-2024 17:00:00,28.359581,79.414455,CO,9,24,11
India,Uttar_Pradesh,Bulandshahr,"Yamunapuram, Bulandshahr - UPPCB",17-04-2024 17:00:00,28.406963,77.849831,CO,20,40,27
India,Uttar_Pradesh,Firozabad,"Nagla Bhau, Firozabad - UPPCB",17-04-2024 17:00:00,27.168897,78.376960,NO2,17,17,17
India,Uttar_Pradesh,Ghaziabad,"Indirapuram, Ghaziabad - UPPCB",17-04-2024 17:00:00,28.646233,77.358075,PM10,117,198,143
India,Uttar_Pradesh,Ghaziabad,"Indirapuram, Ghaziabad - UPPCB",17-04-2024 17:00:00,28.646233,77.358075,NO2,36,87,60
India,Uttar_Pradesh,Ghaziabad,"Loni, Ghaziabad - UPPCB",17-04-2024 17:00:00,28.757294,77.278792,SO2,6,37,15
India,Uttar_Pradesh,Ghaziabad,"Sanjay Nagar, Ghaziabad - UPPCB",17-04-2024 17:00:00,28.685382,77.453839,CO,23,36,30
India,Uttar_Pradesh,Ghaziabad,"Sanjay Nagar, Ghaziabad - UPPCB",17-04-2024 17:00:00,28.685382,77.453839,OZONE,36,146,95
India,Uttar_Pradesh,Ghaziabad,"Vasundhara, Ghaziabad - UPPCB",17-04-2024 17:00:00,28.6603346,77.3572563,NO2,18,59,39
India,Uttar_Pradesh,Ghaziabad,"Vasundhara, Ghaziabad - UPPCB",17-04-2024 17:00:00,28.6603346,77.3572563,SO2,6,124,48
India,Uttar_Pradesh,Gorakhpur,"Madan Mohan Malaviya University of Technology, Gorakhpur - UPPCB",17-04-2024 17:00:00,26.730136,83.433859,NO2,NA,NA,NA
India,Uttar_Pradesh,Gorakhpur,"Madan Mohan Malaviya University of Technology, Gorakhpur - UPPCB",17-04-2024 17:00:00,26.730136,83.433859,CO,6,44,29
India,Uttar_Pradesh,Hapur,"Anand Vihar, Hapur - UPPCB",17-04-2024 17:00:00,28.725645,77.749675,OZONE,30,80,64
India,Uttar_Pradesh,Kanpur,"FTI Kidwai Nagar, Kanpur - UPPCB",17-04-2024 17:00:00,26.428282,80.327067,PM2.5,42,76,62
India,Uttar_Pradesh,Kanpur,"FTI Kidwai Nagar, Kanpur - UPPCB",17-04-2024 17:00:00,26.428282,80.327067,OZONE,3,8,7
India,Uttar_Pradesh,Kanpur,"NSI Kalyanpur, Kanpur - UPPCB",17-04-2024 17:00:00,26.509954,80.249612,NO2,11,11,11
India,Uttar_Pradesh,Khurja,"Kalindi Kunj, Khurja - UPPCB",17-04-2024 17:00:00,28.2348927,77.8683002,PM10,30,151,67
India,Uttar_Pradesh,Lucknow,"B R Ambedkar University, Lucknow - UPPCB",17-04-2024 17:00:00,26.766433,80.927299,PM2.5,42,95,60
India,Uttar_Pradesh,Lucknow,"B R Ambedkar University, Lucknow - UPPCB",17-04-2024 17:00:00,26.766433,80.927299,PM10,104,182,137
India,Uttar_Pradesh,Lucknow,"Kendriya Vidyalaya, Lucknow - CPCB",17-04-2024 17:00:00,26.906111,80.948222,PM10,114,193,146
India,Uttar_Pradesh,Lucknow,"Kendriya Vidyalaya, Lucknow - CPCB",17-04-2024 17:00:00,26.906111,80.948222,NH3,4,25,16
India,Uttar_Pradesh,Lucknow,"Kendriya Vidyalaya, Lucknow - CPCB",17-04-2024 17:00:00,26.906111,80.948222,SO2,1,7,5
India,Uttar_Pradesh,Lucknow,"Kukrail Picnic Spot-1, Lucknow - UPPCB",17-04-2024 17:00:00,26.90723,80.98579,PM2.5,29,79,57
India,Uttar_Pradesh,Lucknow,"Lalbagh, Lucknow - CPCB",17-04-2024 17:00:00,26.8458805,80.9365541,CO,11,98,60
India,Uttar_Pradesh,Meerut,"Ganga Nagar, Meerut - UPPCB",17-04-2024 17:00:00,28.999264,77.7590354,PM2.5,13,43,22
India,Uttar_Pradesh,Meerut,"Ganga Nagar, Meerut - UPPCB",17-04-2024 17:00:00,28.999264,77.7590354,SO2,5,28,14
India,Uttar_Pradesh,Meerut,"Jai Bhim Nagar, Meerut - UPPCB",17-04-2024 17:00:00,28.9535882,77.7622941,CO,26,48,32
India,Uttar_Pradesh,Meerut,"Pallavpuram Phase 2, Meerut - UPPCB",17-04-2024 17:00:00,29.063510,77.709723,PM10,57,167,102
India,Uttar_Pradesh,Meerut,"Pallavpuram Phase 2, Meerut - UPPCB",17-04-2024 17:00:00,29.063510,77.709723,NO2,6,47,22
India,Uttar_Pradesh,Meerut,"Pallavpuram Phase 2, Meerut - UPPCB",17-04-2024 17:00:00,29.063510,77.709723,OZONE,36,109,79
India,Uttar_Pradesh,Moradabad,"Eco Herbal Park, Moradabad - UPPCB",17-04-2024 17:00:00,28.840739,78.697531,OZONE,81,231,180
India,Uttar_Pradesh,Moradabad,"Employment Office, Moradabad - UPPCB",17-04-2024 17:00:00,28.88528,78.73880,SO2,28,32,29
India,Uttar_Pradesh,Moradabad,"Jigar Colony, Moradabad - UPPCB",17-04-2024 17:00:00,28.856664,78.772638,SO2,11,22,16
India,Uttar_Pradesh,Moradabad,"Kashiram Nagar, Moradabad - UPPCB",17-04-2024 17:00:00,28.849399,78.742362,NO2,3,4,4
India,Uttar_Pradesh,Moradabad,"Kashiram Nagar, Moradabad - UPPCB",17-04-2024 17:00:00,28.849399,78.742362,SO2,35,48,40
India,Uttar_Pradesh,Moradabad,"Transport Nagar, Moradabad - UPPCB",17-04-2024 17:00:00,28.802625,78.753728,PM10,31,114,70
India,Uttar_Pradesh,Muzaffarnagar,"New Mandi, Muzaffarnagar - UPPCB",17-04-2024 17:00:00,29.4723508,77.7194031,PM2.5,36,101,61
India,Uttar_Pradesh,Muzaffarnagar,"New Mandi, Muzaffarnagar - UPPCB",17-04-2024 17:00:00,29.4723508,77.7194031,OZONE,30,86,66
India,Uttar_Pradesh,Noida,"Sector - 125, Noida - UPPCB",17-04-2024 17:00:00,28.5447608,77.3231257,PM10,NA,NA,NA
India,Uttar_Pradesh,Noida,"Sector-1, Noida - UPPCB",17-04-2024 17:00:00,28.5898,77.3101,NO2,33,107,60
India,Uttar_Pradesh,Noida,"Sector-116, Noida - UPPCB",17-04-2024 17:00:00,28.569230,77.393848,SO2,13,72,30
India,Uttar_Pradesh,Noida,"Sector-116, Noida - UPPCB",17-04-2024 17:00:00,28.569230,77.393848,CO,28,50,33
India,Uttar_Pradesh,Prayagraj,"Jhunsi, Prayagraj - UPPCB",17-04-2024 17:00:00,25.425602,81.917152,PM2.5,27,57,42
India,Uttar_Pradesh,Prayagraj,"Jhunsi, Prayagraj - UPPCB",17-04-2024 17:00:00,25.425602,81.917152,PM10,59,208,106
India,Uttar_Pradesh,Prayagraj,"Jhunsi, Prayagraj - UPPCB",17-04-2024 17:00:00,25.425602,81.917152,NH3,5,5,5
India,Uttar_Pradesh,Prayagraj,"Jhunsi, Prayagraj - UPPCB",17-04-2024 17:00:00,25.425602,81.917152,CO,3,26,6
India,Uttar_Pradesh,Prayagraj,"Jhunsi, Prayagraj - UPPCB",17-04-2024 17:00:00,25.425602,81.917152,OZONE,11,55,38
India,Uttar_Pradesh,Prayagraj,"Nagar Nigam, Prayagraj - UPPCB",17-04-2024 17:00:00,25.44919916 ,81.82735986 ,PM10,31,207,115
India,Uttar_Pradesh,Prayagraj,"Nagar Nigam, Prayagraj - UPPCB",17-04-2024 17:00:00,25.44919916 ,81.82735986 ,OZONE,11,12,12
India,Uttar_Pradesh,Varanasi,"Bhelupur, Varanasi - UPPCB",17-04-2024 17:00:00,25.301778,82.996789,NH3,1,2,1
India,Uttar_Pradesh,Vrindavan,"Omex Eternity, Vrindavan - UPPCB",17-04-2024 17:00:00,27.5714090,77.6557570,NH3,1,2,1
India,Uttar_Pradesh,Vrindavan,"Omex Eternity, Vrindavan - UPPCB",17-04-2024 17:00:00,27.5714090,77.6557570,CO,22,42,28
India,Uttarakhand,Dehradun,"Doon University, Dehradun - UKPCB",17-04-2024 17:00:00,30.269444,78.044167,SO2,2,5,2
India,Uttarakhand,Kashipur,"Govt. Girls Inter College, Kashipur - UKPCB",17-04-2024 17:00:00,29.2124114,78.9611753,SO2,7,9,8
India,Uttarakhand,Rishikesh,"Shivaji Nagar, Rishikesh - UKPCB",17-04-2024 17:00:00,30.075911,78.2859547,NH3,2,3,3
India,West_Bengal,Asansol,"Asansol Court Area, Asansol - WBPCB",17-04-2024 17:00:00,23.685297,86.945968,CO,28,103,45
India,West_Bengal,Barrackpore,"SVSPA Campus, Barrackpore - WBPCB",17-04-2024 17:00:00,22.7605581,88.3617589,PM2.5,83,238,127
India,West_Bengal,Barrackpore,"SVSPA Campus, Barrackpore - WBPCB",17-04-2024 17:00:00,22.7605581,88.3617589,NO2,9,35,19
India,West_Bengal,Barrackpore,"SVSPA Campus, Barrackpore - WBPCB",17-04-2024 17:00:00,22.7605581,88.3617589,SO2,9,13,11
India,West_Bengal,Barrackpore,"SVSPA Campus, Barrackpore - WBPCB",17-04-2024 17:00:00,22.7605581,88.3617589,OZONE,22,78,57
India,West_Bengal,Durgapur,"Sidhu Kanhu Indoor Stadium, Durgapur - WBPCB",17-04-2024 17:00:00,23.5404352,87.2892225,PM10,92,224,153
India,West_Bengal,Durgapur,"Sidhu Kanhu Indoor Stadium, Durgapur - WBPCB",17-04-2024 17:00:00,23.5404352,87.2892225,NO2,16,73,41
India,West_Bengal,Durgapur,"Sidhu Kanhu Indoor Stadium, Durgapur - WBPCB",17-04-2024 17:00:00,23.5404352,87.2892225,SO2,14,41,25
India,West_Bengal,Haldia,"Priyambada Housing Estate, Haldia - WBPCB",17-04-2024 17:00:00,22.06047,88.109737,SO2,7,35,13
India,West_Bengal,Howrah,"Belur Math, Howrah - WBPCB",17-04-2024 17:00:00,22.629801,88.352017,NO2,6,39,19
India,West_Bengal,Howrah,"Belur Math, Howrah - WBPCB",17-04-2024 17:00:00,22.629801,88.352017,SO2,3,12,7
India,West_Bengal,Howrah,"Belur Math, Howrah - WBPCB",17-04-2024 17:00:00,22.629801,88.352017,OZONE,11,95,61
India,West_Bengal,Howrah,"Padmapukur, Howrah - WBPCB",17-04-2024 17:00:00,22.5687319,88.2797276,PM10,NA,NA,NA
India,West_Bengal,Kolkata,"Ballygunge, Kolkata - WBPCB",17-04-2024 17:00:00,22.5367507,88.3638022,OZONE,28,116,78
India,West_Bengal,Kolkata,"Bidhannagar, Kolkata - WBPCB",17-04-2024 17:00:00,22.58157048,88.41002457,CO,27,44,36
India,West_Bengal,Kolkata,"Bidhannagar, Kolkata - WBPCB",17-04-2024 17:00:00,22.58157048,88.41002457,OZONE,21,150,102
India,West_Bengal,Kolkata,"Fort William, Kolkata - WBPCB",17-04-2024 17:00:00,22.556640,88.342674,CO,18,42,26
India,West_Bengal,Kolkata,"Jadavpur, Kolkata - WBPCB",17-04-2024 17:00:00,22.49929,88.36917,SO2,2,45,12
India,West_Bengal,Kolkata,"Rabindra Bharati University, Kolkata - WBPCB",17-04-2024 17:00:00,22.627847,88.380669,PM2.5,41,81,55
India,West_Bengal,Kolkata,"Rabindra Sarobar, Kolkata - WBPCB",17-04-2024 17:00:00,22.51106,88.35142,OZONE,31,123,80
India,West_Bengal,Kolkata,"Victoria, Kolkata - WBPCB",17-04-2024 17:00:00,22.5448082,88.3403691,CO,62,88,74
India,West_Bengal,Siliguri,"Ward-32 Bapupara, Siliguri - WBPCB",17-04-2024 17:00:00,26.6879226,88.4152495,PM2.5,54,83,70
India,Andhra_Pradesh,Amaravati,"Secretariat, Amaravati - APPCB",17-04-2024 17:00:00,16.5150833,80.5181667,PM10,35,87,59
India,Andhra_Pradesh,Amaravati,"Secretariat, Amaravati - APPCB",17-04-2024 17:00:00,16.5150833,80.5181667,NH3,3,4,4
India,Andhra_Pradesh,Anantapur,"Gulzarpet, Anantapur - APPCB",17-04-2024 17:00:00,14.675886,77.593027,PM10,NA,NA,NA
India,Andhra_Pradesh,Anantapur,"Gulzarpet, Anantapur - APPCB",17-04-2024 17:00:00,14.675886,77.593027,NO2,NA,NA,NA
India,Andhra_Pradesh,Anantapur,"Gulzarpet, Anantapur - APPCB",17-04-2024 17:00:00,14.675886,77.593027,NH3,NA,NA,NA
India,Andhra_Pradesh,Anantapur,"Gulzarpet, Anantapur - APPCB",17-04-2024 17:00:00,14.675886,77.593027,SO2,6,30,14
India,Andhra_Pradesh,Anantapur,"Gulzarpet, Anantapur - APPCB",17-04-2024 17:00:00,14.675886,77.593027,OZONE,14,62,42
India,Andhra_Pradesh,Chittoor,"Gangineni Cheruvu, Chittoor - APPCB",17-04-2024 17:00:00,13.204880,79.097889,SO2,2,109,31
India,Andhra_Pradesh,Tirupati,"Tirumala, Tirupati - APPCB",17-04-2024 17:00:00,13.67,79.35,PM2.5,31,90,48
India,Andhra_Pradesh,Visakhapatnam,"GVM Corporation, Visakhapatnam - APPCB",17-04-2024 17:00:00,17.72,83.3,NO2,36,66,46
India,Andhra_Pradesh,Visakhapatnam,"GVM Corporation, Visakhapatnam - APPCB",17-04-2024 17:00:00,17.72,83.3,NH3,3,5,4
India,Arunachal_Pradesh,Naharlagun,"Naharlagun, Naharlagun - APSPCB",17-04-2024 17:00:00,27.103358,93.679645,PM2.5,44,174,88
India,Arunachal_Pradesh,Naharlagun,"Naharlagun, Naharlagun - APSPCB",17-04-2024 17:00:00,27.103358,93.679645,SO2,4,4,4
India,Assam,Guwahati,"IITG, Guwahati - PCBA",17-04-2024 17:00:00,26.2028636,91.70046436,CO,10,17,12
India,Assam,Guwahati,"LGBI Airport, Guwahati - PCBA",17-04-2024 17:00:00,26.10887,91.589544,PM2.5,33,250,137
India,Assam,Guwahati,"LGBI Airport, Guwahati - PCBA",17-04-2024 17:00:00,26.10887,91.589544,SO2,7,12,8
India,Assam,Guwahati,"Pan Bazaar, Guwahati - PCBA",17-04-2024 17:00:00,26.187500,91.744194,NO2,1,2,1
India,Assam,Guwahati,"Pan Bazaar, Guwahati - PCBA",17-04-2024 17:00:00,26.187500,91.744194,NH3,3,5,3
India,Assam,Guwahati,"Pan Bazaar, Guwahati - PCBA",17-04-2024 17:00:00,26.187500,91.744194,SO2,36,58,42
India,Assam,Guwahati,"Pan Bazaar, Guwahati - PCBA",17-04-2024 17:00:00,26.187500,91.744194,OZONE,17,18,17
India,Assam,Guwahati,"Railway Colony, Guwahati - PCBA",17-04-2024 17:00:00,26.181742,91.78063,SO2,11,16,14
India,Assam,Guwahati,"Railway Colony, Guwahati - PCBA",17-04-2024 17:00:00,26.181742,91.78063,CO,16,35,21
India,Assam,Nagaon,"Christianpatty, Nagaon - PCBA",17-04-2024 17:00:00,26.349082,92.68449,NO2,1,47,9
India,Assam,Nagaon,"Christianpatty, Nagaon - PCBA",17-04-2024 17:00:00,26.349082,92.68449,CO,35,90,51
India,Assam,Nalbari,"Bata Chowk, Nalbari - PCBA",17-04-2024 17:00:00,26.446912,91.439057,OZONE,5,118,101
India,Assam,Silchar,"Tarapur, Silchar - PCBA",17-04-2024 17:00:00,24.82827,92.79525,NO2,13,13,13
India,Assam,Sivasagar,"Girls College, Sivasagar - PCBA",17-04-2024 17:00:00,26.987634,94.636574,PM2.5,33,62,46
India,Assam,Sivasagar,"Girls College, Sivasagar - PCBA",17-04-2024 17:00:00,26.987634,94.636574,OZONE,1,50,20
India,Bihar,Araria,"Kharahiya Basti, Araria - BSPCB",17-04-2024 17:00:00,26.146529,87.454184,NH3,5,6,6
India,Bihar,Araria,"Kharahiya Basti, Araria - BSPCB",17-04-2024 17:00:00,26.146529,87.454184,OZONE,7,10,8
India,Bihar,Arrah,"New DM Office, Arrah - BSPCB",17-04-2024 17:00:00,25.5626095,84.663264,NO2,3,25,15
India,Bihar,Arrah,"New DM Office, Arrah - BSPCB",17-04-2024 17:00:00,25.5626095,84.663264,SO2,NA,NA,NA
India,Bihar,Arrah,"New DM Office, Arrah - BSPCB",17-04-2024 17:00:00,25.5626095,84.663264,CO,4,14,11
India,Bihar,Aurangabad,"Gurdeo Nagar, Aurangabad - BSPCB",17-04-2024 17:00:00,24.75746,84.366208,PM2.5,NA,NA,NA
India,Bihar,Aurangabad,"Gurdeo Nagar, Aurangabad - BSPCB",17-04-2024 17:00:00,24.75746,84.366208,PM10,NA,NA,NA
India,Bihar,Aurangabad,"Gurdeo Nagar, Aurangabad - BSPCB",17-04-2024 17:00:00,24.75746,84.366208,NO2,5,5,5
India,Bihar,Aurangabad,"Gurdeo Nagar, Aurangabad - BSPCB",17-04-2024 17:00:00,24.75746,84.366208,NH3,3,7,5
India,Bihar,Bettiah,"Kamalnath Nagar, Bettiah - BSPCB",17-04-2024 17:00:00,26.80365,84.51954,PM2.5,47,338,136
India,Bihar,Bettiah,"Kamalnath Nagar, Bettiah - BSPCB",17-04-2024 17:00:00,26.80365,84.51954,PM10,53,267,115
India,Bihar,Bettiah,"Kamalnath Nagar, Bettiah - BSPCB",17-04-2024 17:00:00,26.80365,84.51954,SO2,6,30,16
India,Bihar,Bettiah,"Kamalnath Nagar, Bettiah - BSPCB",17-04-2024 17:00:00,26.80365,84.51954,CO,64,72,67
India,Bihar,Bhagalpur,"DM Office_Kachari Chowk, Bhagalpur - BSPCB",17-04-2024 17:00:00,25.251013,86.989001,NO2,41,108,78
India,Bihar,Gaya,"Collectorate, Gaya - BSPCB",17-04-2024 17:00:00,24.7955,84.9994,PM2.5,47,278,114
India,Bihar,Gaya,"Collectorate, Gaya - BSPCB",17-04-2024 17:00:00,24.7955,84.9994,NO2,1,3,2
India,Bihar,Gaya,"Collectorate, Gaya - BSPCB",17-04-2024 17:00:00,24.7955,84.9994,OZONE,52,77,68
India,Bihar,Gaya,"Kareemganj, Gaya - BSPCB",17-04-2024 17:00:00,24.792403,84.992416,CO,8,27,22
India,Bihar,Gaya,"Kareemganj, Gaya - BSPCB",17-04-2024 17:00:00,24.792403,84.992416,OZONE,4,50,27
India,Bihar,Gaya,"SFTI Kusdihra, Gaya - BSPCB",17-04-2024 17:00:00,24.762518,84.982348,SO2,NA,NA,NA
India,Bihar,Hajipur,"Industrial Area, Hajipur - BSPCB",17-04-2024 17:00:00,25.697189,85.245900,PM10,195,422,269
India,Bihar,Katihar,"Mirchaibari, Katihar - BSPCB",17-04-2024 17:00:00,25.560083,87.553265,NO2,20,37,26
India,Bihar,Kishanganj,"SDM Office_Khagra, Kishanganj - BSPCB",17-04-2024 17:00:00,26.0881305,87.93840336,PM10,96,229,139
India,Bihar,Manguraha,"Forest Rest House, Manguraha - BSPCB",17-04-2024 17:00:00,27.308328,84.531742,PM10,NA,NA,NA
India,Bihar,Manguraha,"Forest Rest House, Manguraha - BSPCB",17-04-2024 17:00:00,27.308328,84.531742,OZONE,7,84,56
India,Bihar,Motihari,"Gandak Colony, Motihari - BSPCB",17-04-2024 17:00:00,26.63086,84.90051,PM2.5,23,193,75
India,Bihar,Motihari,"Gandak Colony, Motihari - BSPCB",17-04-2024 17:00:00,26.63086,84.90051,OZONE,32,227,227
India,Bihar,Muzaffarpur,"Buddha Colony, Muzaffarpur - BSPCB",17-04-2024 17:00:00,26.11442,85.39813,PM2.5,331,382,355
India,Bihar,Muzaffarpur,"Buddha Colony, Muzaffarpur - BSPCB",17-04-2024 17:00:00,26.11442,85.39813,PM10,280,414,354
India,Bihar,Muzaffarpur,"Buddha Colony, Muzaffarpur - BSPCB",17-04-2024 17:00:00,26.11442,85.39813,SO2,4,12,8
India,Bihar,Muzaffarpur,"MIT-Daudpur Kothi, Muzaffarpur - BSPCB",17-04-2024 17:00:00,26.1403345,85.3650192,PM2.5,133,323,220
India,Bihar,Muzaffarpur,"Muzaffarpur Collectorate, Muzaffarpur - BSPCB",17-04-2024 17:00:00,26.1209,85.3647,CO,24,56,39
India,Bihar,Patna,"DRM Office Danapur, Patna - BSPCB",17-04-2024 17:00:00,25.586562,85.043586,PM10,131,172,156
India,Bihar,Patna,"DRM Office Danapur, Patna - BSPCB",17-04-2024 17:00:00,25.586562,85.043586,NO2,5,82,37
India,Bihar,Patna,"Govt. High School Shikarpur, Patna - BSPCB",17-04-2024 17:00:00,25.592539,85.227158,PM10,108,454,213
India,Bihar,Patna,"Muradpur, Patna - BSPCB",17-04-2024 17:00:00,25.619651,85.147382,SO2,5,10,7
India,Bihar,Patna,"Samanpura, Patna - BSPCB",17-04-2024 17:00:00,25.596727,85.085624,CO,20,124,39
India,Bihar,Purnia,"Mariam Nagar, Purnia - BSPCB",17-04-2024 17:00:00,25.366336,87.117468,OZONE,4,27,9
India,Bihar,Rajgir,"Dangi Tola, Rajgir - BSPCB",17-04-2024 17:00:00,25.03280,85.41948,SO2,2,5,4
India,Bihar,Rajgir,"Dangi Tola, Rajgir - BSPCB",17-04-2024 17:00:00,25.03280,85.41948,CO,30,50,38
India,Bihar,Saharsa,"Police Line, Saharsa - BSPCB",17-04-2024 17:00:00,25.892357,86.590325,PM10,75,165,114
India,Bihar,Samastipur,"DM Office_Kasipur, Samastipur - BSPCB",17-04-2024 17:00:00,25.859655,85.77944,PM10,NA,NA,NA
India,Bihar,Samastipur,"DM Office_Kasipur, Samastipur - BSPCB",17-04-2024 17:00:00,25.859655,85.77944,NH3,2,4,3
India,Bihar,Sasaram,"Dada Peer, Sasaram - BSPCB",17-04-2024 17:00:00,24.952822,84.002396,OZONE,22,79,70
India,Bihar,Siwan,"Chitragupta Nagar, Siwan - BSPCB",17-04-2024 17:00:00,26.2271665,84.3570427,PM10,NA,NA,NA
India,Bihar,Siwan,"Chitragupta Nagar, Siwan - BSPCB",17-04-2024 17:00:00,26.2271665,84.3570427,CO,66,130,84
India,Bihar,Siwan,"Chitragupta Nagar, Siwan - BSPCB",17-04-2024 17:00:00,26.2271665,84.3570427,OZONE,NA,NA,NA
India,Chandigarh,Chandigarh,"Sector 22, Chandigarh - CPCC",17-04-2024 17:00:00,30.735567,76.775714,PM10,34,161,67
India,Chandigarh,Chandigarh,"Sector 22, Chandigarh - CPCC",17-04-2024 17:00:00,30.735567,76.775714,NH3,6,11,8
India,Chandigarh,Chandigarh,"Sector 22, Chandigarh - CPCC",17-04-2024 17:00:00,30.735567,76.775714,OZONE,72,168,99
India,Chandigarh,Chandigarh,"Sector-25, Chandigarh - CPCC",17-04-2024 17:00:00,30.751462,76.762879,SO2,7,126,16
India,Chandigarh,Chandigarh,"Sector-53, Chandigarh - CPCC",17-04-2024 17:00:00,30.719859,76.738637,OZONE,30,69,54
India,Chhattisgarh,Bhilai,"Civic Center, Bhilai - Bhilai Steel Plant",17-04-2024 17:00:00,21.185571,81.343175,SO2,7,13,10
India,Chhattisgarh,Bhilai,"Hathkhoj, Bhilai - CECB",17-04-2024 17:00:00,21.224231,81.408350,OZONE,2,25,20
India,Chhattisgarh,Bilaspur,"Mangala, Bilaspur - NTPC",17-04-2024 17:00:00,22.08815,82.13737,NO2,14,18,16
India,Chhattisgarh,Bilaspur,"Mangala, Bilaspur - NTPC",17-04-2024 17:00:00,22.08815,82.13737,SO2,4,19,14
India,Chhattisgarh,Chhal,"Nawapara SECL Colony, Chhal - CECB",17-04-2024 17:00:00,22.118125,83.140608,OZONE,16,124,91
India,Chhattisgarh,Kunjemura,"OP Jindal School, Kunjemura - CECB",17-04-2024 17:00:00,22.126650,83.483212,PM2.5,32,130,78
India,Chhattisgarh,Kunjemura,"OP Jindal School, Kunjemura - CECB",17-04-2024 17:00:00,22.126650,83.483212,NO2,12,93,52
India,Chhattisgarh,Kunjemura,"OP Jindal School, Kunjemura - CECB",17-04-2024 17:00:00,22.126650,83.483212,NH3,1,7,3
India,Chhattisgarh,Raipur,"AIIMS, Raipur - CECB",17-04-2024 17:00:00,21.258815,81.578979,NH3,6,6,6
India,Chhattisgarh,Raipur,"Bhatagaon New ISBT, Raipur - CECB",17-04-2024 17:00:00,21.219665,81.630094,NO2,26,52,34
India,Chhattisgarh,Raipur,"Bhatagaon New ISBT, Raipur - CECB",17-04-2024 17:00:00,21.219665,81.630094,NH3,2,2,2
India,Chhattisgarh,Raipur,"Bhatagaon New ISBT, Raipur - CECB",17-04-2024 17:00:00,21.219665,81.630094,SO2,1,4,2
India,Chhattisgarh,Raipur,"Krishak Nagar, Raipur - CECB",17-04-2024 17:00:00,21.237755,81.705301,NH3,1,1,1
India,Chhattisgarh,Raipur,"Krishak Nagar, Raipur - CECB",17-04-2024 17:00:00,21.237755,81.705301,OZONE,3,36,25
India,Chhattisgarh,Raipur,"Siltara Phase-II, Raipur - CECB",17-04-2024 17:00:00,21.371751,81.664929,PM2.5,40,322,135
India,Chhattisgarh,Raipur,"Siltara Phase-II, Raipur - CECB",17-04-2024 17:00:00,21.371751,81.664929,SO2,8,72,21
India,Chhattisgarh,Tumidih,"OP Jindal Industrial Park, Tumidih - CECB",17-04-2024 17:00:00,22.06631475,83.33820077,NH3,NA,NA,NA
India,Delhi,Delhi,"Alipur, Delhi - DPCC",17-04-2024 17:00:00,28.815329,77.153010,NH3,4,9,6
India,Delhi,Delhi,"Alipur, Delhi - DPCC",17-04-2024 17:00:00,28.815329,77.153010,SO2,9,32,15
India,Delhi,Delhi,"Anand Vihar, Delhi - DPCC",17-04-2024 17:00:00,28.647622,77.3158090,PM10,20,213,154
India,Delhi,Delhi,"Ashok Vihar, Delhi - DPCC",17-04-2024 17:00:00,28.695381,77.181665,NO2,10,55,28
India,Delhi,Delhi,"Ashok Vihar, Delhi - DPCC",17-04-2024 17:00:00,28.695381,77.181665,NH3,14,18,16
India,Delhi,Delhi,"Ashok Vihar, Delhi - DPCC",17-04-2024 17:00:00,28.695381,77.181665,SO2,21,57,29
India,Delhi,Delhi,"Ashok Vihar, Delhi - DPCC",17-04-2024 17:00:00,28.695381,77.181665,OZONE,10,33,23
India,Delhi,Delhi,"Bawana, Delhi - DPCC",17-04-2024 17:00:00,28.776200,77.051074,PM10,123,271,166
India,Delhi,Delhi,"Bawana, Delhi - DPCC",17-04-2024 17:00:00,28.776200,77.051074,NH3,5,8,7
India,Delhi,Delhi,"Chandni Chowk, Delhi - IITM",17-04-2024 17:00:00,28.656756,77.227234,PM2.5,94,195,122
India,Delhi,Delhi,"DTU, Delhi - CPCB",17-04-2024 17:00:00,28.7500499,77.1112615,PM2.5,53,500,112
India,Delhi,Delhi,"Dr. Karni Singh Shooting Range, Delhi - DPCC",17-04-2024 17:00:00,28.498571,77.264840,NH3,6,10,7
India,Delhi,Delhi,"Dr. Karni Singh Shooting Range, Delhi - DPCC",17-04-2024 17:00:00,28.498571,77.264840,SO2,17,46,26
India,Delhi,Delhi,"Dr. Karni Singh Shooting Range, Delhi - DPCC",17-04-2024 17:00:00,28.498571,77.264840,CO,23,66,30
India,Delhi,Delhi,"Dwarka-Sector 8, Delhi - DPCC ",17-04-2024 17:00:00,28.5710274,77.0719006,NH3,5,10,7
India,Delhi,Delhi,"IHBAS, Dilshad Garden, Delhi - CPCB",17-04-2024 17:00:00,28.6811736,77.3025234,PM10,98,146,116
India,Delhi,Delhi,"IHBAS, Dilshad Garden, Delhi - CPCB",17-04-2024 17:00:00,28.6811736,77.3025234,NH3,7,10,8
India,Delhi,Delhi,"IHBAS, Dilshad Garden, Delhi - CPCB",17-04-2024 17:00:00,28.6811736,77.3025234,OZONE,19,52,45
India,Delhi,Delhi,"ITO, Delhi - CPCB",17-04-2024 17:00:00,28.628624,77.241060,PM10,31,111,75
India,Delhi,Delhi,"ITO, Delhi - CPCB",17-04-2024 17:00:00,28.628624,77.241060,SO2,2,27,13
India,Delhi,Delhi,"Jahangirpuri, Delhi - DPCC",17-04-2024 17:00:00,28.732820,77.170633,SO2,11,54,29
India,Delhi,Delhi,"Jawaharlal Nehru Stadium, Delhi - DPCC",17-04-2024 17:00:00,28.580280,77.233829,PM2.5,12,85,36
India,Delhi,Delhi,"Jawaharlal Nehru Stadium, Delhi - DPCC",17-04-2024 17:00:00,28.580280,77.233829,CO,24,46,32
India,Delhi,Delhi,"Lodhi Road, Delhi - IITM",17-04-2024 17:00:00,28.588333,77.221667,PM2.5,56,116,82
India,Delhi,Delhi,"Lodhi Road, Delhi - IITM",17-04-2024 17:00:00,28.588333,77.221667,OZONE,16,21,18
India,Delhi,Delhi,"Major Dhyan Chand National Stadium, Delhi - DPCC",17-04-2024 17:00:00,28.611281,77.237738,CO,24,47,33
India,Delhi,Delhi,"Mandir Marg, Delhi - DPCC",17-04-2024 17:00:00,28.636429,77.201067,PM2.5,16,141,45
India,Delhi,Delhi,"Mandir Marg, Delhi - DPCC",17-04-2024 17:00:00,28.636429,77.201067,NO2,101,111,106
India,Delhi,Delhi,"Mandir Marg, Delhi - DPCC",17-04-2024 17:00:00,28.636429,77.201067,NH3,5,6,6
India,Delhi,Delhi,"Mandir Marg, Delhi - DPCC",17-04-2024 17:00:00,28.636429,77.201067,OZONE,7,22,14
India,Delhi,Delhi,"Mundka, Delhi - DPCC",17-04-2024 17:00:00,28.684678,77.076574,OZONE,27,145,83
India,Delhi,Delhi,"NSIT Dwarka, Delhi - CPCB",17-04-2024 17:00:00,28.60909,77.0325413,PM10,128,194,151
India,Delhi,Delhi,"NSIT Dwarka, Delhi - CPCB",17-04-2024 17:00:00,28.60909,77.0325413,SO2,6,29,22
India,Delhi,Delhi,"Najafgarh, Delhi - DPCC",17-04-2024 17:00:00,28.570173,76.933762,NH3,9,10,10
India,Delhi,Delhi,"Narela, Delhi - DPCC",17-04-2024 17:00:00,28.822836,77.101981,PM2.5,23,160,63
India,Delhi,Delhi,"Nehru Nagar, Delhi - DPCC",17-04-2024 17:00:00,28.567890,77.250515,PM10,60,127,100
India,Delhi,Delhi,"Nehru Nagar, Delhi - DPCC",17-04-2024 17:00:00,28.567890,77.250515,NO2,7,11,9
India,Delhi,Delhi,"Nehru Nagar, Delhi - DPCC",17-04-2024 17:00:00,28.567890,77.250515,SO2,4,9,5
India,Delhi,Delhi,"Patparganj, Delhi - DPCC",17-04-2024 17:00:00,28.623763,77.287209,NO2,30,87,46
India,Delhi,Delhi,"Pusa, Delhi - DPCC",17-04-2024 17:00:00,28.639652,77.146275,NO2,53,137,81
India,Delhi,Delhi,"R K Puram, Delhi - DPCC",17-04-2024 17:00:00,28.563262,77.186937,PM10,94,158,121
India,Delhi,Delhi,"R K Puram, Delhi - DPCC",17-04-2024 17:00:00,28.563262,77.186937,SO2,18,49,27
India,Delhi,Delhi,"R K Puram, Delhi - DPCC",17-04-2024 17:00:00,28.563262,77.186937,OZONE,44,180,178
India,Delhi,Delhi,"Rohini, Delhi - DPCC",17-04-2024 17:00:00,28.732528,77.119920,PM2.5,23,304,71
India,Delhi,Delhi,"Rohini, Delhi - DPCC",17-04-2024 17:00:00,28.732528,77.119920,PM10,89,187,119
India,Delhi,Delhi,"Rohini, Delhi - DPCC",17-04-2024 17:00:00,28.732528,77.119920,NH3,10,23,14
India,Delhi,Delhi,"Shadipur, Delhi - CPCB",17-04-2024 17:00:00,28.6514781,77.1473105,PM10,72,310,128
India,Delhi,Delhi,"Shadipur, Delhi - CPCB",17-04-2024 17:00:00,28.6514781,77.1473105,NH3,7,16,10
India,Delhi,Delhi,"Sirifort, Delhi - CPCB",17-04-2024 17:00:00,28.5504249,77.2159377,SO2,23,29,26
India,Delhi,Delhi,"Sri Aurobindo Marg, Delhi - DPCC",17-04-2024 17:00:00,28.531346,77.190156,PM10,94,152,118
India,Delhi,Delhi,"Sri Aurobindo Marg, Delhi - DPCC",17-04-2024 17:00:00,28.531346,77.190156,CO,8,24,15
India,Delhi,Delhi,"Wazirpur, Delhi - DPCC",17-04-2024 17:00:00,28.699793,77.165453,NO2,22,88,40
India,Delhi,Delhi,"Wazirpur, Delhi - DPCC",17-04-2024 17:00:00,28.699793,77.165453,NH3,12,13,12
India,Gujarat,Ahmedabad,"Chandkheda, Ahmedabad - IITM",17-04-2024 17:00:00,23.107969,72.574648,OZONE,9,60,43
India,Gujarat,Ahmedabad,"Gyaspur, Ahmedabad - IITM",17-04-2024 17:00:00,22.977134,72.553024,NO2,33,39,36
India,Gujarat,Ahmedabad,"Gyaspur, Ahmedabad - IITM",17-04-2024 17:00:00,22.977134,72.553024,NH3,11,11,11
India,Gujarat,Ahmedabad,"Maninagar, Ahmedabad - GPCB",17-04-2024 17:00:00,23.002657,72.591912,SO2,16,116,53
India,Gujarat,Ahmedabad,"Maninagar, Ahmedabad - GPCB",17-04-2024 17:00:00,23.002657,72.591912,OZONE,13,68,52
India,Gujarat,Ahmedabad,"Raikhad, Ahmedabad - IITM",17-04-2024 17:00:00,23.020509,72.579261,PM10,NA,NA,NA
India,Gujarat,Ahmedabad,"Rakhial, Ahmedabad - IITM",17-04-2024 17:00:00,23.016834,72.625775,CO,18,70,25
India,Gujarat,Ahmedabad,"Rakhial, Ahmedabad - IITM",17-04-2024 17:00:00,23.016834,72.625775,OZONE,8,91,54
India,Gujarat,Ahmedabad,"SAC ISRO Satellite, Ahmedabad - IITM",17-04-2024 17:00:00,23.023389,72.515201,PM2.5,74,129,124
India,Gujarat,Ahmedabad,"SAC ISRO Satellite, Ahmedabad - IITM",17-04-2024 17:00:00,23.023389,72.515201,PM10,81,101,99
India,Gujarat,Ahmedabad,"SAC ISRO Satellite, Ahmedabad - IITM",17-04-2024 17:00:00,23.023389,72.515201,SO2,3,18,7
India,Gujarat,Ahmedabad,"SAC ISRO Satellite, Ahmedabad - IITM",17-04-2024 17:00:00,23.023389,72.515201,CO,23,34,34
India,Gujarat,Ahmedabad,"SVPI Airport Hansol, Ahmedabad - IITM",17-04-2024 17:00:00,23.076793,72.627874,NO2,15,17,16
India,Gujarat,Ahmedabad,"Sardar Vallabhbhai Patel Stadium, Ahmedabad - IITM",17-04-2024 17:00:00,23.043070,72.562968,PM2.5,51,140,68
India,Gujarat,Ahmedabad,"Sardar Vallabhbhai Patel Stadium, Ahmedabad - IITM",17-04-2024 17:00:00,23.043070,72.562968,NH3,7,7,7
India,Gujarat,Gandhinagar,"IIPHG Lekawada, Gandhinagar - IITM",17-04-2024 17:00:00,23.243639,72.68994,PM10,38,108,80
India,Gujarat,Gandhinagar,"IIPHG Lekawada, Gandhinagar - IITM",17-04-2024 17:00:00,23.243639,72.68994,SO2,10,10,10
India,Gujarat,Surat,"Science Center, Surat - SMC",17-04-2024 17:00:00,21.170046,72.795405,PM2.5,NA,NA,NA
India,Gujarat,Vatva,"Phase-4 GIDC, Vatva - GPCB",17-04-2024 17:00:00,22.969611,72.643500,NO2,23,77,48
India,Gujarat,Vatva,"Phase-4 GIDC, Vatva - GPCB",17-04-2024 17:00:00,22.969611,72.643500,OZONE,7,32,21
India,Haryana,Ambala,"Patti Mehar, Ambala - HSPCB",17-04-2024 17:00:00,30.379589,76.778328,NO2,3,4,4
India,Haryana,Bahadurgarh,"Arya Nagar, Bahadurgarh - HSPCB",17-04-2024 17:00:00,28.6701,76.9254,OZONE,37,50,44
India,Haryana,Ballabgarh,"Nathu Colony, Ballabgarh - HSPCB",17-04-2024 17:00:00,28.3419248,77.319699,NH3,1,3,2
India,Haryana,Bhiwani,"H.B. Colony, Bhiwani - HSPCB",17-04-2024 17:00:00,28.806223,76.141105,NH3,6,6,6
India,Haryana,Dharuhera,"Municipal Corporation Office, Dharuhera -  HSPCB",17-04-2024 17:00:00,28.206800,76.799700,OZONE,26,52,46
India,Haryana,Faridabad,"New Industrial Town, Faridabad - HSPCB",17-04-2024 17:00:00,28.39072,77.30059,NO2,2,18,11
India,Haryana,Faridabad,"New Industrial Town, Faridabad - HSPCB",17-04-2024 17:00:00,28.39072,77.30059,OZONE,30,199,97
India,Haryana,Faridabad,"Sector 11, Faridabad - HSPCB",17-04-2024 17:00:00,28.376058,77.315741,PM2.5,82,305,160
India,Haryana,Faridabad,"Sector 11, Faridabad - HSPCB",17-04-2024 17:00:00,28.376058,77.315741,PM10,98,467,167
India,Haryana,Faridabad,"Sector 11, Faridabad - HSPCB",17-04-2024 17:00:00,28.376058,77.315741,CO,49,52,50
India,Haryana,Faridabad,"Sector- 16A, Faridabad - HSPCB",17-04-2024 17:00:00,28.4088421,77.3099081,CO,1,51,12
India,Haryana,Gurugram,"Sector-51, Gurugram - HSPCB",17-04-2024 17:00:00,28.4227,77.0667,PM10,101,157,129
India,Haryana,Gurugram,"Sector-51, Gurugram - HSPCB",17-04-2024 17:00:00,28.4227,77.0667,NO2,13,29,23
India,Haryana,Gurugram,"Sector-51, Gurugram - HSPCB",17-04-2024 17:00:00,28.4227,77.0667,CO,28,43,36
India,Haryana,Gurugram,"Teri Gram, Gurugram - HSPCB",17-04-2024 17:00:00,28.4275,77.1465,SO2,3,5,4
India,Haryana,Gurugram,"Teri Gram, Gurugram - HSPCB",17-04-2024 17:00:00,28.4275,77.1465,CO,14,20,16
India,Haryana,Gurugram,"Vikas Sadan, Gurugram - HSPCB",17-04-2024 17:00:00,28.4501238,77.0263051,NO2,5,26,14
India,Haryana,Gurugram,"Vikas Sadan, Gurugram - HSPCB",17-04-2024 17:00:00,28.4501238,77.0263051,SO2,17,35,30
India,Haryana,Hisar,"Urban Estate-II, Hisar - HSPCB",17-04-2024 17:00:00,29.140560,75.744941,PM10,71,104,88
India,Haryana,Karnal,"Sector-12, Karnal - HSPCB",17-04-2024 17:00:00,29.695300,77.002700,OZONE,28,38,32
India,Haryana,Kurukshetra,"Sector-7, Kurukshetra - HSPCB",17-04-2024 17:00:00,29.966942,76.875879,NH3,4,5,5
India,Haryana,Mandikhera,"General Hospital, Mandikhera - HSPCB",17-04-2024 17:00:00,27.9002,76.9938,PM2.5,11,33,22
India,Haryana,Manesar,"Sector-2 IMT, Manesar - HSPCB",17-04-2024 17:00:00,28.360699,76.936090,PM2.5,27,75,48
India,Haryana,Manesar,"Sector-2 IMT, Manesar - HSPCB",17-04-2024 17:00:00,28.360699,76.936090,PM10,26,75,48
India,Haryana,Narnaul,"Shastri Nagar, Narnaul - HSPCB",17-04-2024 17:00:00,28.060249,76.113115,PM2.5,37,76,49
India,Haryana,Narnaul,"Shastri Nagar, Narnaul - HSPCB",17-04-2024 17:00:00,28.060249,76.113115,OZONE,25,56,43
India,Haryana,Palwal,"Shyam Nagar, Palwal - HSPCB",17-04-2024 17:00:00,28.1485564,77.3320667,PM2.5,NA,NA,NA
India,Haryana,Palwal,"Shyam Nagar, Palwal - HSPCB",17-04-2024 17:00:00,28.1485564,77.3320667,NH3,NA,NA,NA
India,Haryana,Panchkula,"Sector-6, Panchkula - HSPCB ",17-04-2024 17:00:00,30.7057778,76.8531805555555,SO2,2,13,4
India,Haryana,Panchkula,"Sector-6, Panchkula - HSPCB ",17-04-2024 17:00:00,30.7057778,76.8531805555555,OZONE,37,53,47
India,Haryana,Panipat,"Sector-18, Panipat - HSPCB",17-04-2024 17:00:00,29.497973,76.993331,NH3,2,3,2
India,Haryana,Panipat,"Sector-18, Panipat - HSPCB",17-04-2024 17:00:00,29.497973,76.993331,CO,24,26,25
India,Haryana,Rohtak,"MD University, Rohtak - HSPCB",17-04-2024 17:00:00,28.52123,76.37138,SO2,5,8,7
India,Haryana,Sirsa,"F-Block, Sirsa - HSPCB",17-04-2024 17:00:00,29.536400,75.015800,PM10,43,108,76
India,Haryana,Sirsa,"F-Block, Sirsa - HSPCB",17-04-2024 17:00:00,29.536400,75.015800,NH3,11,14,13
India,Haryana,Sirsa,"F-Block, Sirsa - HSPCB",17-04-2024 17:00:00,29.536400,75.015800,SO2,1,7,3
India,Haryana,Sirsa,"F-Block, Sirsa - HSPCB",17-04-2024 17:00:00,29.536400,75.015800,CO,52,68,61
India,Haryana,Sonipat,"Murthal, Sonipat - HSPCB",17-04-2024 17:00:00,29.027200,77.062100,NH3,7,10,9
India,Haryana,Yamuna Nagar,"Gobind Pura, Yamuna Nagar - HSPCB",17-04-2024 17:00:00,30.1480566,77.2893471,PM2.5,32,60,49
India,Haryana,Yamuna Nagar,"Gobind Pura, Yamuna Nagar - HSPCB",17-04-2024 17:00:00,30.1480566,77.2893471,PM10,43,79,65
India,Haryana,Yamuna Nagar,"Gobind Pura, Yamuna Nagar - HSPCB",17-04-2024 17:00:00,30.1480566,77.2893471,NH3,1,6,4
India,Haryana,Yamuna Nagar,"Gobind Pura, Yamuna Nagar - HSPCB",17-04-2024 17:00:00,30.1480566,77.2893471,SO2,1,46,7
India,Haryana,Yamuna Nagar,"Gobind Pura, Yamuna Nagar - HSPCB",17-04-2024 17:00:00,30.1480566,77.2893471,OZONE,22,40,29
India,Himachal Pradesh,Baddi,"HIMUDA Complex Phase-1, Baddi - HPPCB",17-04-2024 17:00:00,30.943887,76.801991,NH3,3,7,4
India,Himachal Pradesh,Baddi,"HIMUDA Complex Phase-1, Baddi - HPPCB",17-04-2024 17:00:00,30.943887,76.801991,SO2,11,92,36
India,Himachal Pradesh,Baddi,"HIMUDA Complex Phase-1, Baddi - HPPCB",17-04-2024 17:00:00,30.943887,76.801991,OZONE,24,162,114
India,Jharkhand,Dhanbad,"Sardar Patel Nagar, Dhanbad - JSPCB",17-04-2024 17:00:00,23.80569,86.44268,NO2,59,431,274
India,Karnataka,Bagalkot,"Vidayagiri, Bagalkot - KSPCB",17-04-2024 17:00:00,16.172806,75.659694,PM2.5,19,37,36
India,Karnataka,Bagalkot,"Vidayagiri, Bagalkot - KSPCB",17-04-2024 17:00:00,16.172806,75.659694,NO2,9,11,9
India,Karnataka,Bagalkot,"Vidayagiri, Bagalkot - KSPCB",17-04-2024 17:00:00,16.172806,75.659694,OZONE,10,37,25
India,Karnataka,Bengaluru,"BTM Layout, Bengaluru - CPCB",17-04-2024 17:00:00,12.9135218,77.5950804,PM2.5,16,21,19
India,Karnataka,Bengaluru,"Bapuji Nagar, Bengaluru - KSPCB",17-04-2024 17:00:00,12.951913,77.539784,OZONE,27,42,31
India,Karnataka,Bengaluru,"Hebbal, Bengaluru - KSPCB",17-04-2024 17:00:00,13.029152,77.585901,PM2.5,36,99,65
India,Karnataka,Bengaluru,"Hebbal, Bengaluru - KSPCB",17-04-2024 17:00:00,13.029152,77.585901,CO,5,40,27
India,Karnataka,Bengaluru,"Hombegowda Nagar, Bengaluru - KSPCB",17-04-2024 17:00:00,12.938539,77.590100,NO2,10,25,16
India,Karnataka,Bengaluru,"Kasturi Nagar, Bengaluru - KSPCB",17-04-2024 17:00:00,13.003872,77.664217,NH3,3,4,4
India,Karnataka,Bengaluru,"Peenya, Bengaluru - CPCB",17-04-2024 17:00:00,13.0270199,77.494094,PM10,79,105,90
India,Karnataka,Bengaluru,"Peenya, Bengaluru - CPCB",17-04-2024 17:00:00,13.0270199,77.494094,SO2,NA,NA,NA
India,Karnataka,Bengaluru,"RVCE-Mailasandra, Bengaluru - KSPCB",17-04-2024 17:00:00,12.921418,77.502466,SO2,8,10,9
India,Karnataka,Bengaluru,"RVCE-Mailasandra, Bengaluru - KSPCB",17-04-2024 17:00:00,12.921418,77.502466,CO,28,60,34
India,Karnataka,Bengaluru,"RVCE-Mailasandra, Bengaluru - KSPCB",17-04-2024 17:00:00,12.921418,77.502466,OZONE,39,39,39
India,Karnataka,Bengaluru,"Sanegurava Halli, Bengaluru - KSPCB",17-04-2024 17:00:00,12.990328,77.5431385,PM10,39,103,57
India,Karnataka,Bengaluru,"Shivapura_Peenya, Bengaluru - KSPCB",17-04-2024 17:00:00,13.0246342,77.5080115,PM10,43,74,64
India,Karnataka,Bengaluru,"Silk Board, Bengaluru - KSPCB",17-04-2024 17:00:00,12.917348,77.622813,NO2,7,16,12
India,Karnataka,Bengaluru,"Silk Board, Bengaluru - KSPCB",17-04-2024 17:00:00,12.917348,77.622813,SO2,1,18,9
India,Karnataka,Bidar,"Naubad, Bidar - KSPCB",17-04-2024 17:00:00,17.930306,77.482194,SO2,16,22,18
India,Karnataka,Chamarajanagar,"Urban, Chamarajanagar - KSPCB",17-04-2024 17:00:00,11.55358,76.55521,PM10,34,59,45
India,Karnataka,Chamarajanagar,"Urban, Chamarajanagar - KSPCB",17-04-2024 17:00:00,11.55358,76.55521,SO2,2,8,4
India,Karnataka,Chamarajanagar,"Urban, Chamarajanagar - KSPCB",17-04-2024 17:00:00,11.55358,76.55521,CO,19,28,25
India,Karnataka,Chikkaballapur,"Chikkaballapur Rural, Chikkaballapur - KSPCB",17-04-2024 17:00:00,13.428828,77.731418,PM10,56,122,89
India,Karnataka,Chikkamagaluru,"Kalyana Nagara, Chikkamagaluru - KSPCB",17-04-2024 17:00:00,13.328028,75.797056,NO2,16,25,19
India,Karnataka,Chikkamagaluru,"Kalyana Nagara, Chikkamagaluru - KSPCB",17-04-2024 17:00:00,13.328028,75.797056,NH3,2,4,3
India,Karnataka,Davanagere,"Devaraj Urs Badavane, Davanagere - KSPCB",17-04-2024 17:00:00,14.475800,75.905200,NO2,10,17,12
India,Karnataka,Davanagere,"Devaraj Urs Badavane, Davanagere - KSPCB",17-04-2024 17:00:00,14.475800,75.905200,OZONE,20,28,22
India,Karnataka,Gadag,"Panchal Nagar, Gadag - KSPCB",17-04-2024 17:00:00,15.411456,75.638133,NO2,NA,NA,NA
India,Karnataka,Gadag,"Panchal Nagar, Gadag - KSPCB",17-04-2024 17:00:00,15.411456,75.638133,OZONE,72,72,72
India,Karnataka,Hassan,"B.Katihalli, Hassan - KSPCB",17-04-2024 17:00:00,13.008556,76.125258,CO,12,23,15
India,Karnataka,Hassan,"B.Katihalli, Hassan - KSPCB",17-04-2024 17:00:00,13.008556,76.125258,OZONE,4,28,12
India,Karnataka,Hubballi,"Deshpande Nagar, Hubballi - KSPCB",17-04-2024 17:00:00,15.351773,75.140726,PM2.5,26,57,44
India,Karnataka,Hubballi,"Deshpande Nagar, Hubballi - KSPCB",17-04-2024 17:00:00,15.351773,75.140726,CO,8,76,44
India,Karnataka,Kalaburagi,"Mahatma Basaveswar Colony, Kalaburgi - KSPCB",17-04-2024 17:00:00,17.336318,76.847397,PM10,38,91,53
India,Karnataka,Karwar,"KHB Colony, Karwar - KSPCB",17-04-2024 17:00:00,14.816666,74.141003,CO,8,8,8
India,Karnataka,Kolar,"Tamaka Ind. Area, Kolar - KSPCB",17-04-2024 17:00:00,13.1276288,78.1570122,NO2,NA,NA,NA
India,Karnataka,Madikeri,"Stuart Hill, Madikeri - KSPCB",17-04-2024 17:00:00,12.415911,75.735050,PM10,29,66,41
India,Karnataka,Madikeri,"Stuart Hill, Madikeri - KSPCB",17-04-2024 17:00:00,12.415911,75.735050,NH3,1,2,1
India,Karnataka,Mangalore,"Kadri, Mangalore - KSPCB",17-04-2024 17:00:00,12.889250,74.853000,NO2,5,6,6
India,Karnataka,Mangalore,"Kadri, Mangalore - KSPCB",17-04-2024 17:00:00,12.889250,74.853000,NH3,1,2,2
India,Karnataka,Mysuru,"Hebbal 1st Stage, Mysuru - KSPCB",17-04-2024 17:00:00,12.21041,76.37376,PM2.5,9,44,24
India,Karnataka,Mysuru,"Hebbal 1st Stage, Mysuru - KSPCB",17-04-2024 17:00:00,12.21041,76.37376,PM10,26,59,42
India,Karnataka,Mysuru,"Hebbal 1st Stage, Mysuru - KSPCB",17-04-2024 17:00:00,12.21041,76.37376,NO2,13,22,19
India,Karnataka,Ramanagara,"Vijay Nagar, Ramanagara - KSPCB",17-04-2024 17:00:00,12.733409,77.298051,OZONE,27,30,29
India,Karnataka,Shivamogga,"Vinoba Nagara, Shivamogga - KSPCB",17-04-2024 17:00:00,13.940000,75.555917,NH3,1,4,3
India,Karnataka,Tumakuru,"Thimmalapura, Tumakuru - KSPCB",17-04-2024 17:00:00,13.377516,77.099072,PM10,30,99,47
India,Karnataka,Vijayapura,"Ibrahimpur, Vijayapura - KSPCB",17-04-2024 17:00:00,16.802639,75.722694,NH3,2,2,2
India,Kerala,Eloor,"Udyogamandal, Eloor - Kerala PCB",17-04-2024 17:00:00,10.073232,76.302765,PM10,31,42,34
India,Kerala,Eloor,"Udyogamandal, Eloor - Kerala PCB",17-04-2024 17:00:00,10.073232,76.302765,SO2,1,9,3
India,Kerala,Kollam,"Polayathode, Kollam - Kerala PCB",17-04-2024 17:00:00,8.8787,76.6073,CO,38,40,39
India,Kerala,Thiruvananthapuram,"Plammoodu, Thiruvananthapuram - Kerala PCB",17-04-2024 17:00:00,8.5149093,76.9435879,PM10,2,31,19
India,Kerala,Thrissur,"Corporation Ground, Thrissur - Kerala PCB",17-04-2024 17:00:00,10.532400,76.215900,SO2,1,6,1
India,Kerala,Thrissur,"Corporation Ground, Thrissur - Kerala PCB",17-04-2024 17:00:00,10.532400,76.215900,OZONE,28,31,30
India,Madhya Pradesh,Bhopal,"Idgah Hills, Bhopal - MPPCB",17-04-2024 17:00:00,23.264759,77.381568,PM2.5,13,47,26
India,Madhya Pradesh,Bhopal,"Idgah Hills, Bhopal - MPPCB",17-04-2024 17:00:00,23.264759,77.381568,OZONE,37,120,97
India,Madhya Pradesh,Bhopal,"Paryavaran Parisar, Bhopal - MPPCB",17-04-2024 17:00:00,23.210494,77.425409,CO,16,58,18
India,Madhya Pradesh,Bhopal,"Paryavaran Parisar, Bhopal - MPPCB",17-04-2024 17:00:00,23.210494,77.425409,OZONE,5,98,84
India,Madhya Pradesh,Dewas,"Bhopal Chauraha, Dewas - MPPCB",17-04-2024 17:00:00,22.9682591,76.064118,PM2.5,18,65,37
India,Madhya Pradesh,Dewas,"Bhopal Chauraha, Dewas - MPPCB",17-04-2024 17:00:00,22.9682591,76.064118,NO2,12,14,13
India,Madhya Pradesh,Dewas,"Bhopal Chauraha, Dewas - MPPCB",17-04-2024 17:00:00,22.9682591,76.064118,NH3,3,3,3
India,Madhya Pradesh,Gwalior,"City Center, Gwalior - MPPCB",17-04-2024 17:00:00,26.203442,78.193251,NO2,NA,NA,NA
India,Madhya Pradesh,Gwalior,"Deen Dayal Nagar, Gwalior - MPPCB",17-04-2024 17:00:00,26.259242,78.216432,OZONE,61,135,121
India,Madhya Pradesh,Gwalior,"Maharaj Bada, Gwalior - MPPCB",17-04-2024 17:00:00,26.200388,78.147714,NH3,NA,NA,NA
India,Madhya Pradesh,Gwalior,"Phool Bagh, Gwalior - Mondelez Ind. Food",17-04-2024 17:00:00,26.210536,78.171,SO2,12,16,14
India,Madhya Pradesh,Indore,"Chhoti Gwaltoli, Indore - MPPCB",17-04-2024 17:00:00,22.4310,75.5213,CO,30,170,45
India,Madhya Pradesh,Indore,"Maguda Nagar, Indore - IMC",17-04-2024 17:00:00,22.7524,75.8872,PM2.5,32,135,72
India,Madhya Pradesh,Indore,"Maguda Nagar, Indore - IMC",17-04-2024 17:00:00,22.7524,75.8872,CO,22,40,27
India,Madhya Pradesh,Indore,"Residency Area, Indore - IMC",17-04-2024 17:00:00,22.7084,75.8815,PM10,31,111,69
India,Madhya Pradesh,Jabalpur,"Govindh Bhavan Colony, Jabalpur - JMC",17-04-2024 17:00:00,23.163174,79.973061,PM2.5,18,68,42
India,Madhya Pradesh,Jabalpur,"Govindh Bhavan Colony, Jabalpur - JMC",17-04-2024 17:00:00,23.163174,79.973061,SO2,7,51,23
India,Madhya Pradesh,Jabalpur,"Gupteshwar, Jabalpur - JMC",17-04-2024 17:00:00,23.142888,79.916147,OZONE,3,97,79
India,Madhya Pradesh,Jabalpur,"Marhatal, Jabalpur - MPPCB",17-04-2024 17:00:00,23.168606,79.932247,PM2.5,27,76,48
India,Madhya Pradesh,Jabalpur,"Marhatal, Jabalpur - MPPCB",17-04-2024 17:00:00,23.168606,79.932247,NH3,2,4,3
India,Madhya Pradesh,Jabalpur,"Marhatal, Jabalpur - MPPCB",17-04-2024 17:00:00,23.168606,79.932247,SO2,11,19,16
India,Madhya Pradesh,Jabalpur,"Marhatal, Jabalpur - MPPCB",17-04-2024 17:00:00,23.168606,79.932247,CO,27,105,31
India,Madhya Pradesh,Katni,"Gole Bazar, Katni - MPPCB",17-04-2024 17:00:00,23.50016,80.23284,OZONE,11,130,97
India,Madhya Pradesh,Mandideep,"Sector-D Industrial Area, Mandideep - MPPCB",17-04-2024 17:00:00,23.108440,77.511428,SO2,6,120,56
India,Madhya Pradesh,Ratlam,"Shasthri Nagar, Ratlam - IPCA Lab",17-04-2024 17:00:00,23.331731,75.045981,PM2.5,2,194,71
India,Madhya Pradesh,Sagar,"Civil Lines, Sagar - MPPCB",17-04-2024 17:00:00,23.838586,78.759431,PM2.5,14,139,44
India,Madhya Pradesh,Sagar,"Civil Lines, Sagar - MPPCB",17-04-2024 17:00:00,23.838586,78.759431,NH3,4,5,4
India,Madhya Pradesh,Sagar,"Civil Lines, Sagar - MPPCB",17-04-2024 17:00:00,23.838586,78.759431,SO2,1,9,4
India,Madhya Pradesh,Sagar,"Civil Lines, Sagar - MPPCB",17-04-2024 17:00:00,23.838586,78.759431,OZONE,16,133,106
India,Madhya Pradesh,Sagar,"Deen Dayal Nagar, Sagar - MPPCB",17-04-2024 17:00:00,23.8640158,78.80289321,CO,9,88,51
India,Madhya Pradesh,Singrauli,"Suryakiran Bhawan NCL, Singrauli - MPPCB",17-04-2024 17:00:00,24.108970,82.645580,NO2,15,90,36
India,Madhya Pradesh,Singrauli,"Suryakiran Bhawan NCL, Singrauli - MPPCB",17-04-2024 17:00:00,24.108970,82.645580,OZONE,6,77,64
India,Madhya Pradesh,Ujjain,"Mahakaleshwar Temple, Ujjain - MPPCB",17-04-2024 17:00:00,23.182719 ,75.768218 ,PM10,51,148,100
India,Madhya Pradesh,Ujjain,"Mahakaleshwar Temple, Ujjain - MPPCB",17-04-2024 17:00:00,23.182719 ,75.768218 ,NO2,12,60,31
India,Madhya Pradesh,Ujjain,"Mahakaleshwar Temple, Ujjain - MPPCB",17-04-2024 17:00:00,23.182719 ,75.768218 ,CO,16,76,27
India,Maharashtra,Ahmednagar,"Tarakpur, Ahmednagar - MPCB",17-04-2024 17:00:00,19.10122,74.73339,PM10,36,196,95
India,Maharashtra,Ahmednagar,"Tarakpur, Ahmednagar - MPCB",17-04-2024 17:00:00,19.10122,74.73339,NH3,3,6,4
India,Maharashtra,Amravati,"Shivneri Colony, Amravati - MPCB",17-04-2024 17:00:00,20.9402359,77.7895248,PM10,61,108,90
