country,state,city,station,last_update,latitude,longitude,pollutant_id,pollutant_min,pollutant_max,pollutant_avg
India,Andhra_Pradesh,Anantapur,"Gulzarpet, Anantapur - APPCB",25-03-2024 12:00:00,14.675886,77.593027,SO2,3,14,7
India,Andhra_Pradesh,Chittoor,"Gangineni Cheruvu, Chittoor - APPCB",25-03-2024 12:00:00,13.204880,79.097889,PM10,NA,NA,NA
India,Andhra_Pradesh,Kadapa,"Yerramukkapalli, Kadapa - APPCB",25-03-2024 12:00:00,14.465052,78.824187,SO2,1,3,2
India,Andhra_Pradesh,Rajamahendravaram,"Anand Kala Kshetram, Rajamahendravaram - APPCB",25-03-2024 12:00:00,16.9872867,81.7363176,CO,22,40,33
India,Andhra_Pradesh,Tirupati,"Tirumala, Tirupati - APPCB",25-03-2024 12:00:00,13.67,79.35,PM2.5,39,87,57
India,Andhra_Pradesh,Tirupati,"Tirumala, Tirupati - APPCB",25-03-2024 12:00:00,13.67,79.35,NH3,1,3,1
India,Andhra_Pradesh,Vijayawada,"HB Colony, Vijayawada - APPCB",25-03-2024 12:00:00,16.536107,80.594233,OZONE,8,37,18
India,Andhra_Pradesh,Vijayawada,"Rajiv Gandhi Park, Vijayawada - APPCB",25-03-2024 12:00:00,16.509717,80.612222,PM10,35,76,53
India,Andhra_Pradesh,Vijayawada,"Rajiv Nagar, Vijayawada - APPCB",25-03-2024 12:00:00,16.554731,80.649110,SO2,13,22,17
India,Andhra_Pradesh,Visakhapatnam,"GVM Corporation, Visakhapatnam - APPCB",25-03-2024 12:00:00,17.72,83.3,NO2,25,54,40
India,Andhra_Pradesh,Visakhapatnam,"GVM Corporation, Visakhapatnam - APPCB",25-03-2024 12:00:00,17.72,83.3,CO,8,87,26
India,Andhra_Pradesh,Visakhapatnam,"GVM Corporation, Visakhapatnam - APPCB",25-03-2024 12:00:00,17.72,83.3,OZONE,3,37,10
India,Arunachal_Pradesh,Naharlagun,"Naharlagun, Naharlagun - APSPCB",25-03-2024 12:00:00,27.103358,93.679645,NO2,3,3,3
India,Assam,Byrnihat,"Central Academy for SFS, Byrnihat - PCBA",25-03-2024 12:00:00,26.071318,91.87488,CO,34,94,60
India,Assam,Byrnihat,"Central Academy for SFS, Byrnihat - PCBA",25-03-2024 12:00:00,26.071318,91.87488,OZONE,7,27,17
India,Assam,Guwahati,"IITG, Guwahati - PCBA",25-03-2024 12:00:00,26.2028636,91.70046436,NH3,5,5,5
India,Assam,Guwahati,"LGBI Airport, Guwahati - PCBA",25-03-2024 12:00:00,26.10887,91.589544,PM2.5,42,237,115
India,Assam,Guwahati,"LGBI Airport, Guwahati - PCBA",25-03-2024 12:00:00,26.10887,91.589544,OZONE,1,37,22
India,Assam,Nagaon,"Christianpatty, Nagaon - PCBA",25-03-2024 12:00:00,26.349082,92.68449,PM2.5,8,357,89
India,Assam,Nalbari,"Bata Chowk, Nalbari - PCBA",25-03-2024 12:00:00,26.446912,91.439057,PM2.5,55,311,121
India,Assam,Nalbari,"Bata Chowk, Nalbari - PCBA",25-03-2024 12:00:00,26.446912,91.439057,OZONE,7,75,33
India,Assam,Silchar,"Tarapur, Silchar - PCBA",25-03-2024 12:00:00,24.82827,92.79525,PM10,23,59,41
India,Assam,Silchar,"Tarapur, Silchar - PCBA",25-03-2024 12:00:00,24.82827,92.79525,SO2,4,14,11
India,Assam,Sivasagar,"Girls College, Sivasagar - PCBA",25-03-2024 12:00:00,26.987634,94.636574,PM10,45,93,63
India,Bihar,Araria,"Kharahiya Basti, Araria - BSPCB",25-03-2024 12:00:00,26.146529,87.454184,PM10,43,106,71
India,Bihar,Araria,"Kharahiya Basti, Araria - BSPCB",25-03-2024 12:00:00,26.146529,87.454184,CO,15,34,33
India,Bihar,Aurangabad,"Gurdeo Nagar, Aurangabad - BSPCB",25-03-2024 12:00:00,24.75746,84.366208,PM10,64,130,107
India,Bihar,Bettiah,"Kamalnath Nagar, Bettiah - BSPCB",25-03-2024 12:00:00,26.80365,84.51954,CO,62,78,63
India,Bihar,Bhagalpur,"DM Office_Kachari Chowk, Bhagalpur - BSPCB",25-03-2024 12:00:00,25.251013,86.989001,CO,16,64,20
India,Bihar,Bhagalpur,"DM Office_Kachari Chowk, Bhagalpur - BSPCB",25-03-2024 12:00:00,25.251013,86.989001,OZONE,34,63,50
India,Bihar,Bihar Sharif,"D M Colony, Bihar Sharif - BSPCB",25-03-2024 12:00:00,25.204762,85.514960,PM2.5,NA,NA,NA
India,Bihar,Buxar,"Charitra Van, Buxar - BSPCB (Formerly known as Central Jail)",25-03-2024 12:00:00,25.567520,83.966379,PM2.5,NA,NA,NA
India,Bihar,Buxar,"Charitra Van, Buxar - BSPCB (Formerly known as Central Jail)",25-03-2024 12:00:00,25.567520,83.966379,NO2,29,97,46
India,Bihar,Buxar,"Charitra Van, Buxar - BSPCB (Formerly known as Central Jail)",25-03-2024 12:00:00,25.567520,83.966379,CO,42,116,70
India,Bihar,Chhapra,"Darshan Nagar, Chhapra - BSPCB",25-03-2024 12:00:00,25.7808257,84.7446768,NO2,14,24,19
India,Bihar,Gaya,"Collectorate, Gaya - BSPCB",25-03-2024 12:00:00,24.7955,84.9994,OZONE,53,79,63
India,Bihar,Gaya,"Kareemganj, Gaya - BSPCB",25-03-2024 12:00:00,24.792403,84.992416,NO2,30,31,30
India,Bihar,Gaya,"Kareemganj, Gaya - BSPCB",25-03-2024 12:00:00,24.792403,84.992416,CO,3,94,45
India,Bihar,Gaya,"SFTI Kusdihra, Gaya - BSPCB",25-03-2024 12:00:00,24.762518,84.982348,PM2.5,40,234,117
India,Bihar,Hajipur,"Industrial Area, Hajipur - BSPCB",25-03-2024 12:00:00,25.697189,85.245900,NH3,5,8,6
India,Bihar,Hajipur,"Industrial Area, Hajipur - BSPCB",25-03-2024 12:00:00,25.697189,85.245900,OZONE,4,71,11
India,Bihar,Katihar,"Mirchaibari, Katihar - BSPCB",25-03-2024 12:00:00,25.560083,87.553265,PM2.5,32,65,49
India,Bihar,Katihar,"Mirchaibari, Katihar - BSPCB",25-03-2024 12:00:00,25.560083,87.553265,OZONE,11,16,12
India,Bihar,Kishanganj,"SDM Office_Khagra, Kishanganj - BSPCB",25-03-2024 12:00:00,26.0881305,87.93840336,SO2,35,43,39
India,Bihar,Kishanganj,"SDM Office_Khagra, Kishanganj - BSPCB",25-03-2024 12:00:00,26.0881305,87.93840336,OZONE,26,36,28
India,Bihar,Manguraha,"Forest Rest House, Manguraha - BSPCB",25-03-2024 12:00:00,27.308328,84.531742,NO2,14,19,16
India,Bihar,Manguraha,"Forest Rest House, Manguraha - BSPCB",25-03-2024 12:00:00,27.308328,84.531742,NH3,2,3,2
India,Bihar,Motihari,"Gandak Colony, Motihari - BSPCB",25-03-2024 12:00:00,26.63086,84.90051,PM10,35,64,48
India,Bihar,Motihari,"Gandak Colony, Motihari - BSPCB",25-03-2024 12:00:00,26.63086,84.90051,CO,8,25,14
India,Bihar,Munger,"Town Hall, Munger - BSPCB",25-03-2024 12:00:00,25.376776,86.471523,SO2,16,43,32
India,Bihar,Muzaffarpur,"Buddha Colony, Muzaffarpur - BSPCB",25-03-2024 12:00:00,26.11442,85.39813,PM2.5,92,175,121
India,Bihar,Muzaffarpur,"Buddha Colony, Muzaffarpur - BSPCB",25-03-2024 12:00:00,26.11442,85.39813,PM10,105,144,121
India,Bihar,Muzaffarpur,"Buddha Colony, Muzaffarpur - BSPCB",25-03-2024 12:00:00,26.11442,85.39813,CO,20,46,29
India,Bihar,Muzaffarpur,"MIT-Daudpur Kothi, Muzaffarpur - BSPCB",25-03-2024 12:00:00,26.1403345,85.3650192,PM10,117,235,153
India,Bihar,Muzaffarpur,"Muzaffarpur Collectorate, Muzaffarpur - BSPCB",25-03-2024 12:00:00,26.1209,85.3647,SO2,4,7,5
India,Bihar,Patna,"DRM Office Danapur, Patna - BSPCB",25-03-2024 12:00:00,25.586562,85.043586,NH3,3,3,3
India,Bihar,Patna,"DRM Office Danapur, Patna - BSPCB",25-03-2024 12:00:00,25.586562,85.043586,OZONE,9,51,12
India,Bihar,Patna,"Govt. High School Shikarpur, Patna - BSPCB",25-03-2024 12:00:00,25.592539,85.227158,SO2,9,12,11
India,Bihar,Patna,"IGSC Planetarium Complex, Patna - BSPCB",25-03-2024 12:00:00,25.610369,85.132568,SO2,5,6,5
India,Bihar,Patna,"Muradpur, Patna - BSPCB",25-03-2024 12:00:00,25.619651,85.147382,NH3,2,5,3
India,Bihar,Patna,"Muradpur, Patna - BSPCB",25-03-2024 12:00:00,25.619651,85.147382,CO,28,68,44
India,Bihar,Patna,"Rajbansi Nagar, Patna - BSPCB",25-03-2024 12:00:00,25.599486,85.113666,PM2.5,117,183,150
India,Bihar,Patna,"Rajbansi Nagar, Patna - BSPCB",25-03-2024 12:00:00,25.599486,85.113666,NH3,5,8,5
India,Bihar,Patna,"Rajbansi Nagar, Patna - BSPCB",25-03-2024 12:00:00,25.599486,85.113666,CO,24,63,35
India,Bihar,Purnia,"Mariam Nagar, Purnia - BSPCB",25-03-2024 12:00:00,25.366336,87.117468,SO2,6,12,10
India,Bihar,Rajgir,"Dangi Tola, Rajgir - BSPCB",25-03-2024 12:00:00,25.03280,85.41948,OZONE,19,30,24
India,Bihar,Saharsa,"Police Line, Saharsa - BSPCB",25-03-2024 12:00:00,25.892357,86.590325,NO2,6,9,7
India,Bihar,Saharsa,"Police Line, Saharsa - BSPCB",25-03-2024 12:00:00,25.892357,86.590325,OZONE,8,68,23
India,Bihar,Samastipur,"DM Office_Kasipur, Samastipur - BSPCB",25-03-2024 12:00:00,25.859655,85.77944,SO2,4,14,9
India,Bihar,Sasaram,"Dada Peer, Sasaram - BSPCB",25-03-2024 12:00:00,24.952822,84.002396,PM2.5,NA,NA,NA
India,Bihar,Sasaram,"Dada Peer, Sasaram - BSPCB",25-03-2024 12:00:00,24.952822,84.002396,NO2,NA,NA,NA
India,Bihar,Siwan,"Chitragupta Nagar, Siwan - BSPCB",25-03-2024 12:00:00,26.2271665,84.3570427,PM2.5,NA,NA,NA
India,Bihar,Siwan,"Chitragupta Nagar, Siwan - BSPCB",25-03-2024 12:00:00,26.2271665,84.3570427,PM10,NA,NA,NA
India,Bihar,Siwan,"Chitragupta Nagar, Siwan - BSPCB",25-03-2024 12:00:00,26.2271665,84.3570427,NO2,10,40,17
India,Bihar,Siwan,"Chitragupta Nagar, Siwan - BSPCB",25-03-2024 12:00:00,26.2271665,84.3570427,OZONE,12,73,24
India,Chandigarh,Chandigarh,"Sector 22, Chandigarh - CPCC",25-03-2024 12:00:00,30.735567,76.775714,PM10,40,175,93
India,Chandigarh,Chandigarh,"Sector-25, Chandigarh - CPCC",25-03-2024 12:00:00,30.751462,76.762879,PM2.5,84,141,119
India,Chandigarh,Chandigarh,"Sector-25, Chandigarh - CPCC",25-03-2024 12:00:00,30.751462,76.762879,NH3,14,29,19
India,Chandigarh,Chandigarh,"Sector-25, Chandigarh - CPCC",25-03-2024 12:00:00,30.751462,76.762879,SO2,4,27,9
India,Chandigarh,Chandigarh,"Sector-53, Chandigarh - CPCC",25-03-2024 12:00:00,30.719859,76.738637,PM10,54,179,111
India,Chandigarh,Chandigarh,"Sector-53, Chandigarh - CPCC",25-03-2024 12:00:00,30.719859,76.738637,NH3,4,6,5
India,Chandigarh,Chandigarh,"Sector-53, Chandigarh - CPCC",25-03-2024 12:00:00,30.719859,76.738637,OZONE,3,47,21
India,Chhattisgarh,Bhilai,"32Bungalows, Bhilai - CECB",25-03-2024 12:00:00,21.194815,81.314770,NH3,6,6,6
India,Chhattisgarh,Bhilai,"Civic Center, Bhilai - Bhilai Steel Plant",25-03-2024 12:00:00,21.185571,81.343175,PM2.5,33,97,58
India,Chhattisgarh,Bhilai,"Civic Center, Bhilai - Bhilai Steel Plant",25-03-2024 12:00:00,21.185571,81.343175,NH3,5,5,5
India,Chhattisgarh,Bhilai,"Civic Center, Bhilai - Bhilai Steel Plant",25-03-2024 12:00:00,21.185571,81.343175,OZONE,9,76,25
India,Chhattisgarh,Bhilai,"Hathkhoj, Bhilai - CECB",25-03-2024 12:00:00,21.224231,81.408350,PM2.5,1,208,75
India,Chhattisgarh,Bhilai,"Hathkhoj, Bhilai - CECB",25-03-2024 12:00:00,21.224231,81.408350,NO2,15,64,29
India,Chhattisgarh,Bhilai,"Hathkhoj, Bhilai - CECB",25-03-2024 12:00:00,21.224231,81.408350,NH3,8,8,8
India,Chhattisgarh,Bilaspur,"Mangala, Bilaspur - NTPC",25-03-2024 12:00:00,22.08815,82.13737,PM2.5,40,130,84
India,Chhattisgarh,Bilaspur,"Mangala, Bilaspur - NTPC",25-03-2024 12:00:00,22.08815,82.13737,PM10,48,107,83
India,Chhattisgarh,Korba,"Rampur, Korba - CECB",25-03-2024 12:00:00,22.368195,82.746431,PM2.5,13,114,62
India,Chhattisgarh,Korba,"Rampur, Korba - CECB",25-03-2024 12:00:00,22.368195,82.746431,CO,24,44,40
India,Chhattisgarh,Korba,"Urja Nagar, Korba - CECB",25-03-2024 12:00:00,22.348441,82.549611,NH3,1,11,6
India,Chhattisgarh,Korba,"Urja Nagar, Korba - CECB",25-03-2024 12:00:00,22.348441,82.549611,OZONE,1,4,1
India,Chhattisgarh,Kunjemura,"OP Jindal School, Kunjemura - CECB",25-03-2024 12:00:00,22.126650,83.483212,PM2.5,48,82,68
India,Chhattisgarh,Kunjemura,"OP Jindal School, Kunjemura - CECB",25-03-2024 12:00:00,22.126650,83.483212,PM10,43,160,107
India,Chhattisgarh,Kunjemura,"OP Jindal School, Kunjemura - CECB",25-03-2024 12:00:00,22.126650,83.483212,CO,34,84,59
India,Chhattisgarh,Raipur,"AIIMS, Raipur - CECB",25-03-2024 12:00:00,21.258815,81.578979,PM10,35,95,62
India,Chhattisgarh,Raipur,"AIIMS, Raipur - CECB",25-03-2024 12:00:00,21.258815,81.578979,NH3,NA,NA,NA
India,Chhattisgarh,Raipur,"Krishak Nagar, Raipur - CECB",25-03-2024 12:00:00,21.237755,81.705301,PM2.5,32,54,44
India,Chhattisgarh,Raipur,"Krishak Nagar, Raipur - CECB",25-03-2024 12:00:00,21.237755,81.705301,SO2,9,18,12
India,Chhattisgarh,Raipur,"Krishak Nagar, Raipur - CECB",25-03-2024 12:00:00,21.237755,81.705301,OZONE,3,17,6
India,Chhattisgarh,Raipur,"Siltara Phase-II, Raipur - CECB",25-03-2024 12:00:00,21.371751,81.664929,PM2.5,14,231,102
India,Chhattisgarh,Raipur,"Siltara Phase-II, Raipur - CECB",25-03-2024 12:00:00,21.371751,81.664929,NO2,32,71,53
India,Chhattisgarh,Tumidih,"OP Jindal Industrial Park, Tumidih - CECB",25-03-2024 12:00:00,22.06631475,83.33820077,PM2.5,NA,NA,NA
India,Chhattisgarh,Tumidih,"OP Jindal Industrial Park, Tumidih - CECB",25-03-2024 12:00:00,22.06631475,83.33820077,NO2,NA,NA,NA
India,Delhi,Delhi,"Anand Vihar, Delhi - DPCC",25-03-2024 12:00:00,28.647622,77.3158090,PM10,104,500,319
India,Delhi,Delhi,"Anand Vihar, Delhi - DPCC",25-03-2024 12:00:00,28.647622,77.3158090,CO,NA,NA,NA
India,Delhi,Delhi,"Ashok Vihar, Delhi - DPCC",25-03-2024 12:00:00,28.695381,77.181665,NO2,8,100,42
India,Delhi,Delhi,"Aya Nagar, Delhi - IMD",25-03-2024 12:00:00,28.4706914,77.1099364,NO2,NA,NA,NA
India,Delhi,Delhi,"Bawana, Delhi - DPCC",25-03-2024 12:00:00,28.776200,77.051074,SO2,9,44,19
India,Delhi,Delhi,"Bawana, Delhi - DPCC",25-03-2024 12:00:00,28.776200,77.051074,OZONE,4,59,10
India,Delhi,Delhi,"Burari Crossing, Delhi - IMD",25-03-2024 12:00:00,28.7256504,77.2011573,NO2,3,9,6
India,Delhi,Delhi,"CRRI Mathura Road, Delhi - IMD",25-03-2024 12:00:00,28.5512005,77.2735737,PM10,59,190,121
India,Delhi,Delhi,"Chandni Chowk, Delhi - IITM",25-03-2024 12:00:00,28.656756,77.227234,CO,84,119,95
India,Delhi,Delhi,"DTU, Delhi - CPCB",25-03-2024 12:00:00,28.7500499,77.1112615,PM2.5,57,354,211
India,Delhi,Delhi,"DTU, Delhi - CPCB",25-03-2024 12:00:00,28.7500499,77.1112615,PM10,98,412,216
India,Delhi,Delhi,"DTU, Delhi - CPCB",25-03-2024 12:00:00,28.7500499,77.1112615,CO,15,62,50
India,Delhi,Delhi,"Dwarka-Sector 8, Delhi - DPCC ",25-03-2024 12:00:00,28.5710274,77.0719006,SO2,7,29,13
India,Delhi,Delhi,"Dwarka-Sector 8, Delhi - DPCC ",25-03-2024 12:00:00,28.5710274,77.0719006,CO,37,122,102
India,Delhi,Delhi,"IHBAS, Dilshad Garden, Delhi - CPCB",25-03-2024 12:00:00,28.6811736,77.3025234,OZONE,11,43,18
India,Delhi,Delhi,"Jahangirpuri, Delhi - DPCC",25-03-2024 12:00:00,28.732820,77.170633,PM2.5,29,464,230
India,Delhi,Delhi,"Jahangirpuri, Delhi - DPCC",25-03-2024 12:00:00,28.732820,77.170633,PM10,115,435,258
India,Delhi,Delhi,"Jahangirpuri, Delhi - DPCC",25-03-2024 12:00:00,28.732820,77.170633,OZONE,1,28,8
India,Delhi,Delhi,"Jawaharlal Nehru Stadium, Delhi - DPCC",25-03-2024 12:00:00,28.580280,77.233829,PM2.5,13,368,162
India,Delhi,Delhi,"Jawaharlal Nehru Stadium, Delhi - DPCC",25-03-2024 12:00:00,28.580280,77.233829,OZONE,2,112,41
India,Delhi,Delhi,"Lodhi Road, Delhi - IITM",25-03-2024 12:00:00,28.588333,77.221667,NO2,72,90,83
India,Delhi,Delhi,"Lodhi Road, Delhi - IITM",25-03-2024 12:00:00,28.588333,77.221667,CO,60,68,66
India,Delhi,Delhi,"Lodhi Road, Delhi - IITM",25-03-2024 12:00:00,28.588333,77.221667,OZONE,16,19,17
India,Delhi,Delhi,"Lodhi Road, Delhi - IMD",25-03-2024 12:00:00,28.5918245,77.2273074,CO,14,37,33
India,Delhi,Delhi,"Major Dhyan Chand National Stadium, Delhi - DPCC",25-03-2024 12:00:00,28.611281,77.237738,NH3,6,13,9
India,Delhi,Delhi,"Major Dhyan Chand National Stadium, Delhi - DPCC",25-03-2024 12:00:00,28.611281,77.237738,OZONE,1,93,31
India,Delhi,Delhi,"Mundka, Delhi - DPCC",25-03-2024 12:00:00,28.684678,77.076574,PM10,97,479,234
India,Delhi,Delhi,"Mundka, Delhi - DPCC",25-03-2024 12:00:00,28.684678,77.076574,NH3,3,7,5
India,Delhi,Delhi,"Najafgarh, Delhi - DPCC",25-03-2024 12:00:00,28.570173,76.933762,SO2,11,15,13
India,Delhi,Delhi,"Najafgarh, Delhi - DPCC",25-03-2024 12:00:00,28.570173,76.933762,OZONE,7,91,38
India,Delhi,Delhi,"Narela, Delhi - DPCC",25-03-2024 12:00:00,28.822836,77.101981,OZONE,8,73,33
India,Delhi,Delhi,"New Moti Bagh, Delhi - MHUA",25-03-2024 12:00:00,28.57834,77.18400,CO,10,97,56
India,Delhi,Delhi,"North Campus, DU, Delhi - IMD",25-03-2024 12:00:00,28.6573814,77.1585447,PM10,92,386,182
India,Delhi,Delhi,"Okhla Phase-2, Delhi - DPCC",25-03-2024 12:00:00,28.530785,77.271255,NO2,31,173,84
India,Delhi,Delhi,"Okhla Phase-2, Delhi - DPCC",25-03-2024 12:00:00,28.530785,77.271255,NH3,9,18,12
India,Delhi,Delhi,"Okhla Phase-2, Delhi - DPCC",25-03-2024 12:00:00,28.530785,77.271255,CO,4,114,78
India,Delhi,Delhi,"Punjabi Bagh, Delhi - DPCC",25-03-2024 12:00:00,28.674045,77.131023,PM2.5,25,446,211
India,Delhi,Delhi,"Punjabi Bagh, Delhi - DPCC",25-03-2024 12:00:00,28.674045,77.131023,NO2,32,60,47
India,Delhi,Delhi,"Punjabi Bagh, Delhi - DPCC",25-03-2024 12:00:00,28.674045,77.131023,SO2,19,29,25
India,Delhi,Delhi,"Punjabi Bagh, Delhi - DPCC",25-03-2024 12:00:00,28.674045,77.131023,OZONE,9,36,19
India,Delhi,Delhi,"Pusa, Delhi - DPCC",25-03-2024 12:00:00,28.639652,77.146275,NH3,7,12,9
India,Delhi,Delhi,"R K Puram, Delhi - DPCC",25-03-2024 12:00:00,28.563262,77.186937,PM2.5,42,460,221
India,Delhi,Delhi,"Rohini, Delhi - DPCC",25-03-2024 12:00:00,28.732528,77.119920,NO2,10,68,32
India,Delhi,Delhi,"Shadipur, Delhi - CPCB",25-03-2024 12:00:00,28.6514781,77.1473105,NH3,12,18,15
India,Delhi,Delhi,"Shadipur, Delhi - CPCB",25-03-2024 12:00:00,28.6514781,77.1473105,OZONE,10,64,20
India,Delhi,Delhi,"Sirifort, Delhi - CPCB",25-03-2024 12:00:00,28.5504249,77.2159377,NH3,6,7,7
India,Delhi,Delhi,"Sirifort, Delhi - CPCB",25-03-2024 12:00:00,28.5504249,77.2159377,CO,5,65,57
India,Delhi,Delhi,"Sonia Vihar, Delhi - DPCC",25-03-2024 12:00:00,28.710508,77.249485,PM10,117,374,193
India,Delhi,Delhi,"Sonia Vihar, Delhi - DPCC",25-03-2024 12:00:00,28.710508,77.249485,NH3,7,8,7
India,Delhi,Delhi,"Sri Aurobindo Marg, Delhi - DPCC",25-03-2024 12:00:00,28.531346,77.190156,PM2.5,37,440,210
India,Delhi,Delhi,"Sri Aurobindo Marg, Delhi - DPCC",25-03-2024 12:00:00,28.531346,77.190156,SO2,8,90,26
India,Delhi,Delhi,"Sri Aurobindo Marg, Delhi - DPCC",25-03-2024 12:00:00,28.531346,77.190156,CO,10,79,46
India,Delhi,Delhi,"Sri Aurobindo Marg, Delhi - DPCC",25-03-2024 12:00:00,28.531346,77.190156,OZONE,2,29,11
India,Delhi,Delhi,"Wazirpur, Delhi - DPCC",25-03-2024 12:00:00,28.699793,77.165453,PM2.5,37,467,219
India,Gujarat,Ahmedabad,"Chandkheda, Ahmedabad - IITM",25-03-2024 12:00:00,23.107969,72.574648,CO,8,143,87
India,Gujarat,Ahmedabad,"Maninagar, Ahmedabad - GPCB",25-03-2024 12:00:00,23.002657,72.591912,SO2,2,109,38
India,Gujarat,Ahmedabad,"Raikhad, Ahmedabad - IITM",25-03-2024 12:00:00,23.020509,72.579261,NH3,1,6,4
India,Gujarat,Ahmedabad,"Rakhial, Ahmedabad - IITM",25-03-2024 12:00:00,23.016834,72.625775,PM2.5,47,191,87
India,Gujarat,Ahmedabad,"Rakhial, Ahmedabad - IITM",25-03-2024 12:00:00,23.016834,72.625775,OZONE,8,44,13
India,Gujarat,Ahmedabad,"SAC ISRO Satellite, Ahmedabad - IITM",25-03-2024 12:00:00,23.023389,72.515201,PM10,106,108,107
India,Gujarat,Ahmedabad,"SAC ISRO Satellite, Ahmedabad - IITM",25-03-2024 12:00:00,23.023389,72.515201,NH3,3,3,3
India,Gujarat,Ahmedabad,"SVPI Airport Hansol, Ahmedabad - IITM",25-03-2024 12:00:00,23.076793,72.627874,PM2.5,32,174,66
India,Gujarat,Ahmedabad,"SVPI Airport Hansol, Ahmedabad - IITM",25-03-2024 12:00:00,23.076793,72.627874,NO2,15,19,17
India,Gujarat,Ahmedabad,"Sardar Vallabhbhai Patel Stadium, Ahmedabad - IITM",25-03-2024 12:00:00,23.043070,72.562968,NO2,4,17,14
India,Gujarat,Ankleshwar,"GIDC, Ankleshwar - GPCB",25-03-2024 12:00:00,21.613267,73.010555,PM2.5,45,92,74
India,Gujarat,Ankleshwar,"GIDC, Ankleshwar - GPCB",25-03-2024 12:00:00,21.613267,73.010555,CO,50,101,87
India,Gujarat,Gandhinagar,"GIFT City, Gandhinagar - IITM",25-03-2024 12:00:00,23.163798,72.677768,PM2.5,41,87,62
India,Gujarat,Gandhinagar,"IIPHG Lekawada, Gandhinagar - IITM",25-03-2024 12:00:00,23.243639,72.68994,CO,22,24,24
India,Gujarat,Gandhinagar,"Sector-10, Gandhinagar - GPCB",25-03-2024 12:00:00,23.221714,72.654328,PM10,41,89,60
India,Gujarat,Gandhinagar,"Sector-10, Gandhinagar - GPCB",25-03-2024 12:00:00,23.221714,72.654328,NO2,17,22,19
India,Gujarat,Nandesari,"GIDC, Nandesari - Nandesari Ind. Association",25-03-2024 12:00:00,22.410802,73.097923,PM10,112,410,206
India,Gujarat,Surat,"Science Center, Surat - SMC",25-03-2024 12:00:00,21.170046,72.795405,PM2.5,7,73,31
India,Gujarat,Vapi,"Phase-1 GIDC, Vapi - GPCB",25-03-2024 12:00:00,20.362421,72.918013,SO2,50,51,51
India,Gujarat,Vatva,"Phase-4 GIDC, Vatva - GPCB",25-03-2024 12:00:00,22.969611,72.643500,PM10,53,120,79
India,Haryana,Ambala,"Patti Mehar, Ambala - HSPCB",25-03-2024 12:00:00,30.379589,76.778328,PM10,26,73,43
India,Haryana,Ambala,"Patti Mehar, Ambala - HSPCB",25-03-2024 12:00:00,30.379589,76.778328,SO2,1,101,60
India,Haryana,Bahadurgarh,"Arya Nagar, Bahadurgarh - HSPCB",25-03-2024 12:00:00,28.6701,76.9254,OZONE,38,48,45
India,Haryana,Ballabgarh,"Nathu Colony, Ballabgarh - HSPCB",25-03-2024 12:00:00,28.3419248,77.319699,PM2.5,118,296,225
India,Haryana,Bhiwani,"H.B. Colony, Bhiwani - HSPCB",25-03-2024 12:00:00,28.806223,76.141105,CO,20,54,48
India,Haryana,Charkhi Dadri,"Mini Secretariat, Charkhi Dadri - HSPCB",25-03-2024 12:00:00,28.593883,76.270653,NO2,15,24,18
India,Haryana,Charkhi Dadri,"Mini Secretariat, Charkhi Dadri - HSPCB",25-03-2024 12:00:00,28.593883,76.270653,NH3,6,8,7
India,Haryana,Charkhi Dadri,"Mini Secretariat, Charkhi Dadri - HSPCB",25-03-2024 12:00:00,28.593883,76.270653,OZONE,13,17,15
India,Haryana,Faridabad,"Sector 11, Faridabad - HSPCB",25-03-2024 12:00:00,28.376058,77.315741,PM2.5,106,365,259
India,Haryana,Faridabad,"Sector 11, Faridabad - HSPCB",25-03-2024 12:00:00,28.376058,77.315741,PM10,120,407,241
India,Haryana,Faridabad,"Sector 11, Faridabad - HSPCB",25-03-2024 12:00:00,28.376058,77.315741,OZONE,4,9,5
India,Haryana,Faridabad,"Sector 30, Faridabad - HSPCB",25-03-2024 12:00:00,28.4417,77.3217,NH3,9,9,9
India,Haryana,Faridabad,"Sector 30, Faridabad - HSPCB",25-03-2024 12:00:00,28.4417,77.3217,CO,16,101,58
India,Haryana,Faridabad,"Sector 30, Faridabad - HSPCB",25-03-2024 12:00:00,28.4417,77.3217,OZONE,5,53,21
India,Haryana,Fatehabad,"Huda Sector, Fatehabad - HSPCB",25-03-2024 12:00:00,29.503664,75.467934,PM10,43,94,57
India,Haryana,Fatehabad,"Huda Sector, Fatehabad - HSPCB",25-03-2024 12:00:00,29.503664,75.467934,NH3,10,14,13
India,Haryana,Fatehabad,"Huda Sector, Fatehabad - HSPCB",25-03-2024 12:00:00,29.503664,75.467934,CO,5,12,7
India,Haryana,Fatehabad,"Huda Sector, Fatehabad - HSPCB",25-03-2024 12:00:00,29.503664,75.467934,OZONE,75,114,102
India,Haryana,Gurugram,"Sector-51, Gurugram - HSPCB",25-03-2024 12:00:00,28.4227,77.0667,PM2.5,4,404,229
India,Haryana,Gurugram,"Sector-51, Gurugram - HSPCB",25-03-2024 12:00:00,28.4227,77.0667,NO2,13,29,23
India,Haryana,Gurugram,"Teri Gram, Gurugram - HSPCB",25-03-2024 12:00:00,28.4275,77.1465,CO,12,42,35
India,Haryana,Gurugram,"Teri Gram, Gurugram - HSPCB",25-03-2024 12:00:00,28.4275,77.1465,OZONE,13,18,15
India,Haryana,Hisar,"Urban Estate-II, Hisar - HSPCB",25-03-2024 12:00:00,29.140560,75.744941,PM10,76,157,100
India,Haryana,Kurukshetra,"Sector-7, Kurukshetra - HSPCB",25-03-2024 12:00:00,29.966942,76.875879,PM10,NA,NA,NA
India,Haryana,Kurukshetra,"Sector-7, Kurukshetra - HSPCB",25-03-2024 12:00:00,29.966942,76.875879,SO2,2,89,20
India,Haryana,Kurukshetra,"Sector-7, Kurukshetra - HSPCB",25-03-2024 12:00:00,29.966942,76.875879,OZONE,13,47,27
India,Haryana,Mandikhera,"General Hospital, Mandikhera - HSPCB",25-03-2024 12:00:00,27.9002,76.9938,PM10,74,133,94
India,Haryana,Narnaul,"Shastri Nagar, Narnaul - HSPCB",25-03-2024 12:00:00,28.060249,76.113115,SO2,13,42,16
India,Haryana,Palwal,"Shyam Nagar, Palwal - HSPCB",25-03-2024 12:00:00,28.1485564,77.3320667,NO2,23,24,24
India,Haryana,Palwal,"Shyam Nagar, Palwal - HSPCB",25-03-2024 12:00:00,28.1485564,77.3320667,CO,24,33,30
India,Haryana,Palwal,"Shyam Nagar, Palwal - HSPCB",25-03-2024 12:00:00,28.1485564,77.3320667,OZONE,7,49,23
India,Haryana,Panchkula,"Sector-6, Panchkula - HSPCB ",25-03-2024 12:00:00,30.7057778,76.8531805555555,CO,1,9,8
India,Haryana,Panipat,"Sector-18, Panipat - HSPCB",25-03-2024 12:00:00,29.497973,76.993331,CO,24,26,25
India,Haryana,Rohtak,"MD University, Rohtak - HSPCB",25-03-2024 12:00:00,28.52123,76.37138,PM2.5,NA,NA,NA
India,Haryana,Rohtak,"MD University, Rohtak - HSPCB",25-03-2024 12:00:00,28.52123,76.37138,NO2,NA,NA,NA
India,Haryana,Sonipat,"Murthal, Sonipat - HSPCB",25-03-2024 12:00:00,29.027200,77.062100,PM2.5,7,52,24
India,Haryana,Sonipat,"Murthal, Sonipat - HSPCB",25-03-2024 12:00:00,29.027200,77.062100,SO2,13,29,20
India,Himachal Pradesh,Baddi,"HIMUDA Complex Phase-1, Baddi - HPPCB",25-03-2024 12:00:00,30.943887,76.801991,NH3,2,5,4
India,Himachal Pradesh,Baddi,"HIMUDA Complex Phase-1, Baddi - HPPCB",25-03-2024 12:00:00,30.943887,76.801991,SO2,10,41,18
India,Jharkhand,Dhanbad,"Kalakusuma, Dhanbad - DMC",25-03-2024 12:00:00,23.811548,86.481238,NO2,13,111,44
India,Karnataka,Bagalkot,"Vidayagiri, Bagalkot - KSPCB",25-03-2024 12:00:00,16.172806,75.659694,CO,8,48,34
India,Karnataka,Bengaluru,"BTM Layout, Bengaluru - CPCB",25-03-2024 12:00:00,12.9135218,77.5950804,PM10,52,70,62
India,Karnataka,Bengaluru,"Bapuji Nagar, Bengaluru - KSPCB",25-03-2024 12:00:00,12.951913,77.539784,PM2.5,60,198,107
India,Karnataka,Bengaluru,"Bapuji Nagar, Bengaluru - KSPCB",25-03-2024 12:00:00,12.951913,77.539784,NO2,NA,NA,NA
India,Karnataka,Bengaluru,"Hebbal, Bengaluru - KSPCB",25-03-2024 12:00:00,13.029152,77.585901,CO,16,24,21
India,Karnataka,Bengaluru,"Hebbal, Bengaluru - KSPCB",25-03-2024 12:00:00,13.029152,77.585901,OZONE,8,66,12
India,Karnataka,Bengaluru,"Jayanagar 5th Block, Bengaluru - KSPCB",25-03-2024 12:00:00,12.920984,77.584908,PM2.5,55,138,74
India,Karnataka,Bengaluru,"Jayanagar 5th Block, Bengaluru - KSPCB",25-03-2024 12:00:00,12.920984,77.584908,NO2,7,14,9
India,Karnataka,Bengaluru,"Jayanagar 5th Block, Bengaluru - KSPCB",25-03-2024 12:00:00,12.920984,77.584908,CO,2,50,24
India,Karnataka,Bengaluru,"Jigani, Bengaluru - KSPCB",25-03-2024 12:00:00,12.7816279,77.6299145,PM2.5,29,252,97
India,Karnataka,Bengaluru,"Jigani, Bengaluru - KSPCB",25-03-2024 12:00:00,12.7816279,77.6299145,PM10,31,171,100
India,Karnataka,Bengaluru,"Kasturi Nagar, Bengaluru - KSPCB",25-03-2024 12:00:00,13.003872,77.664217,NH3,3,4,4
India,Karnataka,Bengaluru,"RVCE-Mailasandra, Bengaluru - KSPCB",25-03-2024 12:00:00,12.921418,77.502466,PM2.5,29,216,135
India,Karnataka,Bengaluru,"Sanegurava Halli, Bengaluru - KSPCB",25-03-2024 12:00:00,12.990328,77.5431385,PM10,33,59,39
India,Karnataka,Bengaluru,"Sanegurava Halli, Bengaluru - KSPCB",25-03-2024 12:00:00,12.990328,77.5431385,NO2,NA,NA,NA
India,Karnataka,Bengaluru,"Sanegurava Halli, Bengaluru - KSPCB",25-03-2024 12:00:00,12.990328,77.5431385,SO2,2,3,3
India,Karnataka,Bengaluru,"Sanegurava Halli, Bengaluru - KSPCB",25-03-2024 12:00:00,12.990328,77.5431385,CO,4,36,19
India,Karnataka,Bengaluru,"Shivapura_Peenya, Bengaluru - KSPCB",25-03-2024 12:00:00,13.0246342,77.5080115,SO2,5,20,9
India,Karnataka,Bengaluru,"Silk Board, Bengaluru - KSPCB",25-03-2024 12:00:00,12.917348,77.622813,SO2,5,17,10
India,Karnataka,Chamarajanagar,"Urban, Chamarajanagar - KSPCB",25-03-2024 12:00:00,11.55358,76.55521,PM10,45,70,53
India,Karnataka,Chamarajanagar,"Urban, Chamarajanagar - KSPCB",25-03-2024 12:00:00,11.55358,76.55521,CO,17,120,21
India,Karnataka,Chikkaballapur,"Chikkaballapur Rural, Chikkaballapur - KSPCB",25-03-2024 12:00:00,13.428828,77.731418,SO2,14,23,17
India,Karnataka,Chikkamagaluru,"Kalyana Nagara, Chikkamagaluru - KSPCB",25-03-2024 12:00:00,13.328028,75.797056,SO2,NA,NA,NA
India,Karnataka,Davanagere,"Devaraj Urs Badavane, Davanagere - KSPCB",25-03-2024 12:00:00,14.475800,75.905200,PM10,65,125,82
India,Karnataka,Davanagere,"Devaraj Urs Badavane, Davanagere - KSPCB",25-03-2024 12:00:00,14.475800,75.905200,OZONE,17,27,23
India,Karnataka,Dharwad,"Kalabhavan, Dharwad - KSPCB",25-03-2024 12:00:00,15.459706,75.008381,NH3,2,3,3
India,Karnataka,Dharwad,"Kalabhavan, Dharwad - KSPCB",25-03-2024 12:00:00,15.459706,75.008381,SO2,3,28,5
India,Karnataka,Gadag,"Panchal Nagar, Gadag - KSPCB",25-03-2024 12:00:00,15.411456,75.638133,NO2,NA,NA,NA
India,Karnataka,Hassan,"B.Katihalli, Hassan - KSPCB",25-03-2024 12:00:00,13.008556,76.125258,SO2,NA,NA,NA
India,Karnataka,Hassan,"B.Katihalli, Hassan - KSPCB",25-03-2024 12:00:00,13.008556,76.125258,CO,8,14,9
India,Karnataka,Haveri,"Ashwini Nagar, Haveri - KSPCB",25-03-2024 12:00:00,14.791800,75.389600,PM10,67,107,82
India,Karnataka,Haveri,"Ashwini Nagar, Haveri - KSPCB",25-03-2024 12:00:00,14.791800,75.389600,NH3,3,4,3
India,Karnataka,Haveri,"Ashwini Nagar, Haveri - KSPCB",25-03-2024 12:00:00,14.791800,75.389600,SO2,14,14,14
India,Karnataka,Hubballi,"Deshpande Nagar, Hubballi - KSPCB",25-03-2024 12:00:00,15.351773,75.140726,CO,50,113,71
India,Karnataka,Hubballi,"Lingaraj Nagar, Hubballi - KSPCB",25-03-2024 12:00:00,15.3714823,75.1160168,NO2,16,16,16
India,Karnataka,Kalaburagi,"Mahatma Basaveswar Colony, Kalaburgi - KSPCB",25-03-2024 12:00:00,17.336318,76.847397,PM10,24,94,53
India,Karnataka,Kalaburagi,"Mahatma Basaveswar Colony, Kalaburgi - KSPCB",25-03-2024 12:00:00,17.336318,76.847397,NO2,8,19,14
India,Karnataka,Karwar,"KHB Colony, Karwar - KSPCB",25-03-2024 12:00:00,14.816666,74.141003,NO2,3,10,6
India,Karnataka,Karwar,"KHB Colony, Karwar - KSPCB",25-03-2024 12:00:00,14.816666,74.141003,OZONE,21,22,21
India,Karnataka,Koppal,"Diwator Nagar, Koppal - KSPCB",25-03-2024 12:00:00,15.347630,76.181767,SO2,NA,NA,NA
India,Karnataka,Madikeri,"Stuart Hill, Madikeri - KSPCB",25-03-2024 12:00:00,12.415911,75.735050,PM10,37,68,53
India,Karnataka,Mangalore,"Kadri, Mangalore - KSPCB",25-03-2024 12:00:00,12.889250,74.853000,NO2,5,7,6
India,Karnataka,Mysuru,"Hebbal 1st Stage, Mysuru - KSPCB",25-03-2024 12:00:00,12.21041,76.37376,PM10,41,50,47
India,Karnataka,Raichur,"Haji Colony, Raichur - KSPCB",25-03-2024 12:00:00,16.208139,77.348417,NO2,22,44,34
India,Karnataka,Raichur,"Haji Colony, Raichur - KSPCB",25-03-2024 12:00:00,16.208139,77.348417,NH3,2,3,2
India,Karnataka,Ramanagara,"Vijay Nagar, Ramanagara - KSPCB",25-03-2024 12:00:00,12.733409,77.298051,CO,5,36,20
India,Karnataka,Shivamogga,"Vinoba Nagara, Shivamogga - KSPCB",25-03-2024 12:00:00,13.940000,75.555917,NO2,10,16,13
India,Karnataka,Shivamogga,"Vinoba Nagara, Shivamogga - KSPCB",25-03-2024 12:00:00,13.940000,75.555917,CO,5,36,26
India,Karnataka,Tumakuru,"Thimmalapura, Tumakuru - KSPCB",25-03-2024 12:00:00,13.377516,77.099072,PM10,NA,NA,NA
India,Karnataka,Tumakuru,"Thimmalapura, Tumakuru - KSPCB",25-03-2024 12:00:00,13.377516,77.099072,SO2,9,20,13
India,Karnataka,Udupi,"Brahmagiri, Udupi - KSPCB",25-03-2024 12:00:00,13.34194444,74.74694444,PM10,54,111,73
India,Karnataka,Vijayapura,"Ibrahimpur, Vijayapura - KSPCB",25-03-2024 12:00:00,16.802639,75.722694,PM2.5,25,31,30
India,Karnataka,Vijayapura,"Ibrahimpur, Vijayapura - KSPCB",25-03-2024 12:00:00,16.802639,75.722694,NH3,2,2,2
India,Karnataka,Yadgir,"Collector Office, Yadgir - KSPCB",25-03-2024 12:00:00,16.7602,77.1428,OZONE,19,19,19
India,Kerala,Eloor,"Udyogamandal, Eloor - Kerala PCB",25-03-2024 12:00:00,10.073232,76.302765,PM2.5,33,58,41
India,Kerala,Eloor,"Udyogamandal, Eloor - Kerala PCB",25-03-2024 12:00:00,10.073232,76.302765,NH3,1,1,1
India,Kerala,Eloor,"Udyogamandal, Eloor - Kerala PCB",25-03-2024 12:00:00,10.073232,76.302765,SO2,1,16,4
India,Kerala,Eloor,"Udyogamandal, Eloor - Kerala PCB",25-03-2024 12:00:00,10.073232,76.302765,CO,9,88,30
India,Kerala,Kannur,"Thavakkara, Kannur - Kerala PCB",25-03-2024 12:00:00,11.875000,75.373200,NH3,1,1,1
India,Kerala,Thiruvananthapuram,"Kariavattom, Thiruvananthapuram - Kerala PCB",25-03-2024 12:00:00,8.563700,76.886500,PM2.5,73,88,81
India,Kerala,Thiruvananthapuram,"Kariavattom, Thiruvananthapuram - Kerala PCB",25-03-2024 12:00:00,8.563700,76.886500,PM10,89,103,98
India,Kerala,Thiruvananthapuram,"Kariavattom, Thiruvananthapuram - Kerala PCB",25-03-2024 12:00:00,8.563700,76.886500,CO,18,54,29
India,Kerala,Thiruvananthapuram,"Plammoodu, Thiruvananthapuram - Kerala PCB",25-03-2024 12:00:00,8.5149093,76.9435879,SO2,6,11,8
India,Kerala,Thrissur,"Corporation Ground, Thrissur - Kerala PCB",25-03-2024 12:00:00,10.532400,76.215900,CO,14,52,16
India,Madhya Pradesh,Bhopal,"Idgah Hills, Bhopal - MPPCB",25-03-2024 12:00:00,23.264759,77.381568,SO2,19,22,21
India,Madhya Pradesh,Bhopal,"Idgah Hills, Bhopal - MPPCB",25-03-2024 12:00:00,23.264759,77.381568,CO,24,100,45
India,Madhya Pradesh,Bhopal,"Idgah Hills, Bhopal - MPPCB",25-03-2024 12:00:00,23.264759,77.381568,OZONE,21,96,67
India,Madhya Pradesh,Bhopal,"Paryavaran Parisar, Bhopal - MPPCB",25-03-2024 12:00:00,23.210494,77.425409,NO2,13,121,51
India,Madhya Pradesh,Dewas,"Bhopal Chauraha, Dewas - MPPCB",25-03-2024 12:00:00,22.9682591,76.064118,NO2,12,14,13
India,Madhya Pradesh,Dewas,"Bhopal Chauraha, Dewas - MPPCB",25-03-2024 12:00:00,22.9682591,76.064118,SO2,31,48,41
India,Madhya Pradesh,Dewas,"Bhopal Chauraha, Dewas - MPPCB",25-03-2024 12:00:00,22.9682591,76.064118,CO,14,93,43
India,Madhya Pradesh,Gwalior,"City Center, Gwalior - MPPCB",25-03-2024 12:00:00,26.203442,78.193251,PM2.5,27,352,162
India,Madhya Pradesh,Gwalior,"Deen Dayal Nagar, Gwalior - MPPCB",25-03-2024 12:00:00,26.259242,78.216432,NH3,7,16,9
India,Madhya Pradesh,Gwalior,"Maharaj Bada, Gwalior - MPPCB",25-03-2024 12:00:00,26.200388,78.147714,PM10,80,417,211
India,Madhya Pradesh,Indore,"Maguda Nagar, Indore - IMC",25-03-2024 12:00:00,22.7524,75.8872,PM2.5,39,224,92
India,Madhya Pradesh,Indore,"Regional Park, Indore - IMC",25-03-2024 12:00:00,22.6780,75.8559,SO2,43,47,45
India,Madhya Pradesh,Indore,"Regional Park, Indore - IMC",25-03-2024 12:00:00,22.6780,75.8559,CO,26,42,39
India,Madhya Pradesh,Indore,"Residency Area, Indore - IMC",25-03-2024 12:00:00,22.7084,75.8815,NO2,12,15,14
India,Madhya Pradesh,Jabalpur,"Govindh Bhavan Colony, Jabalpur - JMC",25-03-2024 12:00:00,23.163174,79.973061,NO2,8,39,20
India,Madhya Pradesh,Jabalpur,"Gupteshwar, Jabalpur - JMC",25-03-2024 12:00:00,23.142888,79.916147,PM2.5,62,489,171
India,Madhya Pradesh,Jabalpur,"Gupteshwar, Jabalpur - JMC",25-03-2024 12:00:00,23.142888,79.916147,NO2,3,159,34
India,Madhya Pradesh,Jabalpur,"Marhatal, Jabalpur - MPPCB",25-03-2024 12:00:00,23.168606,79.932247,CO,22,139,61
India,Madhya Pradesh,Pithampur,"Sector-2 Industrial Area, Pithampur - MPPCB",25-03-2024 12:00:00,22.624758,75.675238,SO2,13,17,15
India,Madhya Pradesh,Ratlam,"Shasthri Nagar, Ratlam - IPCA Lab",25-03-2024 12:00:00,23.331731,75.045981,NO2,14,76,38
India,Madhya Pradesh,Sagar,"Civil Lines, Sagar - MPPCB",25-03-2024 12:00:00,23.838586,78.759431,NO2,7,125,25
India,Madhya Pradesh,Sagar,"Civil Lines, Sagar - MPPCB",25-03-2024 12:00:00,23.838586,78.759431,SO2,5,67,16
India,Madhya Pradesh,Sagar,"Deen Dayal Nagar, Sagar - MPPCB",25-03-2024 12:00:00,23.8640158,78.80289321,SO2,10,14,13
India,Madhya Pradesh,Satna,"Bandhavgar Colony, Satna - Birla Cement",25-03-2024 12:00:00,24.58434363,80.8549414,PM10,41,82,64
India,Madhya Pradesh,Satna,"Bandhavgar Colony, Satna - Birla Cement",25-03-2024 12:00:00,24.58434363,80.8549414,CO,22,94,50
India,Madhya Pradesh,Singrauli,"Suryakiran Bhawan NCL, Singrauli - MPPCB",25-03-2024 12:00:00,24.108970,82.645580,CO,22,122,69
India,Madhya Pradesh,Ujjain,"Mahakaleshwar Temple, Ujjain - MPPCB",25-03-2024 12:00:00,23.182719 ,75.768218 ,CO,21,150,78
India,Maharashtra,Ahmednagar,"Tarakpur, Ahmednagar - MPCB",25-03-2024 12:00:00,19.10122,74.73339,SO2,4,116,21
India,Maharashtra,Akola,"Ramdaspeth, Akola - MPCB",25-03-2024 12:00:00,20.719516,77.000253,NO2,10,113,41
India,Maharashtra,Amravati,"Shivneri Colony, Amravati - MPCB",25-03-2024 12:00:00,20.9402359,77.7895248,NO2,6,114,34
India,Maharashtra,Bhiwandi,"Gokul Nagar, Bhiwandi - MPCB",25-03-2024 12:00:00,19.309073,73.057223,SO2,NA,NA,NA
India,Maharashtra,Boisar,"Khaira, Boisar - MPCB",25-03-2024 12:00:00,19.786089,72.757971,CO,9,24,10
India,Maharashtra,Boisar,"Khaira, Boisar - MPCB",25-03-2024 12:00:00,19.786089,72.757971,OZONE,13,13,13
India,Maharashtra,Chandrapur,"Chauhan Colony, Chandrapur - MPCB",25-03-2024 12:00:00,19.962900,79.298714,NH3,2,8,4
India,Maharashtra,Chandrapur,"Chauhan Colony, Chandrapur - MPCB",25-03-2024 12:00:00,19.962900,79.298714,SO2,5,45,14
India,Maharashtra,Chandrapur,"MIDC Khutala, Chandrapur - MPCB",25-03-2024 12:00:00,19.9775302,79.2337086,SO2,20,24,22
India,Maharashtra,Chandrapur,"MIDC Khutala, Chandrapur - MPCB",25-03-2024 12:00:00,19.9775302,79.2337086,CO,3,68,45
India,Maharashtra,Jalgaon,"Prabhat Colony, Jalgaon - MPCB",25-03-2024 12:00:00,21.001264,75.565602,PM2.5,108,484,223
India,Maharashtra,Jalgaon,"Prabhat Colony, Jalgaon - MPCB",25-03-2024 12:00:00,21.001264,75.565602,PM10,64,366,144
India,Maharashtra,Jalgaon,"Prabhat Colony, Jalgaon - MPCB",25-03-2024 12:00:00,21.001264,75.565602,OZONE,3,90,36
India,Maharashtra,Kalyan,"Khadakpada, Kalyan - MPCB",25-03-2024 12:00:00,19.25292,73.142019,NH3,1,1,1
India,Maharashtra,Kalyan,"Khadakpada, Kalyan - MPCB",25-03-2024 12:00:00,19.25292,73.142019,SO2,26,47,34
India,Maharashtra,Kolhapur,"Sinchan Bhavan, Kolhapur - MPCB",25-03-2024 12:00:00,16.7143745,74.2426398,NH3,7,8,8
India,Maharashtra,Kolhapur,"Sinchan Bhavan, Kolhapur - MPCB",25-03-2024 12:00:00,16.7143745,74.2426398,CO,20,44,34
India,Maharashtra,Latur,"Sawe Wadi, Latur - MPCB",25-03-2024 12:00:00,18.39963,76.57452,CO,9,58,31
India,Maharashtra,Mahad,"Kamble Tarf Birwadi, Mahad - MPCB",25-03-2024 12:00:00,18.1023399,73.4783687,PM10,75,137,97
India,Maharashtra,Malegaon,"Mahesh Nagar, Malegaon - MPCB",25-03-2024 12:00:00,20.555712,74.529236,NO2,6,119,26
India,Maharashtra,Mira-Bhayandar,"Bhayandar West, Mira-Bhayandar - MPCB",25-03-2024 12:00:00,19.296481,72.840923,NO2,5,30,16
India,Maharashtra,Mumbai,"Bandra Kurla Complex, Mumbai - MPCB",25-03-2024 12:00:00,19.065931,72.862131,NH3,4,8,6
India,Maharashtra,Mumbai,"Borivali East, Mumbai - IITM",25-03-2024 12:00:00,19.23241,72.86895,NO2,38,74,49
India,Maharashtra,Mumbai,"Borivali East, Mumbai - IITM",25-03-2024 12:00:00,19.23241,72.86895,CO,4,98,54
India,Maharashtra,Mumbai,"Borivali East, Mumbai - MPCB",25-03-2024 12:00:00,19.2243333,72.8658113,NH3,1,2,2
India,Maharashtra,Mumbai,"Chembur, Mumbai - MPCB",25-03-2024 12:00:00,19.0364585,72.8954371,OZONE,2,90,28
India,Maharashtra,Mumbai,"Chhatrapati Shivaji Intl. Airport (T2), Mumbai - MPCB",25-03-2024 12:00:00,19.10078,72.87462,PM10,43,109,70
India,Maharashtra,Mumbai,"Chhatrapati Shivaji Intl. Airport (T2), Mumbai - MPCB",25-03-2024 12:00:00,19.10078,72.87462,OZONE,4,14,6
India,Maharashtra,Mumbai,"Colaba, Mumbai - MPCB",25-03-2024 12:00:00,18.910000,72.820000,NH3,1,1,1
India,Maharashtra,Mumbai,"Ghatkopar, Mumbai - BMC",25-03-2024 12:00:00,19.083694,72.920967,PM2.5,31,133,62
India,Maharashtra,Mumbai,"Ghatkopar, Mumbai - BMC",25-03-2024 12:00:00,19.083694,72.920967,PM10,59,134,90
India,Maharashtra,Mumbai,"Ghatkopar, Mumbai - BMC",25-03-2024 12:00:00,19.083694,72.920967,CO,2,55,15
India,Maharashtra,Mumbai,"Kandivali East, Mumbai - MPCB",25-03-2024 12:00:00,19.205800,72.868200,SO2,16,106,83
India,Maharashtra,Mumbai,"Kandivali West, Mumbai - BMC",25-03-2024 12:00:00,19.215859,72.831718,PM2.5,29,188,77
India,Maharashtra,Mumbai,"Kandivali West, Mumbai - BMC",25-03-2024 12:00:00,19.215859,72.831718,SO2,1,2,1
India,Maharashtra,Mumbai,"Kandivali West, Mumbai - BMC",25-03-2024 12:00:00,19.215859,72.831718,CO,8,72,32
India,Maharashtra,Mumbai,"Kandivali West, Mumbai - BMC",25-03-2024 12:00:00,19.215859,72.831718,OZONE,1,25,7
India,Maharashtra,Mumbai,"Kherwadi_Bandra East, Mumbai - MPCB",25-03-2024 12:00:00,19.0632143,72.8456324,PM2.5,NA,NA,NA
India,Maharashtra,Mumbai,"Kherwadi_Bandra East, Mumbai - MPCB",25-03-2024 12:00:00,19.0632143,72.8456324,SO2,NA,NA,NA
India,Maharashtra,Mumbai,"Khindipada-Bhandup West, Mumbai - IITM",25-03-2024 12:00:00,19.1653323,72.922099,PM2.5,28,98,60
India,Maharashtra,Mumbai,"Khindipada-Bhandup West, Mumbai - IITM",25-03-2024 12:00:00,19.1653323,72.922099,SO2,2,7,6
India,Maharashtra,Mumbai,"Kurla, Mumbai - MPCB",25-03-2024 12:00:00,19.0863,72.8888,PM10,31,110,69
India,Maharashtra,Mumbai,"Kurla, Mumbai - MPCB",25-03-2024 12:00:00,19.0863,72.8888,NH3,2,7,4
India,Maharashtra,Mumbai,"Kurla, Mumbai - MPCB",25-03-2024 12:00:00,19.0863,72.8888,OZONE,27,36,30
India,Maharashtra,Mumbai,"Mazgaon, Mumbai - IITM",25-03-2024 12:00:00,18.96702,72.84214,PM10,57,116,85
India,Maharashtra,Mumbai,"Mindspace-Malad West, Mumbai - MPCB",25-03-2024 12:00:00,19.1878657,72.8304069,PM2.5,NA,NA,NA
India,Maharashtra,Mumbai,"Mindspace-Malad West, Mumbai - MPCB",25-03-2024 12:00:00,19.1878657,72.8304069,PM10,NA,NA,NA
India,Maharashtra,Mumbai,"Mulund West, Mumbai - MPCB",25-03-2024 12:00:00,19.1750,72.9419,NH3,10,11,10
India,Maharashtra,Mumbai,"Mulund West, Mumbai - MPCB",25-03-2024 12:00:00,19.1750,72.9419,SO2,13,13,13
India,Maharashtra,Mumbai,"Navy Nagar-Colaba, Mumbai - IITM",25-03-2024 12:00:00,18.897756,72.813320,PM10,52,105,80
India,Maharashtra,Mumbai,"Navy Nagar-Colaba, Mumbai - IITM",25-03-2024 12:00:00,18.897756,72.813320,SO2,4,6,5
India,Maharashtra,Mumbai,"Navy Nagar-Colaba, Mumbai - IITM",25-03-2024 12:00:00,18.897756,72.813320,OZONE,27,82,53
India,Maharashtra,Mumbai,"Sewri, Mumbai - BMC",25-03-2024 12:00:00,19.000084,72.856730,SO2,3,8,5
India,Maharashtra,Mumbai,"Sewri, Mumbai - BMC",25-03-2024 12:00:00,19.000084,72.856730,CO,14,50,31
India,Maharashtra,Mumbai,"Shivaji Nagar, Mumbai - BMC",25-03-2024 12:00:00,19.060498,72.923356,PM10,47,156,96
India,Maharashtra,Mumbai,"Shivaji Nagar, Mumbai - BMC",25-03-2024 12:00:00,19.060498,72.923356,SO2,1,14,7
India,Maharashtra,Mumbai,"Sion, Mumbai - MPCB",25-03-2024 12:00:00,19.047000,72.874600,NO2,9,79,39
India,Maharashtra,Mumbai,"Sion, Mumbai - MPCB",25-03-2024 12:00:00,19.047000,72.874600,NH3,1,2,1
India,Maharashtra,Mumbai,"Sion, Mumbai - MPCB",25-03-2024 12:00:00,19.047000,72.874600,SO2,35,38,36
India,Maharashtra,Mumbai,"Vasai West, Mumbai - MPCB",25-03-2024 12:00:00,19.383200,72.820400,CO,35,67,56
India,Maharashtra,Mumbai,"Vile Parle West, Mumbai - MPCB",25-03-2024 12:00:00,19.10861,72.83622,PM2.5,21,94,43
India,Maharashtra,Mumbai,"Vile Parle West, Mumbai - MPCB",25-03-2024 12:00:00,19.10861,72.83622,NH3,10,11,11
India,Maharashtra,Nagpur,"Ambazari, Nagpur - MPCB",25-03-2024 12:00:00,21.121801,79.04952,PM10,82,180,120
India,Maharashtra,Nagpur,"Mahal, Nagpur - MPCB",25-03-2024 12:00:00,21.14472,79.107595,NH3,3,9,5
India,Maharashtra,Nagpur,"Opp GPO Civil Lines, Nagpur - MPCB",25-03-2024 12:00:00,21.152875,79.0517531,PM2.5,43,306,161
India,Maharashtra,Nagpur,"Opp GPO Civil Lines, Nagpur - MPCB",25-03-2024 12:00:00,21.152875,79.0517531,NO2,17,157,52
India,Maharashtra,Nagpur,"Opp GPO Civil Lines, Nagpur - MPCB",25-03-2024 12:00:00,21.152875,79.0517531,SO2,1,36,19
India,Maharashtra,Nagpur,"Ram Nagar, Nagpur - MPCB",25-03-2024 12:00:00,21.143383,79.048912,NO2,5,113,26
India,Maharashtra,Nagpur,"Ram Nagar, Nagpur - MPCB",25-03-2024 12:00:00,21.143383,79.048912,SO2,7,43,22
India,Maharashtra,Nanded,"Sneh Nagar, Nanded - MPCB",25-03-2024 12:00:00,19.173852,77.296291,CO,NA,NA,NA
India,Maharashtra,Nashik,"Hirawadi, Nashik - MPCB",25-03-2024 12:00:00,20.021503,73.813844,PM2.5,43,156,77
India,Maharashtra,Nashik,"Hirawadi, Nashik - MPCB",25-03-2024 12:00:00,20.021503,73.813844,OZONE,18,73,45
India,Maharashtra,Nashik,"MIDC Ambad, Nashik - MPCB",25-03-2024 12:00:00,19.950220,73.731480,PM2.5,33,56,43
India,Maharashtra,Nashik,"Pandav Nagari, Nashik - MPCB",25-03-2024 12:00:00,19.9591346,73.7788008,SO2,6,100,17
India,Maharashtra,Navi Mumbai,"Kopripada-Vashi, Navi Mumbai - MPCB",25-03-2024 12:00:00,19.090337,73.014232,PM2.5,30,343,122
India,Maharashtra,Navi Mumbai,"Kopripada-Vashi, Navi Mumbai - MPCB",25-03-2024 12:00:00,19.090337,73.014232,NH3,5,18,10
India,Maharashtra,Navi Mumbai,"Kopripada-Vashi, Navi Mumbai - MPCB",25-03-2024 12:00:00,19.090337,73.014232,OZONE,7,75,19
India,Maharashtra,Navi Mumbai,"Nerul, Navi Mumbai - MPCB",25-03-2024 12:00:00,19.008751,73.016620,CO,29,80,72
India,Maharashtra,Navi Mumbai,"Sanpada, Navi Mumbai - MPCB",25-03-2024 12:00:00,19.0575752,73.0151367,PM10,NA,NA,NA
India,Maharashtra,Navi Mumbai,"Sanpada, Navi Mumbai - MPCB",25-03-2024 12:00:00,19.0575752,73.0151367,NO2,NA,NA,NA
India,Maharashtra,Navi Mumbai,"Sanpada, Navi Mumbai - MPCB",25-03-2024 12:00:00,19.0575752,73.0151367,CO,4,4,4
India,Maharashtra,Navi Mumbai,"Sector-2E Kalamboli, Navi Mumbai - MPCB",25-03-2024 12:00:00,19.02579,73.10297,PM10,70,116,89
India,Maharashtra,Navi Mumbai,"Tondare-Taloja, Navi Mumbai - MPCB",25-03-2024 12:00:00,19.0630,73.1209,PM10,87,133,115
India,Maharashtra,Parbhani,"Masoom Colony, Parbhani - MPCB",25-03-2024 12:00:00,19.265594,76.761463,NH3,2,8,6
India,Maharashtra,Parbhani,"Masoom Colony, Parbhani - MPCB",25-03-2024 12:00:00,19.265594,76.761463,SO2,22,75,43
India,Maharashtra,Pimpri-Chinchwad,"Gavalinagar, Pimpri Chinchwad - MPCB",25-03-2024 12:00:00,18.63673,73.82487,NH3,1,5,3
India,Maharashtra,Pimpri-Chinchwad,"Gavalinagar, Pimpri Chinchwad - MPCB",25-03-2024 12:00:00,18.63673,73.82487,CO,14,74,30
India,Maharashtra,Pimpri-Chinchwad,"Park Street Wakad, Pimpri Chinchwad - MPCB",25-03-2024 12:00:00,18.59051,73.77946,PM10,99,123,112
India,Maharashtra,Pimpri-Chinchwad,"Park Street Wakad, Pimpri Chinchwad - MPCB",25-03-2024 12:00:00,18.59051,73.77946,NO2,56,114,75
India,Maharashtra,Pimpri-Chinchwad,"Thergaon, Pimpri Chinchwad - MPCB",25-03-2024 12:00:00,18.616318,73.765797,NH3,NA,NA,NA
India,Maharashtra,Pune,"Bhosari, Pune - IITM",25-03-2024 12:00:00,18.640051,73.848956,NO2,13,14,14
India,Maharashtra,Pune,"Mhada Colony, Pune - IITM",25-03-2024 12:00:00,18.573040,73.927715,NO2,1,20,13
India,Maharashtra,Pune,"Revenue Colony-Shivajinagar, Pune - IITM",25-03-2024 12:00:00,18.530085,73.849598,PM2.5,51,135,88
India,Maharashtra,Pune,"Revenue Colony-Shivajinagar, Pune - IITM",25-03-2024 12:00:00,18.530085,73.849598,SO2,71,116,98
India,Maharashtra,Pune,"Savitribai Phule Pune University, Pune - MPCB",25-03-2024 12:00:00,18.547056,73.826908,NH3,1,2,2
India,Maharashtra,Pune,"Savitribai Phule Pune University, Pune - MPCB",25-03-2024 12:00:00,18.547056,73.826908,SO2,14,30,20
India,Maharashtra,Pune,"Savitribai Phule Pune University, Pune - MPCB",25-03-2024 12:00:00,18.547056,73.826908,CO,16,76,41
India,Maharashtra,Pune,"Transport Nagar-Nigdi, Pune - IITM",25-03-2024 12:00:00,18.664282,73.763966,OZONE,10,69,32
India,Maharashtra,Sangli,"Vijay Nagar, Sangli - MPCB",25-03-2024 12:00:00, 16.5038,74.3623,PM10,66,138,96
India,Maharashtra,Solapur,"Dnyaneshwar Nagar, Solapur - MPCB",25-03-2024 12:00:00,17.6336264,75.9132495,OZONE,33,99,50
India,Maharashtra,Solapur,"Ratandeep Housing Society, Solapur - MPCB",25-03-2024 12:00:00,17.65439,75.90649,CO,26,26,26
India,Maharashtra,Solapur,"Solapur, Solapur - MPCB",25-03-2024 12:00:00,17.6599188,75.9063906,SO2,43,104,75
India,Maharashtra,Thane,"Kasarvadavali, Thane - MPCB",25-03-2024 12:00:00,19.26777,72.97182,PM10,54,107,88
India,Maharashtra,Thane,"Kasarvadavali, Thane - MPCB",25-03-2024 12:00:00,19.26777,72.97182,NO2,17,78,38
India,Maharashtra,Ulhasnagar,"Sidhi Vinayak Nagar, Ulhasnagar - MPCB",25-03-2024 12:00:00,19.235581,73.159121,OZONE,13,79,42
India,Maharashtra,Virar,"Bolinj, Virar - MPCB",25-03-2024 12:00:00,19.4458210,72.7988231,PM2.5,44,93,69
India,Maharashtra,Virar,"Bolinj, Virar - MPCB",25-03-2024 12:00:00,19.4458210,72.7988231,PM10,54,107,85
India,Manipur,Imphal,"DM College of Science, Imphal - Manipur PCB",25-03-2024 12:00:00,24.8207389,93.9423085,SO2,87,92,89
India,Manipur,Imphal,"Manipur University, Imphal - Manipur PCB",25-03-2024 12:00:00,24.7524239,93.9286218,NO2,7,25,11
India,Manipur,Imphal,"Manipur University, Imphal - Manipur PCB",25-03-2024 12:00:00,24.7524239,93.9286218,OZONE,1,36,18
India,Meghalaya,Shillong,"Lumpyngngad, Shillong - Meghalaya PCB",25-03-2024 12:00:00,25.5586,91.8985,PM2.5,39,103,70
India,Mizoram,Aizawl,"Sikulpuikawn, Aizawl - Mizoram PCB",25-03-2024 12:00:00,23.7176342,92.7192841,OZONE,1,28,5
India,Nagaland,Kohima,"PWD Juction, Kohima - NPCB",25-03-2024 12:00:00,25.6635413,94.0989878,PM10,60,115,87
India,Nagaland,Kohima,"PWD Juction, Kohima - NPCB",25-03-2024 12:00:00,25.6635413,94.0989878,SO2,30,31,30
India,Nagaland,Kohima,"PWD Juction, Kohima - NPCB",25-03-2024 12:00:00,25.6635413,94.0989878,CO,10,28,14
India,Odisha,Angul,"Hakimapada, Angul - OSPCB",25-03-2024 12:00:00,20.832874,85.104082,PM2.5,45,344,115
India,Odisha,Balasore,"Kalidaspur, Balasore - OSPCB",25-03-2024 12:00:00,21.51161,86.89088,CO,21,98,45
India,Odisha,Baripada,"Meher Colony, Baripada - OSPCB",25-03-2024 12:00:00,21.941841,86.728318,NO2,1,2,1
India,Odisha,Baripada,"Meher Colony, Baripada - OSPCB",25-03-2024 12:00:00,21.941841,86.728318,SO2,5,6,6
India,Odisha,Baripada,"Meher Colony, Baripada - OSPCB",25-03-2024 12:00:00,21.941841,86.728318,CO,18,36,22
India,Odisha,Bhubaneswar,"Lingraj Mandir, Bhubaneswar - OSPCB",25-03-2024 12:00:00,20.240790,85.836784,PM2.5,38,75,56
India,Odisha,Bhubaneswar,"Lingraj Mandir, Bhubaneswar - OSPCB",25-03-2024 12:00:00,20.240790,85.836784,PM10,34,98,61
India,Odisha,Bhubaneswar,"Lingraj Mandir, Bhubaneswar - OSPCB",25-03-2024 12:00:00,20.240790,85.836784,NO2,4,18,11
India,Odisha,Bhubaneswar,"Patia, Bhubaneswar - OSPCB",25-03-2024 12:00:00,20.34652,85.81630,SO2,2,17,5
India,Odisha,Bileipada,"Tata Township, Bileipada - OSPCB",25-03-2024 12:00:00,22.06156703,85.47409613,PM2.5,84,233,140
India,Odisha,Bileipada,"Tata Township, Bileipada - OSPCB",25-03-2024 12:00:00,22.06156703,85.47409613,SO2,NA,NA,NA
India,Odisha,Bileipada,"Tata Township, Bileipada - OSPCB",25-03-2024 12:00:00,22.06156703,85.47409613,CO,18,57,39
India,Odisha,Brajrajnagar,"GM Office, Brajrajnagar - OSPCB",25-03-2024 12:00:00,21.8004996,83.8396977,SO2,20,21,20
India,Odisha,Byasanagar,"Ferro Chrome Colony, Byasanagar - OSPCB",25-03-2024 12:00:00,20.94185,86.11510,CO,77,122,98
India,Odisha,Cuttack,"CDA Area, Cuttack - OSPCB",25-03-2024 12:00:00,20.48891     ,85.84768     ,PM2.5,13,65,32
India,Odisha,Cuttack,"CDA Area, Cuttack - OSPCB",25-03-2024 12:00:00,20.48891     ,85.84768     ,SO2,1,6,1
India,Odisha,Nayagarh,"Dabuna, Nayagarh - OSPCB",25-03-2024 12:00:00,21.847279,85.416905,CO,21,35,34
India,Odisha,Nayagarh,"Dabuna, Nayagarh - OSPCB",25-03-2024 12:00:00,21.847279,85.416905,OZONE,1,18,2
India,Odisha,Rairangpur,"Divisional Forest Office, Rairangpur - OSPCB",25-03-2024 12:00:00,22.265816,86.174829,PM2.5,54,110,82
India,Odisha,Rairangpur,"Divisional Forest Office, Rairangpur - OSPCB",25-03-2024 12:00:00,22.265816,86.174829,CO,16,38,19
India,Odisha,Rourkela,"Raghunathpali, Rourkela - OSPCB",25-03-2024 12:00:00,22.220833,84.809444,NO2,12,146,58
India,Odisha,Rourkela,"Raghunathpali, Rourkela - OSPCB",25-03-2024 12:00:00,22.220833,84.809444,NH3,1,3,2
India,Odisha,Rourkela,"Sector-2, Rourkela - OSPCB",25-03-2024 12:00:00,22.24500000,84.88111111,PM2.5,70,272,154
India,Odisha,Rourkela,"Sector-2, Rourkela - OSPCB",25-03-2024 12:00:00,22.24500000,84.88111111,PM10,98,168,128
India,Odisha,Suakati,"OMC Colony, Suakati - OSPCB",25-03-2024 12:00:00,21.606865,85.510538,PM10,110,153,122
India,Odisha,Talcher,"Talcher Coalfields,Talcher - OSPCB",25-03-2024 12:00:00,20.9360711,85.1707021,SO2,11,79,29
India,Odisha,Tensa,"Barsua Iron Ore Mines, Tensa - OSPCB",25-03-2024 12:00:00,21.869985,85.167016,PM10,80,97,89
India,Puducherry,Puducherry,"Jawahar Nagar, Puducherry - PPCC",25-03-2024 12:00:00,11.9309,79.8027,NO2,2,25,8
India,Puducherry,Puducherry,"Jawahar Nagar, Puducherry - PPCC",25-03-2024 12:00:00,11.9309,79.8027,NH3,1,3,2
India,Punjab,Amritsar,"Golden Temple, Amritsar - PPCB",25-03-2024 12:00:00,31.620000,74.876512,PM10,62,115,87
India,Punjab,Amritsar,"Golden Temple, Amritsar - PPCB",25-03-2024 12:00:00,31.620000,74.876512,NO2,7,80,19
India,Punjab,Amritsar,"Golden Temple, Amritsar - PPCB",25-03-2024 12:00:00,31.620000,74.876512,CO,5,107,52
India,Punjab,Bathinda,"Hardev Nagar, Bathinda - PPCB",25-03-2024 12:00:00,30.233011,74.907758,CO,2,40,17
India,Punjab,Jalandhar,"Civil Line, Jalandhar - PPCB",25-03-2024 12:00:00,31.321907,75.578914,OZONE,32,132,62
India,Punjab,Khanna,"Kalal Majra, Khanna - PPCB",25-03-2024 12:00:00,30.736056 ,76.209694,PM2.5,31,76,53
India,Punjab,Khanna,"Kalal Majra, Khanna - PPCB",25-03-2024 12:00:00,30.736056 ,76.209694,NO2,25,30,27
India,Punjab,Ludhiana,"Punjab Agricultural University, Ludhiana - PPCB",25-03-2024 12:00:00,30.9028,75.8086,NO2,18,19,18
India,Punjab,Mandi Gobindgarh,"RIMT University, Mandi Gobindgarh - PPCB",25-03-2024 12:00:00,30.649961,76.331442,SO2,8,47,18
India,Punjab,Patiala,"Model Town, Patiala - PPCB",25-03-2024 12:00:00,30.349388,76.366642,NH3,6,6,6
India,Rajasthan,Ajmer,"Civil Lines,  Ajmer - RSPCB",25-03-2024 12:00:00,26.470859,74.646594,NH3,5,5,5
India,Rajasthan,Alwar,"Moti Doongri, Alwar - RSPCB",25-03-2024 12:00:00,27.554793,76.611536,PM10,52,147,89
India,Rajasthan,Alwar,"Moti Doongri, Alwar - RSPCB",25-03-2024 12:00:00,27.554793,76.611536,SO2,11,79,31
India,Rajasthan,Banswara,"Rati Talai, Banswara - RSPCB",25-03-2024 12:00:00,23.555190,74.440010,NO2,1,70,25
India,Rajasthan,Banswara,"Rati Talai, Banswara - RSPCB",25-03-2024 12:00:00,23.555190,74.440010,OZONE,37,121,70
India,Rajasthan,Baran,"Bamboliya, Baran - RSPCB",25-03-2024 12:00:00,25.106006,76.469948,NO2,6,95,15
India,Rajasthan,Baran,"Bamboliya, Baran - RSPCB",25-03-2024 12:00:00,25.106006,76.469948,SO2,6,21,11
India,Rajasthan,Baran,"Bamboliya, Baran - RSPCB",25-03-2024 12:00:00,25.106006,76.469948,CO,15,51,29
India,Rajasthan,Barmer,"Railway Colony, Barmer - RSPCB",25-03-2024 12:00:00,25.747299,71.393989,PM10,NA,NA,NA
India,Rajasthan,Bharatpur,"Krishna Nagar, Bharatpur - RSPCB",25-03-2024 12:00:00,27.215415,77.50873,CO,18,95,63
India,Rajasthan,Bhilwara,"Pratap Nagar, Bhilwara - RSPCB",25-03-2024 12:00:00,25.339605,74.618883,CO,16,67,33
India,Rajasthan,Bhiwadi,"RIICO Ind. Area III, Bhiwadi - RSPCB",25-03-2024 12:00:00,28.194909,76.862296,SO2,2,34,17
India,Rajasthan,Bhiwadi,"RIICO Ind. Area III, Bhiwadi - RSPCB",25-03-2024 12:00:00,28.194909,76.862296,CO,68,88,71
India,Rajasthan,Bhiwadi,"Vasundhara Nagar_UIT, Bhiwadi - RSPCB",25-03-2024 12:00:00,28.207266,76.829265,NH3,5,11,8
India,Rajasthan,Bikaner,"MM Ground, Bikaner - RSPCB",25-03-2024 12:00:00,28.018792,73.292658,NO2,35,129,67
India,Rajasthan,Bikaner,"MM Ground, Bikaner - RSPCB",25-03-2024 12:00:00,28.018792,73.292658,SO2,3,32,7
India,Rajasthan,Bundi,"New Colony, Bundi - RSPCB",25-03-2024 12:00:00,25.435774,75.644272,OZONE,5,120,79
India,Rajasthan,Chittorgarh,"Shastri Nagar, Chittorgarh - RSPCB",25-03-2024 12:00:00,24.892047,74.623527,PM2.5,10,87,52
India,Rajasthan,Chittorgarh,"Shastri Nagar, Chittorgarh - RSPCB",25-03-2024 12:00:00,24.892047,74.623527,NO2,7,98,32
India,Rajasthan,Churu,"Subash Chowk, Churu - RSPCB",25-03-2024 12:00:00,28.296139,74.961696,PM10,62,194,121
India,Rajasthan,Churu,"Subash Chowk, Churu - RSPCB",25-03-2024 12:00:00,28.296139,74.961696,OZONE,14,107,56
India,Rajasthan,Dausa,"Khatikan Mohalla, Dausa - RSPCB",25-03-2024 12:00:00,26.895552,76.334753,PM2.5,22,112,53
India,Rajasthan,Dausa,"Khatikan Mohalla, Dausa - RSPCB",25-03-2024 12:00:00,26.895552,76.334753,PM10,91,452,161
India,Rajasthan,Dausa,"Khatikan Mohalla, Dausa - RSPCB",25-03-2024 12:00:00,26.895552,76.334753,NH3,5,6,5
India,Rajasthan,Dausa,"Khatikan Mohalla, Dausa - RSPCB",25-03-2024 12:00:00,26.895552,76.334753,SO2,1,12,7
India,Rajasthan,Dholpur,"Raja Ganj, Dholpur - RSPCB",25-03-2024 12:00:00,26.699557,77.898881,NO2,6,50,21
India,Rajasthan,Dholpur,"Raja Ganj, Dholpur - RSPCB",25-03-2024 12:00:00,26.699557,77.898881,OZONE,41,138,66
India,Rajasthan,Dungarpur,"Bhoiwada, Dungarpur - RSPCB",25-03-2024 12:00:00,23.837789,73.714926,PM2.5,43,82,54
India,Rajasthan,Dungarpur,"Bhoiwada, Dungarpur - RSPCB",25-03-2024 12:00:00,23.837789,73.714926,NO2,6,21,14
India,Rajasthan,Dungarpur,"Bhoiwada, Dungarpur - RSPCB",25-03-2024 12:00:00,23.837789,73.714926,NH3,5,5,5
India,Rajasthan,Hanumangarh,"Housing Board, Hanumangarh - RSPCB",25-03-2024 12:00:00,29.610750,74.283608,PM10,34,309,120
India,Rajasthan,Jaipur,"Adarsh Nagar, Jaipur - RSPCB",25-03-2024 12:00:00,26.902909,75.836858,SO2,2,27,15
India,Rajasthan,Jaipur,"Mansarovar Sector-12, Jaipur - RSPCB",25-03-2024 12:00:00,26.843698,75.766894,NO2,13,55,33
India,Rajasthan,Jaipur,"RIICO Sitapura, Jaipur - RSPCB",25-03-2024 12:00:00,26.786682,75.827928,PM10,71,190,128
India,Rajasthan,Jaipur,"RIICO Sitapura, Jaipur - RSPCB",25-03-2024 12:00:00,26.786682,75.827928,NH3,1,8,2
India,Rajasthan,Jaipur,"Sector-2 Murlipura, Jaipur - RSPCB",25-03-2024 12:00:00,26.960669,75.771817,PM2.5,35,80,58
India,Rajasthan,Jaipur,"Sector-2 Murlipura, Jaipur - RSPCB",25-03-2024 12:00:00,26.960669,75.771817,NH3,4,27,12
India,Rajasthan,Jaipur,"Sector-2 Murlipura, Jaipur - RSPCB",25-03-2024 12:00:00,26.960669,75.771817,OZONE,NA,NA,NA
India,Rajasthan,Jaipur,"Shastri Nagar, Jaipur - RSPCB",25-03-2024 12:00:00,26.9502929,75.730943,NH3,2,7,4
India,Rajasthan,Jaipur,"Shastri Nagar, Jaipur - RSPCB",25-03-2024 12:00:00,26.9502929,75.730943,CO,2,78,38
India,Rajasthan,Jaipur,"Shastri Nagar, Jaipur - RSPCB",25-03-2024 12:00:00,26.9502929,75.730943,OZONE,25,55,42
India,Rajasthan,Jaisalmer,"Sadar Bazar, Jaisalmer - RSPCB",25-03-2024 12:00:00,26.912329,70.909168,PM10,103,271,157
India,Rajasthan,Jaisalmer,"Sadar Bazar, Jaisalmer - RSPCB",25-03-2024 12:00:00,26.912329,70.909168,NO2,30,157,63
India,Rajasthan,Jaisalmer,"Sadar Bazar, Jaisalmer - RSPCB",25-03-2024 12:00:00,26.912329,70.909168,NH3,8,18,10
India,Rajasthan,Jalore,"Mudtra Sili, Jalore - RSPCB",25-03-2024 12:00:00,25.344694,72.626208,NO2,7,50,20
India,Rajasthan,Jalore,"Mudtra Sili, Jalore - RSPCB",25-03-2024 12:00:00,25.344694,72.626208,CO,12,41,20
India,Rajasthan,Jhalawar,"Rajlaxmi Nagar, Jhalawar - RSPCB",25-03-2024 12:00:00,24.588397,76.172782,PM2.5,12,84,42
India,Rajasthan,Jhalawar,"Rajlaxmi Nagar, Jhalawar - RSPCB",25-03-2024 12:00:00,24.588397,76.172782,PM10,59,187,117
India,Rajasthan,Jhalawar,"Rajlaxmi Nagar, Jhalawar - RSPCB",25-03-2024 12:00:00,24.588397,76.172782,OZONE,8,93,68
India,Rajasthan,Jhunjhunu,"Indra Nagar, Jhunjhunu - RSPCB",25-03-2024 12:00:00,28.108988,75.386577,CO,11,45,25
India,Rajasthan,Jodhpur,"Collectorate, Jodhpur - RSPCB",25-03-2024 12:00:00,26.268249,73.0193853,PM10,77,201,139
India,Rajasthan,Jodhpur,"Digari Kalan, Jodhpur - RSPCB",25-03-2024 12:00:00,26.295810,73.082283,CO,22,132,70
India,Rajasthan,Jodhpur,"Jhalamand, Jodhpur - RSPCB",25-03-2024 12:00:00,26.215415,73.070156,NO2,31,41,35
India,Rajasthan,Jodhpur,"Jhalamand, Jodhpur - RSPCB",25-03-2024 12:00:00,26.215415,73.070156,SO2,2,9,5
India,Rajasthan,Jodhpur,"Samrat Ashok Udhyan, Jodhpur - RSPCB",25-03-2024 12:00:00,26.253384,72.976571,NH3,4,7,5
India,Rajasthan,Kota,"Dhanmandi, Kota - RSPCB",25-03-2024 12:00:00,25.164090,75.858137,SO2,4,39,11
India,Rajasthan,Kota,"Nayapura, Kota - RSPCB",25-03-2024 12:00:00,25.196024,75.855668,NH3,2,18,6
India,Rajasthan,Kota,"Nayapura, Kota - RSPCB",25-03-2024 12:00:00,25.196024,75.855668,SO2,5,10,7
India,Rajasthan,Kota,"Shrinath Puram, Kota - RSPCB",25-03-2024 12:00:00,25.14389,75.821256,PM2.5,1,196,135
India,Rajasthan,Kota,"Shrinath Puram, Kota - RSPCB",25-03-2024 12:00:00,25.14389,75.821256,SO2,6,43,12
India,Rajasthan,Nagaur,"Karni Colony, Nagaur - RSPCB",25-03-2024 12:00:00,27.213494,73.734444,PM10,78,410,146
India,Rajasthan,Nagaur,"Karni Colony, Nagaur - RSPCB",25-03-2024 12:00:00,27.213494,73.734444,NO2,9,15,12
India,Rajasthan,Pali,"Indira Colony Vistar, Pali - RSPCB",25-03-2024 12:00:00,25.771061, 73.340227,PM2.5,64,295,148
India,Rajasthan,Pali,"Indira Colony Vistar, Pali - RSPCB",25-03-2024 12:00:00,25.771061, 73.340227,NO2,17,37,26
India,Rajasthan,Pali,"Indira Colony Vistar, Pali - RSPCB",25-03-2024 12:00:00,25.771061, 73.340227,CO,36,100,61
India,Rajasthan,Pratapgarh,"Pragati Nagar, Pratapgarh - RSPCB",25-03-2024 12:00:00,24.041198,74.780702,PM2.5,31,87,53
India,Rajasthan,Pratapgarh,"Pragati Nagar, Pratapgarh - RSPCB",25-03-2024 12:00:00,24.041198,74.780702,NO2,6,42,15
India,Rajasthan,Pratapgarh,"Pragati Nagar, Pratapgarh - RSPCB",25-03-2024 12:00:00,24.041198,74.780702,SO2,5,12,8
India,Rajasthan,Pratapgarh,"Pragati Nagar, Pratapgarh - RSPCB",25-03-2024 12:00:00,24.041198,74.780702,CO,10,30,23
India,Rajasthan,Rajsamand,"Dhoinda, Rajsamand - RSPCB",25-03-2024 12:00:00,25.036360,73.883502,PM10,41,120,77
India,Rajasthan,Rajsamand,"Dhoinda, Rajsamand - RSPCB",25-03-2024 12:00:00,25.036360,73.883502,SO2,9,14,10
India,Rajasthan,Sawai Madhopur,"Sahu Nagar, Sawai Madhopur - RSPCB",25-03-2024 12:00:00,26.031443,76.359327,PM2.5,55,331,99
India,Rajasthan,Sawai Madhopur,"Sahu Nagar, Sawai Madhopur - RSPCB",25-03-2024 12:00:00,26.031443,76.359327,SO2,4,12,8
India,Rajasthan,Tonk,"Shastri Nagar, Tonk - RSPCB",25-03-2024 12:00:00,26.159933,75.780517,PM2.5,42,120,63
India,Rajasthan,Tonk,"Shastri Nagar, Tonk - RSPCB",25-03-2024 12:00:00,26.159933,75.780517,SO2,2,7,4
India,TamilNadu,Ariyalur,"Keelapalur, Ariyalur - TNPCB",25-03-2024 12:00:00,11.06825,79.07033,PM10,NA,NA,NA
India,TamilNadu,Ariyalur,"Keelapalur, Ariyalur - TNPCB",25-03-2024 12:00:00,11.06825,79.07033,SO2,NA,NA,NA
India,TamilNadu,Chengalpattu,"Crescent University, Chengalpattu - TNPCB",25-03-2024 12:00:00,12.8777316,80.0834807,PM2.5,33,33,33
India,TamilNadu,Chennai,"Alandur Bus Depot, Chennai - CPCB",25-03-2024 12:00:00,12.9099161,80.1076538,OZONE,4,10,6
India,TamilNadu,Chennai,"Arumbakkam, Chennai - TNPCB",25-03-2024 12:00:00,13.0664,80.2112 ,PM2.5,16,84,32
India,TamilNadu,Chennai,"Arumbakkam, Chennai - TNPCB",25-03-2024 12:00:00,13.0664,80.2112 ,PM10,24,109,46
India,TamilNadu,Chennai,"Arumbakkam, Chennai - TNPCB",25-03-2024 12:00:00,13.0664,80.2112 ,NH3,2,5,4
India,TamilNadu,Chennai,"Kodungaiyur, Chennai - TNPCB",25-03-2024 12:00:00,13.1278,80.2642,PM10,34,100,49
India,TamilNadu,Chennai,"Perungudi, Chennai - TNPCB",25-03-2024 12:00:00,12.9533,80.2357,PM10,26,115,48
India,TamilNadu,Chennai,"Perungudi, Chennai - TNPCB",25-03-2024 12:00:00,12.9533,80.2357,OZONE,3,8,6
India,TamilNadu,Chennai,"Royapuram, Chennai - TNPCB",25-03-2024 12:00:00,13.1036,80.2909,NO2,NA,NA,NA
India,TamilNadu,Chennai,"Royapuram, Chennai - TNPCB",25-03-2024 12:00:00,13.1036,80.2909,NH3,NA,NA,NA
India,TamilNadu,Chennai,"Royapuram, Chennai - TNPCB",25-03-2024 12:00:00,13.1036,80.2909,CO,24,24,24
India,TamilNadu,Chennai,"Royapuram, Chennai - TNPCB",25-03-2024 12:00:00,13.1036,80.2909,OZONE,9,11,11
India,TamilNadu,Chennai,"Velachery Res. Area, Chennai - CPCB",25-03-2024 12:00:00,13.0052189,80.2398125,NH3,5,11,7
India,TamilNadu,Chennai,"Velachery Res. Area, Chennai - CPCB",25-03-2024 12:00:00,13.0052189,80.2398125,SO2,10,11,11
India,TamilNadu,Chennai,"Velachery Res. Area, Chennai - CPCB",25-03-2024 12:00:00,13.0052189,80.2398125,CO,6,124,69
India,TamilNadu,Cuddalore,"Semmandalam, Cuddalore - TNPCB",25-03-2024 12:00:00,11.7637683,79.7499835,PM2.5,17,78,41
India,TamilNadu,Gummidipoondi,"Anthoni Pillai Nagar, Gummidipoondi - TNPCB",25-03-2024 12:00:00,13.4127,80.1081,PM10,50,132,79
India,TamilNadu,Kanchipuram,"Kilambi, Kanchipuram - TNPCB",25-03-2024 12:00:00,12.864618,79.659968,SO2,NA,NA,NA
India,TamilNadu,Ooty,"Bombay Castel, Ooty - TNPCB",25-03-2024 12:00:00,11.4068288,76.7138973,CO,18,22,22
India,TamilNadu,Palkalaiperur,"Bharathidasan University, Palkalaiperur - TNPCB",25-03-2024 12:00:00,10.681158,78.741746,SO2,NA,NA,NA
India,TamilNadu,Ramanathapuram,"Chalai Bazaar, Ramanathapuram - TNPCB",25-03-2024 12:00:00,9.36399,78.831977,PM10,36,83,58
India,TamilNadu,Ramanathapuram,"Chalai Bazaar, Ramanathapuram - TNPCB",25-03-2024 12:00:00,9.36399,78.831977,CO,2,8,4
India,TamilNadu,Salem,"Sona College of Technology, Salem - TNPCB",25-03-2024 12:00:00,11.679111,78.125052,OZONE,5,5,5
India,TamilNadu,Thoothukudi,"Meelavittan, Thoothukudi - TNPCB",25-03-2024 12:00:00,8.816428 ,78.099039,NO2,14,21,17
India,TamilNadu,Thoothukudi,"Meelavittan, Thoothukudi - TNPCB",25-03-2024 12:00:00,8.816428 ,78.099039,SO2,6,18,13
India,TamilNadu,Vellore,"Vasanthapuram, Vellore - TNPCB",25-03-2024 12:00:00,12.909494,79.131861,NH3,NA,NA,NA
India,TamilNadu,Virudhunagar,"Collectorate Office, Virudhunagar - TNPCB",25-03-2024 12:00:00,9.559382,77.948828,PM2.5,25,54,37
India,TamilNadu,Virudhunagar,"Collectorate Office, Virudhunagar - TNPCB",25-03-2024 12:00:00,9.559382,77.948828,NO2,2,11,5
India,TamilNadu,Virudhunagar,"Collectorate Office, Virudhunagar - TNPCB",25-03-2024 12:00:00,9.559382,77.948828,SO2,5,8,6
India,TamilNadu,Virudhunagar,"Collectorate Office, Virudhunagar - TNPCB",25-03-2024 12:00:00,9.559382,77.948828,OZONE,6,6,6
India,Telangana,Hyderabad,"Bollaram Industrial Area, Hyderabad - TSPCB",25-03-2024 12:00:00,17.540891,78.358528,CO,11,54,37
India,Telangana,Hyderabad,"Central University, Hyderabad - TSPCB",25-03-2024 12:00:00,17.460103,78.334361,NO2,13,43,30
India,Telangana,Hyderabad,"ICRISAT Patancheru, Hyderabad - TSPCB",25-03-2024 12:00:00,17.518400,78.278777,PM10,38,119,75
India,Telangana,Hyderabad,"ICRISAT Patancheru, Hyderabad - TSPCB",25-03-2024 12:00:00,17.518400,78.278777,NO2,16,17,17
India,Telangana,Hyderabad,"Kompally Municipal Office, Hyderabad - TSPCB",25-03-2024 12:00:00,17.544899,78.486949,SO2,9,18,13
India,Telangana,Hyderabad,"Nacharam_TSIIC IALA, Hyderabad - TSPCB",25-03-2024 12:00:00,17.429398,78.569354,PM2.5,NA,NA,NA
India,Telangana,Hyderabad,"New Malakpet, Hyderabad - TSPCB",25-03-2024 12:00:00,17.37206,78.50864,NO2,17,29,21
India,Telangana,Hyderabad,"New Malakpet, Hyderabad - TSPCB",25-03-2024 12:00:00,17.37206,78.50864,CO,NA,NA,NA
India,Telangana,Hyderabad,"Sanathnagar, Hyderabad - TSPCB",25-03-2024 12:00:00,17.4559458,78.4332152,SO2,3,16,7
India,Telangana,Hyderabad,"Somajiguda, Hyderabad - TSPCB",25-03-2024 12:00:00,17.417094,78.457437,PM2.5,37,72,52
India,Telangana,Hyderabad,"Somajiguda, Hyderabad - TSPCB",25-03-2024 12:00:00,17.417094,78.457437,PM10,69,83,75
India,Telangana,Hyderabad,"Zoo Park, Hyderabad - TSPCB",25-03-2024 12:00:00,17.349694,78.451437,PM2.5,55,115,73
India,Telangana,Hyderabad,"Zoo Park, Hyderabad - TSPCB",25-03-2024 12:00:00,17.349694,78.451437,PM10,82,158,145
India,Uttar_Pradesh,Agra,"Manoharpur, Agra - UPPCB",25-03-2024 12:00:00,27.23711,78.01936,PM2.5,26,323,144
India,Uttar_Pradesh,Agra,"Sanjay Palace, Agra - UPPCB",25-03-2024 12:00:00,27.19865833,78.00598056,CO,4,105,59
India,Uttar_Pradesh,Agra,"Sector-3B Avas Vikas Colony, Agra - UPPCB",25-03-2024 12:00:00,27.19412,77.96237,CO,10,44,33
India,Uttar_Pradesh,Agra,"Shahjahan Garden, Agra - UPPCB",25-03-2024 12:00:00,27.169338,78.03582,NO2,15,16,16
India,Uttar_Pradesh,Agra,"Shahjahan Garden, Agra - UPPCB",25-03-2024 12:00:00,27.169338,78.03582,SO2,36,68,59
India,Uttar_Pradesh,Agra,"Shahjahan Garden, Agra - UPPCB",25-03-2024 12:00:00,27.169338,78.03582,CO,16,67,50
India,Uttar_Pradesh,Agra,"Shastripuram, Agra - UPPCB",25-03-2024 12:00:00,27.19862,77.92066,PM10,24,158,119
India,Uttar_Pradesh,Agra,"Shastripuram, Agra - UPPCB",25-03-2024 12:00:00,27.19862,77.92066,CO,8,22,19
India,Uttar_Pradesh,Agra,"Shastripuram, Agra - UPPCB",25-03-2024 12:00:00,27.19862,77.92066,OZONE,1,14,6
India,Uttar_Pradesh,Bulandshahr,"Yamunapuram, Bulandshahr - UPPCB",25-03-2024 12:00:00,28.406963,77.849831,NO2,9,80,38
India,Uttar_Pradesh,Firozabad,"Nagla Bhau, Firozabad - UPPCB",25-03-2024 12:00:00,27.168897,78.376960,NH3,2,2,2
India,Uttar_Pradesh,Firozabad,"Nagla Bhau, Firozabad - UPPCB",25-03-2024 12:00:00,27.168897,78.376960,SO2,13,21,18
India,Uttar_Pradesh,Firozabad,"Vibhab Nagar, Firozabad - UPPCB",25-03-2024 12:00:00,27.1594,78.3953,PM10,NA,NA,NA
India,Uttar_Pradesh,Ghaziabad,"Indirapuram, Ghaziabad - UPPCB",25-03-2024 12:00:00,28.646233,77.358075,PM2.5,28,359,132
India,Uttar_Pradesh,Ghaziabad,"Loni, Ghaziabad - UPPCB",25-03-2024 12:00:00,28.757294,77.278792,PM2.5,15,460,156
India,Uttar_Pradesh,Ghaziabad,"Loni, Ghaziabad - UPPCB",25-03-2024 12:00:00,28.757294,77.278792,CO,5,115,68
India,Uttar_Pradesh,Ghaziabad,"Sanjay Nagar, Ghaziabad - UPPCB",25-03-2024 12:00:00,28.685382,77.453839,PM2.5,18,402,159
India,Uttar_Pradesh,Ghaziabad,"Sanjay Nagar, Ghaziabad - UPPCB",25-03-2024 12:00:00,28.685382,77.453839,NO2,19,99,50
India,Uttar_Pradesh,Ghaziabad,"Sanjay Nagar, Ghaziabad - UPPCB",25-03-2024 12:00:00,28.685382,77.453839,OZONE,3,49,16
India,Uttar_Pradesh,Ghaziabad,"Vasundhara, Ghaziabad - UPPCB",25-03-2024 12:00:00,28.6603346,77.3572563,NH3,10,27,15
India,Uttar_Pradesh,Ghaziabad,"Vasundhara, Ghaziabad - UPPCB",25-03-2024 12:00:00,28.6603346,77.3572563,SO2,4,106,45
India,Uttar_Pradesh,Gorakhpur,"Madan Mohan Malaviya University of Technology, Gorakhpur - UPPCB",25-03-2024 12:00:00,26.730136,83.433859,CO,20,32,30
India,Uttar_Pradesh,Greater Noida,"Knowledge Park - V, Greater Noida - UPPCB",25-03-2024 12:00:00,28.557054,77.453663,PM2.5,43,465,202
India,Uttar_Pradesh,Greater Noida,"Knowledge Park - V, Greater Noida - UPPCB",25-03-2024 12:00:00,28.557054,77.453663,NH3,4,6,5
India,Uttar_Pradesh,Hapur,"Anand Vihar, Hapur - UPPCB",25-03-2024 12:00:00,28.725645,77.749675,PM2.5,26,268,131
India,Uttar_Pradesh,Hapur,"Anand Vihar, Hapur - UPPCB",25-03-2024 12:00:00,28.725645,77.749675,CO,12,79,70
India,Uttar_Pradesh,Jhansi,"Shivaji Nagar, Jhansi - UPPCB",25-03-2024 12:00:00,25.4547,78.6039,OZONE,5,15,11
India,Uttar_Pradesh,Kanpur,"FTI Kidwai Nagar, Kanpur - UPPCB",25-03-2024 12:00:00,26.428282,80.327067,SO2,22,22,22
India,Uttar_Pradesh,Kanpur,"Nehru Nagar, Kanpur - UPPCB",25-03-2024 12:00:00,26.4703136,80.3229863,SO2,7,10,9
India,Uttar_Pradesh,Kanpur,"Nehru Nagar, Kanpur - UPPCB",25-03-2024 12:00:00,26.4703136,80.3229863,CO,40,59,52
India,Uttar_Pradesh,Khurja,"Kalindi Kunj, Khurja - UPPCB",25-03-2024 12:00:00,28.2348927,77.8683002,PM10,40,123,86
India,Uttar_Pradesh,Lucknow,"B R Ambedkar University, Lucknow - UPPCB",25-03-2024 12:00:00,26.766433,80.927299,PM10,68,241,148
India,Uttar_Pradesh,Lucknow,"Kendriya Vidyalaya, Lucknow - CPCB",25-03-2024 12:00:00,26.906111,80.948222,OZONE,6,56,30
India,Uttar_Pradesh,Lucknow,"Kukrail Picnic Spot-1, Lucknow - UPPCB",25-03-2024 12:00:00,26.90723,80.98579,PM10,63,193,118
India,Uttar_Pradesh,Lucknow,"Kukrail Picnic Spot-1, Lucknow - UPPCB",25-03-2024 12:00:00,26.90723,80.98579,NH3,2,2,2
India,Uttar_Pradesh,Lucknow,"Lalbagh, Lucknow - CPCB",25-03-2024 12:00:00,26.8458805,80.9365541,PM2.5,44,324,191
India,Uttar_Pradesh,Lucknow,"Lalbagh, Lucknow - CPCB",25-03-2024 12:00:00,26.8458805,80.9365541,PM10,98,228,164
India,Uttar_Pradesh,Lucknow,"Talkatora District Industries Center, Lucknow - CPCB",25-03-2024 12:00:00,26.83399722,80.8917361,NH3,NA,NA,NA
India,Uttar_Pradesh,Lucknow,"Talkatora District Industries Center, Lucknow - CPCB",25-03-2024 12:00:00,26.83399722,80.8917361,OZONE,NA,NA,NA
India,Uttar_Pradesh,Meerut,"Ganga Nagar, Meerut - UPPCB",25-03-2024 12:00:00,28.999264,77.7590354,NH3,6,10,8
India,Uttar_Pradesh,Meerut,"Ganga Nagar, Meerut - UPPCB",25-03-2024 12:00:00,28.999264,77.7590354,OZONE,1,42,17
India,Uttar_Pradesh,Meerut,"Pallavpuram Phase 2, Meerut - UPPCB",25-03-2024 12:00:00,29.063510,77.709723,PM2.5,25,208,107
India,Uttar_Pradesh,Moradabad,"Buddhi Vihar, Moradabad - UPPCB",25-03-2024 12:00:00,28.83526,78.74460,OZONE,11,35,15
India,Uttar_Pradesh,Moradabad,"Employment Office, Moradabad - UPPCB",25-03-2024 12:00:00,28.88528,78.73880,PM2.5,55,116,86
India,Uttar_Pradesh,Moradabad,"Employment Office, Moradabad - UPPCB",25-03-2024 12:00:00,28.88528,78.73880,PM10,94,140,118
India,Uttar_Pradesh,Moradabad,"Employment Office, Moradabad - UPPCB",25-03-2024 12:00:00,28.88528,78.73880,NH3,3,4,4
India,Uttar_Pradesh,Moradabad,"Transport Nagar, Moradabad - UPPCB",25-03-2024 12:00:00,28.802625,78.753728,PM2.5,51,168,101
India,Uttar_Pradesh,Muzaffarnagar,"New Mandi, Muzaffarnagar - UPPCB",25-03-2024 12:00:00,29.4723508,77.7194031,OZONE,10,73,35
India,Uttar_Pradesh,Noida,"Sector - 62, Noida - IMD",25-03-2024 12:00:00,28.6245479,77.3577104,OZONE,11,32,20
India,Uttar_Pradesh,Noida,"Sector-1, Noida - UPPCB",25-03-2024 12:00:00,28.5898,77.3101,NO2,24,93,55
India,Uttar_Pradesh,Noida,"Sector-116, Noida - UPPCB",25-03-2024 12:00:00,28.569230,77.393848,NO2,14,93,49
India,Uttar_Pradesh,Prayagraj,"Jhunsi, Prayagraj - UPPCB",25-03-2024 12:00:00,25.425602,81.917152,NO2,6,6,6
India,Uttar_Pradesh,Prayagraj,"Nagar Nigam, Prayagraj - UPPCB",25-03-2024 12:00:00,25.44919916 ,81.82735986 ,CO,12,82,69
India,Uttar_Pradesh,Varanasi,"Ardhali Bazar, Varanasi - UPPCB",25-03-2024 12:00:00,25.3505986,82.9083074,SO2,1,20,5
India,Uttar_Pradesh,Varanasi,"IESD Banaras Hindu University, Varanasi - UPPCB",25-03-2024 12:00:00,25.262326,82.995408,NH3,1,2,2
India,Uttar_Pradesh,Varanasi,"Maldahiya, Varanasi - UPPCB",25-03-2024 12:00:00,25.32393,82.99687,NH3,1,3,1
India,Uttar_Pradesh,Vrindavan,"Omex Eternity, Vrindavan - UPPCB",25-03-2024 12:00:00,27.5714090,77.6557570,NO2,2,3,3
India,Uttarakhand,Dehradun,"Doon University, Dehradun - UKPCB",25-03-2024 12:00:00,30.269444,78.044167,PM10,32,135,95
India,Uttarakhand,Dehradun,"Doon University, Dehradun - UKPCB",25-03-2024 12:00:00,30.269444,78.044167,OZONE,14,100,46
India,Uttarakhand,Kashipur,"Govt. Girls Inter College, Kashipur - UKPCB",25-03-2024 12:00:00,29.2124114,78.9611753,OZONE,6,53,13
India,Uttarakhand,Rishikesh,"Shivaji Nagar, Rishikesh - UKPCB",25-03-2024 12:00:00,30.075911,78.2859547,PM10,56,106,77
India,Uttarakhand,Rishikesh,"Shivaji Nagar, Rishikesh - UKPCB",25-03-2024 12:00:00,30.075911,78.2859547,NO2,7,37,18
India,Uttarakhand,Rishikesh,"Shivaji Nagar, Rishikesh - UKPCB",25-03-2024 12:00:00,30.075911,78.2859547,OZONE,10,78,27
India,West_Bengal,Barrackpore,"SVSPA Campus, Barrackpore - WBPCB",25-03-2024 12:00:00,22.7605581,88.3617589,SO2,4,15,8
India,West_Bengal,Haldia,"Priyambada Housing Estate, Haldia - WBPCB",25-03-2024 12:00:00,22.06047,88.109737,PM2.5,13,41,21
India,West_Bengal,Howrah,"Belur Math, Howrah - WBPCB",25-03-2024 12:00:00,22.629801,88.352017,CO,2,18,5
India,West_Bengal,Howrah,"Ghusuri, Howrah - WBPCB",25-03-2024 12:00:00,22.611968,88.347422,PM2.5,51,102,78
India,West_Bengal,Howrah,"Padmapukur, Howrah - WBPCB",25-03-2024 12:00:00,22.5687319,88.2797276,CO,6,56,28
India,West_Bengal,Howrah,"Padmapukur, Howrah - WBPCB",25-03-2024 12:00:00,22.5687319,88.2797276,OZONE,3,56,10
India,West_Bengal,Kolkata,"Ballygunge, Kolkata - WBPCB",25-03-2024 12:00:00,22.5367507,88.3638022,PM10,38,82,57
India,West_Bengal,Kolkata,"Fort William, Kolkata - WBPCB",25-03-2024 12:00:00,22.556640,88.342674,PM2.5,30,72,47
India,West_Bengal,Kolkata,"Fort William, Kolkata - WBPCB",25-03-2024 12:00:00,22.556640,88.342674,OZONE,20,43,36
India,West_Bengal,Kolkata,"Rabindra Bharati University, Kolkata - WBPCB",25-03-2024 12:00:00,22.627847,88.380669,PM10,40,82,59
India,West_Bengal,Kolkata,"Rabindra Sarobar, Kolkata - WBPCB",25-03-2024 12:00:00,22.51106,88.35142,NO2,8,25,16
India,West_Bengal,Kolkata,"Rabindra Sarobar, Kolkata - WBPCB",25-03-2024 12:00:00,22.51106,88.35142,CO,10,22,12
India,West_Bengal,Kolkata,"Victoria, Kolkata - WBPCB",25-03-2024 12:00:00,22.5448082,88.3403691,NH3,2,3,2
India,West_Bengal,Kolkata,"Victoria, Kolkata - WBPCB",25-03-2024 12:00:00,22.5448082,88.3403691,CO,12,23,14
India,West_Bengal,Siliguri,"Ward-32 Bapupara, Siliguri - WBPCB",25-03-2024 12:00:00,26.6879226,88.4152495,PM2.5,35,90,60
India,West_Bengal,Siliguri,"Ward-32 Bapupara, Siliguri - WBPCB",25-03-2024 12:00:00,26.6879226,88.4152495,NH3,4,19,13
India,West_Bengal,Siliguri,"Ward-32 Bapupara, Siliguri - WBPCB",25-03-2024 12:00:00,26.6879226,88.4152495,CO,17,76,23
India,West_Bengal,Siliguri,"Ward-32 Bapupara, Siliguri - WBPCB",25-03-2024 12:00:00,26.6879226,88.4152495,OZONE,14,48,27
India,Andhra_Pradesh,Amaravati,"Secretariat, Amaravati - APPCB",25-03-2024 12:00:00,16.5150833,80.5181667,PM2.5,14,37,24
India,Andhra_Pradesh,Amaravati,"Secretariat, Amaravati - APPCB",25-03-2024 12:00:00,16.5150833,80.5181667,CO,6,128,30
India,Andhra_Pradesh,Anantapur,"Gulzarpet, Anantapur - APPCB",25-03-2024 12:00:00,14.675886,77.593027,PM2.5,NA,NA,NA
India,Andhra_Pradesh,Anantapur,"Gulzarpet, Anantapur - APPCB",25-03-2024 12:00:00,14.675886,77.593027,PM10,NA,NA,NA
India,Andhra_Pradesh,Anantapur,"Gulzarpet, Anantapur - APPCB",25-03-2024 12:00:00,14.675886,77.593027,NO2,16,28,21
India,Andhra_Pradesh,Kadapa,"Yerramukkapalli, Kadapa - APPCB",25-03-2024 12:00:00,14.465052,78.824187,CO,10,20,16
India,Andhra_Pradesh,Rajamahendravaram,"Anand Kala Kshetram, Rajamahendravaram - APPCB",25-03-2024 12:00:00,16.9872867,81.7363176,PM2.5,25,51,35
India,Andhra_Pradesh,Rajamahendravaram,"Anand Kala Kshetram, Rajamahendravaram - APPCB",25-03-2024 12:00:00,16.9872867,81.7363176,NO2,10,21,15
India,Andhra_Pradesh,Rajamahendravaram,"Anand Kala Kshetram, Rajamahendravaram - APPCB",25-03-2024 12:00:00,16.9872867,81.7363176,NH3,3,4,3
India,Andhra_Pradesh,Rajamahendravaram,"Anand Kala Kshetram, Rajamahendravaram - APPCB",25-03-2024 12:00:00,16.9872867,81.7363176,OZONE,14,30,20
India,Andhra_Pradesh,Vijayawada,"HB Colony, Vijayawada - APPCB",25-03-2024 12:00:00,16.536107,80.594233,CO,32,47,35
India,Andhra_Pradesh,Vijayawada,"Kanuru, Vijayawada - APPCB",25-03-2024 12:00:00,16.486692,80.699436,OZONE,28,28,28
India,Andhra_Pradesh,Vijayawada,"Rajiv Gandhi Park, Vijayawada - APPCB",25-03-2024 12:00:00,16.509717,80.612222,NH3,3,7,6
India,Andhra_Pradesh,Vijayawada,"Rajiv Nagar, Vijayawada - APPCB",25-03-2024 12:00:00,16.554731,80.649110,PM2.5,43,49,45
India,Andhra_Pradesh,Vijayawada,"Rajiv Nagar, Vijayawada - APPCB",25-03-2024 12:00:00,16.554731,80.649110,OZONE,7,35,12
India,Andhra_Pradesh,Visakhapatnam,"GVM Corporation, Visakhapatnam - APPCB",25-03-2024 12:00:00,17.72,83.3,NH3,3,6,4
India,Arunachal_Pradesh,Naharlagun,"Naharlagun, Naharlagun - APSPCB",25-03-2024 12:00:00,27.103358,93.679645,PM10,26,100,56
India,Arunachal_Pradesh,Naharlagun,"Naharlagun, Naharlagun - APSPCB",25-03-2024 12:00:00,27.103358,93.679645,CO,10,33,14
India,Assam,Guwahati,"IITG, Guwahati - PCBA",25-03-2024 12:00:00,26.2028636,91.70046436,CO,10,20,17
India,Assam,Guwahati,"LGBI Airport, Guwahati - PCBA",25-03-2024 12:00:00,26.10887,91.589544,SO2,4,10,6
India,Assam,Nalbari,"Bata Chowk, Nalbari - PCBA",25-03-2024 12:00:00,26.446912,91.439057,PM10,86,432,156
India,Assam,Silchar,"Tarapur, Silchar - PCBA",25-03-2024 12:00:00,24.82827,92.79525,OZONE,3,3,3
India,Assam,Sivasagar,"Girls College, Sivasagar - PCBA",25-03-2024 12:00:00,26.987634,94.636574,PM2.5,40,59,50
India,Assam,Sivasagar,"Girls College, Sivasagar - PCBA",25-03-2024 12:00:00,26.987634,94.636574,OZONE,1,8,3
India,Bihar,Araria,"Kharahiya Basti, Araria - BSPCB",25-03-2024 12:00:00,26.146529,87.454184,NH3,7,7,7
India,Bihar,Aurangabad,"Gurdeo Nagar, Aurangabad - BSPCB",25-03-2024 12:00:00,24.75746,84.366208,OZONE,7,55,14
India,Bihar,Chhapra,"Darshan Nagar, Chhapra - BSPCB",25-03-2024 12:00:00,25.7808257,84.7446768,OZONE,1,9,2
India,Bihar,Hajipur,"Industrial Area, Hajipur - BSPCB",25-03-2024 12:00:00,25.697189,85.245900,PM2.5,38,86,62
India,Bihar,Katihar,"Mirchaibari, Katihar - BSPCB",25-03-2024 12:00:00,25.560083,87.553265,NO2,11,28,15
India,Bihar,Kishanganj,"SDM Office_Khagra, Kishanganj - BSPCB",25-03-2024 12:00:00,26.0881305,87.93840336,PM10,NA,NA,NA
India,Bihar,Motihari,"Gandak Colony, Motihari - BSPCB",25-03-2024 12:00:00,26.63086,84.90051,PM2.5,37,67,49
India,Bihar,Motihari,"Gandak Colony, Motihari - BSPCB",25-03-2024 12:00:00,26.63086,84.90051,SO2,1,4,2
India,Bihar,Munger,"Town Hall, Munger - BSPCB",25-03-2024 12:00:00,25.376776,86.471523,PM2.5,88,163,116
India,Bihar,Munger,"Town Hall, Munger - BSPCB",25-03-2024 12:00:00,25.376776,86.471523,PM10,104,139,119
India,Bihar,Muzaffarpur,"Buddha Colony, Muzaffarpur - BSPCB",25-03-2024 12:00:00,26.11442,85.39813,NH3,15,33,18
India,Bihar,Muzaffarpur,"MIT-Daudpur Kothi, Muzaffarpur - BSPCB",25-03-2024 12:00:00,26.1403345,85.3650192,NH3,1,3,2
India,Bihar,Muzaffarpur,"Muzaffarpur Collectorate, Muzaffarpur - BSPCB",25-03-2024 12:00:00,26.1209,85.3647,PM2.5,72,178,118
India,Bihar,Patna,"DRM Office Danapur, Patna - BSPCB",25-03-2024 12:00:00,25.586562,85.043586,PM10,123,153,141
India,Bihar,Purnia,"Mariam Nagar, Purnia - BSPCB",25-03-2024 12:00:00,25.366336,87.117468,PM10,76,161,110
India,Bihar,Rajgir,"Dangi Tola, Rajgir - BSPCB",25-03-2024 12:00:00,25.03280,85.41948,NH3,1,2,1
India,Bihar,Saharsa,"Police Line, Saharsa - BSPCB",25-03-2024 12:00:00,25.892357,86.590325,SO2,16,16,16
India,Bihar,Samastipur,"DM Office_Kasipur, Samastipur - BSPCB",25-03-2024 12:00:00,25.859655,85.77944,PM10,NA,NA,NA
India,Bihar,Samastipur,"DM Office_Kasipur, Samastipur - BSPCB",25-03-2024 12:00:00,25.859655,85.77944,NO2,33,45,39
India,Bihar,Samastipur,"DM Office_Kasipur, Samastipur - BSPCB",25-03-2024 12:00:00,25.859655,85.77944,CO,8,30,26
India,Bihar,Sasaram,"Dada Peer, Sasaram - BSPCB",25-03-2024 12:00:00,24.952822,84.002396,NH3,NA,NA,NA
India,Chandigarh,Chandigarh,"Sector 22, Chandigarh - CPCC",25-03-2024 12:00:00,30.735567,76.775714,PM2.5,20,117,69
India,Chandigarh,Chandigarh,"Sector 22, Chandigarh - CPCC",25-03-2024 12:00:00,30.735567,76.775714,NH3,6,10,7
India,Chandigarh,Chandigarh,"Sector-25, Chandigarh - CPCC",25-03-2024 12:00:00,30.751462,76.762879,PM10,100,148,117
India,Chandigarh,Chandigarh,"Sector-25, Chandigarh - CPCC",25-03-2024 12:00:00,30.751462,76.762879,NO2,9,31,16
India,Chhattisgarh,Bhilai,"32Bungalows, Bhilai - CECB",25-03-2024 12:00:00,21.194815,81.314770,OZONE,4,26,5
India,Chhattisgarh,Chhal,"Nawapara SECL Colony, Chhal - CECB",25-03-2024 12:00:00,22.118125,83.140608,PM10,89,129,105
India,Chhattisgarh,Chhal,"Nawapara SECL Colony, Chhal - CECB",25-03-2024 12:00:00,22.118125,83.140608,SO2,12,75,27
India,Chhattisgarh,Chhal,"Nawapara SECL Colony, Chhal - CECB",25-03-2024 12:00:00,22.118125,83.140608,CO,28,102,59
India,Chhattisgarh,Korba,"Urja Nagar, Korba - CECB",25-03-2024 12:00:00,22.348441,82.549611,PM10,18,184,88
India,Chhattisgarh,Raipur,"Bhatagaon New ISBT, Raipur - CECB",25-03-2024 12:00:00,21.219665,81.630094,PM2.5,16,79,51
India,Chhattisgarh,Raipur,"Bhatagaon New ISBT, Raipur - CECB",25-03-2024 12:00:00,21.219665,81.630094,NH3,2,3,3
India,Chhattisgarh,Raipur,"Bhatagaon New ISBT, Raipur - CECB",25-03-2024 12:00:00,21.219665,81.630094,SO2,1,3,2
India,Chhattisgarh,Raipur,"Bhatagaon New ISBT, Raipur - CECB",25-03-2024 12:00:00,21.219665,81.630094,CO,26,69,49
India,Chhattisgarh,Raipur,"Bhatagaon New ISBT, Raipur - CECB",25-03-2024 12:00:00,21.219665,81.630094,OZONE,3,9,4
India,Chhattisgarh,Raipur,"Siltara Phase-II, Raipur - CECB",25-03-2024 12:00:00,21.371751,81.664929,PM10,22,162,99
India,Chhattisgarh,Raipur,"Siltara Phase-II, Raipur - CECB",25-03-2024 12:00:00,21.371751,81.664929,NH3,3,3,3
India,Chhattisgarh,Raipur,"Siltara Phase-II, Raipur - CECB",25-03-2024 12:00:00,21.371751,81.664929,OZONE,3,59,5
India,Chhattisgarh,Tumidih,"OP Jindal Industrial Park, Tumidih - CECB",25-03-2024 12:00:00,22.06631475,83.33820077,SO2,NA,NA,NA
India,Chhattisgarh,Tumidih,"OP Jindal Industrial Park, Tumidih - CECB",25-03-2024 12:00:00,22.06631475,83.33820077,OZONE,NA,NA,NA
India,Delhi,Delhi,"Alipur, Delhi - DPCC",25-03-2024 12:00:00,28.815329,77.153010,PM10,64,321,166
India,Delhi,Delhi,"Anand Vihar, Delhi - DPCC",25-03-2024 12:00:00,28.647622,77.3158090,PM2.5,12,413,200
India,Delhi,Delhi,"Anand Vihar, Delhi - DPCC",25-03-2024 12:00:00,28.647622,77.3158090,NH3,2,10,4
India,Delhi,Delhi,"Anand Vihar, Delhi - DPCC",25-03-2024 12:00:00,28.647622,77.3158090,SO2,29,36,32
India,Delhi,Delhi,"Anand Vihar, Delhi - DPCC",25-03-2024 12:00:00,28.647622,77.3158090,OZONE,NA,NA,NA
India,Delhi,Delhi,"Aya Nagar, Delhi - IMD",25-03-2024 12:00:00,28.4706914,77.1099364,PM2.5,NA,NA,NA
India,Delhi,Delhi,"Aya Nagar, Delhi - IMD",25-03-2024 12:00:00,28.4706914,77.1099364,CO,NA,NA,NA
India,Delhi,Delhi,"Aya Nagar, Delhi - IMD",25-03-2024 12:00:00,28.4706914,77.1099364,OZONE,NA,NA,NA
India,Delhi,Delhi,"Bawana, Delhi - DPCC",25-03-2024 12:00:00,28.776200,77.051074,NO2,8,49,26
India,Delhi,Delhi,"Burari Crossing, Delhi - IMD",25-03-2024 12:00:00,28.7256504,77.2011573,PM10,100,387,186
India,Delhi,Delhi,"CRRI Mathura Road, Delhi - IMD",25-03-2024 12:00:00,28.5512005,77.2735737,CO,26,100,84
India,Delhi,Delhi,"Chandni Chowk, Delhi - IITM",25-03-2024 12:00:00,28.656756,77.227234,PM2.5,124,382,243
India,Delhi,Delhi,"Chandni Chowk, Delhi - IITM",25-03-2024 12:00:00,28.656756,77.227234,NO2,12,120,40
India,Delhi,Delhi,"Chandni Chowk, Delhi - IITM",25-03-2024 12:00:00,28.656756,77.227234,SO2,8,47,27
India,Delhi,Delhi,"DTU, Delhi - CPCB",25-03-2024 12:00:00,28.7500499,77.1112615,NH3,8,12,10
India,Delhi,Delhi,"Dr. Karni Singh Shooting Range, Delhi - DPCC",25-03-2024 12:00:00,28.498571,77.264840,PM2.5,28,426,202
India,Delhi,Delhi,"Dr. Karni Singh Shooting Range, Delhi - DPCC",25-03-2024 12:00:00,28.498571,77.264840,NO2,22,115,59
India,Delhi,Delhi,"Dr. Karni Singh Shooting Range, Delhi - DPCC",25-03-2024 12:00:00,28.498571,77.264840,CO,23,104,60
India,Delhi,Delhi,"Dwarka-Sector 8, Delhi - DPCC ",25-03-2024 12:00:00,28.5710274,77.0719006,NO2,6,59,25
India,Delhi,Delhi,"Dwarka-Sector 8, Delhi - DPCC ",25-03-2024 12:00:00,28.5710274,77.0719006,OZONE,2,44,15
India,Delhi,Delhi,"IGI Airport (T3), Delhi - IMD",25-03-2024 12:00:00,28.5627763,77.1180053,CO,11,96,46
India,Delhi,Delhi,"IGI Airport (T3), Delhi - IMD",25-03-2024 12:00:00,28.5627763,77.1180053,OZONE,1,17,4
India,Delhi,Delhi,"IHBAS, Dilshad Garden, Delhi - CPCB",25-03-2024 12:00:00,28.6811736,77.3025234,PM2.5,60,218,98
India,Delhi,Delhi,"IHBAS, Dilshad Garden, Delhi - CPCB",25-03-2024 12:00:00,28.6811736,77.3025234,PM10,78,385,148
India,Delhi,Delhi,"ITO, Delhi - CPCB",25-03-2024 12:00:00,28.628624,77.241060,PM2.5,12,416,212
India,Delhi,Delhi,"ITO, Delhi - CPCB",25-03-2024 12:00:00,28.628624,77.241060,CO,19,111,58
India,Delhi,Delhi,"Jawaharlal Nehru Stadium, Delhi - DPCC",25-03-2024 12:00:00,28.580280,77.233829,SO2,16,63,37
India,Delhi,Delhi,"Jawaharlal Nehru Stadium, Delhi - DPCC",25-03-2024 12:00:00,28.580280,77.233829,CO,4,109,55
India,Delhi,Delhi,"Lodhi Road, Delhi - IMD",25-03-2024 12:00:00,28.5918245,77.2273074,PM10,67,186,125
India,Delhi,Delhi,"Lodhi Road, Delhi - IMD",25-03-2024 12:00:00,28.5918245,77.2273074,NO2,1,7,4
India,Delhi,Delhi,"Lodhi Road, Delhi - IMD",25-03-2024 12:00:00,28.5918245,77.2273074,OZONE,9,25,12
India,Delhi,Delhi,"Mandir Marg, Delhi - DPCC",25-03-2024 12:00:00,28.636429,77.201067,NO2,112,127,119
India,Delhi,Delhi,"Mandir Marg, Delhi - DPCC",25-03-2024 12:00:00,28.636429,77.201067,SO2,5,11,8
India,Delhi,Delhi,"Mandir Marg, Delhi - DPCC",25-03-2024 12:00:00,28.636429,77.201067,OZONE,1,9,5
India,Delhi,Delhi,"Mundka, Delhi - DPCC",25-03-2024 12:00:00,28.684678,77.076574,PM2.5,28,435,229
India,Delhi,Delhi,"Mundka, Delhi - DPCC",25-03-2024 12:00:00,28.684678,77.076574,NO2,18,82,44
India,Delhi,Delhi,"Najafgarh, Delhi - DPCC",25-03-2024 12:00:00,28.570173,76.933762,PM2.5,23,331,159
India,Delhi,Delhi,"Najafgarh, Delhi - DPCC",25-03-2024 12:00:00,28.570173,76.933762,NO2,3,15,8
India,Delhi,Delhi,"Narela, Delhi - DPCC",25-03-2024 12:00:00,28.822836,77.101981,PM2.5,33,399,216
India,Delhi,Delhi,"Nehru Nagar, Delhi - DPCC",25-03-2024 12:00:00,28.567890,77.250515,PM10,90,261,174
India,Delhi,Delhi,"Nehru Nagar, Delhi - DPCC",25-03-2024 12:00:00,28.567890,77.250515,OZONE,3,74,28
India,Delhi,Delhi,"New Moti Bagh, Delhi - MHUA",25-03-2024 12:00:00,28.57834,77.18400,PM2.5,24,424,218
India,Delhi,Delhi,"New Moti Bagh, Delhi - MHUA",25-03-2024 12:00:00,28.57834,77.18400,NO2,1,2,1
India,Delhi,Delhi,"North Campus, DU, Delhi - IMD",25-03-2024 12:00:00,28.6573814,77.1585447,CO,4,120,32
India,Delhi,Delhi,"North Campus, DU, Delhi - IMD",25-03-2024 12:00:00,28.6573814,77.1585447,OZONE,1,21,7
India,Delhi,Delhi,"Okhla Phase-2, Delhi - DPCC",25-03-2024 12:00:00,28.530785,77.271255,OZONE,11,77,33
India,Delhi,Delhi,"Patparganj, Delhi - DPCC",25-03-2024 12:00:00,28.623763,77.287209,NO2,18,60,34
India,Delhi,Delhi,"Patparganj, Delhi - DPCC",25-03-2024 12:00:00,28.623763,77.287209,SO2,16,21,18
India,Delhi,Delhi,"Punjabi Bagh, Delhi - DPCC",25-03-2024 12:00:00,28.674045,77.131023,NH3,5,6,6
India,Delhi,Delhi,"Pusa, Delhi - DPCC",25-03-2024 12:00:00,28.639652,77.146275,PM10,115,311,175
India,Delhi,Delhi,"Pusa, Delhi - DPCC",25-03-2024 12:00:00,28.639652,77.146275,NO2,30,110,61
India,Delhi,Delhi,"Pusa, Delhi - DPCC",25-03-2024 12:00:00,28.639652,77.146275,SO2,9,48,19
India,Delhi,Delhi,"Pusa, Delhi - DPCC",25-03-2024 12:00:00,28.639652,77.146275,CO,3,72,16
India,Delhi,Delhi,"Pusa, Delhi - DPCC",25-03-2024 12:00:00,28.639652,77.146275,OZONE,10,56,25
India,Delhi,Delhi,"R K Puram, Delhi - DPCC",25-03-2024 12:00:00,28.563262,77.186937,PM10,101,407,192
India,Delhi,Delhi,"Rohini, Delhi - DPCC",25-03-2024 12:00:00,28.732528,77.119920,PM10,91,416,209
India,Delhi,Delhi,"Rohini, Delhi - DPCC",25-03-2024 12:00:00,28.732528,77.119920,CO,14,102,40
India,Delhi,Delhi,"Shadipur, Delhi - CPCB",25-03-2024 12:00:00,28.6514781,77.1473105,NO2,35,55,42
India,Delhi,Delhi,"Sirifort, Delhi - CPCB",25-03-2024 12:00:00,28.5504249,77.2159377,OZONE,4,36,6
India,Delhi,Delhi,"Sonia Vihar, Delhi - DPCC",25-03-2024 12:00:00,28.710508,77.249485,PM2.5,32,426,186
India,Delhi,Delhi,"Sonia Vihar, Delhi - DPCC",25-03-2024 12:00:00,28.710508,77.249485,NO2,18,80,38
India,Delhi,Delhi,"Sri Aurobindo Marg, Delhi - DPCC",25-03-2024 12:00:00,28.531346,77.190156,PM10,99,399,185
India,Delhi,Delhi,"Vivek Vihar, Delhi - DPCC",25-03-2024 12:00:00,28.672342,77.315260,PM2.5,NA,NA,NA
India,Delhi,Delhi,"Vivek Vihar, Delhi - DPCC",25-03-2024 12:00:00,28.672342,77.315260,SO2,30,74,43
India,Delhi,Delhi,"Wazirpur, Delhi - DPCC",25-03-2024 12:00:00,28.699793,77.165453,CO,6,124,19
India,Delhi,Delhi,"Wazirpur, Delhi - DPCC",25-03-2024 12:00:00,28.699793,77.165453,OZONE,3,29,14
India,Gujarat,Ahmedabad,"Chandkheda, Ahmedabad - IITM",25-03-2024 12:00:00,23.107969,72.574648,PM10,64,284,103
India,Gujarat,Ahmedabad,"Chandkheda, Ahmedabad - IITM",25-03-2024 12:00:00,23.107969,72.574648,NH3,1,3,1
India,Gujarat,Ahmedabad,"Chandkheda, Ahmedabad - IITM",25-03-2024 12:00:00,23.107969,72.574648,SO2,5,42,15
India,Gujarat,Ahmedabad,"Gyaspur, Ahmedabad - IITM",25-03-2024 12:00:00,22.977134,72.553024,PM10,70,199,110
India,Gujarat,Ahmedabad,"Gyaspur, Ahmedabad - IITM",25-03-2024 12:00:00,22.977134,72.553024,SO2,4,6,4
India,Gujarat,Ahmedabad,"Gyaspur, Ahmedabad - IITM",25-03-2024 12:00:00,22.977134,72.553024,CO,18,76,25
India,Gujarat,Ahmedabad,"Raikhad, Ahmedabad - IITM",25-03-2024 12:00:00,23.020509,72.579261,PM2.5,39,444,116
India,Gujarat,Ahmedabad,"Rakhial, Ahmedabad - IITM",25-03-2024 12:00:00,23.016834,72.625775,PM10,60,152,96
India,Gujarat,Ahmedabad,"Rakhial, Ahmedabad - IITM",25-03-2024 12:00:00,23.016834,72.625775,NO2,13,77,30
India,Gujarat,Ahmedabad,"SAC ISRO Satellite, Ahmedabad - IITM",25-03-2024 12:00:00,23.023389,72.515201,OZONE,11,22,16
India,Gujarat,Ahmedabad,"SVPI Airport Hansol, Ahmedabad - IITM",25-03-2024 12:00:00,23.076793,72.627874,PM10,53,172,89
India,Gujarat,Ahmedabad,"SVPI Airport Hansol, Ahmedabad - IITM",25-03-2024 12:00:00,23.076793,72.627874,NH3,4,5,4
India,Gujarat,Ahmedabad,"Sardar Vallabhbhai Patel Stadium, Ahmedabad - IITM",25-03-2024 12:00:00,23.043070,72.562968,NH3,2,2,2
India,Gujarat,Ahmedabad,"Sardar Vallabhbhai Patel Stadium, Ahmedabad - IITM",25-03-2024 12:00:00,23.043070,72.562968,OZONE,15,24,19
India,Gujarat,Ankleshwar,"GIDC, Ankleshwar - GPCB",25-03-2024 12:00:00,21.613267,73.010555,PM10,60,79,72
India,Gujarat,Ankleshwar,"GIDC, Ankleshwar - GPCB",25-03-2024 12:00:00,21.613267,73.010555,NO2,36,37,37
India,Gujarat,Gandhinagar,"GIFT City, Gandhinagar - IITM",25-03-2024 12:00:00,23.163798,72.677768,SO2,8,12,9
India,Gujarat,Gandhinagar,"IIPHG Lekawada, Gandhinagar - IITM",25-03-2024 12:00:00,23.243639,72.68994,PM10,42,108,73
India,Gujarat,Gandhinagar,"IIPHG Lekawada, Gandhinagar - IITM",25-03-2024 12:00:00,23.243639,72.68994,NO2,37,54,41
India,Gujarat,Gandhinagar,"IIPHG Lekawada, Gandhinagar - IITM",25-03-2024 12:00:00,23.243639,72.68994,NH3,6,7,7
India,Gujarat,Gandhinagar,"Sector-10, Gandhinagar - GPCB",25-03-2024 12:00:00,23.221714,72.654328,CO,27,88,32
India,Gujarat,Surat,"Science Center, Surat - SMC",25-03-2024 12:00:00,21.170046,72.795405,PM10,8,64,38
India,Gujarat,Vapi,"Phase-1 GIDC, Vapi - GPCB",25-03-2024 12:00:00,20.362421,72.918013,NO2,6,7,6
India,Gujarat,Vatva,"Phase-4 GIDC, Vatva - GPCB",25-03-2024 12:00:00,22.969611,72.643500,NO2,31,184,67
India,Haryana,Ambala,"Patti Mehar, Ambala - HSPCB",25-03-2024 12:00:00,30.379589,76.778328,PM2.5,27,85,55
India,Haryana,Bahadurgarh,"Arya Nagar, Bahadurgarh - HSPCB",25-03-2024 12:00:00,28.6701,76.9254,NO2,33,45,36
India,Haryana,Bahadurgarh,"Arya Nagar, Bahadurgarh - HSPCB",25-03-2024 12:00:00,28.6701,76.9254,NH3,10,12,11
India,Haryana,Charkhi Dadri,"Mini Secretariat, Charkhi Dadri - HSPCB",25-03-2024 12:00:00,28.593883,76.270653,CO,17,86,36
India,Haryana,Dharuhera,"Municipal Corporation Office, Dharuhera -  HSPCB",25-03-2024 12:00:00,28.206800,76.799700,OZONE,31,42,41
India,Haryana,Faridabad,"New Industrial Town, Faridabad - HSPCB",25-03-2024 12:00:00,28.39072,77.30059,PM10,NA,NA,NA
India,Haryana,Faridabad,"New Industrial Town, Faridabad - HSPCB",25-03-2024 12:00:00,28.39072,77.30059,OZONE,33,53,43
India,Haryana,Faridabad,"Sector 11, Faridabad - HSPCB",25-03-2024 12:00:00,28.376058,77.315741,NO2,30,33,31
India,Haryana,Faridabad,"Sector 11, Faridabad - HSPCB",25-03-2024 12:00:00,28.376058,77.315741,SO2,5,119,17
India,Haryana,Faridabad,"Sector 30, Faridabad - HSPCB",25-03-2024 12:00:00,28.4417,77.3217,PM2.5,90,105,96
India,Haryana,Faridabad,"Sector 30, Faridabad - HSPCB",25-03-2024 12:00:00,28.4417,77.3217,NO2,30,32,31
India,Haryana,Faridabad,"Sector- 16A, Faridabad - HSPCB",25-03-2024 12:00:00,28.4088421,77.3099081,CO,2,96,41
India,Haryana,Gurugram,"Teri Gram, Gurugram - HSPCB",25-03-2024 12:00:00,28.4275,77.1465,NO2,22,42,33
India,Haryana,Gurugram,"Teri Gram, Gurugram - HSPCB",25-03-2024 12:00:00,28.4275,77.1465,NH3,50,75,61
India,Haryana,Hisar,"Urban Estate-II, Hisar - HSPCB",25-03-2024 12:00:00,29.140560,75.744941,NH3,8,13,11
India,Haryana,Hisar,"Urban Estate-II, Hisar - HSPCB",25-03-2024 12:00:00,29.140560,75.744941,SO2,NA,NA,NA
India,Haryana,Hisar,"Urban Estate-II, Hisar - HSPCB",25-03-2024 12:00:00,29.140560,75.744941,OZONE,15,92,44
India,Haryana,Jind,"Police Lines, Jind - HSPCB",25-03-2024 12:00:00,29.307814,76.337619,PM2.5,28,86,56
India,Haryana,Jind,"Police Lines, Jind - HSPCB",25-03-2024 12:00:00,29.307814,76.337619,CO,1,104,30
India,Haryana,Karnal,"Sector-12, Karnal - HSPCB",25-03-2024 12:00:00,29.695300,77.002700,CO,18,54,28
India,Haryana,Karnal,"Sector-12, Karnal - HSPCB",25-03-2024 12:00:00,29.695300,77.002700,OZONE,19,21,19
India,Haryana,Kurukshetra,"Sector-7, Kurukshetra - HSPCB",25-03-2024 12:00:00,29.966942,76.875879,PM2.5,33,77,55
India,Haryana,Kurukshetra,"Sector-7, Kurukshetra - HSPCB",25-03-2024 12:00:00,29.966942,76.875879,CO,5,68,15
India,Haryana,Mandikhera,"General Hospital, Mandikhera - HSPCB",25-03-2024 12:00:00,27.9002,76.9938,CO,17,31,29
India,Haryana,Narnaul,"Shastri Nagar, Narnaul - HSPCB",25-03-2024 12:00:00,28.060249,76.113115,PM10,29,90,57
India,Haryana,Narnaul,"Shastri Nagar, Narnaul - HSPCB",25-03-2024 12:00:00,28.060249,76.113115,NO2,12,75,35
India,Haryana,Narnaul,"Shastri Nagar, Narnaul - HSPCB",25-03-2024 12:00:00,28.060249,76.113115,CO,8,68,14
India,Haryana,Palwal,"Shyam Nagar, Palwal - HSPCB",25-03-2024 12:00:00,28.1485564,77.3320667,PM10,73,115,96
India,Haryana,Palwal,"Shyam Nagar, Palwal - HSPCB",25-03-2024 12:00:00,28.1485564,77.3320667,SO2,8,26,16
India,Haryana,Panchkula,"Sector-6, Panchkula - HSPCB ",25-03-2024 12:00:00,30.7057778,76.8531805555555,PM2.5,NA,NA,NA
India,Haryana,Panchkula,"Sector-6, Panchkula - HSPCB ",25-03-2024 12:00:00,30.7057778,76.8531805555555,NO2,28,30,29
India,Haryana,Panipat,"Sector-18, Panipat - HSPCB",25-03-2024 12:00:00,29.497973,76.993331,NO2,31,32,31
India,Haryana,Panipat,"Sector-18, Panipat - HSPCB",25-03-2024 12:00:00,29.497973,76.993331,SO2,18,19,19
India,Haryana,Rohtak,"MD University, Rohtak - HSPCB",25-03-2024 12:00:00,28.52123,76.37138,CO,NA,NA,NA
India,Haryana,Sirsa,"F-Block, Sirsa - HSPCB",25-03-2024 12:00:00,29.536400,75.015800,NO2,9,11,10
India,Haryana,Sonipat,"Murthal, Sonipat - HSPCB",25-03-2024 12:00:00,29.027200,77.062100,NH3,6,10,9
India,Haryana,Yamuna Nagar,"Gobind Pura, Yamuna Nagar - HSPCB",25-03-2024 12:00:00,30.1480566,77.2893471,PM10,NA,NA,NA
India,Haryana,Yamuna Nagar,"Gobind Pura, Yamuna Nagar - HSPCB",25-03-2024 12:00:00,30.1480566,77.2893471,NH3,NA,NA,NA
India,Jharkhand,Dhanbad,"Sardar Patel Nagar, Dhanbad - JSPCB",25-03-2024 12:00:00,23.80569,86.44268,PM10,71,220,127
India,Jharkhand,Dhanbad,"Sardar Patel Nagar, Dhanbad - JSPCB",25-03-2024 12:00:00,23.80569,86.44268,CO,115,151,151
India,Karnataka,Bengaluru,"BTM Layout, Bengaluru - CPCB",25-03-2024 12:00:00,12.9135218,77.5950804,SO2,10,10,10
India,Karnataka,Bengaluru,"BTM Layout, Bengaluru - CPCB",25-03-2024 12:00:00,12.9135218,77.5950804,OZONE,40,105,101
India,Karnataka,Bengaluru,"Hebbal, Bengaluru - KSPCB",25-03-2024 12:00:00,13.029152,77.585901,PM10,NA,NA,NA
India,Karnataka,Bengaluru,"Hombegowda Nagar, Bengaluru - KSPCB",25-03-2024 12:00:00,12.938539,77.590100,NO2,10,22,16
India,Karnataka,Bengaluru,"Hombegowda Nagar, Bengaluru - KSPCB",25-03-2024 12:00:00,12.938539,77.590100,NH3,1,2,1
India,Karnataka,Bengaluru,"Hombegowda Nagar, Bengaluru - KSPCB",25-03-2024 12:00:00,12.938539,77.590100,SO2,4,4,4
India,Karnataka,Bengaluru,"Jayanagar 5th Block, Bengaluru - KSPCB",25-03-2024 12:00:00,12.920984,77.584908,NH3,4,5,4
India,Karnataka,Bengaluru,"Jigani, Bengaluru - KSPCB",25-03-2024 12:00:00,12.7816279,77.6299145,SO2,16,16,16
India,Karnataka,Bengaluru,"Kasturi Nagar, Bengaluru - KSPCB",25-03-2024 12:00:00,13.003872,77.664217,SO2,10,10,10
India,Karnataka,Bengaluru,"RVCE-Mailasandra, Bengaluru - KSPCB",25-03-2024 12:00:00,12.921418,77.502466,NO2,16,17,17
India,Karnataka,Bengaluru,"Shivapura_Peenya, Bengaluru - KSPCB",25-03-2024 12:00:00,13.0246342,77.5080115,NO2,15,16,15
India,Karnataka,Bengaluru,"Silk Board, Bengaluru - KSPCB",25-03-2024 12:00:00,12.917348,77.622813,CO,10,56,28
India,Karnataka,Bidar,"Naubad, Bidar - KSPCB",25-03-2024 12:00:00,17.930306,77.482194,CO,56,96,69
India,Karnataka,Chamarajanagar,"Urban, Chamarajanagar - KSPCB",25-03-2024 12:00:00,11.55358,76.55521,SO2,4,8,6
India,Karnataka,Chikkaballapur,"Chikkaballapur Rural, Chikkaballapur - KSPCB",25-03-2024 12:00:00,13.428828,77.731418,PM10,48,103,65
India,Karnataka,Chikkaballapur,"Chikkaballapur Rural, Chikkaballapur - KSPCB",25-03-2024 12:00:00,13.428828,77.731418,NH3,1,1,1
India,Karnataka,Chikkamagaluru,"Kalyana Nagara, Chikkamagaluru - KSPCB",25-03-2024 12:00:00,13.328028,75.797056,PM10,22,57,32
India,Karnataka,Davanagere,"Devaraj Urs Badavane, Davanagere - KSPCB",25-03-2024 12:00:00,14.475800,75.905200,NH3,1,1,1
India,Karnataka,Davanagere,"Devaraj Urs Badavane, Davanagere - KSPCB",25-03-2024 12:00:00,14.475800,75.905200,CO,8,23,19
India,Karnataka,Dharwad,"Kalabhavan, Dharwad - KSPCB",25-03-2024 12:00:00,15.459706,75.008381,CO,1,14,2
India,Karnataka,Gadag,"Panchal Nagar, Gadag - KSPCB",25-03-2024 12:00:00,15.411456,75.638133,OZONE,60,78,62
India,Karnataka,Haveri,"Ashwini Nagar, Haveri - KSPCB",25-03-2024 12:00:00,14.791800,75.389600,OZONE,18,21,19
India,Karnataka,Hubballi,"Deshpande Nagar, Hubballi - KSPCB",25-03-2024 12:00:00,15.351773,75.140726,SO2,1,24,4
India,Karnataka,Hubballi,"Lingaraj Nagar, Hubballi - KSPCB",25-03-2024 12:00:00,15.3714823,75.1160168,CO,106,116,115
India,Karnataka,Kalaburagi,"Lal Bahadur Shastri Nagar, Kalaburagi - KSPCB",25-03-2024 12:00:00,17.321993,76.822628,PM2.5,50,98,71
India,Karnataka,Kalaburagi,"Mahatma Basaveswar Colony, Kalaburgi - KSPCB",25-03-2024 12:00:00,17.336318,76.847397,SO2,4,44,11
India,Karnataka,Karwar,"KHB Colony, Karwar - KSPCB",25-03-2024 12:00:00,14.816666,74.141003,CO,8,8,8
India,Karnataka,Koppal,"Diwator Nagar, Koppal - KSPCB",25-03-2024 12:00:00,15.347630,76.181767,NH3,NA,NA,NA
India,Karnataka,Madikeri,"Stuart Hill, Madikeri - KSPCB",25-03-2024 12:00:00,12.415911,75.735050,NO2,3,14,6
India,Karnataka,Madikeri,"Stuart Hill, Madikeri - KSPCB",25-03-2024 12:00:00,12.415911,75.735050,NH3,1,2,1
India,Karnataka,Madikeri,"Stuart Hill, Madikeri - KSPCB",25-03-2024 12:00:00,12.415911,75.735050,SO2,4,4,4
India,Karnataka,Mangalore,"Kadri, Mangalore - KSPCB",25-03-2024 12:00:00,12.889250,74.853000,SO2,22,24,23
India,Karnataka,Mysuru,"Hebbal 1st Stage, Mysuru - KSPCB",25-03-2024 12:00:00,12.21041,76.37376,CO,6,45,26
India,Karnataka,Ramanagara,"Vijay Nagar, Ramanagara - KSPCB",25-03-2024 12:00:00,12.733409,77.298051,PM2.5,20,95,48
India,Karnataka,Shivamogga,"Vinoba Nagara, Shivamogga - KSPCB",25-03-2024 12:00:00,13.940000,75.555917,PM2.5,17,62,26
India,Karnataka,Shivamogga,"Vinoba Nagara, Shivamogga - KSPCB",25-03-2024 12:00:00,13.940000,75.555917,NH3,2,4,3
India,Karnataka,Vijayapura,"Ibrahimpur, Vijayapura - KSPCB",25-03-2024 12:00:00,16.802639,75.722694,OZONE,13,16,15
India,Kerala,Eloor,"Udyogamandal, Eloor - Kerala PCB",25-03-2024 12:00:00,10.073232,76.302765,PM10,35,50,40
India,Kerala,Eloor,"Udyogamandal, Eloor - Kerala PCB",25-03-2024 12:00:00,10.073232,76.302765,NO2,4,4,4
India,Kerala,Eloor,"Udyogamandal, Eloor - Kerala PCB",25-03-2024 12:00:00,10.073232,76.302765,OZONE,11,20,15
