country,state,city,station,last_update,latitude,longitude,pollutant_id,pollutant_min,pollutant_max,pollutant_avg
India,Andhra_Pradesh,Amaravati,"Secretariat, Amaravati - APPCB",21-03-2024 00:00:00,16.5150833,80.5181667,NH3,4,5,5
India,Andhra_Pradesh,Anantapur,"Gulzarpet, Anantapur - APPCB",21-03-2024 00:00:00,14.675886,77.593027,PM2.5,NA,NA,NA
India,Andhra_Pradesh,Anantapur,"Gulzarpet, Anantapur - APPCB",21-03-2024 00:00:00,14.675886,77.593027,NO2,NA,NA,NA
India,Andhra_Pradesh,Anantapur,"Gulzarpet, Anantapur - APPCB",21-03-2024 00:00:00,14.675886,77.593027,CO,36,52,48
India,Andhra_Pradesh,Chittoor,"Gangineni Cheruvu, Chittoor - APPCB",21-03-2024 00:00:00,13.204880,79.097889,NH3,1,2,1
India,Andhra_Pradesh,Kadapa,"Yerramukkapalli, Kadapa - APPCB",21-03-2024 00:00:00,14.465052,78.824187,NO2,8,8,8
India,Andhra_Pradesh,Kadapa,"Yerramukkapalli, Kadapa - APPCB",21-03-2024 00:00:00,14.465052,78.824187,CO,10,22,14
India,Andhra_Pradesh,Rajamahendravaram,"Anand Kala Kshetram, Rajamahendravaram - APPCB",21-03-2024 00:00:00,16.9872867,81.7363176,SO2,8,11,11
India,Andhra_Pradesh,Rajamahendravaram,"Anand Kala Kshetram, Rajamahendravaram - APPCB",21-03-2024 00:00:00,16.9872867,81.7363176,CO,18,45,29
India,Andhra_Pradesh,Tirupati,"Tirumala, Tirupati - APPCB",21-03-2024 00:00:00,13.67,79.35,PM10,40,118,76
India,Andhra_Pradesh,Tirupati,"Tirumala, Tirupati - APPCB",21-03-2024 00:00:00,13.67,79.35,NO2,19,32,25
India,Andhra_Pradesh,Tirupati,"Vaikuntapuram, Tirupati - APPCB",21-03-2024 00:00:00,13.615387,79.409230,PM10,18,110,61
India,Andhra_Pradesh,Tirupati,"Vaikuntapuram, Tirupati - APPCB",21-03-2024 00:00:00,13.615387,79.409230,SO2,4,6,5
India,Andhra_Pradesh,Tirupati,"Vaikuntapuram, Tirupati - APPCB",21-03-2024 00:00:00,13.615387,79.409230,CO,9,18,12
India,Andhra_Pradesh,Vijayawada,"HB Colony, Vijayawada - APPCB",21-03-2024 00:00:00,16.536107,80.594233,PM10,65,105,89
India,Andhra_Pradesh,Vijayawada,"HB Colony, Vijayawada - APPCB",21-03-2024 00:00:00,16.536107,80.594233,NH3,4,4,4
India,Andhra_Pradesh,Vijayawada,"HB Colony, Vijayawada - APPCB",21-03-2024 00:00:00,16.536107,80.594233,SO2,3,4,4
India,Andhra_Pradesh,Vijayawada,"Kanuru, Vijayawada - APPCB",21-03-2024 00:00:00,16.486692,80.699436,CO,NA,NA,NA
India,Andhra_Pradesh,Vijayawada,"Rajiv Gandhi Park, Vijayawada - APPCB",21-03-2024 00:00:00,16.509717,80.612222,NO2,15,54,33
India,Andhra_Pradesh,Vijayawada,"Rajiv Gandhi Park, Vijayawada - APPCB",21-03-2024 00:00:00,16.509717,80.612222,NH3,5,7,6
India,Andhra_Pradesh,Vijayawada,"Rajiv Gandhi Park, Vijayawada - APPCB",21-03-2024 00:00:00,16.509717,80.612222,CO,36,54,41
India,Andhra_Pradesh,Vijayawada,"Rajiv Nagar, Vijayawada - APPCB",21-03-2024 00:00:00,16.554731,80.649110,NO2,6,9,7
India,Andhra_Pradesh,Visakhapatnam,"GVM Corporation, Visakhapatnam - APPCB",21-03-2024 00:00:00,17.72,83.3,PM10,55,162,95
India,Andhra_Pradesh,Visakhapatnam,"GVM Corporation, Visakhapatnam - APPCB",21-03-2024 00:00:00,17.72,83.3,NH3,3,6,4
India,Arunachal_Pradesh,Naharlagun,"Naharlagun, Naharlagun - APSPCB",21-03-2024 00:00:00,27.103358,93.679645,PM10,74,178,109
India,Assam,Byrnihat,"Central Academy for SFS, Byrnihat - PCBA",21-03-2024 00:00:00,26.071318,91.87488,NO2,34,55,44
India,Assam,Byrnihat,"Central Academy for SFS, Byrnihat - PCBA",21-03-2024 00:00:00,26.071318,91.87488,NH3,5,9,7
India,Assam,Byrnihat,"Central Academy for SFS, Byrnihat - PCBA",21-03-2024 00:00:00,26.071318,91.87488,CO,12,41,31
India,Assam,Guwahati,"IITG, Guwahati - PCBA",21-03-2024 00:00:00,26.2028636,91.70046436,PM2.5,257,376,315
India,Assam,Guwahati,"Pan Bazaar, Guwahati - PCBA",21-03-2024 00:00:00,26.187500,91.744194,NH3,5,7,6
India,Assam,Guwahati,"Railway Colony, Guwahati - PCBA",21-03-2024 00:00:00,26.181742,91.78063,PM2.5,1,394,210
India,Assam,Guwahati,"Railway Colony, Guwahati - PCBA",21-03-2024 00:00:00,26.181742,91.78063,NO2,3,4,3
India,Assam,Nagaon,"Christianpatty, Nagaon - PCBA",21-03-2024 00:00:00,26.349082,92.68449,PM10,23,90,56
India,Assam,Nalbari,"Bata Chowk, Nalbari - PCBA",21-03-2024 00:00:00,26.446912,91.439057,PM2.5,177,335,256
India,Assam,Nalbari,"Bata Chowk, Nalbari - PCBA",21-03-2024 00:00:00,26.446912,91.439057,SO2,6,16,12
India,Assam,Nalbari,"Bata Chowk, Nalbari - PCBA",21-03-2024 00:00:00,26.446912,91.439057,CO,33,138,111
India,Assam,Silchar,"Tarapur, Silchar - PCBA",21-03-2024 00:00:00,24.82827,92.79525,SO2,6,19,13
India,Assam,Sivasagar,"Girls College, Sivasagar - PCBA",21-03-2024 00:00:00,26.987634,94.636574,PM2.5,29,65,47
India,Bihar,Arrah,"New DM Office, Arrah - BSPCB",21-03-2024 00:00:00,25.5626095,84.663264,NO2,7,31,15
India,Bihar,Aurangabad,"Gurdeo Nagar, Aurangabad - BSPCB",21-03-2024 00:00:00,24.75746,84.366208,PM2.5,NA,NA,NA
India,Bihar,Aurangabad,"Gurdeo Nagar, Aurangabad - BSPCB",21-03-2024 00:00:00,24.75746,84.366208,SO2,1,11,7
India,Bihar,Aurangabad,"Gurdeo Nagar, Aurangabad - BSPCB",21-03-2024 00:00:00,24.75746,84.366208,OZONE,1,30,7
India,Bihar,Bettiah,"Kamalnath Nagar, Bettiah - BSPCB",21-03-2024 00:00:00,26.80365,84.51954,PM10,NA,NA,NA
India,Bihar,Bettiah,"Kamalnath Nagar, Bettiah - BSPCB",21-03-2024 00:00:00,26.80365,84.51954,SO2,11,25,18
India,Bihar,Bhagalpur,"Mayaganj, Bhagalpur - BSPCB",21-03-2024 00:00:00,25.265194,87.012947,PM10,NA,NA,NA
India,Bihar,Bhagalpur,"Mayaganj, Bhagalpur - BSPCB",21-03-2024 00:00:00,25.265194,87.012947,CO,8,10,9
India,Bihar,Buxar,"Charitra Van, Buxar - BSPCB (Formerly known as Central Jail)",21-03-2024 00:00:00,25.567520,83.966379,PM2.5,25,120,52
India,Bihar,Buxar,"Charitra Van, Buxar - BSPCB (Formerly known as Central Jail)",21-03-2024 00:00:00,25.567520,83.966379,NO2,1,1,1
India,Bihar,Buxar,"Charitra Van, Buxar - BSPCB (Formerly known as Central Jail)",21-03-2024 00:00:00,25.567520,83.966379,OZONE,18,67,50
India,Bihar,Chhapra,"Darshan Nagar, Chhapra - BSPCB",21-03-2024 00:00:00,25.7808257,84.7446768,OZONE,2,11,6
India,Bihar,Gaya,"Collectorate, Gaya - BSPCB",21-03-2024 00:00:00,24.7955,84.9994,PM2.5,35,142,71
India,Bihar,Gaya,"Kareemganj, Gaya - BSPCB",21-03-2024 00:00:00,24.792403,84.992416,OZONE,3,41,18
India,Bihar,Gaya,"SFTI Kusdihra, Gaya - BSPCB",21-03-2024 00:00:00,24.762518,84.982348,PM2.5,NA,NA,NA
India,Bihar,Gaya,"SFTI Kusdihra, Gaya - BSPCB",21-03-2024 00:00:00,24.762518,84.982348,CO,14,27,20
India,Bihar,Hajipur,"Industrial Area, Hajipur - BSPCB",21-03-2024 00:00:00,25.697189,85.245900,PM2.5,16,72,37
India,Bihar,Hajipur,"Industrial Area, Hajipur - BSPCB",21-03-2024 00:00:00,25.697189,85.245900,OZONE,7,124,62
India,Bihar,Katihar,"Mirchaibari, Katihar - BSPCB",21-03-2024 00:00:00,25.560083,87.553265,SO2,19,24,22
India,Bihar,Kishanganj,"SDM Office_Khagra, Kishanganj - BSPCB",21-03-2024 00:00:00,26.0881305,87.93840336,NH3,12,16,13
India,Bihar,Manguraha,"Forest Rest House, Manguraha - BSPCB",21-03-2024 00:00:00,27.308328,84.531742,SO2,NA,NA,NA
India,Bihar,Motihari,"Gandak Colony, Motihari - BSPCB",21-03-2024 00:00:00,26.63086,84.90051,NH3,4,16,10
India,Bihar,Munger,"Town Hall, Munger - BSPCB",21-03-2024 00:00:00,25.376776,86.471523,PM2.5,NA,NA,NA
India,Bihar,Munger,"Town Hall, Munger - BSPCB",21-03-2024 00:00:00,25.376776,86.471523,PM10,NA,NA,NA
India,Bihar,Muzaffarpur,"Muzaffarpur Collectorate, Muzaffarpur - BSPCB",21-03-2024 00:00:00,26.1209,85.3647,OZONE,5,28,12
India,Bihar,Patna,"Govt. High School Shikarpur, Patna - BSPCB",21-03-2024 00:00:00,25.592539,85.227158,PM2.5,30,85,57
India,Bihar,Patna,"Govt. High School Shikarpur, Patna - BSPCB",21-03-2024 00:00:00,25.592539,85.227158,OZONE,1,58,27
India,Bihar,Patna,"Muradpur, Patna - BSPCB",21-03-2024 00:00:00,25.619651,85.147382,SO2,7,12,9
India,Bihar,Patna,"Muradpur, Patna - BSPCB",21-03-2024 00:00:00,25.619651,85.147382,CO,12,43,24
India,Bihar,Patna,"Rajbansi Nagar, Patna - BSPCB",21-03-2024 00:00:00,25.599486,85.113666,SO2,4,16,9
India,Bihar,Patna,"Samanpura, Patna - BSPCB",21-03-2024 00:00:00,25.596727,85.085624,PM2.5,25,88,62
India,Bihar,Patna,"Samanpura, Patna - BSPCB",21-03-2024 00:00:00,25.596727,85.085624,PM10,60,140,96
India,Bihar,Purnia,"Mariam Nagar, Purnia - BSPCB",21-03-2024 00:00:00,25.366336,87.117468,SO2,NA,NA,NA
India,Bihar,Purnia,"Mariam Nagar, Purnia - BSPCB",21-03-2024 00:00:00,25.366336,87.117468,OZONE,10,21,17
India,Bihar,Rajgir,"Dangi Tola, Rajgir - BSPCB",21-03-2024 00:00:00,25.03280,85.41948,PM2.5,NA,NA,NA
India,Bihar,Rajgir,"Dangi Tola, Rajgir - BSPCB",21-03-2024 00:00:00,25.03280,85.41948,SO2,NA,NA,NA
India,Bihar,Saharsa,"Police Line, Saharsa - BSPCB",21-03-2024 00:00:00,25.892357,86.590325,NO2,NA,NA,NA
India,Bihar,Samastipur,"DM Office_Kasipur, Samastipur - BSPCB",21-03-2024 00:00:00,25.859655,85.77944,CO,14,32,26
India,Bihar,Sasaram,"Dada Peer, Sasaram - BSPCB",21-03-2024 00:00:00,24.952822,84.002396,PM2.5,5,81,26
India,Bihar,Sasaram,"Dada Peer, Sasaram - BSPCB",21-03-2024 00:00:00,24.952822,84.002396,PM10,14,130,47
India,Bihar,Sasaram,"Dada Peer, Sasaram - BSPCB",21-03-2024 00:00:00,24.952822,84.002396,SO2,20,23,22
India,Bihar,Sasaram,"Dada Peer, Sasaram - BSPCB",21-03-2024 00:00:00,24.952822,84.002396,CO,78,123,106
India,Bihar,Siwan,"Chitragupta Nagar, Siwan - BSPCB",21-03-2024 00:00:00,26.2271665,84.3570427,PM10,NA,NA,NA
India,Bihar,Siwan,"Chitragupta Nagar, Siwan - BSPCB",21-03-2024 00:00:00,26.2271665,84.3570427,SO2,NA,NA,NA
India,Chandigarh,Chandigarh,"Sector 22, Chandigarh - CPCC",21-03-2024 00:00:00,30.735567,76.775714,SO2,6,89,22
India,Chandigarh,Chandigarh,"Sector-25, Chandigarh - CPCC",21-03-2024 00:00:00,30.751462,76.762879,PM10,102,146,126
India,Chandigarh,Chandigarh,"Sector-25, Chandigarh - CPCC",21-03-2024 00:00:00,30.751462,76.762879,OZONE,1,55,35
India,Chandigarh,Chandigarh,"Sector-53, Chandigarh - CPCC",21-03-2024 00:00:00,30.719859,76.738637,NO2,31,78,57
India,Chhattisgarh,Bhilai,"Civic Center, Bhilai - Bhilai Steel Plant",21-03-2024 00:00:00,21.185571,81.343175,PM2.5,8,38,19
India,Chhattisgarh,Bhilai,"Civic Center, Bhilai - Bhilai Steel Plant",21-03-2024 00:00:00,21.185571,81.343175,CO,26,60,39
India,Chhattisgarh,Bhilai,"Hathkhoj, Bhilai - CECB",21-03-2024 00:00:00,21.224231,81.408350,OZONE,4,41,11
India,Chhattisgarh,Chhal,"Nawapara SECL Colony, Chhal - CECB",21-03-2024 00:00:00,22.118125,83.140608,PM2.5,NA,NA,NA
India,Chhattisgarh,Korba,"Rampur, Korba - CECB",21-03-2024 00:00:00,22.368195,82.746431,CO,14,18,15
India,Chhattisgarh,Korba,"Urja Nagar, Korba - CECB",21-03-2024 00:00:00,22.348441,82.549611,CO,15,52,28
India,Chhattisgarh,Kunjemura,"OP Jindal School, Kunjemura - CECB",21-03-2024 00:00:00,22.126650,83.483212,PM10,10,54,31
India,Chhattisgarh,Kunjemura,"OP Jindal School, Kunjemura - CECB",21-03-2024 00:00:00,22.126650,83.483212,SO2,4,35,11
India,Chhattisgarh,Raipur,"AIIMS, Raipur - CECB",21-03-2024 00:00:00,21.258815,81.578979,CO,22,40,37
India,Chhattisgarh,Raipur,"Bhatagaon New ISBT, Raipur - CECB",21-03-2024 00:00:00,21.219665,81.630094,PM10,12,61,27
India,Chhattisgarh,Raipur,"Bhatagaon New ISBT, Raipur - CECB",21-03-2024 00:00:00,21.219665,81.630094,CO,14,39,30
India,Chhattisgarh,Raipur,"Siltara Phase-II, Raipur - CECB",21-03-2024 00:00:00,21.371751,81.664929,NH3,3,3,3
India,Chhattisgarh,Raipur,"Siltara Phase-II, Raipur - CECB",21-03-2024 00:00:00,21.371751,81.664929,SO2,NA,NA,NA
India,Chhattisgarh,Tumidih,"OP Jindal Industrial Park, Tumidih - CECB",21-03-2024 00:00:00,22.06631475,83.33820077,NO2,NA,NA,NA
India,Delhi,Delhi,"Alipur, Delhi - DPCC",21-03-2024 00:00:00,28.815329,77.153010,PM2.5,39,322,191
India,Delhi,Delhi,"Ashok Vihar, Delhi - DPCC",21-03-2024 00:00:00,28.695381,77.181665,NO2,7,122,71
India,Delhi,Delhi,"Aya Nagar, Delhi - IMD",21-03-2024 00:00:00,28.4706914,77.1099364,NO2,17,32,25
India,Delhi,Delhi,"Bawana, Delhi - DPCC",21-03-2024 00:00:00,28.776200,77.051074,PM2.5,73,455,279
India,Delhi,Delhi,"Bawana, Delhi - DPCC",21-03-2024 00:00:00,28.776200,77.051074,PM10,120,426,250
India,Delhi,Delhi,"CRRI Mathura Road, Delhi - IMD",21-03-2024 00:00:00,28.5512005,77.2735737,NO2,4,65,32
India,Delhi,Delhi,"Chandni Chowk, Delhi - IITM",21-03-2024 00:00:00,28.656756,77.227234,PM2.5,NA,NA,NA
India,Delhi,Delhi,"Chandni Chowk, Delhi - IITM",21-03-2024 00:00:00,28.656756,77.227234,CO,60,110,97
India,Delhi,Delhi,"Chandni Chowk, Delhi - IITM",21-03-2024 00:00:00,28.656756,77.227234,OZONE,11,139,16
India,Delhi,Delhi,"DTU, Delhi - CPCB",21-03-2024 00:00:00,28.7500499,77.1112615,NO2,27,52,41
India,Delhi,Delhi,"Dwarka-Sector 8, Delhi - DPCC ",21-03-2024 00:00:00,28.5710274,77.0719006,PM10,110,500,325
India,Delhi,Delhi,"Dwarka-Sector 8, Delhi - DPCC ",21-03-2024 00:00:00,28.5710274,77.0719006,CO,20,132,67
India,Delhi,Delhi,"IGI Airport (T3), Delhi - IMD",21-03-2024 00:00:00,28.5627763,77.1180053,NO2,25,82,49
India,Delhi,Delhi,"IGI Airport (T3), Delhi - IMD",21-03-2024 00:00:00,28.5627763,77.1180053,OZONE,5,60,24
India,Delhi,Delhi,"IHBAS, Dilshad Garden, Delhi - CPCB",21-03-2024 00:00:00,28.6811736,77.3025234,OZONE,8,56,25
India,Delhi,Delhi,"ITO, Delhi - CPCB",21-03-2024 00:00:00,28.628624,77.241060,NO2,26,238,101
India,Delhi,Delhi,"Jahangirpuri, Delhi - DPCC",21-03-2024 00:00:00,28.732820,77.170633,PM10,74,483,301
India,Delhi,Delhi,"Jahangirpuri, Delhi - DPCC",21-03-2024 00:00:00,28.732820,77.170633,NO2,25,137,92
India,Delhi,Delhi,"Jahangirpuri, Delhi - DPCC",21-03-2024 00:00:00,28.732820,77.170633,NH3,9,18,12
India,Delhi,Delhi,"Jawaharlal Nehru Stadium, Delhi - DPCC",21-03-2024 00:00:00,28.580280,77.233829,PM2.5,31,338,165
India,Delhi,Delhi,"Lodhi Road, Delhi - IITM",21-03-2024 00:00:00,28.588333,77.221667,NH3,8,12,10
India,Delhi,Delhi,"Lodhi Road, Delhi - IITM",21-03-2024 00:00:00,28.588333,77.221667,SO2,21,38,27
India,Delhi,Delhi,"Lodhi Road, Delhi - IMD",21-03-2024 00:00:00,28.5918245,77.2273074,CO,12,40,16
India,Delhi,Delhi,"Lodhi Road, Delhi - IMD",21-03-2024 00:00:00,28.5918245,77.2273074,OZONE,9,43,26
India,Delhi,Delhi,"Mandir Marg, Delhi - DPCC",21-03-2024 00:00:00,28.636429,77.201067,NO2,118,148,133
India,Delhi,Delhi,"Mandir Marg, Delhi - DPCC",21-03-2024 00:00:00,28.636429,77.201067,CO,44,106,60
India,Delhi,Delhi,"Mundka, Delhi - DPCC",21-03-2024 00:00:00,28.684678,77.076574,PM10,120,437,289
India,Delhi,Delhi,"NSIT Dwarka, Delhi - CPCB",21-03-2024 00:00:00,28.60909,77.0325413,NH3,4,16,12
India,Delhi,Delhi,"Narela, Delhi - DPCC",21-03-2024 00:00:00,28.822836,77.101981,PM10,102,263,181
India,Delhi,Delhi,"Narela, Delhi - DPCC",21-03-2024 00:00:00,28.822836,77.101981,OZONE,8,185,90
India,Delhi,Delhi,"Nehru Nagar, Delhi - DPCC",21-03-2024 00:00:00,28.567890,77.250515,PM10,95,421,215
India,Delhi,Delhi,"Nehru Nagar, Delhi - DPCC",21-03-2024 00:00:00,28.567890,77.250515,SO2,11,47,17
India,Delhi,Delhi,"North Campus, DU, Delhi - IMD",21-03-2024 00:00:00,28.6573814,77.1585447,PM10,81,294,176
India,Delhi,Delhi,"North Campus, DU, Delhi - IMD",21-03-2024 00:00:00,28.6573814,77.1585447,OZONE,2,33,18
India,Delhi,Delhi,"Okhla Phase-2, Delhi - DPCC",21-03-2024 00:00:00,28.530785,77.271255,NO2,38,311,167
India,Delhi,Delhi,"Okhla Phase-2, Delhi - DPCC",21-03-2024 00:00:00,28.530785,77.271255,NH3,7,17,10
India,Delhi,Delhi,"Patparganj, Delhi - DPCC",21-03-2024 00:00:00,28.623763,77.287209,PM10,92,309,210
India,Delhi,Delhi,"Punjabi Bagh, Delhi - DPCC",21-03-2024 00:00:00,28.674045,77.131023,PM2.5,19,404,241
India,Delhi,Delhi,"Punjabi Bagh, Delhi - DPCC",21-03-2024 00:00:00,28.674045,77.131023,PM10,81,349,196
India,Delhi,Delhi,"Punjabi Bagh, Delhi - DPCC",21-03-2024 00:00:00,28.674045,77.131023,NO2,26,87,44
India,Delhi,Delhi,"Punjabi Bagh, Delhi - DPCC",21-03-2024 00:00:00,28.674045,77.131023,CO,36,104,63
India,Delhi,Delhi,"Pusa, Delhi - IMD",21-03-2024 00:00:00,28.636110,77.173332,PM2.5,NA,NA,NA
India,Delhi,Delhi,"Pusa, Delhi - IMD",21-03-2024 00:00:00,28.636110,77.173332,PM10,NA,NA,NA
India,Delhi,Delhi,"R K Puram, Delhi - DPCC",21-03-2024 00:00:00,28.563262,77.186937,PM2.5,63,397,245
India,Delhi,Delhi,"Rohini, Delhi - DPCC",21-03-2024 00:00:00,28.732528,77.119920,NH3,7,10,9
India,Delhi,Delhi,"Sirifort, Delhi - CPCB",21-03-2024 00:00:00,28.5504249,77.2159377,PM10,1,343,200
India,Delhi,Delhi,"Vivek Vihar, Delhi - DPCC",21-03-2024 00:00:00,28.672342,77.315260,OZONE,1,60,33
India,Delhi,Delhi,"Wazirpur, Delhi - DPCC",21-03-2024 00:00:00,28.699793,77.165453,NH3,9,11,10
India,Gujarat,Ahmedabad,"Chandkheda, Ahmedabad - IITM",21-03-2024 00:00:00,23.107969,72.574648,PM2.5,60,213,126
India,Gujarat,Ahmedabad,"Gyaspur, Ahmedabad - IITM",21-03-2024 00:00:00,22.977134,72.553024,PM2.5,105,314,219
India,Gujarat,Ahmedabad,"Gyaspur, Ahmedabad - IITM",21-03-2024 00:00:00,22.977134,72.553024,PM10,116,201,159
India,Gujarat,Ahmedabad,"Gyaspur, Ahmedabad - IITM",21-03-2024 00:00:00,22.977134,72.553024,CO,22,57,35
India,Gujarat,Ahmedabad,"Maninagar, Ahmedabad - GPCB",21-03-2024 00:00:00,23.002657,72.591912,SO2,1,14,6
India,Gujarat,Ahmedabad,"Maninagar, Ahmedabad - GPCB",21-03-2024 00:00:00,23.002657,72.591912,OZONE,4,43,16
India,Gujarat,Ahmedabad,"Raikhad, Ahmedabad - IITM",21-03-2024 00:00:00,23.020509,72.579261,PM2.5,45,335,183
India,Gujarat,Ahmedabad,"Raikhad, Ahmedabad - IITM",21-03-2024 00:00:00,23.020509,72.579261,NO2,16,151,65
India,Gujarat,Ahmedabad,"Raikhad, Ahmedabad - IITM",21-03-2024 00:00:00,23.020509,72.579261,SO2,3,9,6
India,Gujarat,Ahmedabad,"Rakhial, Ahmedabad - IITM",21-03-2024 00:00:00,23.016834,72.625775,NH3,1,24,18
India,Gujarat,Ahmedabad,"Rakhial, Ahmedabad - IITM",21-03-2024 00:00:00,23.016834,72.625775,SO2,4,10,7
India,Gujarat,Ahmedabad,"Rakhial, Ahmedabad - IITM",21-03-2024 00:00:00,23.016834,72.625775,OZONE,3,83,30
India,Gujarat,Ahmedabad,"SAC ISRO Satellite, Ahmedabad - IITM",21-03-2024 00:00:00,23.023389,72.515201,CO,22,25,24
India,Gujarat,Ahmedabad,"SVPI Airport Hansol, Ahmedabad - IITM",21-03-2024 00:00:00,23.076793,72.627874,PM2.5,26,151,84
India,Gujarat,Ahmedabad,"SVPI Airport Hansol, Ahmedabad - IITM",21-03-2024 00:00:00,23.076793,72.627874,SO2,2,8,3
India,Gujarat,Ahmedabad,"Sardar Vallabhbhai Patel Stadium, Ahmedabad - IITM",21-03-2024 00:00:00,23.043070,72.562968,NO2,1,18,12
India,Gujarat,Ahmedabad,"Sardar Vallabhbhai Patel Stadium, Ahmedabad - IITM",21-03-2024 00:00:00,23.043070,72.562968,NH3,2,2,2
India,Gujarat,Ahmedabad,"Sardar Vallabhbhai Patel Stadium, Ahmedabad - IITM",21-03-2024 00:00:00,23.043070,72.562968,OZONE,15,24,19
India,Gujarat,Gandhinagar,"GIFT City, Gandhinagar - IITM",21-03-2024 00:00:00,23.163798,72.677768,NH3,4,4,4
India,Gujarat,Gandhinagar,"Sector-10, Gandhinagar - GPCB",21-03-2024 00:00:00,23.221714,72.654328,PM2.5,29,73,48
India,Gujarat,Nandesari,"GIDC, Nandesari - Nandesari Ind. Association",21-03-2024 00:00:00,22.410802,73.097923,NO2,1,55,20
India,Gujarat,Nandesari,"GIDC, Nandesari - Nandesari Ind. Association",21-03-2024 00:00:00,22.410802,73.097923,SO2,5,20,13
India,Gujarat,Surat,"Science Center, Surat - SMC",21-03-2024 00:00:00,21.170046,72.795405,SO2,17,30,21
India,Gujarat,Surat,"Science Center, Surat - SMC",21-03-2024 00:00:00,21.170046,72.795405,CO,47,88,64
India,Gujarat,Vatva,"Phase-4 GIDC, Vatva - GPCB",21-03-2024 00:00:00,22.969611,72.643500,NH3,1,8,5
India,Haryana,Bahadurgarh,"Arya Nagar, Bahadurgarh - HSPCB",21-03-2024 00:00:00,28.6701,76.9254,NO2,31,39,36
India,Haryana,Ballabgarh,"Nathu Colony, Ballabgarh - HSPCB",21-03-2024 00:00:00,28.3419248,77.319699,PM10,127,427,246
India,Haryana,Ballabgarh,"Nathu Colony, Ballabgarh - HSPCB",21-03-2024 00:00:00,28.3419248,77.319699,NO2,12,13,12
India,Haryana,Ballabgarh,"Nathu Colony, Ballabgarh - HSPCB",21-03-2024 00:00:00,28.3419248,77.319699,NH3,1,2,2
India,Haryana,Ballabgarh,"Nathu Colony, Ballabgarh - HSPCB",21-03-2024 00:00:00,28.3419248,77.319699,CO,34,117,58
India,Haryana,Bhiwani,"H.B. Colony, Bhiwani - HSPCB",21-03-2024 00:00:00,28.806223,76.141105,PM10,57,111,83
India,Haryana,Charkhi Dadri,"Mini Secretariat, Charkhi Dadri - HSPCB",21-03-2024 00:00:00,28.593883,76.270653,SO2,29,64,43
India,Haryana,Dharuhera,"Municipal Corporation Office, Dharuhera -  HSPCB",21-03-2024 00:00:00,28.206800,76.799700,PM2.5,24,319,156
India,Haryana,Dharuhera,"Municipal Corporation Office, Dharuhera -  HSPCB",21-03-2024 00:00:00,28.206800,76.799700,NO2,16,49,33
India,Haryana,Faridabad,"New Industrial Town, Faridabad - HSPCB",21-03-2024 00:00:00,28.39072,77.30059,PM2.5,41,500,312
India,Haryana,Faridabad,"Sector 11, Faridabad - HSPCB",21-03-2024 00:00:00,28.376058,77.315741,NO2,30,32,31
India,Haryana,Faridabad,"Sector 11, Faridabad - HSPCB",21-03-2024 00:00:00,28.376058,77.315741,OZONE,3,108,28
India,Haryana,Faridabad,"Sector 30, Faridabad - HSPCB",21-03-2024 00:00:00,28.4417,77.3217,PM2.5,90,108,96
India,Haryana,Faridabad,"Sector 30, Faridabad - HSPCB",21-03-2024 00:00:00,28.4417,77.3217,NO2,29,32,31
India,Haryana,Faridabad,"Sector- 16A, Faridabad - HSPCB",21-03-2024 00:00:00,28.4088421,77.3099081,PM2.5,55,362,225
India,Haryana,Faridabad,"Sector- 16A, Faridabad - HSPCB",21-03-2024 00:00:00,28.4088421,77.3099081,SO2,3,26,20
India,Haryana,Faridabad,"Sector- 16A, Faridabad - HSPCB",21-03-2024 00:00:00,28.4088421,77.3099081,CO,5,135,54
India,Haryana,Faridabad,"Sector- 16A, Faridabad - HSPCB",21-03-2024 00:00:00,28.4088421,77.3099081,OZONE,14,14,14
India,Haryana,Fatehabad,"Huda Sector, Fatehabad - HSPCB",21-03-2024 00:00:00,29.503664,75.467934,PM10,74,115,97
India,Haryana,Gurugram,"Sector-51, Gurugram - HSPCB",21-03-2024 00:00:00,28.4227,77.0667,NH3,7,14,9
India,Haryana,Gurugram,"Teri Gram, Gurugram - HSPCB",21-03-2024 00:00:00,28.4275,77.1465,PM10,112,428,261
India,Haryana,Hisar,"Urban Estate-II, Hisar - HSPCB",21-03-2024 00:00:00,29.140560,75.744941,SO2,10,112,51
India,Haryana,Jind,"Police Lines, Jind - HSPCB",21-03-2024 00:00:00,29.307814,76.337619,NO2,7,15,11
India,Haryana,Jind,"Police Lines, Jind - HSPCB",21-03-2024 00:00:00,29.307814,76.337619,SO2,4,31,19
India,Haryana,Kaithal,"Rishi Nagar, Kaithal - HSPCB",21-03-2024 00:00:00,29.8006,76.4155,PM2.5,53,106,72
India,Haryana,Kaithal,"Rishi Nagar, Kaithal - HSPCB",21-03-2024 00:00:00,29.8006,76.4155,OZONE,13,25,23
India,Haryana,Mandikhera,"General Hospital, Mandikhera - HSPCB",21-03-2024 00:00:00,27.9002,76.9938,CO,24,43,31
India,Haryana,Manesar,"Sector-2 IMT, Manesar - HSPCB",21-03-2024 00:00:00,28.360699,76.936090,PM2.5,56,171,122
India,Haryana,Manesar,"Sector-2 IMT, Manesar - HSPCB",21-03-2024 00:00:00,28.360699,76.936090,PM10,57,125,101
India,Haryana,Palwal,"Shyam Nagar, Palwal - HSPCB",21-03-2024 00:00:00,28.1485564,77.3320667,PM10,102,155,123
India,Haryana,Palwal,"Shyam Nagar, Palwal - HSPCB",21-03-2024 00:00:00,28.1485564,77.3320667,CO,22,39,28
India,Haryana,Palwal,"Shyam Nagar, Palwal - HSPCB",21-03-2024 00:00:00,28.1485564,77.3320667,OZONE,5,51,25
India,Haryana,Panchkula,"Sector-6, Panchkula - HSPCB ",21-03-2024 00:00:00,30.7057778,76.8531805555555,PM2.5,7,98,58
India,Haryana,Panipat,"Sector-18, Panipat - HSPCB",21-03-2024 00:00:00,29.497973,76.993331,PM10,74,76,75
India,Haryana,Sirsa,"F-Block, Sirsa - HSPCB",21-03-2024 00:00:00,29.536400,75.015800,NO2,10,10,10
India,Haryana,Sirsa,"F-Block, Sirsa - HSPCB",21-03-2024 00:00:00,29.536400,75.015800,OZONE,3,91,45
India,Haryana,Sonipat,"Murthal, Sonipat - HSPCB",21-03-2024 00:00:00,29.027200,77.062100,PM10,30,98,69
India,Haryana,Sonipat,"Murthal, Sonipat - HSPCB",21-03-2024 00:00:00,29.027200,77.062100,NO2,37,44,40
India,Haryana,Sonipat,"Murthal, Sonipat - HSPCB",21-03-2024 00:00:00,29.027200,77.062100,CO,16,34,21
India,Himachal Pradesh,Baddi,"HIMUDA Complex Phase-1, Baddi - HPPCB",21-03-2024 00:00:00,30.943887,76.801991,NH3,3,5,4
India,Jharkhand,Pathardih,"Mohalbani Ghat, Pathardih - DMC",21-03-2024 00:00:00,23.669880,86.411725,PM10,NA,NA,NA
India,Jharkhand,Pathardih,"Mohalbani Ghat, Pathardih - DMC",21-03-2024 00:00:00,23.669880,86.411725,CO,23,117,20
India,Jharkhand,Pathardih,"Mohalbani Ghat, Pathardih - DMC",21-03-2024 00:00:00,23.669880,86.411725,OZONE,9,14,14
India,Karnataka,Bengaluru,"BTM Layout, Bengaluru - CPCB",21-03-2024 00:00:00,12.9135218,77.5950804,NO2,NA,NA,NA
India,Karnataka,Bengaluru,"Hebbal, Bengaluru - KSPCB",21-03-2024 00:00:00,13.029152,77.585901,OZONE,15,90,90
India,Karnataka,Bengaluru,"Hombegowda Nagar, Bengaluru - KSPCB",21-03-2024 00:00:00,12.938539,77.590100,SO2,3,4,3
India,Karnataka,Bengaluru,"Hombegowda Nagar, Bengaluru - KSPCB",21-03-2024 00:00:00,12.938539,77.590100,CO,12,14,13
India,Karnataka,Bengaluru,"Jayanagar 5th Block, Bengaluru - KSPCB",21-03-2024 00:00:00,12.920984,77.584908,NH3,3,5,4
India,Karnataka,Bengaluru,"Jigani, Bengaluru - KSPCB",21-03-2024 00:00:00,12.7816279,77.6299145,PM10,63,141,103
India,Karnataka,Bengaluru,"Jigani, Bengaluru - KSPCB",21-03-2024 00:00:00,12.7816279,77.6299145,OZONE,8,94,62
India,Karnataka,Bengaluru,"Peenya, Bengaluru - CPCB",21-03-2024 00:00:00,13.0270199,77.494094,PM10,59,102,83
India,Karnataka,Bengaluru,"RVCE-Mailasandra, Bengaluru - KSPCB",21-03-2024 00:00:00,12.921418,77.502466,PM10,NA,NA,NA
India,Karnataka,Bengaluru,"RVCE-Mailasandra, Bengaluru - KSPCB",21-03-2024 00:00:00,12.921418,77.502466,CO,36,58,51
India,Karnataka,Bengaluru,"Shivapura_Peenya, Bengaluru - KSPCB",21-03-2024 00:00:00,13.0246342,77.5080115,PM2.5,32,137,82
India,Karnataka,Bengaluru,"Silk Board, Bengaluru - KSPCB",21-03-2024 00:00:00,12.917348,77.622813,SO2,12,28,19
India,Karnataka,Chamarajanagar,"Urban, Chamarajanagar - KSPCB",21-03-2024 00:00:00,11.55358,76.55521,PM10,44,63,48
India,Karnataka,Chamarajanagar,"Urban, Chamarajanagar - KSPCB",21-03-2024 00:00:00,11.55358,76.55521,NO2,28,40,31
India,Karnataka,Chikkaballapur,"Chikkaballapur Rural, Chikkaballapur - KSPCB",21-03-2024 00:00:00,13.428828,77.731418,PM10,58,174,97
India,Karnataka,Chikkaballapur,"Chikkaballapur Rural, Chikkaballapur - KSPCB",21-03-2024 00:00:00,13.428828,77.731418,SO2,9,61,24
India,Karnataka,Chikkamagaluru,"Kalyana Nagara, Chikkamagaluru - KSPCB",21-03-2024 00:00:00,13.328028,75.797056,CO,11,116,29
India,Karnataka,Davanagere,"Devaraj Urs Badavane, Davanagere - KSPCB",21-03-2024 00:00:00,14.475800,75.905200,NH3,1,1,1
India,Karnataka,Dharwad,"Kalabhavan, Dharwad - KSPCB",21-03-2024 00:00:00,15.459706,75.008381,NO2,9,22,15
India,Karnataka,Dharwad,"Kalabhavan, Dharwad - KSPCB",21-03-2024 00:00:00,15.459706,75.008381,CO,41,78,64
India,Karnataka,Dharwad,"Kalabhavan, Dharwad - KSPCB",21-03-2024 00:00:00,15.459706,75.008381,OZONE,22,66,53
India,Karnataka,Gadag,"Panchal Nagar, Gadag - KSPCB",21-03-2024 00:00:00,15.411456,75.638133,PM10,43,81,60
India,Karnataka,Gadag,"Panchal Nagar, Gadag - KSPCB",21-03-2024 00:00:00,15.411456,75.638133,NO2,3,17,12
India,Karnataka,Gadag,"Panchal Nagar, Gadag - KSPCB",21-03-2024 00:00:00,15.411456,75.638133,OZONE,26,105,85
India,Karnataka,Hassan,"B.Katihalli, Hassan - KSPCB",21-03-2024 00:00:00,13.008556,76.125258,PM10,45,104,71
India,Karnataka,Haveri,"Ashwini Nagar, Haveri - KSPCB",21-03-2024 00:00:00,14.791800,75.389600,PM2.5,NA,NA,NA
India,Karnataka,Haveri,"Ashwini Nagar, Haveri - KSPCB",21-03-2024 00:00:00,14.791800,75.389600,SO2,NA,NA,NA
India,Karnataka,Hubballi,"Lingaraj Nagar, Hubballi - KSPCB",21-03-2024 00:00:00,15.3714823,75.1160168,NO2,NA,NA,NA
India,Karnataka,Hubballi,"Lingaraj Nagar, Hubballi - KSPCB",21-03-2024 00:00:00,15.3714823,75.1160168,CO,6,22,11
India,Karnataka,Hubballi,"Lingaraj Nagar, Hubballi - KSPCB",21-03-2024 00:00:00,15.3714823,75.1160168,OZONE,25,62,47
India,Karnataka,Kalaburagi,"Lal Bahadur Shastri Nagar, Kalaburagi - KSPCB",21-03-2024 00:00:00,17.321993,76.822628,PM2.5,5,31,14
India,Karnataka,Kalaburagi,"Mahatma Basaveswar Colony, Kalaburgi - KSPCB",21-03-2024 00:00:00,17.336318,76.847397,PM10,28,119,67
India,Karnataka,Kalaburagi,"Mahatma Basaveswar Colony, Kalaburgi - KSPCB",21-03-2024 00:00:00,17.336318,76.847397,SO2,5,10,7
India,Karnataka,Kalaburagi,"Mahatma Basaveswar Colony, Kalaburgi - KSPCB",21-03-2024 00:00:00,17.336318,76.847397,OZONE,10,24,18
India,Karnataka,Karwar,"KHB Colony, Karwar - KSPCB",21-03-2024 00:00:00,14.816666,74.141003,NO2,4,29,10
India,Karnataka,Karwar,"KHB Colony, Karwar - KSPCB",21-03-2024 00:00:00,14.816666,74.141003,NH3,2,12,4
India,Karnataka,Koppal,"Diwator Nagar, Koppal - KSPCB",21-03-2024 00:00:00,15.347630,76.181767,SO2,69,70,69
India,Karnataka,Koppal,"Diwator Nagar, Koppal - KSPCB",21-03-2024 00:00:00,15.347630,76.181767,CO,68,76,71
India,Karnataka,Madikeri,"Stuart Hill, Madikeri - KSPCB",21-03-2024 00:00:00,12.415911,75.735050,SO2,4,4,4
India,Karnataka,Madikeri,"Stuart Hill, Madikeri - KSPCB",21-03-2024 00:00:00,12.415911,75.735050,OZONE,34,54,45
India,Karnataka,Mangalore,"Kadri, Mangalore - KSPCB",21-03-2024 00:00:00,12.889250,74.853000,NO2,5,6,6
India,Karnataka,Mangalore,"Kadri, Mangalore - KSPCB",21-03-2024 00:00:00,12.889250,74.853000,SO2,20,23,22
India,Karnataka,Mangalore,"Kadri, Mangalore - KSPCB",21-03-2024 00:00:00,12.889250,74.853000,OZONE,29,34,31
India,Karnataka,Mysuru,"Hebbal 1st Stage, Mysuru - KSPCB",21-03-2024 00:00:00,12.21041,76.37376,PM10,33,70,54
India,Karnataka,Raichur,"Haji Colony, Raichur - KSPCB",21-03-2024 00:00:00,16.208139,77.348417,PM2.5,NA,NA,NA
India,Karnataka,Raichur,"Haji Colony, Raichur - KSPCB",21-03-2024 00:00:00,16.208139,77.348417,SO2,NA,NA,NA
India,Karnataka,Shivamogga,"Vinoba Nagara, Shivamogga - KSPCB",21-03-2024 00:00:00,13.940000,75.555917,PM10,48,75,64
India,Karnataka,Shivamogga,"Vinoba Nagara, Shivamogga - KSPCB",21-03-2024 00:00:00,13.940000,75.555917,SO2,4,18,11
India,Karnataka,Udupi,"Brahmagiri, Udupi - KSPCB",21-03-2024 00:00:00,13.34194444,74.74694444,SO2,11,19,15
India,Karnataka,Udupi,"Brahmagiri, Udupi - KSPCB",21-03-2024 00:00:00,13.34194444,74.74694444,OZONE,23,24,23
India,Kerala,Kollam,"Polayathode, Kollam - Kerala PCB",21-03-2024 00:00:00,8.8787,76.6073,SO2,1,28,5
India,Kerala,Thiruvananthapuram,"Plammoodu, Thiruvananthapuram - Kerala PCB",21-03-2024 00:00:00,8.5149093,76.9435879,NO2,8,10,9
India,Kerala,Thiruvananthapuram,"Plammoodu, Thiruvananthapuram - Kerala PCB",21-03-2024 00:00:00,8.5149093,76.9435879,NH3,2,2,2
India,Kerala,Thrissur,"Corporation Ground, Thrissur - Kerala PCB",21-03-2024 00:00:00,10.532400,76.215900,CO,14,66,16
India,Madhya Pradesh,Bhopal,"Idgah Hills, Bhopal - MPPCB",21-03-2024 00:00:00,23.264759,77.381568,NO2,15,54,26
India,Madhya Pradesh,Bhopal,"Paryavaran Parisar, Bhopal - MPPCB",21-03-2024 00:00:00,23.210494,77.425409,PM2.5,18,120,55
India,Madhya Pradesh,Dewas,"Bhopal Chauraha, Dewas - MPPCB",21-03-2024 00:00:00,22.9682591,76.064118,PM2.5,20,331,71
India,Madhya Pradesh,Dewas,"Bhopal Chauraha, Dewas - MPPCB",21-03-2024 00:00:00,22.9682591,76.064118,NH3,3,3,3
India,Madhya Pradesh,Dewas,"Bhopal Chauraha, Dewas - MPPCB",21-03-2024 00:00:00,22.9682591,76.064118,SO2,4,84,42
India,Madhya Pradesh,Dewas,"Bhopal Chauraha, Dewas - MPPCB",21-03-2024 00:00:00,22.9682591,76.064118,CO,15,53,27
India,Madhya Pradesh,Gwalior,"City Center, Gwalior - MPPCB",21-03-2024 00:00:00,26.203442,78.193251,NH3,1,14,10
India,Madhya Pradesh,Gwalior,"Deen Dayal Nagar, Gwalior - MPPCB",21-03-2024 00:00:00,26.259242,78.216432,SO2,13,19,16
India,Madhya Pradesh,Gwalior,"Deen Dayal Nagar, Gwalior - MPPCB",21-03-2024 00:00:00,26.259242,78.216432,CO,12,26,22
India,Madhya Pradesh,Gwalior,"Deen Dayal Nagar, Gwalior - MPPCB",21-03-2024 00:00:00,26.259242,78.216432,OZONE,22,269,145
India,Madhya Pradesh,Gwalior,"Maharaj Bada, Gwalior - MPPCB",21-03-2024 00:00:00,26.200388,78.147714,PM2.5,57,309,105
India,Madhya Pradesh,Gwalior,"Maharaj Bada, Gwalior - MPPCB",21-03-2024 00:00:00,26.200388,78.147714,SO2,16,39,23
India,Madhya Pradesh,Gwalior,"Maharaj Bada, Gwalior - MPPCB",21-03-2024 00:00:00,26.200388,78.147714,OZONE,5,222,101
India,Madhya Pradesh,Indore,"Regional Park, Indore - IMC",21-03-2024 00:00:00,22.6780,75.8559,NO2,NA,NA,NA
India,Madhya Pradesh,Indore,"Regional Park, Indore - IMC",21-03-2024 00:00:00,22.6780,75.8559,SO2,42,47,44
India,Madhya Pradesh,Indore,"Regional Park, Indore - IMC",21-03-2024 00:00:00,22.6780,75.8559,OZONE,9,25,16
India,Madhya Pradesh,Indore,"Residency Area, Indore - IMC",21-03-2024 00:00:00,22.7084,75.8815,PM2.5,NA,NA,NA
India,Madhya Pradesh,Indore,"Residency Area, Indore - IMC",21-03-2024 00:00:00,22.7084,75.8815,OZONE,10,16,12
India,Madhya Pradesh,Jabalpur,"Govindh Bhavan Colony, Jabalpur - JMC",21-03-2024 00:00:00,23.163174,79.973061,NH3,7,12,9
India,Madhya Pradesh,Jabalpur,"Gupteshwar, Jabalpur - JMC",21-03-2024 00:00:00,23.142888,79.916147,NO2,2,119,22
India,Madhya Pradesh,Jabalpur,"Marhatal, Jabalpur - MPPCB",21-03-2024 00:00:00,23.168606,79.932247,OZONE,10,83,50
India,Madhya Pradesh,Jabalpur,"Suhagi, Jabalpur - JMC",21-03-2024 00:00:00,23.218135,79.957770,PM10,NA,NA,NA
India,Madhya Pradesh,Jabalpur,"Suhagi, Jabalpur - JMC",21-03-2024 00:00:00,23.218135,79.957770,OZONE,7,161,66
India,Madhya Pradesh,Maihar,"Sahilara, Maihar - KJS Cements",21-03-2024 00:00:00,24.2613009,80.7231783,PM2.5,15,37,24
India,Madhya Pradesh,Mandideep,"Sector-D Industrial Area, Mandideep - MPPCB",21-03-2024 00:00:00,23.108440,77.511428,OZONE,14,46,30
India,Madhya Pradesh,Pithampur,"Sector-2 Industrial Area, Pithampur - MPPCB",21-03-2024 00:00:00,22.624758,75.675238,PM10,96,342,146
India,Madhya Pradesh,Pithampur,"Sector-2 Industrial Area, Pithampur - MPPCB",21-03-2024 00:00:00,22.624758,75.675238,NO2,5,28,15
India,Madhya Pradesh,Pithampur,"Sector-2 Industrial Area, Pithampur - MPPCB",21-03-2024 00:00:00,22.624758,75.675238,NH3,6,9,8
India,Madhya Pradesh,Pithampur,"Sector-2 Industrial Area, Pithampur - MPPCB",21-03-2024 00:00:00,22.624758,75.675238,SO2,13,17,15
India,Madhya Pradesh,Pithampur,"Sector-2 Industrial Area, Pithampur - MPPCB",21-03-2024 00:00:00,22.624758,75.675238,CO,18,51,33
India,Madhya Pradesh,Ratlam,"Shasthri Nagar, Ratlam - IPCA Lab",21-03-2024 00:00:00,23.331731,75.045981,SO2,36,54,38
India,Madhya Pradesh,Sagar,"Deen Dayal Nagar, Sagar - MPPCB",21-03-2024 00:00:00,23.8640158,78.80289321,NO2,23,24,24
India,Madhya Pradesh,Satna,"Bandhavgar Colony, Satna - Birla Cement",21-03-2024 00:00:00,24.58434363,80.8549414,PM10,39,106,75
India,Madhya Pradesh,Satna,"Bandhavgar Colony, Satna - Birla Cement",21-03-2024 00:00:00,24.58434363,80.8549414,OZONE,58,86,73
India,Madhya Pradesh,Singrauli,"Suryakiran Bhawan NCL, Singrauli - MPPCB",21-03-2024 00:00:00,24.108970,82.645580,PM10,30,157,86
India,Madhya Pradesh,Singrauli,"Suryakiran Bhawan NCL, Singrauli - MPPCB",21-03-2024 00:00:00,24.108970,82.645580,NO2,20,75,42
India,Maharashtra,Ahmednagar,"Tarakpur, Ahmednagar - MPCB",21-03-2024 00:00:00,19.10122,74.73339,PM10,82,291,113
India,Maharashtra,Ahmednagar,"Tarakpur, Ahmednagar - MPCB",21-03-2024 00:00:00,19.10122,74.73339,NH3,4,7,5
India,Maharashtra,Ahmednagar,"Tarakpur, Ahmednagar - MPCB",21-03-2024 00:00:00,19.10122,74.73339,SO2,3,9,7
India,Maharashtra,Akola,"Ramdaspeth, Akola - MPCB",21-03-2024 00:00:00,20.719516,77.000253,PM2.5,33,134,64
India,Maharashtra,Akola,"Ramdaspeth, Akola - MPCB",21-03-2024 00:00:00,20.719516,77.000253,CO,20,134,73
India,Maharashtra,Amravati,"Shivneri Colony, Amravati - MPCB",21-03-2024 00:00:00,20.9402359,77.7895248,PM2.5,41,96,67
India,Maharashtra,Amravati,"Shivneri Colony, Amravati - MPCB",21-03-2024 00:00:00,20.9402359,77.7895248,CO,13,28,18
India,Maharashtra,Aurangabad,"MIDC Chilkalthana, Aurangabad - MPCB",21-03-2024 00:00:00,19.875620,75.387310,PM10,63,120,93
India,Maharashtra,Aurangabad,"More Chowk Waluj, Aurangabad - MPCB",21-03-2024 00:00:00,19.8389439,75.244448,NH3,1,10,6
India,Maharashtra,Aurangabad,"Rachnakar Colony, Aurangabad - MPCB",21-03-2024 00:00:00,19.863756,75.321188,PM2.5,29,205,100
India,Maharashtra,Aurangabad,"Rachnakar Colony, Aurangabad - MPCB",21-03-2024 00:00:00,19.863756,75.321188,SO2,2,38,14
India,Maharashtra,Aurangabad,"Rachnakar Colony, Aurangabad - MPCB",21-03-2024 00:00:00,19.863756,75.321188,CO,10,96,40
India,Maharashtra,Badlapur,"Katrap, Badlapur - MPCB",21-03-2024 00:00:00,19.16485,73.23409,PM2.5,81,311,186
India,Maharashtra,Badlapur,"Katrap, Badlapur - MPCB",21-03-2024 00:00:00,19.16485,73.23409,NO2,1,12,6
India,Maharashtra,Belapur,"CBD Belapur, Belapur - MPCB",21-03-2024 00:00:00,19.0243902,73.0406721,PM10,85,225,135
India,Maharashtra,Bhiwandi,"Gokul Nagar, Bhiwandi - MPCB",21-03-2024 00:00:00,19.309073,73.057223,NO2,17,115,51
India,Maharashtra,Chandrapur,"Chauhan Colony, Chandrapur - MPCB",21-03-2024 00:00:00,19.962900,79.298714,SO2,2,107,10
India,Maharashtra,Chandrapur,"MIDC Khutala, Chandrapur - MPCB",21-03-2024 00:00:00,19.9775302,79.2337086,SO2,20,23,21
India,Maharashtra,Chandrapur,"MIDC Khutala, Chandrapur - MPCB",21-03-2024 00:00:00,19.9775302,79.2337086,OZONE,10,55,30
India,Maharashtra,Dhule,"Deopur, Dhule - MPCB",21-03-2024 00:00:00,20.918946,74.776388,PM10,68,252,113
India,Maharashtra,Dhule,"Deopur, Dhule - MPCB",21-03-2024 00:00:00,20.918946,74.776388,NH3,3,16,4
India,Maharashtra,Jalna,"Old MIDC, Jalna - MPCB",21-03-2024 00:00:00,19.854616,75.905894,NO2,17,47,30
India,Maharashtra,Jalna,"Old MIDC, Jalna - MPCB",21-03-2024 00:00:00,19.854616,75.905894,OZONE,5,181,76
India,Maharashtra,Kalyan,"Khadakpada, Kalyan - MPCB",21-03-2024 00:00:00,19.25292,73.142019,PM10,86,229,141
India,Maharashtra,Kalyan,"Khadakpada, Kalyan - MPCB",21-03-2024 00:00:00,19.25292,73.142019,CO,16,34,19
India,Maharashtra,Kolhapur,"Shivaji University, Kolhapur - MPCB",21-03-2024 00:00:00,16.6870449,74.2505872,PM10,95,224,143
India,Maharashtra,Latur,"Sawe Wadi, Latur - MPCB",21-03-2024 00:00:00,18.39963,76.57452,PM10,62,109,89
India,Maharashtra,Latur,"Sawe Wadi, Latur - MPCB",21-03-2024 00:00:00,18.39963,76.57452,SO2,1,10,6
India,Maharashtra,Mahad,"Kamble Tarf Birwadi, Mahad - MPCB",21-03-2024 00:00:00,18.1023399,73.4783687,CO,11,66,30
India,Maharashtra,Mahad,"Kamble Tarf Birwadi, Mahad - MPCB",21-03-2024 00:00:00,18.1023399,73.4783687,OZONE,5,121,94
India,Maharashtra,Malegaon,"Mahesh Nagar, Malegaon - MPCB",21-03-2024 00:00:00,20.555712,74.529236,SO2,2,18,6
India,Maharashtra,Mira-Bhayandar,"Bhayandar West, Mira-Bhayandar - MPCB",21-03-2024 00:00:00,19.296481,72.840923,PM2.5,20,227,125
India,Maharashtra,Mira-Bhayandar,"Bhayandar West, Mira-Bhayandar - MPCB",21-03-2024 00:00:00,19.296481,72.840923,OZONE,2,147,65
India,Maharashtra,Mumbai,"Bandra Kurla Complex, Mumbai - MPCB",21-03-2024 00:00:00,19.065931,72.862131,NO2,10,48,27
India,Maharashtra,Mumbai,"Borivali East, Mumbai - IITM",21-03-2024 00:00:00,19.23241,72.86895,NO2,42,105,67
India,Maharashtra,Mumbai,"Byculla, Mumbai - BMC",21-03-2024 00:00:00,18.9767,72.8380,NO2,18,33,21
India,Maharashtra,Mumbai,"Byculla, Mumbai - BMC",21-03-2024 00:00:00,18.9767,72.8380,OZONE,1,195,85
India,Maharashtra,Mumbai,"Chakala-Andheri East, Mumbai - IITM",21-03-2024 00:00:00,19.11074,72.86084,NH3,6,29,14
India,Maharashtra,Mumbai,"Chembur, Mumbai - MPCB",21-03-2024 00:00:00,19.0364585,72.8954371,NO2,20,108,63
India,Maharashtra,Mumbai,"Chembur, Mumbai - MPCB",21-03-2024 00:00:00,19.0364585,72.8954371,NH3,3,4,3
India,Maharashtra,Mumbai,"Chembur, Mumbai - MPCB",21-03-2024 00:00:00,19.0364585,72.8954371,OZONE,2,289,101
India,Maharashtra,Mumbai,"Chhatrapati Shivaji Intl. Airport (T2), Mumbai - MPCB",21-03-2024 00:00:00,19.10078,72.87462,PM10,86,149,112
India,Maharashtra,Mumbai,"Chhatrapati Shivaji Intl. Airport (T2), Mumbai - MPCB",21-03-2024 00:00:00,19.10078,72.87462,NH3,1,9,2
India,Maharashtra,Mumbai,"Colaba, Mumbai - MPCB",21-03-2024 00:00:00,18.910000,72.820000,NH3,1,1,1
India,Maharashtra,Mumbai,"Kandivali East, Mumbai - MPCB",21-03-2024 00:00:00,19.205800,72.868200,NH3,4,46,8
India,Maharashtra,Mumbai,"Kandivali West, Mumbai - BMC",21-03-2024 00:00:00,19.215859,72.831718,NH3,1,2,1
India,Maharashtra,Mumbai,"Kherwadi_Bandra East, Mumbai - MPCB",21-03-2024 00:00:00,19.0632143,72.8456324,NO2,19,137,70
India,Maharashtra,Mumbai,"Kherwadi_Bandra East, Mumbai - MPCB",21-03-2024 00:00:00,19.0632143,72.8456324,OZONE,1,181,72
India,Maharashtra,Mumbai,"Mazgaon, Mumbai - IITM",21-03-2024 00:00:00,18.96702,72.84214,SO2,2,10,6
India,Maharashtra,Mumbai,"Mindspace-Malad West, Mumbai - MPCB",21-03-2024 00:00:00,19.1878657,72.8304069,SO2,NA,NA,NA
India,Maharashtra,Mumbai,"Mindspace-Malad West, Mumbai - MPCB",21-03-2024 00:00:00,19.1878657,72.8304069,OZONE,28,116,58
India,Maharashtra,Mumbai,"Mulund West, Mumbai - MPCB",21-03-2024 00:00:00,19.1750,72.9419,PM10,63,192,96
India,Maharashtra,Mumbai,"Navy Nagar-Colaba, Mumbai - IITM",21-03-2024 00:00:00,18.897756,72.813320,PM2.5,61,169,102
India,Maharashtra,Mumbai,"Navy Nagar-Colaba, Mumbai - IITM",21-03-2024 00:00:00,18.897756,72.813320,NH3,NA,NA,NA
India,Maharashtra,Mumbai,"Navy Nagar-Colaba, Mumbai - IITM",21-03-2024 00:00:00,18.897756,72.813320,SO2,5,31,13
India,Maharashtra,Mumbai,"Powai, Mumbai - MPCB",21-03-2024 00:00:00,19.137500,72.915056,SO2,32,44,36
India,Maharashtra,Mumbai,"Sewri, Mumbai - BMC",21-03-2024 00:00:00,19.000084,72.856730,PM10,79,127,102
India,Maharashtra,Mumbai,"Sewri, Mumbai - BMC",21-03-2024 00:00:00,19.000084,72.856730,NO2,45,112,73
India,Maharashtra,Mumbai,"Shivaji Nagar, Mumbai - BMC",21-03-2024 00:00:00,19.060498,72.923356,NH3,3,7,5
India,Maharashtra,Mumbai,"Siddharth Nagar-Worli, Mumbai - IITM",21-03-2024 00:00:00,19.000083,72.813993,PM2.5,66,344,205
India,Maharashtra,Mumbai,"Siddharth Nagar-Worli, Mumbai - IITM",21-03-2024 00:00:00,19.000083,72.813993,NO2,31,126,59
India,Maharashtra,Mumbai,"Siddharth Nagar-Worli, Mumbai - IITM",21-03-2024 00:00:00,19.000083,72.813993,OZONE,16,166,82
India,Maharashtra,Mumbai,"Vasai West, Mumbai - MPCB",21-03-2024 00:00:00,19.383200,72.820400,NO2,26,79,31
India,Maharashtra,Mumbai,"Vasai West, Mumbai - MPCB",21-03-2024 00:00:00,19.383200,72.820400,OZONE,13,96,48
India,Maharashtra,Nagpur,"Ambazari, Nagpur - MPCB",21-03-2024 00:00:00,21.121801,79.04952,NO2,17,91,39
India,Maharashtra,Nagpur,"Opp GPO Civil Lines, Nagpur - MPCB",21-03-2024 00:00:00,21.152875,79.0517531,OZONE,3,85,43
India,Maharashtra,Nagpur,"Ram Nagar, Nagpur - MPCB",21-03-2024 00:00:00,21.143383,79.048912,SO2,6,34,15
India,Maharashtra,Nagpur,"Ram Nagar, Nagpur - MPCB",21-03-2024 00:00:00,21.143383,79.048912,OZONE,3,125,59
India,Maharashtra,Nanded,"Sneh Nagar, Nanded - MPCB",21-03-2024 00:00:00,19.173852,77.296291,PM10,74,133,108
India,Maharashtra,Nanded,"Sneh Nagar, Nanded - MPCB",21-03-2024 00:00:00,19.173852,77.296291,OZONE,34,111,82
India,Maharashtra,Nashik,"Gangapur Road, Nashik - MPCB",21-03-2024 00:00:00,20.0073285,73.7762427,PM2.5,51,192,95
India,Maharashtra,Nashik,"Gangapur Road, Nashik - MPCB",21-03-2024 00:00:00,20.0073285,73.7762427,NO2,11,39,18
India,Maharashtra,Nashik,"Gangapur Road, Nashik - MPCB",21-03-2024 00:00:00,20.0073285,73.7762427,OZONE,1,61,46
India,Maharashtra,Nashik,"Pandav Nagari, Nashik - MPCB",21-03-2024 00:00:00,19.9591346,73.7788008,PM10,60,103,79
India,Maharashtra,Nashik,"Pandav Nagari, Nashik - MPCB",21-03-2024 00:00:00,19.9591346,73.7788008,SO2,2,26,16
India,Maharashtra,Navi Mumbai,"Mahape, Navi Mumbai - MPCB",21-03-2024 00:00:00,19.1135051,73.008978,PM2.5,33,340,126
India,Maharashtra,Navi Mumbai,"Nerul, Navi Mumbai - MPCB",21-03-2024 00:00:00,19.008751,73.016620,NO2,14,36,25
India,Maharashtra,Navi Mumbai,"Nerul, Navi Mumbai - MPCB",21-03-2024 00:00:00,19.008751,73.016620,SO2,12,13,13
India,Maharashtra,Navi Mumbai,"Nerul, Navi Mumbai - MPCB",21-03-2024 00:00:00,19.008751,73.016620,CO,26,68,32
India,Maharashtra,Navi Mumbai,"Sanpada, Navi Mumbai - MPCB",21-03-2024 00:00:00,19.0575752,73.0151367,SO2,5,82,27
India,Maharashtra,Navi Mumbai,"Sector-19A Nerul, Navi Mumbai - IITM",21-03-2024 00:00:00,19.044,73.0325,CO,28,106,57
India,Maharashtra,Navi Mumbai,"Tondare-Taloja, Navi Mumbai - MPCB",21-03-2024 00:00:00,19.0630,73.1209,PM2.5,57,222,117
India,Maharashtra,Navi Mumbai,"Tondare-Taloja, Navi Mumbai - MPCB",21-03-2024 00:00:00,19.0630,73.1209,PM10,76,180,139
India,Maharashtra,Navi Mumbai,"Tondare-Taloja, Navi Mumbai - MPCB",21-03-2024 00:00:00,19.0630,73.1209,CO,6,76,27
India,Maharashtra,Parbhani,"Masoom Colony, Parbhani - MPCB",21-03-2024 00:00:00,19.265594,76.761463,PM10,102,283,139
India,Maharashtra,Pimpri-Chinchwad,"Gavalinagar, Pimpri Chinchwad - MPCB",21-03-2024 00:00:00,18.63673,73.82487,PM10,69,160,115
India,Maharashtra,Pimpri-Chinchwad,"Gavalinagar, Pimpri Chinchwad - MPCB",21-03-2024 00:00:00,18.63673,73.82487,CO,10,102,49
India,Maharashtra,Pimpri-Chinchwad,"Park Street Wakad, Pimpri Chinchwad - MPCB",21-03-2024 00:00:00,18.59051,73.77946,PM10,101,222,142
India,Maharashtra,Pune,"Bhosari, Pune - IITM",21-03-2024 00:00:00,18.640051,73.848956,PM10,47,156,102
India,Maharashtra,Pune,"Karve Road, Pune - MPCB",21-03-2024 00:00:00,18.5011743,73.8165527,NO2,2,2,2
India,Maharashtra,Pune,"Karve Road, Pune - MPCB",21-03-2024 00:00:00,18.5011743,73.8165527,SO2,22,27,25
India,Maharashtra,Pune,"Karve Road, Pune - MPCB",21-03-2024 00:00:00,18.5011743,73.8165527,OZONE,6,7,7
India,Maharashtra,Pune,"Katraj Dairy, Pune - MPCB",21-03-2024 00:00:00,18.454450,73.854155,PM10,60,147,112
India,Maharashtra,Pune,"Katraj Dairy, Pune - MPCB",21-03-2024 00:00:00,18.454450,73.854155,NO2,23,59,42
India,Maharashtra,Pune,"Mhada Colony, Pune - IITM",21-03-2024 00:00:00,18.573040,73.927715,PM10,36,115,78
India,Maharashtra,Pune,"Savitribai Phule Pune University, Pune - MPCB",21-03-2024 00:00:00,18.547056,73.826908,SO2,6,16,10
India,Maharashtra,Pune,"Savitribai Phule Pune University, Pune - MPCB",21-03-2024 00:00:00,18.547056,73.826908,CO,10,111,44
India,Maharashtra,Solapur,"Dnyaneshwar Nagar, Solapur - MPCB",21-03-2024 00:00:00,17.6336264,75.9132495,NO2,7,75,30
India,Maharashtra,Solapur,"Dnyaneshwar Nagar, Solapur - MPCB",21-03-2024 00:00:00,17.6336264,75.9132495,OZONE,25,98,68
India,Maharashtra,Solapur,"Solapur, Solapur - MPCB",21-03-2024 00:00:00,17.6599188,75.9063906,NO2,NA,NA,NA
India,Maharashtra,Thane,"Kasarvadavali, Thane - MPCB",21-03-2024 00:00:00,19.26777,72.97182,NO2,39,119,77
India,Maharashtra,Thane,"Upvan Fort, Thane - MPCB",21-03-2024 00:00:00,19.222279,72.957979,NO2,13,118,45
India,Maharashtra,Thane,"Upvan Fort, Thane - MPCB",21-03-2024 00:00:00,19.222279,72.957979,NH3,13,15,14
India,Maharashtra,Thane,"Upvan Fort, Thane - MPCB",21-03-2024 00:00:00,19.222279,72.957979,CO,6,88,22
India,Maharashtra,Ulhasnagar,"Sidhi Vinayak Nagar, Ulhasnagar - MPCB",21-03-2024 00:00:00,19.235581,73.159121,PM2.5,78,227,160
India,Maharashtra,Ulhasnagar,"Sidhi Vinayak Nagar, Ulhasnagar - MPCB",21-03-2024 00:00:00,19.235581,73.159121,NO2,6,53,26
India,Maharashtra,Virar,"Bolinj, Virar - MPCB",21-03-2024 00:00:00,19.4458210,72.7988231,NO2,8,65,30
India,Maharashtra,Virar,"Bolinj, Virar - MPCB",21-03-2024 00:00:00,19.4458210,72.7988231,NH3,4,7,5
India,Maharashtra,Virar,"Bolinj, Virar - MPCB",21-03-2024 00:00:00,19.4458210,72.7988231,SO2,6,56,19
India,Manipur,Imphal,"DM College of Science, Imphal - Manipur PCB",21-03-2024 00:00:00,24.8207389,93.9423085,CO,6,6,6
India,Manipur,Imphal,"DM College of Science, Imphal - Manipur PCB",21-03-2024 00:00:00,24.8207389,93.9423085,OZONE,1,78,3
India,Manipur,Imphal,"Manipur University, Imphal - Manipur PCB",21-03-2024 00:00:00,24.7524239,93.9286218,CO,16,28,21
India,Manipur,Imphal,"Manipur University, Imphal - Manipur PCB",21-03-2024 00:00:00,24.7524239,93.9286218,OZONE,2,25,13
India,Meghalaya,Shillong,"Lumpyngngad, Shillong - Meghalaya PCB",21-03-2024 00:00:00,25.5586,91.8985,NO2,1,2,1
India,Mizoram,Aizawl,"Sikulpuikawn, Aizawl - Mizoram PCB",21-03-2024 00:00:00,23.7176342,92.7192841,SO2,2,2,2
India,Nagaland,Kohima,"PWD Juction, Kohima - NPCB",21-03-2024 00:00:00,25.6635413,94.0989878,PM10,80,150,116
India,Odisha,Angul,"Hakimapada, Angul - OSPCB",21-03-2024 00:00:00,20.832874,85.104082,PM10,12,118,62
India,Odisha,Angul,"Hakimapada, Angul - OSPCB",21-03-2024 00:00:00,20.832874,85.104082,SO2,10,110,43
India,Odisha,Balasore,"Kalidaspur, Balasore - OSPCB",21-03-2024 00:00:00,21.51161,86.89088,PM10,11,59,28
India,Odisha,Balasore,"Kalidaspur, Balasore - OSPCB",21-03-2024 00:00:00,21.51161,86.89088,OZONE,12,71,37
India,Odisha,Barbil,"Forest Office, Barbil - OSPCB",21-03-2024 00:00:00,22.1166054,85.3945546,NO2,3,7,4
India,Odisha,Baripada,"Meher Colony, Baripada - OSPCB",21-03-2024 00:00:00,21.941841,86.728318,PM10,24,59,37
India,Odisha,Baripada,"Meher Colony, Baripada - OSPCB",21-03-2024 00:00:00,21.941841,86.728318,CO,16,28,21
India,Odisha,Bileipada,"Tata Township, Bileipada - OSPCB",21-03-2024 00:00:00,22.06156703,85.47409613,NH3,11,11,11
India,Odisha,Brajrajnagar,"GM Office, Brajrajnagar - OSPCB",21-03-2024 00:00:00,21.8004996,83.8396977,NO2,13,17,15
India,Odisha,Byasanagar,"Ferro Chrome Colony, Byasanagar - OSPCB",21-03-2024 00:00:00,20.94185,86.11510,PM2.5,2,77,34
India,Odisha,Byasanagar,"Ferro Chrome Colony, Byasanagar - OSPCB",21-03-2024 00:00:00,20.94185,86.11510,NO2,6,78,25
India,Odisha,Keonjhar,"Jagamohanpur, Keonjhar - OSPCB",21-03-2024 00:00:00,21.643900,85.599355,PM2.5,14,58,32
India,Odisha,Keonjhar,"Jagamohanpur, Keonjhar - OSPCB",21-03-2024 00:00:00,21.643900,85.599355,PM10,23,71,40
India,Odisha,Keonjhar,"Jagamohanpur, Keonjhar - OSPCB",21-03-2024 00:00:00,21.643900,85.599355,NH3,6,10,7
India,Odisha,Keonjhar,"Jagamohanpur, Keonjhar - OSPCB",21-03-2024 00:00:00,21.643900,85.599355,OZONE,4,32,9
India,Odisha,Rourkela,"Fertilizer Township, Rourkela - OSPCB",21-03-2024 00:00:00,22.18972222,84.86277778,PM10,15,52,30
India,Odisha,Rourkela,"Fertilizer Township, Rourkela - OSPCB",21-03-2024 00:00:00,22.18972222,84.86277778,NO2,14,21,18
India,Odisha,Rourkela,"Sector-2, Rourkela - OSPCB",21-03-2024 00:00:00,22.24500000,84.88111111,PM2.5,24,67,45
India,Odisha,Talcher,"Talcher Coalfields,Talcher - OSPCB",21-03-2024 00:00:00,20.9360711,85.1707021,CO,28,74,37
India,Odisha,Talcher,"Talcher Coalfields,Talcher - OSPCB",21-03-2024 00:00:00,20.9360711,85.1707021,OZONE,1,3,1
India,Odisha,Tensa,"Barsua Iron Ore Mines, Tensa - OSPCB",21-03-2024 00:00:00,21.869985,85.167016,SO2,9,19,11
India,Odisha,Tensa,"Barsua Iron Ore Mines, Tensa - OSPCB",21-03-2024 00:00:00,21.869985,85.167016,OZONE,5,23,11
India,Puducherry,Puducherry,"Jawahar Nagar, Puducherry - PPCC",21-03-2024 00:00:00,11.9309,79.8027,SO2,3,8,6
India,Puducherry,Puducherry,"Jawahar Nagar, Puducherry - PPCC",21-03-2024 00:00:00,11.9309,79.8027,OZONE,6,53,32
India,Punjab,Jalandhar,"Civil Line, Jalandhar - PPCB",21-03-2024 00:00:00,31.321907,75.578914,NO2,33,38,35
India,Punjab,Jalandhar,"Civil Line, Jalandhar - PPCB",21-03-2024 00:00:00,31.321907,75.578914,CO,27,85,55
India,Punjab,Ludhiana,"Punjab Agricultural University, Ludhiana - PPCB",21-03-2024 00:00:00,30.9028,75.8086,PM2.5,20,182,99
India,Punjab,Mandi Gobindgarh,"RIMT University, Mandi Gobindgarh - PPCB",21-03-2024 00:00:00,30.649961,76.331442,PM2.5,35,358,120
India,Punjab,Mandi Gobindgarh,"RIMT University, Mandi Gobindgarh - PPCB",21-03-2024 00:00:00,30.649961,76.331442,NO2,NA,NA,NA
India,Rajasthan,Alwar,"Moti Doongri, Alwar - RSPCB",21-03-2024 00:00:00,27.554793,76.611536,CO,23,107,64
India,Rajasthan,Baran,"Bamboliya, Baran - RSPCB",21-03-2024 00:00:00,25.106006,76.469948,PM2.5,18,151,76
India,Rajasthan,Baran,"Bamboliya, Baran - RSPCB",21-03-2024 00:00:00,25.106006,76.469948,NO2,7,83,31
India,Rajasthan,Barmer,"Railway Colony, Barmer - RSPCB",21-03-2024 00:00:00,25.747299,71.393989,NH3,4,10,6
India,Rajasthan,Bhilwara,"Pratap Nagar, Bhilwara - RSPCB",21-03-2024 00:00:00,25.339605,74.618883,CO,16,108,58
India,Rajasthan,Bhiwadi,"Vasundhara Nagar_UIT, Bhiwadi - RSPCB",21-03-2024 00:00:00,28.207266,76.829265,NO2,21,113,57
India,Rajasthan,Bhiwadi,"Vasundhara Nagar_UIT, Bhiwadi - RSPCB",21-03-2024 00:00:00,28.207266,76.829265,SO2,7,30,17
India,Rajasthan,Bhiwadi,"Vasundhara Nagar_UIT, Bhiwadi - RSPCB",21-03-2024 00:00:00,28.207266,76.829265,CO,16,62,33
India,Rajasthan,Chittorgarh,"Shastri Nagar, Chittorgarh - RSPCB",21-03-2024 00:00:00,24.892047,74.623527,PM2.5,NA,NA,NA
India,Rajasthan,Chittorgarh,"Shastri Nagar, Chittorgarh - RSPCB",21-03-2024 00:00:00,24.892047,74.623527,CO,NA,NA,NA
India,Rajasthan,Chittorgarh,"Shastri Nagar, Chittorgarh - RSPCB",21-03-2024 00:00:00,24.892047,74.623527,OZONE,NA,NA,NA
India,Rajasthan,Churu,"Subash Chowk, Churu - RSPCB",21-03-2024 00:00:00,28.296139,74.961696,PM2.5,44,200,82
India,Rajasthan,Churu,"Subash Chowk, Churu - RSPCB",21-03-2024 00:00:00,28.296139,74.961696,PM10,67,190,114
India,Rajasthan,Churu,"Subash Chowk, Churu - RSPCB",21-03-2024 00:00:00,28.296139,74.961696,SO2,6,35,15
India,Rajasthan,Dausa,"Khatikan Mohalla, Dausa - RSPCB",21-03-2024 00:00:00,26.895552,76.334753,PM10,86,249,119
India,Rajasthan,Dausa,"Khatikan Mohalla, Dausa - RSPCB",21-03-2024 00:00:00,26.895552,76.334753,SO2,10,27,16
India,Rajasthan,Dungarpur,"Bhoiwada, Dungarpur - RSPCB",21-03-2024 00:00:00,23.837789,73.714926,PM10,58,127,86
India,Rajasthan,Dungarpur,"Bhoiwada, Dungarpur - RSPCB",21-03-2024 00:00:00,23.837789,73.714926,NH3,4,6,5
India,Rajasthan,Hanumangarh,"Housing Board, Hanumangarh - RSPCB",21-03-2024 00:00:00,29.610750,74.283608,SO2,3,24,11
India,Rajasthan,Jaipur,"Adarsh Nagar, Jaipur - RSPCB",21-03-2024 00:00:00,26.902909,75.836858,SO2,14,31,21
India,Rajasthan,Jaipur,"Mansarovar Sector-12, Jaipur - RSPCB",21-03-2024 00:00:00,26.843698,75.766894,PM2.5,32,127,57
India,Rajasthan,Jaipur,"Mansarovar Sector-12, Jaipur - RSPCB",21-03-2024 00:00:00,26.843698,75.766894,NO2,24,97,39
India,Rajasthan,Jaipur,"Mansarovar Sector-12, Jaipur - RSPCB",21-03-2024 00:00:00,26.843698,75.766894,NH3,4,15,6
India,Rajasthan,Jaipur,"Police Commissionerate, Jaipur - RSPCB",21-03-2024 00:00:00,26.9164092,75.7994901,NO2,14,109,38
India,Rajasthan,Jaipur,"Police Commissionerate, Jaipur - RSPCB",21-03-2024 00:00:00,26.9164092,75.7994901,SO2,15,23,20
India,Rajasthan,Jaipur,"RIICO Sitapura, Jaipur - RSPCB",21-03-2024 00:00:00,26.786682,75.827928,NO2,14,134,38
India,Rajasthan,Jaipur,"Sector-2 Murlipura, Jaipur - RSPCB",21-03-2024 00:00:00,26.960669,75.771817,NO2,5,89,21
India,Rajasthan,Jaipur,"Shastri Nagar, Jaipur - RSPCB",21-03-2024 00:00:00,26.9502929,75.730943,SO2,1,84,28
India,Rajasthan,Jaisalmer,"Sadar Bazar, Jaisalmer - RSPCB",21-03-2024 00:00:00,26.912329,70.909168,SO2,6,10,7
India,Rajasthan,Jhalawar,"Rajlaxmi Nagar, Jhalawar - RSPCB",21-03-2024 00:00:00,24.588397,76.172782,PM2.5,11,298,79
India,Rajasthan,Jhunjhunu,"Indra Nagar, Jhunjhunu - RSPCB",21-03-2024 00:00:00,28.108988,75.386577,OZONE,14,110,70
India,Rajasthan,Jodhpur,"Digari Kalan, Jodhpur - RSPCB",21-03-2024 00:00:00,26.295810,73.082283,SO2,3,10,5
India,Rajasthan,Jodhpur,"Mandor, Jodhpur - RSPCB",21-03-2024 00:00:00,26.358805,73.047444,PM10,NA,NA,NA
India,Rajasthan,Jodhpur,"Mandor, Jodhpur - RSPCB",21-03-2024 00:00:00,26.358805,73.047444,OZONE,40,102,87
India,Rajasthan,Karauli,"Satyawati Vihar, Karauli - RSPCB",21-03-2024 00:00:00,26.506177,77.025989,NH3,2,7,4
India,Rajasthan,Karauli,"Satyawati Vihar, Karauli - RSPCB",21-03-2024 00:00:00,26.506177,77.025989,OZONE,7,47,24
India,Rajasthan,Kota,"Dhanmandi, Kota - RSPCB",21-03-2024 00:00:00,25.164090,75.858137,PM10,60,184,111
India,Rajasthan,Kota,"Nayapura, Kota - RSPCB",21-03-2024 00:00:00,25.196024,75.855668,SO2,5,105,13
India,Rajasthan,Kota,"Shrinath Puram, Kota - RSPCB",21-03-2024 00:00:00,25.14389,75.821256,SO2,10,102,27
India,Rajasthan,Nagaur,"Karni Colony, Nagaur - RSPCB",21-03-2024 00:00:00,27.213494,73.734444,PM2.5,19,176,51
India,Rajasthan,Nagaur,"Karni Colony, Nagaur - RSPCB",21-03-2024 00:00:00,27.213494,73.734444,NH3,12,25,16
India,Rajasthan,Pali,"Indira Colony Vistar, Pali - RSPCB",21-03-2024 00:00:00,25.771061, 73.340227,SO2,7,14,10
India,Rajasthan,Pratapgarh,"Pragati Nagar, Pratapgarh - RSPCB",21-03-2024 00:00:00,24.041198,74.780702,PM2.5,17,88,39
India,Rajasthan,Rajsamand,"Dhoinda, Rajsamand - RSPCB",21-03-2024 00:00:00,25.036360,73.883502,OZONE,29,82,50
India,Rajasthan,Sawai Madhopur,"Sahu Nagar, Sawai Madhopur - RSPCB",21-03-2024 00:00:00,26.031443,76.359327,OZONE,4,145,75
India,Rajasthan,Sikar,"Radhakishan Pura, Sikar - RSPCB",21-03-2024 00:00:00,27.608912,75.153302,NH3,6,11,8
India,Rajasthan,Sikar,"Radhakishan Pura, Sikar - RSPCB",21-03-2024 00:00:00,27.608912,75.153302,SO2,3,9,6
India,Rajasthan,Sikar,"Radhakishan Pura, Sikar - RSPCB",21-03-2024 00:00:00,27.608912,75.153302,CO,15,101,48
India,Rajasthan,Sri Ganganagar,"Old City, Sri Ganganagar - RSPCB",21-03-2024 00:00:00,29.931624,73.864511,OZONE,2,77,42
India,Rajasthan,Tonk,"Shastri Nagar, Tonk - RSPCB",21-03-2024 00:00:00,26.159933,75.780517,NH3,4,47,9
India,TamilNadu,Ariyalur,"Keelapalur, Ariyalur - TNPCB",21-03-2024 00:00:00,11.06825,79.07033,PM10,NA,NA,NA
India,TamilNadu,Chengalpattu,"Crescent University, Chengalpattu - TNPCB",21-03-2024 00:00:00,12.8777316,80.0834807,SO2,20,21,20
India,TamilNadu,Chengalpattu,"Crescent University, Chengalpattu - TNPCB",21-03-2024 00:00:00,12.8777316,80.0834807,OZONE,6,6,6
India,TamilNadu,Chennai,"Alandur Bus Depot, Chennai - CPCB",21-03-2024 00:00:00,12.9099161,80.1076538,NH3,2,24,7
India,TamilNadu,Chennai,"Alandur Bus Depot, Chennai - CPCB",21-03-2024 00:00:00,12.9099161,80.1076538,OZONE,4,10,7
India,TamilNadu,Chennai,"Kodungaiyur, Chennai - TNPCB",21-03-2024 00:00:00,13.1278,80.2642,PM2.5,15,57,28
India,TamilNadu,Chennai,"Manali, Chennai - CPCB",21-03-2024 00:00:00,13.164544,80.26285,PM2.5,39,85,53
India,TamilNadu,Chennai,"Perungudi, Chennai - TNPCB",21-03-2024 00:00:00,12.9533,80.2357,PM2.5,NA,NA,NA
India,TamilNadu,Chennai,"Perungudi, Chennai - TNPCB",21-03-2024 00:00:00,12.9533,80.2357,PM10,NA,NA,NA
India,TamilNadu,Chennai,"Royapuram, Chennai - TNPCB",21-03-2024 00:00:00,13.1036,80.2909,PM10,32,62,49
India,TamilNadu,Chennai,"Royapuram, Chennai - TNPCB",21-03-2024 00:00:00,13.1036,80.2909,SO2,1,16,6
India,TamilNadu,Chennai,"Royapuram, Chennai - TNPCB",21-03-2024 00:00:00,13.1036,80.2909,OZONE,7,18,9
India,TamilNadu,Cuddalore,"Kudikadu, Cuddalore - TNPCB",21-03-2024 00:00:00,11.6829898,79.7532099,NO2,22,31,26
India,TamilNadu,Kanchipuram,"Kilambi, Kanchipuram - TNPCB",21-03-2024 00:00:00,12.864618,79.659968,PM2.5,NA,NA,NA
India,TamilNadu,Ooty,"Bombay Castel, Ooty - TNPCB",21-03-2024 00:00:00,11.4068288,76.7138973,PM2.5,22,173,69
India,TamilNadu,Ooty,"Bombay Castel, Ooty - TNPCB",21-03-2024 00:00:00,11.4068288,76.7138973,NO2,NA,NA,NA
India,TamilNadu,Ooty,"Bombay Castel, Ooty - TNPCB",21-03-2024 00:00:00,11.4068288,76.7138973,CO,20,22,20
India,TamilNadu,Ooty,"Bombay Castel, Ooty - TNPCB",21-03-2024 00:00:00,11.4068288,76.7138973,OZONE,4,5,5
India,TamilNadu,Palkalaiperur,"Bharathidasan University, Palkalaiperur - TNPCB",21-03-2024 00:00:00,10.681158,78.741746,PM2.5,29,66,46
India,TamilNadu,Palkalaiperur,"Bharathidasan University, Palkalaiperur - TNPCB",21-03-2024 00:00:00,10.681158,78.741746,PM10,35,84,57
India,TamilNadu,Ramanathapuram,"Chalai Bazaar, Ramanathapuram - TNPCB",21-03-2024 00:00:00,9.36399,78.831977,NH3,1,1,1
India,TamilNadu,Thoothukudi,"Meelavittan, Thoothukudi - TNPCB",21-03-2024 00:00:00,8.816428 ,78.099039,SO2,9,20,14
India,TamilNadu,Vellore,"Vasanthapuram, Vellore - TNPCB",21-03-2024 00:00:00,12.909494,79.131861,NO2,2,10,5
India,TamilNadu,Vellore,"Vasanthapuram, Vellore - TNPCB",21-03-2024 00:00:00,12.909494,79.131861,SO2,NA,NA,NA
India,TamilNadu,Virudhunagar,"Collectorate Office, Virudhunagar - TNPCB",21-03-2024 00:00:00,9.559382,77.948828,NH3,NA,NA,NA
India,Telangana,Hyderabad,"Bollaram Industrial Area, Hyderabad - TSPCB",21-03-2024 00:00:00,17.540891,78.358528,PM2.5,41,90,64
India,Telangana,Hyderabad,"Bollaram Industrial Area, Hyderabad - TSPCB",21-03-2024 00:00:00,17.540891,78.358528,PM10,NA,NA,NA
India,Telangana,Hyderabad,"Bollaram Industrial Area, Hyderabad - TSPCB",21-03-2024 00:00:00,17.540891,78.358528,CO,9,44,26
India,Telangana,Hyderabad,"Central University, Hyderabad - TSPCB",21-03-2024 00:00:00,17.460103,78.334361,PM10,62,98,75
India,Telangana,Hyderabad,"Central University, Hyderabad - TSPCB",21-03-2024 00:00:00,17.460103,78.334361,SO2,6,12,8
India,Telangana,Hyderabad,"ECIL Kapra, Hyderabad - TSPCB",21-03-2024 00:00:00,17.470431,78.566959,NO2,9,12,11
India,Telangana,Hyderabad,"IITH Kandi, Hyderabad - TSPCB",21-03-2024 00:00:00,17.585705,78.126199,NH3,NA,NA,NA
India,Telangana,Hyderabad,"IITH Kandi, Hyderabad - TSPCB",21-03-2024 00:00:00,17.585705,78.126199,SO2,NA,NA,NA
India,Telangana,Hyderabad,"IITH Kandi, Hyderabad - TSPCB",21-03-2024 00:00:00,17.585705,78.126199,OZONE,12,23,23
India,Telangana,Hyderabad,"Kokapet, Hyderabad - TSPCB",21-03-2024 00:00:00,17.393559,78.339194,PM2.5,44,87,57
India,Telangana,Hyderabad,"Kokapet, Hyderabad - TSPCB",21-03-2024 00:00:00,17.393559,78.339194,NH3,2,2,2
India,Telangana,Hyderabad,"Kompally Municipal Office, Hyderabad - TSPCB",21-03-2024 00:00:00,17.544899,78.486949,OZONE,8,74,55
India,Telangana,Hyderabad,"Nacharam_TSIIC IALA, Hyderabad - TSPCB",21-03-2024 00:00:00,17.429398,78.569354,PM10,68,77,72
India,Telangana,Hyderabad,"Nacharam_TSIIC IALA, Hyderabad - TSPCB",21-03-2024 00:00:00,17.429398,78.569354,SO2,1,44,16
India,Telangana,Hyderabad,"New Malakpet, Hyderabad - TSPCB",21-03-2024 00:00:00,17.37206,78.50864,PM10,59,75,66
India,Telangana,Hyderabad,"Sanathnagar, Hyderabad - TSPCB",21-03-2024 00:00:00,17.4559458,78.4332152,SO2,1,32,7
India,Telangana,Hyderabad,"Somajiguda, Hyderabad - TSPCB",21-03-2024 00:00:00,17.417094,78.457437,NO2,NA,NA,NA
India,Telangana,Hyderabad,"Somajiguda, Hyderabad - TSPCB",21-03-2024 00:00:00,17.417094,78.457437,NH3,NA,NA,NA
India,Telangana,Hyderabad,"Zoo Park, Hyderabad - TSPCB",21-03-2024 00:00:00,17.349694,78.451437,PM2.5,NA,NA,NA
India,Telangana,Hyderabad,"Zoo Park, Hyderabad - TSPCB",21-03-2024 00:00:00,17.349694,78.451437,PM10,NA,NA,NA
India,Telangana,Hyderabad,"Zoo Park, Hyderabad - TSPCB",21-03-2024 00:00:00,17.349694,78.451437,NH3,NA,NA,NA
India,Telangana,Hyderabad,"Zoo Park, Hyderabad - TSPCB",21-03-2024 00:00:00,17.349694,78.451437,CO,38,68,55
India,Uttar_Pradesh,Agra,"Manoharpur, Agra - UPPCB",21-03-2024 00:00:00,27.23711,78.01936,NH3,1,2,1
India,Uttar_Pradesh,Agra,"Sanjay Palace, Agra - UPPCB",21-03-2024 00:00:00,27.19865833,78.00598056,PM10,44,98,72
India,Uttar_Pradesh,Agra,"Sanjay Palace, Agra - UPPCB",21-03-2024 00:00:00,27.19865833,78.00598056,NO2,31,66,46
India,Uttar_Pradesh,Agra,"Sanjay Palace, Agra - UPPCB",21-03-2024 00:00:00,27.19865833,78.00598056,SO2,5,10,9
India,Uttar_Pradesh,Agra,"Sector-3B Avas Vikas Colony, Agra - UPPCB",21-03-2024 00:00:00,27.19412,77.96237,PM10,45,130,87
India,Uttar_Pradesh,Agra,"Sector-3B Avas Vikas Colony, Agra - UPPCB",21-03-2024 00:00:00,27.19412,77.96237,SO2,23,26,24
India,Uttar_Pradesh,Agra,"Shastripuram, Agra - UPPCB",21-03-2024 00:00:00,27.19862,77.92066,PM2.5,43,273,133
India,Uttar_Pradesh,Baghpat,"Sardar Patel Inter College, Baghpat - UPPCB",21-03-2024 00:00:00,28.964949,77.278761,CO,17,100,42
India,Uttar_Pradesh,Bareilly,"Civil Lines, Bareilly - UPPCB",21-03-2024 00:00:00,28.359581,79.414455,PM2.5,25,69,42
India,Uttar_Pradesh,Bareilly,"Civil Lines, Bareilly - UPPCB",21-03-2024 00:00:00,28.359581,79.414455,OZONE,5,44,19
India,Uttar_Pradesh,Bareilly,"Rajendra Nagar, Bareilly - UPPCB",21-03-2024 00:00:00,28.38910936,79.42963708,NO2,17,99,44
India,Uttar_Pradesh,Bareilly,"Rajendra Nagar, Bareilly - UPPCB",21-03-2024 00:00:00,28.38910936,79.42963708,CO,14,53,27
India,Uttar_Pradesh,Bareilly,"Rajendra Nagar, Bareilly - UPPCB",21-03-2024 00:00:00,28.38910936,79.42963708,OZONE,8,35,23
India,Uttar_Pradesh,Bulandshahr,"Yamunapuram, Bulandshahr - UPPCB",21-03-2024 00:00:00,28.406963,77.849831,PM2.5,33,324,139
India,Uttar_Pradesh,Firozabad,"Nagla Bhau, Firozabad - UPPCB",21-03-2024 00:00:00,27.168897,78.376960,PM2.5,22,128,62
India,Uttar_Pradesh,Firozabad,"Nagla Bhau, Firozabad - UPPCB",21-03-2024 00:00:00,27.168897,78.376960,NO2,17,17,17
India,Uttar_Pradesh,Ghaziabad,"Indirapuram, Ghaziabad - UPPCB",21-03-2024 00:00:00,28.646233,77.358075,NH3,4,14,11
India,Uttar_Pradesh,Ghaziabad,"Indirapuram, Ghaziabad - UPPCB",21-03-2024 00:00:00,28.646233,77.358075,SO2,5,21,13
India,Uttar_Pradesh,Ghaziabad,"Loni, Ghaziabad - UPPCB",21-03-2024 00:00:00,28.757294,77.278792,SO2,11,38,23
India,Uttar_Pradesh,Ghaziabad,"Sanjay Nagar, Ghaziabad - UPPCB",21-03-2024 00:00:00,28.685382,77.453839,NO2,15,105,62
India,Uttar_Pradesh,Gorakhpur,"Madan Mohan Malaviya University of Technology, Gorakhpur - UPPCB",21-03-2024 00:00:00,26.730136,83.433859,PM2.5,54,280,168
India,Uttar_Pradesh,Gorakhpur,"Madan Mohan Malaviya University of Technology, Gorakhpur - UPPCB",21-03-2024 00:00:00,26.730136,83.433859,OZONE,6,26,22
India,Uttar_Pradesh,Greater Noida,"Knowledge Park - III, Greater Noida - UPPCB",21-03-2024 00:00:00,28.47272,77.482000,SO2,13,55,23
India,Uttar_Pradesh,Greater Noida,"Knowledge Park - III, Greater Noida - UPPCB",21-03-2024 00:00:00,28.47272,77.482000,OZONE,7,73,43
India,Uttar_Pradesh,Greater Noida,"Knowledge Park - V, Greater Noida - UPPCB",21-03-2024 00:00:00,28.557054,77.453663,PM10,114,500,282
India,Uttar_Pradesh,Greater Noida,"Knowledge Park - V, Greater Noida - UPPCB",21-03-2024 00:00:00,28.557054,77.453663,SO2,9,47,25
India,Uttar_Pradesh,Hapur,"Anand Vihar, Hapur - UPPCB",21-03-2024 00:00:00,28.725645,77.749675,PM2.5,25,281,142
India,Uttar_Pradesh,Hapur,"Anand Vihar, Hapur - UPPCB",21-03-2024 00:00:00,28.725645,77.749675,PM10,43,148,109
India,Uttar_Pradesh,Jhansi,"Shivaji Nagar, Jhansi - UPPCB",21-03-2024 00:00:00,25.4547,78.6039,SO2,12,17,14
India,Uttar_Pradesh,Kanpur,"NSI Kalyanpur, Kanpur - UPPCB",21-03-2024 00:00:00,26.509954,80.249612,NO2,13,14,14
India,Uttar_Pradesh,Kanpur,"Nehru Nagar, Kanpur - UPPCB",21-03-2024 00:00:00,26.4703136,80.3229863,OZONE,8,98,71
India,Uttar_Pradesh,Khurja,"Kalindi Kunj, Khurja - UPPCB",21-03-2024 00:00:00,28.2348927,77.8683002,NO2,3,4,3
India,Uttar_Pradesh,Lucknow,"B R Ambedkar University, Lucknow - UPPCB",21-03-2024 00:00:00,26.766433,80.927299,PM2.5,53,309,161
India,Uttar_Pradesh,Lucknow,"B R Ambedkar University, Lucknow - UPPCB",21-03-2024 00:00:00,26.766433,80.927299,PM10,84,341,161
India,Uttar_Pradesh,Lucknow,"B R Ambedkar University, Lucknow - UPPCB",21-03-2024 00:00:00,26.766433,80.927299,NO2,11,12,11
India,Uttar_Pradesh,Lucknow,"B R Ambedkar University, Lucknow - UPPCB",21-03-2024 00:00:00,26.766433,80.927299,NH3,5,8,6
India,Uttar_Pradesh,Lucknow,"Gomti Nagar, Lucknow - UPPCB",21-03-2024 00:00:00,26.868120,81.005119,PM2.5,38,392,176
India,Uttar_Pradesh,Lucknow,"Gomti Nagar, Lucknow - UPPCB",21-03-2024 00:00:00,26.868120,81.005119,SO2,2,17,11
India,Uttar_Pradesh,Lucknow,"Kukrail Picnic Spot-1, Lucknow - UPPCB",21-03-2024 00:00:00,26.90723,80.98579,NH3,2,2,2
India,Uttar_Pradesh,Lucknow,"Kukrail Picnic Spot-1, Lucknow - UPPCB",21-03-2024 00:00:00,26.90723,80.98579,CO,16,36,18
India,Uttar_Pradesh,Lucknow,"Lalbagh, Lucknow - CPCB",21-03-2024 00:00:00,26.8458805,80.9365541,NO2,3,15,8
India,Uttar_Pradesh,Lucknow,"Talkatora District Industries Center, Lucknow - CPCB",21-03-2024 00:00:00,26.83399722,80.8917361,NO2,49,89,69
India,Uttar_Pradesh,Meerut,"Ganga Nagar, Meerut - UPPCB",21-03-2024 00:00:00,28.999264,77.7590354,PM10,54,172,132
India,Uttar_Pradesh,Meerut,"Pallavpuram Phase 2, Meerut - UPPCB",21-03-2024 00:00:00,29.063510,77.709723,NO2,7,97,55
India,Uttar_Pradesh,Moradabad,"Buddhi Vihar, Moradabad - UPPCB",21-03-2024 00:00:00,28.83526,78.74460,PM2.5,35,244,124
India,Uttar_Pradesh,Moradabad,"Buddhi Vihar, Moradabad - UPPCB",21-03-2024 00:00:00,28.83526,78.74460,SO2,24,36,28
India,Uttar_Pradesh,Moradabad,"Buddhi Vihar, Moradabad - UPPCB",21-03-2024 00:00:00,28.83526,78.74460,CO,25,68,31
India,Uttar_Pradesh,Moradabad,"Buddhi Vihar, Moradabad - UPPCB",21-03-2024 00:00:00,28.83526,78.74460,OZONE,12,38,27
India,Uttar_Pradesh,Moradabad,"Eco Herbal Park, Moradabad - UPPCB",21-03-2024 00:00:00,28.840739,78.697531,NO2,10,57,31
India,Uttar_Pradesh,Moradabad,"Eco Herbal Park, Moradabad - UPPCB",21-03-2024 00:00:00,28.840739,78.697531,SO2,12,27,20
India,Uttar_Pradesh,Moradabad,"Employment Office, Moradabad - UPPCB",21-03-2024 00:00:00,28.88528,78.73880,NH3,3,4,4
India,Uttar_Pradesh,Moradabad,"Employment Office, Moradabad - UPPCB",21-03-2024 00:00:00,28.88528,78.73880,CO,11,56,24
India,Uttar_Pradesh,Moradabad,"Jigar Colony, Moradabad - UPPCB",21-03-2024 00:00:00,28.856664,78.772638,PM2.5,26,115,66
India,Uttar_Pradesh,Moradabad,"Jigar Colony, Moradabad - UPPCB",21-03-2024 00:00:00,28.856664,78.772638,NH3,5,5,5
India,Uttar_Pradesh,Moradabad,"Kashiram Nagar, Moradabad - UPPCB",21-03-2024 00:00:00,28.849399,78.742362,NO2,12,50,34
India,Uttar_Pradesh,Moradabad,"Transport Nagar, Moradabad - UPPCB",21-03-2024 00:00:00,28.802625,78.753728,PM2.5,30,173,84
India,Uttar_Pradesh,Muzaffarnagar,"New Mandi, Muzaffarnagar - UPPCB",21-03-2024 00:00:00,29.4723508,77.7194031,PM2.5,43,341,187
India,Uttar_Pradesh,Muzaffarnagar,"New Mandi, Muzaffarnagar - UPPCB",21-03-2024 00:00:00,29.4723508,77.7194031,PM10,77,265,155
India,Uttar_Pradesh,Muzaffarnagar,"New Mandi, Muzaffarnagar - UPPCB",21-03-2024 00:00:00,29.4723508,77.7194031,OZONE,19,83,66
India,Uttar_Pradesh,Noida,"Sector - 125, Noida - UPPCB",21-03-2024 00:00:00,28.5447608,77.3231257,NO2,18,301,142
India,Uttar_Pradesh,Noida,"Sector - 125, Noida - UPPCB",21-03-2024 00:00:00,28.5447608,77.3231257,NH3,2,18,13
India,Uttar_Pradesh,Noida,"Sector - 62, Noida - IMD",21-03-2024 00:00:00,28.6245479,77.3577104,CO,22,46,31
India,Uttar_Pradesh,Noida,"Sector-1, Noida - UPPCB",21-03-2024 00:00:00,28.5898,77.3101,PM2.5,24,367,191
India,Uttar_Pradesh,Noida,"Sector-1, Noida - UPPCB",21-03-2024 00:00:00,28.5898,77.3101,NH3,1,5,3
India,Uttar_Pradesh,Prayagraj,"Jhunsi, Prayagraj - UPPCB",21-03-2024 00:00:00,25.425602,81.917152,NO2,6,6,6
India,Uttar_Pradesh,Prayagraj,"Jhunsi, Prayagraj - UPPCB",21-03-2024 00:00:00,25.425602,81.917152,SO2,30,32,31
India,Uttar_Pradesh,Prayagraj,"Motilal Nehru NIT, Prayagraj - UPPCB",21-03-2024 00:00:00,25.494,81.863,CO,4,57,10
India,Uttar_Pradesh,Prayagraj,"Motilal Nehru NIT, Prayagraj - UPPCB",21-03-2024 00:00:00,25.494,81.863,OZONE,5,64,28
India,Uttar_Pradesh,Prayagraj,"Nagar Nigam, Prayagraj - UPPCB",21-03-2024 00:00:00,25.44919916 ,81.82735986 ,PM10,45,206,121
India,Uttar_Pradesh,Varanasi,"Ardhali Bazar, Varanasi - UPPCB",21-03-2024 00:00:00,25.3505986,82.9083074,PM10,8,40,16
India,Uttar_Pradesh,Varanasi,"IESD Banaras Hindu University, Varanasi - UPPCB",21-03-2024 00:00:00,25.262326,82.995408,NH3,1,2,2
India,Uttar_Pradesh,Varanasi,"IESD Banaras Hindu University, Varanasi - UPPCB",21-03-2024 00:00:00,25.262326,82.995408,CO,4,8,6
India,Uttar_Pradesh,Varanasi,"Maldahiya, Varanasi - UPPCB",21-03-2024 00:00:00,25.32393,82.99687,SO2,19,21,20
India,Uttar_Pradesh,Varanasi,"Maldahiya, Varanasi - UPPCB",21-03-2024 00:00:00,25.32393,82.99687,CO,1,34,23
India,Uttar_Pradesh,Varanasi,"Maldahiya, Varanasi - UPPCB",21-03-2024 00:00:00,25.32393,82.99687,OZONE,1,6,4
India,Uttarakhand,Dehradun,"Doon University, Dehradun - UKPCB",21-03-2024 00:00:00,30.269444,78.044167,SO2,1,3,1
India,Uttarakhand,Rishikesh,"Shivaji Nagar, Rishikesh - UKPCB",21-03-2024 00:00:00,30.075911,78.2859547,NH3,2,3,3
India,Uttarakhand,Rishikesh,"Shivaji Nagar, Rishikesh - UKPCB",21-03-2024 00:00:00,30.075911,78.2859547,OZONE,17,99,70
India,West_Bengal,Asansol,"Asansol Court Area, Asansol - WBPCB",21-03-2024 00:00:00,23.685297,86.945968,OZONE,14,22,19
India,West_Bengal,Barrackpore,"SVSPA Campus, Barrackpore - WBPCB",21-03-2024 00:00:00,22.7605581,88.3617589,PM10,NA,NA,NA
India,West_Bengal,Durgapur,"Sidhu Kanhu Indoor Stadium, Durgapur - WBPCB",21-03-2024 00:00:00,23.5404352,87.2892225,NO2,22,28,25
India,West_Bengal,Durgapur,"Sidhu Kanhu Indoor Stadium, Durgapur - WBPCB",21-03-2024 00:00:00,23.5404352,87.2892225,NH3,3,3,3
India,West_Bengal,Haldia,"Priyambada Housing Estate, Haldia - WBPCB",21-03-2024 00:00:00,22.06047,88.109737,SO2,12,32,20
India,West_Bengal,Howrah,"Belur Math, Howrah - WBPCB",21-03-2024 00:00:00,22.629801,88.352017,PM10,24,85,43
India,West_Bengal,Howrah,"Belur Math, Howrah - WBPCB",21-03-2024 00:00:00,22.629801,88.352017,NO2,13,25,21
India,West_Bengal,Howrah,"Ghusuri, Howrah - WBPCB",21-03-2024 00:00:00,22.611968,88.347422,CO,2,36,12
India,West_Bengal,Howrah,"Padmapukur, Howrah - WBPCB",21-03-2024 00:00:00,22.5687319,88.2797276,OZONE,3,24,15
India,West_Bengal,Kolkata,"Ballygunge, Kolkata - WBPCB",21-03-2024 00:00:00,22.5367507,88.3638022,PM2.5,22,60,35
India,West_Bengal,Kolkata,"Ballygunge, Kolkata - WBPCB",21-03-2024 00:00:00,22.5367507,88.3638022,SO2,5,14,9
India,West_Bengal,Kolkata,"Bidhannagar, Kolkata - WBPCB",21-03-2024 00:00:00,22.58157048,88.41002457,PM10,34,87,48
India,West_Bengal,Kolkata,"Bidhannagar, Kolkata - WBPCB",21-03-2024 00:00:00,22.58157048,88.41002457,CO,4,24,19
India,West_Bengal,Kolkata,"Bidhannagar, Kolkata - WBPCB",21-03-2024 00:00:00,22.58157048,88.41002457,OZONE,2,51,20
India,West_Bengal,Kolkata,"Fort William, Kolkata - WBPCB",21-03-2024 00:00:00,22.556640,88.342674,PM10,33,73,45
India,West_Bengal,Kolkata,"Jadavpur, Kolkata - WBPCB",21-03-2024 00:00:00,22.49929,88.36917,NH3,7,7,7
India,West_Bengal,Kolkata,"Jadavpur, Kolkata - WBPCB",21-03-2024 00:00:00,22.49929,88.36917,CO,17,24,21
India,West_Bengal,Kolkata,"Rabindra Bharati University, Kolkata - WBPCB",21-03-2024 00:00:00,22.627847,88.380669,NO2,16,22,20
India,West_Bengal,Kolkata,"Rabindra Bharati University, Kolkata - WBPCB",21-03-2024 00:00:00,22.627847,88.380669,NH3,7,7,7
India,West_Bengal,Kolkata,"Rabindra Bharati University, Kolkata - WBPCB",21-03-2024 00:00:00,22.627847,88.380669,SO2,8,18,12
India,West_Bengal,Kolkata,"Rabindra Bharati University, Kolkata - WBPCB",21-03-2024 00:00:00,22.627847,88.380669,OZONE,3,36,15
India,West_Bengal,Kolkata,"Victoria, Kolkata - WBPCB",21-03-2024 00:00:00,22.5448082,88.3403691,NH3,1,2,2
India,Andhra_Pradesh,Amaravati,"Secretariat, Amaravati - APPCB",21-03-2024 00:00:00,16.5150833,80.5181667,OZONE,10,68,47
India,Andhra_Pradesh,Chittoor,"Gangineni Cheruvu, Chittoor - APPCB",21-03-2024 00:00:00,13.204880,79.097889,PM2.5,50,330,123
India,Andhra_Pradesh,Chittoor,"Gangineni Cheruvu, Chittoor - APPCB",21-03-2024 00:00:00,13.204880,79.097889,SO2,8,15,11
India,Andhra_Pradesh,Kadapa,"Yerramukkapalli, Kadapa - APPCB",21-03-2024 00:00:00,14.465052,78.824187,SO2,1,3,2
India,Andhra_Pradesh,Rajamahendravaram,"Anand Kala Kshetram, Rajamahendravaram - APPCB",21-03-2024 00:00:00,16.9872867,81.7363176,PM2.5,15,76,54
India,Andhra_Pradesh,Rajamahendravaram,"Anand Kala Kshetram, Rajamahendravaram - APPCB",21-03-2024 00:00:00,16.9872867,81.7363176,PM10,14,104,67
India,Andhra_Pradesh,Rajamahendravaram,"Anand Kala Kshetram, Rajamahendravaram - APPCB",21-03-2024 00:00:00,16.9872867,81.7363176,NO2,11,31,18
India,Andhra_Pradesh,Rajamahendravaram,"Anand Kala Kshetram, Rajamahendravaram - APPCB",21-03-2024 00:00:00,16.9872867,81.7363176,NH3,2,5,3
India,Andhra_Pradesh,Tirupati,"Vaikuntapuram, Tirupati - APPCB",21-03-2024 00:00:00,13.615387,79.409230,NO2,15,22,18
India,Andhra_Pradesh,Vijayawada,"Kanuru, Vijayawada - APPCB",21-03-2024 00:00:00,16.486692,80.699436,NO2,NA,NA,NA
India,Andhra_Pradesh,Vijayawada,"Kanuru, Vijayawada - APPCB",21-03-2024 00:00:00,16.486692,80.699436,SO2,NA,NA,NA
India,Andhra_Pradesh,Vijayawada,"Kanuru, Vijayawada - APPCB",21-03-2024 00:00:00,16.486692,80.699436,OZONE,NA,NA,NA
India,Andhra_Pradesh,Vijayawada,"Rajiv Gandhi Park, Vijayawada - APPCB",21-03-2024 00:00:00,16.509717,80.612222,PM10,55,92,69
India,Andhra_Pradesh,Vijayawada,"Rajiv Nagar, Vijayawada - APPCB",21-03-2024 00:00:00,16.554731,80.649110,NH3,1,1,1
India,Andhra_Pradesh,Visakhapatnam,"GVM Corporation, Visakhapatnam - APPCB",21-03-2024 00:00:00,17.72,83.3,CO,12,92,39
India,Arunachal_Pradesh,Naharlagun,"Naharlagun, Naharlagun - APSPCB",21-03-2024 00:00:00,27.103358,93.679645,CO,21,41,30
India,Assam,Byrnihat,"Central Academy for SFS, Byrnihat - PCBA",21-03-2024 00:00:00,26.071318,91.87488,PM2.5,147,443,315
India,Assam,Byrnihat,"Central Academy for SFS, Byrnihat - PCBA",21-03-2024 00:00:00,26.071318,91.87488,PM10,107,418,238
India,Assam,Guwahati,"IITG, Guwahati - PCBA",21-03-2024 00:00:00,26.2028636,91.70046436,PM10,119,302,176
India,Assam,Guwahati,"LGBI Airport, Guwahati - PCBA",21-03-2024 00:00:00,26.10887,91.589544,NH3,1,7,3
India,Assam,Guwahati,"LGBI Airport, Guwahati - PCBA",21-03-2024 00:00:00,26.10887,91.589544,CO,7,76,11
India,Assam,Guwahati,"Pan Bazaar, Guwahati - PCBA",21-03-2024 00:00:00,26.187500,91.744194,PM10,117,255,171
India,Assam,Guwahati,"Pan Bazaar, Guwahati - PCBA",21-03-2024 00:00:00,26.187500,91.744194,SO2,64,82,73
India,Assam,Nagaon,"Christianpatty, Nagaon - PCBA",21-03-2024 00:00:00,26.349082,92.68449,SO2,2,11,8
India,Assam,Nalbari,"Bata Chowk, Nalbari - PCBA",21-03-2024 00:00:00,26.446912,91.439057,NO2,13,30,19
India,Assam,Silchar,"Tarapur, Silchar - PCBA",21-03-2024 00:00:00,24.82827,92.79525,PM2.5,19,44,34
India,Assam,Silchar,"Tarapur, Silchar - PCBA",21-03-2024 00:00:00,24.82827,92.79525,OZONE,1,3,2
India,Assam,Sivasagar,"Girls College, Sivasagar - PCBA",21-03-2024 00:00:00,26.987634,94.636574,CO,8,36,9
India,Bihar,Araria,"Kharahiya Basti, Araria - BSPCB",21-03-2024 00:00:00,26.146529,87.454184,PM10,NA,NA,NA
India,Bihar,Arrah,"New DM Office, Arrah - BSPCB",21-03-2024 00:00:00,25.5626095,84.663264,NH3,4,6,4
India,Bihar,Arrah,"New DM Office, Arrah - BSPCB",21-03-2024 00:00:00,25.5626095,84.663264,SO2,14,21,18
India,Bihar,Arrah,"New DM Office, Arrah - BSPCB",21-03-2024 00:00:00,25.5626095,84.663264,OZONE,12,40,14
India,Bihar,Aurangabad,"Gurdeo Nagar, Aurangabad - BSPCB",21-03-2024 00:00:00,24.75746,84.366208,CO,41,82,58
India,Bihar,Bhagalpur,"DM Office_Kachari Chowk, Bhagalpur - BSPCB",21-03-2024 00:00:00,25.251013,86.989001,NO2,15,79,44
India,Bihar,Bhagalpur,"Mayaganj, Bhagalpur - BSPCB",21-03-2024 00:00:00,25.265194,87.012947,OZONE,14,29,21
India,Bihar,Bihar Sharif,"D M Colony, Bihar Sharif - BSPCB",21-03-2024 00:00:00,25.204762,85.514960,OZONE,4,4,4
India,Bihar,Buxar,"Charitra Van, Buxar - BSPCB (Formerly known as Central Jail)",21-03-2024 00:00:00,25.567520,83.966379,NH3,3,3,3
India,Bihar,Buxar,"Charitra Van, Buxar - BSPCB (Formerly known as Central Jail)",21-03-2024 00:00:00,25.567520,83.966379,SO2,15,20,17
India,Bihar,Chhapra,"Darshan Nagar, Chhapra - BSPCB",21-03-2024 00:00:00,25.7808257,84.7446768,PM10,32,149,66
India,Bihar,Chhapra,"Darshan Nagar, Chhapra - BSPCB",21-03-2024 00:00:00,25.7808257,84.7446768,NH3,7,15,10
India,Bihar,Chhapra,"Darshan Nagar, Chhapra - BSPCB",21-03-2024 00:00:00,25.7808257,84.7446768,CO,20,47,25
India,Bihar,Gaya,"Collectorate, Gaya - BSPCB",21-03-2024 00:00:00,24.7955,84.9994,SO2,6,17,10
India,Bihar,Gaya,"Kareemganj, Gaya - BSPCB",21-03-2024 00:00:00,24.792403,84.992416,PM2.5,NA,NA,NA
India,Bihar,Gaya,"Kareemganj, Gaya - BSPCB",21-03-2024 00:00:00,24.792403,84.992416,NO2,30,31,30
India,Bihar,Gaya,"Kareemganj, Gaya - BSPCB",21-03-2024 00:00:00,24.792403,84.992416,NH3,1,5,3
India,Bihar,Hajipur,"Industrial Area, Hajipur - BSPCB",21-03-2024 00:00:00,25.697189,85.245900,PM10,22,128,71
India,Bihar,Hajipur,"Industrial Area, Hajipur - BSPCB",21-03-2024 00:00:00,25.697189,85.245900,SO2,6,10,7
India,Bihar,Hajipur,"Industrial Area, Hajipur - BSPCB",21-03-2024 00:00:00,25.697189,85.245900,CO,33,48,40
India,Bihar,Katihar,"Mirchaibari, Katihar - BSPCB",21-03-2024 00:00:00,25.560083,87.553265,CO,13,106,53
India,Bihar,Kishanganj,"SDM Office_Khagra, Kishanganj - BSPCB",21-03-2024 00:00:00,26.0881305,87.93840336,SO2,1,38,12
India,Bihar,Kishanganj,"SDM Office_Khagra, Kishanganj - BSPCB",21-03-2024 00:00:00,26.0881305,87.93840336,CO,2,9,5
India,Bihar,Kishanganj,"SDM Office_Khagra, Kishanganj - BSPCB",21-03-2024 00:00:00,26.0881305,87.93840336,OZONE,27,37,28
India,Bihar,Motihari,"Gandak Colony, Motihari - BSPCB",21-03-2024 00:00:00,26.63086,84.90051,NO2,20,101,58
India,Bihar,Motihari,"Gandak Colony, Motihari - BSPCB",21-03-2024 00:00:00,26.63086,84.90051,OZONE,19,55,28
India,Bihar,Munger,"Town Hall, Munger - BSPCB",21-03-2024 00:00:00,25.376776,86.471523,NO2,7,10,9
India,Bihar,Munger,"Town Hall, Munger - BSPCB",21-03-2024 00:00:00,25.376776,86.471523,NH3,1,2,2
India,Bihar,Munger,"Town Hall, Munger - BSPCB",21-03-2024 00:00:00,25.376776,86.471523,CO,2,16,9
India,Bihar,Muzaffarpur,"MIT-Daudpur Kothi, Muzaffarpur - BSPCB",21-03-2024 00:00:00,26.1403345,85.3650192,NH3,NA,NA,NA
India,Bihar,Muzaffarpur,"Muzaffarpur Collectorate, Muzaffarpur - BSPCB",21-03-2024 00:00:00,26.1209,85.3647,PM2.5,35,303,116
India,Bihar,Muzaffarpur,"Muzaffarpur Collectorate, Muzaffarpur - BSPCB",21-03-2024 00:00:00,26.1209,85.3647,NO2,8,18,11
India,Bihar,Patna,"DRM Office Danapur, Patna - BSPCB",21-03-2024 00:00:00,25.586562,85.043586,OZONE,4,28,26
India,Bihar,Patna,"Muradpur, Patna - BSPCB",21-03-2024 00:00:00,25.619651,85.147382,PM2.5,6,331,75
India,Bihar,Patna,"Rajbansi Nagar, Patna - BSPCB",21-03-2024 00:00:00,25.599486,85.113666,CO,14,63,36
India,Bihar,Patna,"Samanpura, Patna - BSPCB",21-03-2024 00:00:00,25.596727,85.085624,NH3,10,14,12
India,Bihar,Patna,"Samanpura, Patna - BSPCB",21-03-2024 00:00:00,25.596727,85.085624,CO,38,60,44
India,Bihar,Patna,"Samanpura, Patna - BSPCB",21-03-2024 00:00:00,25.596727,85.085624,OZONE,54,94,84
India,Bihar,Rajgir,"Dangi Tola, Rajgir - BSPCB",21-03-2024 00:00:00,25.03280,85.41948,NH3,NA,NA,NA
India,Bihar,Saharsa,"Police Line, Saharsa - BSPCB",21-03-2024 00:00:00,25.892357,86.590325,PM2.5,NA,NA,NA
India,Bihar,Saharsa,"Police Line, Saharsa - BSPCB",21-03-2024 00:00:00,25.892357,86.590325,PM10,NA,NA,NA
India,Bihar,Samastipur,"DM Office_Kasipur, Samastipur - BSPCB",21-03-2024 00:00:00,25.859655,85.77944,PM2.5,NA,NA,NA
India,Bihar,Sasaram,"Dada Peer, Sasaram - BSPCB",21-03-2024 00:00:00,24.952822,84.002396,NO2,10,21,15
India,Bihar,Siwan,"Chitragupta Nagar, Siwan - BSPCB",21-03-2024 00:00:00,26.2271665,84.3570427,NO2,NA,NA,NA
India,Chandigarh,Chandigarh,"Sector 22, Chandigarh - CPCC",21-03-2024 00:00:00,30.735567,76.775714,PM10,36,151,92
India,Chandigarh,Chandigarh,"Sector 22, Chandigarh - CPCC",21-03-2024 00:00:00,30.735567,76.775714,OZONE,5,196,106
India,Chandigarh,Chandigarh,"Sector-25, Chandigarh - CPCC",21-03-2024 00:00:00,30.751462,76.762879,NH3,13,22,17
India,Chandigarh,Chandigarh,"Sector-25, Chandigarh - CPCC",21-03-2024 00:00:00,30.751462,76.762879,CO,13,40,21
India,Chandigarh,Chandigarh,"Sector-53, Chandigarh - CPCC",21-03-2024 00:00:00,30.719859,76.738637,NH3,3,7,4
India,Chhattisgarh,Bhilai,"32Bungalows, Bhilai - CECB",21-03-2024 00:00:00,21.194815,81.314770,PM2.5,12,27,20
India,Chhattisgarh,Bhilai,"32Bungalows, Bhilai - CECB",21-03-2024 00:00:00,21.194815,81.314770,SO2,4,6,5
India,Chhattisgarh,Bhilai,"Civic Center, Bhilai - Bhilai Steel Plant",21-03-2024 00:00:00,21.185571,81.343175,PM10,14,48,28
India,Chhattisgarh,Bilaspur,"Mangala, Bilaspur - NTPC",21-03-2024 00:00:00,22.08815,82.13737,PM10,13,43,26
India,Chhattisgarh,Bilaspur,"Mangala, Bilaspur - NTPC",21-03-2024 00:00:00,22.08815,82.13737,NO2,17,20,19
India,Chhattisgarh,Chhal,"Nawapara SECL Colony, Chhal - CECB",21-03-2024 00:00:00,22.118125,83.140608,NH3,2,2,2
India,Chhattisgarh,Korba,"Rampur, Korba - CECB",21-03-2024 00:00:00,22.368195,82.746431,NO2,28,37,31
India,Chhattisgarh,Korba,"Urja Nagar, Korba - CECB",21-03-2024 00:00:00,22.348441,82.549611,PM10,11,49,26
India,Chhattisgarh,Korba,"Urja Nagar, Korba - CECB",21-03-2024 00:00:00,22.348441,82.549611,SO2,4,31,10
India,Chhattisgarh,Korba,"Urja Nagar, Korba - CECB",21-03-2024 00:00:00,22.348441,82.549611,OZONE,1,30,7
India,Chhattisgarh,Raipur,"Bhatagaon New ISBT, Raipur - CECB",21-03-2024 00:00:00,21.219665,81.630094,PM2.5,1,40,18
India,Chhattisgarh,Raipur,"Bhatagaon New ISBT, Raipur - CECB",21-03-2024 00:00:00,21.219665,81.630094,NO2,42,70,55
India,Chhattisgarh,Raipur,"Krishak Nagar, Raipur - CECB",21-03-2024 00:00:00,21.237755,81.705301,PM10,NA,NA,NA
India,Chhattisgarh,Raipur,"Krishak Nagar, Raipur - CECB",21-03-2024 00:00:00,21.237755,81.705301,NO2,NA,NA,NA
India,Chhattisgarh,Raipur,"Siltara Phase-II, Raipur - CECB",21-03-2024 00:00:00,21.371751,81.664929,PM2.5,18,50,31
India,Chhattisgarh,Raipur,"Siltara Phase-II, Raipur - CECB",21-03-2024 00:00:00,21.371751,81.664929,PM10,24,140,69
India,Chhattisgarh,Raipur,"Siltara Phase-II, Raipur - CECB",21-03-2024 00:00:00,21.371751,81.664929,CO,1,33,16
India,Chhattisgarh,Tumidih,"OP Jindal Industrial Park, Tumidih - CECB",21-03-2024 00:00:00,22.06631475,83.33820077,OZONE,18,60,41
India,Delhi,Delhi,"Alipur, Delhi - DPCC",21-03-2024 00:00:00,28.815329,77.153010,NO2,7,102,49
India,Delhi,Delhi,"Ashok Vihar, Delhi - DPCC",21-03-2024 00:00:00,28.695381,77.181665,CO,8,100,47
India,Delhi,Delhi,"Ashok Vihar, Delhi - DPCC",21-03-2024 00:00:00,28.695381,77.181665,OZONE,2,19,9
India,Delhi,Delhi,"Aya Nagar, Delhi - IMD",21-03-2024 00:00:00,28.4706914,77.1099364,PM2.5,73,383,224
India,Delhi,Delhi,"Bawana, Delhi - DPCC",21-03-2024 00:00:00,28.776200,77.051074,NH3,5,8,6
India,Delhi,Delhi,"Burari Crossing, Delhi - IMD",21-03-2024 00:00:00,28.7256504,77.2011573,NO2,4,5,4
India,Delhi,Delhi,"CRRI Mathura Road, Delhi - IMD",21-03-2024 00:00:00,28.5512005,77.2735737,CO,2,129,46
India,Delhi,Delhi,"Chandni Chowk, Delhi - IITM",21-03-2024 00:00:00,28.656756,77.227234,NH3,7,40,16
India,Delhi,Delhi,"Chandni Chowk, Delhi - IITM",21-03-2024 00:00:00,28.656756,77.227234,SO2,1,111,33
India,Delhi,Delhi,"DTU, Delhi - CPCB",21-03-2024 00:00:00,28.7500499,77.1112615,PM10,78,412,233
India,Delhi,Delhi,"Dr. Karni Singh Shooting Range, Delhi - DPCC",21-03-2024 00:00:00,28.498571,77.264840,NO2,30,156,102
India,Delhi,Delhi,"Dr. Karni Singh Shooting Range, Delhi - DPCC",21-03-2024 00:00:00,28.498571,77.264840,SO2,14,91,29
India,Delhi,Delhi,"Dwarka-Sector 8, Delhi - DPCC ",21-03-2024 00:00:00,28.5710274,77.0719006,PM2.5,51,419,268
India,Delhi,Delhi,"Dwarka-Sector 8, Delhi - DPCC ",21-03-2024 00:00:00,28.5710274,77.0719006,SO2,6,40,17
India,Delhi,Delhi,"IGI Airport (T3), Delhi - IMD",21-03-2024 00:00:00,28.5627763,77.1180053,PM2.5,21,377,221
India,Delhi,Delhi,"IHBAS, Dilshad Garden, Delhi - CPCB",21-03-2024 00:00:00,28.6811736,77.3025234,PM2.5,57,153,87
India,Delhi,Delhi,"IHBAS, Dilshad Garden, Delhi - CPCB",21-03-2024 00:00:00,28.6811736,77.3025234,NO2,29,53,40
India,Delhi,Delhi,"IHBAS, Dilshad Garden, Delhi - CPCB",21-03-2024 00:00:00,28.6811736,77.3025234,NH3,3,7,5
India,Delhi,Delhi,"IHBAS, Dilshad Garden, Delhi - CPCB",21-03-2024 00:00:00,28.6811736,77.3025234,SO2,7,24,15
India,Delhi,Delhi,"IHBAS, Dilshad Garden, Delhi - CPCB",21-03-2024 00:00:00,28.6811736,77.3025234,CO,47,89,56
India,Delhi,Delhi,"ITO, Delhi - CPCB",21-03-2024 00:00:00,28.628624,77.241060,PM2.5,39,350,213
India,Delhi,Delhi,"ITO, Delhi - CPCB",21-03-2024 00:00:00,28.628624,77.241060,SO2,10,37,17
India,Delhi,Delhi,"ITO, Delhi - CPCB",21-03-2024 00:00:00,28.628624,77.241060,CO,18,124,59
India,Delhi,Delhi,"Lodhi Road, Delhi - IITM",21-03-2024 00:00:00,28.588333,77.221667,NO2,82,118,93
India,Delhi,Delhi,"Major Dhyan Chand National Stadium, Delhi - DPCC",21-03-2024 00:00:00,28.611281,77.237738,PM2.5,51,387,203
India,Delhi,Delhi,"Major Dhyan Chand National Stadium, Delhi - DPCC",21-03-2024 00:00:00,28.611281,77.237738,PM10,73,293,163
India,Delhi,Delhi,"Major Dhyan Chand National Stadium, Delhi - DPCC",21-03-2024 00:00:00,28.611281,77.237738,CO,35,116,64
India,Delhi,Delhi,"Mandir Marg, Delhi - DPCC",21-03-2024 00:00:00,28.636429,77.201067,PM10,46,191,128
India,Delhi,Delhi,"Mandir Marg, Delhi - DPCC",21-03-2024 00:00:00,28.636429,77.201067,OZONE,1,24,13
India,Delhi,Delhi,"Mundka, Delhi - DPCC",21-03-2024 00:00:00,28.684678,77.076574,NH3,3,7,5
India,Delhi,Delhi,"Mundka, Delhi - DPCC",21-03-2024 00:00:00,28.684678,77.076574,SO2,14,106,49
India,Delhi,Delhi,"NSIT Dwarka, Delhi - CPCB",21-03-2024 00:00:00,28.60909,77.0325413,NO2,24,44,36
India,Delhi,Delhi,"NSIT Dwarka, Delhi - CPCB",21-03-2024 00:00:00,28.60909,77.0325413,CO,34,96,54
India,Delhi,Delhi,"Najafgarh, Delhi - DPCC",21-03-2024 00:00:00,28.570173,76.933762,NO2,4,24,13
India,Delhi,Delhi,"Narela, Delhi - DPCC",21-03-2024 00:00:00,28.822836,77.101981,PM2.5,47,341,233
India,Delhi,Delhi,"Nehru Nagar, Delhi - DPCC",21-03-2024 00:00:00,28.567890,77.250515,OZONE,2,132,60
India,Delhi,Delhi,"Okhla Phase-2, Delhi - DPCC",21-03-2024 00:00:00,28.530785,77.271255,OZONE,10,128,61
India,Delhi,Delhi,"Patparganj, Delhi - DPCC",21-03-2024 00:00:00,28.623763,77.287209,PM2.5,22,147,86
India,Delhi,Delhi,"Patparganj, Delhi - DPCC",21-03-2024 00:00:00,28.623763,77.287209,SO2,15,22,19
India,Delhi,Delhi,"Patparganj, Delhi - DPCC",21-03-2024 00:00:00,28.623763,77.287209,OZONE,4,103,56
India,Delhi,Delhi,"Pusa, Delhi - DPCC",21-03-2024 00:00:00,28.639652,77.146275,NO2,35,172,96
India,Delhi,Delhi,"Pusa, Delhi - DPCC",21-03-2024 00:00:00,28.639652,77.146275,CO,8,90,59
India,Delhi,Delhi,"Pusa, Delhi - DPCC",21-03-2024 00:00:00,28.639652,77.146275,OZONE,9,108,43
India,Delhi,Delhi,"R K Puram, Delhi - DPCC",21-03-2024 00:00:00,28.563262,77.186937,NH3,1,4,2
India,Delhi,Delhi,"Rohini, Delhi - DPCC",21-03-2024 00:00:00,28.732528,77.119920,OZONE,3,121,60
India,Delhi,Delhi,"Shadipur, Delhi - CPCB",21-03-2024 00:00:00,28.6514781,77.1473105,NO2,43,53,48
India,Delhi,Delhi,"Sonia Vihar, Delhi - DPCC",21-03-2024 00:00:00,28.710508,77.249485,PM10,69,226,175
India,Delhi,Delhi,"Sri Aurobindo Marg, Delhi - DPCC",21-03-2024 00:00:00,28.531346,77.190156,PM2.5,38,353,187
India,Delhi,Delhi,"Sri Aurobindo Marg, Delhi - DPCC",21-03-2024 00:00:00,28.531346,77.190156,NH3,6,10,8
India,Delhi,Delhi,"Vivek Vihar, Delhi - DPCC",21-03-2024 00:00:00,28.672342,77.315260,PM10,NA,NA,NA
India,Gujarat,Ahmedabad,"Chandkheda, Ahmedabad - IITM",21-03-2024 00:00:00,23.107969,72.574648,PM10,60,141,110
India,Gujarat,Ahmedabad,"Chandkheda, Ahmedabad - IITM",21-03-2024 00:00:00,23.107969,72.574648,NO2,29,35,31
India,Gujarat,Ahmedabad,"Chandkheda, Ahmedabad - IITM",21-03-2024 00:00:00,23.107969,72.574648,CO,1,101,49
India,Gujarat,Ahmedabad,"Maninagar, Ahmedabad - GPCB",21-03-2024 00:00:00,23.002657,72.591912,NO2,25,97,56
India,Gujarat,Ahmedabad,"Raikhad, Ahmedabad - IITM",21-03-2024 00:00:00,23.020509,72.579261,CO,28,120,67
India,Gujarat,Ahmedabad,"Rakhial, Ahmedabad - IITM",21-03-2024 00:00:00,23.016834,72.625775,PM2.5,96,335,179
India,Gujarat,Ahmedabad,"Rakhial, Ahmedabad - IITM",21-03-2024 00:00:00,23.016834,72.625775,PM10,111,280,159
India,Gujarat,Ahmedabad,"SAC ISRO Satellite, Ahmedabad - IITM",21-03-2024 00:00:00,23.023389,72.515201,PM2.5,129,135,134
India,Gujarat,Ahmedabad,"SVPI Airport Hansol, Ahmedabad - IITM",21-03-2024 00:00:00,23.076793,72.627874,NH3,4,5,4
India,Gujarat,Ahmedabad,"SVPI Airport Hansol, Ahmedabad - IITM",21-03-2024 00:00:00,23.076793,72.627874,OZONE,2,38,19
India,Gujarat,Ankleshwar,"GIDC, Ankleshwar - GPCB",21-03-2024 00:00:00,21.613267,73.010555,OZONE,20,32,27
India,Gujarat,Gandhinagar,"GIFT City, Gandhinagar - IITM",21-03-2024 00:00:00,23.163798,72.677768,PM2.5,84,313,155
India,Gujarat,Gandhinagar,"GIFT City, Gandhinagar - IITM",21-03-2024 00:00:00,23.163798,72.677768,SO2,8,13,10
India,Gujarat,Gandhinagar,"GIFT City, Gandhinagar - IITM",21-03-2024 00:00:00,23.163798,72.677768,OZONE,6,50,27
India,Gujarat,Gandhinagar,"IIPHG Lekawada, Gandhinagar - IITM",21-03-2024 00:00:00,23.243639,72.68994,CO,21,24,23
India,Gujarat,Gandhinagar,"Sector-10, Gandhinagar - GPCB",21-03-2024 00:00:00,23.221714,72.654328,NH3,1,1,1
India,Gujarat,Nandesari,"GIDC, Nandesari - Nandesari Ind. Association",21-03-2024 00:00:00,22.410802,73.097923,PM2.5,97,460,287
India,Gujarat,Vapi,"Phase-1 GIDC, Vapi - GPCB",21-03-2024 00:00:00,20.362421,72.918013,NO2,6,6,6
India,Gujarat,Vatva,"Phase-4 GIDC, Vatva - GPCB",21-03-2024 00:00:00,22.969611,72.643500,OZONE,9,75,35
India,Haryana,Bahadurgarh,"Arya Nagar, Bahadurgarh - HSPCB",21-03-2024 00:00:00,28.6701,76.9254,SO2,17,37,23
India,Haryana,Ballabgarh,"Nathu Colony, Ballabgarh - HSPCB",21-03-2024 00:00:00,28.3419248,77.319699,PM2.5,166,403,319
India,Haryana,Ballabgarh,"Nathu Colony, Ballabgarh - HSPCB",21-03-2024 00:00:00,28.3419248,77.319699,OZONE,2,32,28
India,Haryana,Charkhi Dadri,"Mini Secretariat, Charkhi Dadri - HSPCB",21-03-2024 00:00:00,28.593883,76.270653,PM2.5,18,228,129
India,Haryana,Charkhi Dadri,"Mini Secretariat, Charkhi Dadri - HSPCB",21-03-2024 00:00:00,28.593883,76.270653,CO,30,62,42
India,Haryana,Dharuhera,"Municipal Corporation Office, Dharuhera -  HSPCB",21-03-2024 00:00:00,28.206800,76.799700,PM10,30,412,229
India,Haryana,Dharuhera,"Municipal Corporation Office, Dharuhera -  HSPCB",21-03-2024 00:00:00,28.206800,76.799700,OZONE,13,199,57
India,Haryana,Faridabad,"New Industrial Town, Faridabad - HSPCB",21-03-2024 00:00:00,28.39072,77.30059,SO2,14,17,15
India,Haryana,Faridabad,"Sector 11, Faridabad - HSPCB",21-03-2024 00:00:00,28.376058,77.315741,PM10,144,500,257
India,Haryana,Faridabad,"Sector 11, Faridabad - HSPCB",21-03-2024 00:00:00,28.376058,77.315741,CO,36,86,55
India,Haryana,Faridabad,"Sector 30, Faridabad - HSPCB",21-03-2024 00:00:00,28.4417,77.3217,PM10,137,152,143
India,Haryana,Faridabad,"Sector- 16A, Faridabad - HSPCB",21-03-2024 00:00:00,28.4088421,77.3099081,NO2,2,17,10
India,Haryana,Fatehabad,"Huda Sector, Fatehabad - HSPCB",21-03-2024 00:00:00,29.503664,75.467934,NH3,12,14,13
India,Haryana,Gurugram,"Sector-51, Gurugram - HSPCB",21-03-2024 00:00:00,28.4227,77.0667,PM10,107,455,262
India,Haryana,Gurugram,"Sector-51, Gurugram - HSPCB",21-03-2024 00:00:00,28.4227,77.0667,NO2,13,29,23
India,Haryana,Gurugram,"Sector-51, Gurugram - HSPCB",21-03-2024 00:00:00,28.4227,77.0667,CO,42,110,59
India,Haryana,Gurugram,"Teri Gram, Gurugram - HSPCB",21-03-2024 00:00:00,28.4275,77.1465,SO2,3,5,4
India,Haryana,Gurugram,"Vikas Sadan, Gurugram - HSPCB",21-03-2024 00:00:00,28.4501238,77.0263051,PM2.5,26,277,160
India,Haryana,Gurugram,"Vikas Sadan, Gurugram - HSPCB",21-03-2024 00:00:00,28.4501238,77.0263051,CO,54,149,112
India,Haryana,Kaithal,"Rishi Nagar, Kaithal - HSPCB",21-03-2024 00:00:00,29.8006,76.4155,NH3,8,8,8
India,Haryana,Karnal,"Sector-12, Karnal - HSPCB",21-03-2024 00:00:00,29.695300,77.002700,PM2.5,NA,NA,NA
India,Haryana,Karnal,"Sector-12, Karnal - HSPCB",21-03-2024 00:00:00,29.695300,77.002700,PM10,NA,NA,NA
India,Haryana,Karnal,"Sector-12, Karnal - HSPCB",21-03-2024 00:00:00,29.695300,77.002700,CO,NA,NA,NA
India,Haryana,Kurukshetra,"Sector-7, Kurukshetra - HSPCB",21-03-2024 00:00:00,29.966942,76.875879,PM10,81,133,107
India,Haryana,Mandikhera,"General Hospital, Mandikhera - HSPCB",21-03-2024 00:00:00,27.9002,76.9938,PM10,76,146,105
India,Haryana,Mandikhera,"General Hospital, Mandikhera - HSPCB",21-03-2024 00:00:00,27.9002,76.9938,NH3,17,21,19
India,Haryana,Mandikhera,"General Hospital, Mandikhera - HSPCB",21-03-2024 00:00:00,27.9002,76.9938,OZONE,22,29,27
India,Haryana,Manesar,"Sector-2 IMT, Manesar - HSPCB",21-03-2024 00:00:00,28.360699,76.936090,SO2,3,11,7
India,Haryana,Narnaul,"Shastri Nagar, Narnaul - HSPCB",21-03-2024 00:00:00,28.060249,76.113115,PM10,24,104,55
India,Haryana,Narnaul,"Shastri Nagar, Narnaul - HSPCB",21-03-2024 00:00:00,28.060249,76.113115,NO2,12,75,35
India,Haryana,Narnaul,"Shastri Nagar, Narnaul - HSPCB",21-03-2024 00:00:00,28.060249,76.113115,OZONE,35,52,41
India,Haryana,Panipat,"Sector-18, Panipat - HSPCB",21-03-2024 00:00:00,29.497973,76.993331,CO,24,26,24
India,Haryana,Rohtak,"MD University, Rohtak - HSPCB",21-03-2024 00:00:00,28.52123,76.37138,PM2.5,6,353,166
India,Haryana,Rohtak,"MD University, Rohtak - HSPCB",21-03-2024 00:00:00,28.52123,76.37138,SO2,5,9,7
India,Haryana,Sirsa,"F-Block, Sirsa - HSPCB",21-03-2024 00:00:00,29.536400,75.015800,SO2,1,12,6
India,Haryana,Sonipat,"Murthal, Sonipat - HSPCB",21-03-2024 00:00:00,29.027200,77.062100,OZONE,17,36,27
India,Haryana,Yamuna Nagar,"Gobind Pura, Yamuna Nagar - HSPCB",21-03-2024 00:00:00,30.1480566,77.2893471,NH3,1,6,4
India,Haryana,Yamuna Nagar,"Gobind Pura, Yamuna Nagar - HSPCB",21-03-2024 00:00:00,30.1480566,77.2893471,SO2,1,55,6
India,Haryana,Yamuna Nagar,"Gobind Pura, Yamuna Nagar - HSPCB",21-03-2024 00:00:00,30.1480566,77.2893471,CO,2,89,44
India,Himachal Pradesh,Baddi,"HIMUDA Complex Phase-1, Baddi - HPPCB",21-03-2024 00:00:00,30.943887,76.801991,CO,8,62,44
India,Jharkhand,Dhanbad,"Kalakusuma, Dhanbad - DMC",21-03-2024 00:00:00,23.811548,86.481238,CO,129,140,131
India,Jharkhand,Dhanbad,"Sardar Patel Nagar, Dhanbad - JSPCB",21-03-2024 00:00:00,23.80569,86.44268,PM2.5,NA,NA,NA
India,Jharkhand,Pathardih,"Mohalbani Ghat, Pathardih - DMC",21-03-2024 00:00:00,23.669880,86.411725,NO2,NA,NA,NA
India,Karnataka,Bagalkot,"Vidayagiri, Bagalkot - KSPCB",21-03-2024 00:00:00,16.172806,75.659694,NO2,9,9,9
India,Karnataka,Bengaluru,"BTM Layout, Bengaluru - CPCB",21-03-2024 00:00:00,12.9135218,77.5950804,PM2.5,NA,NA,NA
India,Karnataka,Bengaluru,"Hebbal, Bengaluru - KSPCB",21-03-2024 00:00:00,13.029152,77.585901,PM2.5,NA,NA,NA
India,Karnataka,Bengaluru,"Hebbal, Bengaluru - KSPCB",21-03-2024 00:00:00,13.029152,77.585901,PM10,NA,NA,NA
India,Karnataka,Bengaluru,"Hombegowda Nagar, Bengaluru - KSPCB",21-03-2024 00:00:00,12.938539,77.590100,PM2.5,84,152,104
India,Karnataka,Bengaluru,"Jayanagar 5th Block, Bengaluru - KSPCB",21-03-2024 00:00:00,12.920984,77.584908,SO2,16,40,27
India,Karnataka,Bengaluru,"Jayanagar 5th Block, Bengaluru - KSPCB",21-03-2024 00:00:00,12.920984,77.584908,CO,9,30,20
India,Karnataka,Bengaluru,"Kasturi Nagar, Bengaluru - KSPCB",21-03-2024 00:00:00,13.003872,77.664217,PM2.5,93,241,163
India,Karnataka,Bengaluru,"Kasturi Nagar, Bengaluru - KSPCB",21-03-2024 00:00:00,13.003872,77.664217,NH3,3,4,4
India,Karnataka,Bengaluru,"Kasturi Nagar, Bengaluru - KSPCB",21-03-2024 00:00:00,13.003872,77.664217,OZONE,32,172,99
India,Karnataka,Bengaluru,"Peenya, Bengaluru - CPCB",21-03-2024 00:00:00,13.0270199,77.494094,SO2,4,9,6
India,Karnataka,Bengaluru,"Shivapura_Peenya, Bengaluru - KSPCB",21-03-2024 00:00:00,13.0246342,77.5080115,OZONE,54,55,54
India,Karnataka,Bidar,"Naubad, Bidar - KSPCB",21-03-2024 00:00:00,17.930306,77.482194,SO2,15,20,16
India,Karnataka,Chamarajanagar,"Urban, Chamarajanagar - KSPCB",21-03-2024 00:00:00,11.55358,76.55521,NH3,1,2,2
India,Karnataka,Chamarajanagar,"Urban, Chamarajanagar - KSPCB",21-03-2024 00:00:00,11.55358,76.55521,CO,19,33,22
India,Karnataka,Chikkaballapur,"Chikkaballapur Rural, Chikkaballapur - KSPCB",21-03-2024 00:00:00,13.428828,77.731418,PM2.5,62,99,83
India,Karnataka,Chikkamagaluru,"Kalyana Nagara, Chikkamagaluru - KSPCB",21-03-2024 00:00:00,13.328028,75.797056,NO2,15,29,21
India,Karnataka,Chikkamagaluru,"Kalyana Nagara, Chikkamagaluru - KSPCB",21-03-2024 00:00:00,13.328028,75.797056,NH3,3,5,4
India,Karnataka,Davanagere,"Devaraj Urs Badavane, Davanagere - KSPCB",21-03-2024 00:00:00,14.475800,75.905200,PM10,61,144,100
India,Karnataka,Gadag,"Panchal Nagar, Gadag - KSPCB",21-03-2024 00:00:00,15.411456,75.638133,PM2.5,22,86,51
India,Karnataka,Gadag,"Panchal Nagar, Gadag - KSPCB",21-03-2024 00:00:00,15.411456,75.638133,CO,43,60,49
India,Karnataka,Hassan,"B.Katihalli, Hassan - KSPCB",21-03-2024 00:00:00,13.008556,76.125258,NO2,10,36,20
India,Karnataka,Hassan,"B.Katihalli, Hassan - KSPCB",21-03-2024 00:00:00,13.008556,76.125258,NH3,3,6,4
India,Karnataka,Hassan,"B.Katihalli, Hassan - KSPCB",21-03-2024 00:00:00,13.008556,76.125258,OZONE,4,34,16
India,Karnataka,Haveri,"Ashwini Nagar, Haveri - KSPCB",21-03-2024 00:00:00,14.791800,75.389600,PM10,NA,NA,NA
India,Karnataka,Hubballi,"Deshpande Nagar, Hubballi - KSPCB",21-03-2024 00:00:00,15.351773,75.140726,PM10,NA,NA,NA
India,Karnataka,Hubballi,"Deshpande Nagar, Hubballi - KSPCB",21-03-2024 00:00:00,15.351773,75.140726,NO2,26,27,27
India,Karnataka,Hubballi,"Deshpande Nagar, Hubballi - KSPCB",21-03-2024 00:00:00,15.351773,75.140726,CO,74,127,114
India,Karnataka,Hubballi,"Deshpande Nagar, Hubballi - KSPCB",21-03-2024 00:00:00,15.351773,75.140726,OZONE,30,83,63
India,Karnataka,Kalaburagi,"Lal Bahadur Shastri Nagar, Kalaburagi - KSPCB",21-03-2024 00:00:00,17.321993,76.822628,CO,36,43,39
India,Karnataka,Kalaburagi,"Lal Bahadur Shastri Nagar, Kalaburagi - KSPCB",21-03-2024 00:00:00,17.321993,76.822628,OZONE,3,34,23
India,Karnataka,Kalaburagi,"Mahatma Basaveswar Colony, Kalaburgi - KSPCB",21-03-2024 00:00:00,17.336318,76.847397,NO2,NA,NA,NA
India,Karnataka,Kalaburagi,"Mahatma Basaveswar Colony, Kalaburgi - KSPCB",21-03-2024 00:00:00,17.336318,76.847397,CO,34,45,40
India,Karnataka,Karwar,"KHB Colony, Karwar - KSPCB",21-03-2024 00:00:00,14.816666,74.141003,PM2.5,75,200,99
India,Karnataka,Karwar,"KHB Colony, Karwar - KSPCB",21-03-2024 00:00:00,14.816666,74.141003,CO,7,8,7
India,Karnataka,Kolar,"Tamaka Ind. Area, Kolar - KSPCB",21-03-2024 00:00:00,13.1276288,78.1570122,NO2,20,32,25
India,Karnataka,Koppal,"Diwator Nagar, Koppal - KSPCB",21-03-2024 00:00:00,15.347630,76.181767,PM2.5,26,56,40
India,Karnataka,Koppal,"Diwator Nagar, Koppal - KSPCB",21-03-2024 00:00:00,15.347630,76.181767,NO2,1,40,11
India,Karnataka,Madikeri,"Stuart Hill, Madikeri - KSPCB",21-03-2024 00:00:00,12.415911,75.735050,NH3,1,1,1
India,Karnataka,Mangalore,"Kadri, Mangalore - KSPCB",21-03-2024 00:00:00,12.889250,74.853000,NH3,1,2,2
