country,state,city,station,last_update,latitude,longitude,pollutant_id,pollutant_min,pollutant_max,pollutant_avg
India,Andhra_Pradesh,Anantapur,"Gulzarpet, Anantapur - APPCB",10-02-2024 06:00:00,14.675886,77.593027,CO,22,61,25
India,Andhra_Pradesh,Chittoor,"Gangineni Cheruvu, Chittoor - APPCB",10-02-2024 06:00:00,13.204880,79.097889,PM10,NA,NA,NA
India,Andhra_Pradesh,Chittoor,"Gangineni Cheruvu, Chittoor - APPCB",10-02-2024 06:00:00,13.204880,79.097889,NO2,NA,NA,NA
India,Andhra_Pradesh,Kadapa,"Yerramukkapalli, Kadapa - APPCB",10-02-2024 06:00:00,14.465052,78.824187,SO2,1,2,1
India,Andhra_Pradesh,Rajamahendravaram,"Anand Kala Kshetram, Rajamahendravaram - APPCB",10-02-2024 06:00:00,16.9872867,81.7363176,NO2,9,34,18
India,Andhra_Pradesh,Vijayawada,"HB Colony, Vijayawada - APPCB",10-02-2024 06:00:00,16.536107,80.594233,NH3,4,5,4
India,Andhra_Pradesh,Vijayawada,"HB Colony, Vijayawada - APPCB",10-02-2024 06:00:00,16.536107,80.594233,SO2,4,6,5
India,Andhra_Pradesh,Vijayawada,"Rajiv Gandhi Park, Vijayawada - APPCB",10-02-2024 06:00:00,16.509717,80.612222,OZONE,1,48,2
India,Andhra_Pradesh,Vijayawada,"Rajiv Nagar, Vijayawada - APPCB",10-02-2024 06:00:00,16.554731,80.649110,PM2.5,28,168,51
India,Andhra_Pradesh,Vijayawada,"Rajiv Nagar, Vijayawada - APPCB",10-02-2024 06:00:00,16.554731,80.649110,NH3,1,4,2
India,Andhra_Pradesh,Visakhapatnam,"GVM Corporation, Visakhapatnam - APPCB",10-02-2024 06:00:00,17.72,83.3,NH3,2,10,5
India,Andhra_Pradesh,Visakhapatnam,"GVM Corporation, Visakhapatnam - APPCB",10-02-2024 06:00:00,17.72,83.3,CO,13,44,19
India,Arunachal_Pradesh,Naharlagun,"Naharlagun, Naharlagun - APSPCB",10-02-2024 06:00:00,27.103358,93.679645,PM10,23,205,81
India,Arunachal_Pradesh,Naharlagun,"Naharlagun, Naharlagun - APSPCB",10-02-2024 06:00:00,27.103358,93.679645,OZONE,2,2,2
India,Assam,Byrnihat,"Central Academy for SFS, Byrnihat - PCBA",10-02-2024 06:00:00,26.071318,91.87488,NO2,44,136,71
India,Assam,Guwahati,"IITG, Guwahati - PCBA",10-02-2024 06:00:00,26.2028636,91.70046436,NH3,5,5,5
India,Assam,Guwahati,"IITG, Guwahati - PCBA",10-02-2024 06:00:00,26.2028636,91.70046436,CO,10,40,34
India,Assam,Guwahati,"LGBI Airport, Guwahati - PCBA",10-02-2024 06:00:00,26.10887,91.589544,PM2.5,95,318,184
India,Assam,Guwahati,"LGBI Airport, Guwahati - PCBA",10-02-2024 06:00:00,26.10887,91.589544,NO2,10,69,34
India,Assam,Guwahati,"LGBI Airport, Guwahati - PCBA",10-02-2024 06:00:00,26.10887,91.589544,SO2,13,13,13
India,Assam,Guwahati,"LGBI Airport, Guwahati - PCBA",10-02-2024 06:00:00,26.10887,91.589544,CO,26,82,49
India,Assam,Guwahati,"Pan Bazaar, Guwahati - PCBA",10-02-2024 06:00:00,26.187500,91.744194,SO2,53,80,64
India,Assam,Guwahati,"Pan Bazaar, Guwahati - PCBA",10-02-2024 06:00:00,26.187500,91.744194,CO,21,112,74
India,Assam,Guwahati,"Railway Colony, Guwahati - PCBA",10-02-2024 06:00:00,26.181742,91.78063,PM2.5,NA,NA,NA
India,Assam,Guwahati,"Railway Colony, Guwahati - PCBA",10-02-2024 06:00:00,26.181742,91.78063,NO2,NA,NA,NA
India,Assam,Nagaon,"Christianpatty, Nagaon - PCBA",10-02-2024 06:00:00,26.349082,92.68449,PM2.5,27,500,230
India,Assam,Nagaon,"Christianpatty, Nagaon - PCBA",10-02-2024 06:00:00,26.349082,92.68449,PM10,92,461,186
India,Assam,Nagaon,"Christianpatty, Nagaon - PCBA",10-02-2024 06:00:00,26.349082,92.68449,NH3,2,10,4
India,Assam,Nalbari,"Bata Chowk, Nalbari - PCBA",10-02-2024 06:00:00,26.446912,91.439057,PM2.5,57,500,299
India,Assam,Nalbari,"Bata Chowk, Nalbari - PCBA",10-02-2024 06:00:00,26.446912,91.439057,CO,6,160,100
India,Assam,Silchar,"Tarapur, Silchar - PCBA",10-02-2024 06:00:00,24.82827,92.79525,PM2.5,34,46,40
India,Assam,Silchar,"Tarapur, Silchar - PCBA",10-02-2024 06:00:00,24.82827,92.79525,CO,20,40,25
India,Assam,Sivasagar,"Girls College, Sivasagar - PCBA",10-02-2024 06:00:00,26.987634,94.636574,PM2.5,23,56,35
India,Assam,Sivasagar,"Girls College, Sivasagar - PCBA",10-02-2024 06:00:00,26.987634,94.636574,NH3,3,3,3
India,Assam,Sivasagar,"Girls College, Sivasagar - PCBA",10-02-2024 06:00:00,26.987634,94.636574,SO2,5,5,5
India,Bihar,Arrah,"New DM Office, Arrah - BSPCB",10-02-2024 06:00:00,25.5626095,84.663264,NH3,4,7,5
India,Bihar,Bettiah,"Kamalnath Nagar, Bettiah - BSPCB",10-02-2024 06:00:00,26.80365,84.51954,PM2.5,35,120,65
India,Bihar,Bettiah,"Kamalnath Nagar, Bettiah - BSPCB",10-02-2024 06:00:00,26.80365,84.51954,NH3,3,3,3
India,Bihar,Bettiah,"Kamalnath Nagar, Bettiah - BSPCB",10-02-2024 06:00:00,26.80365,84.51954,CO,76,78,78
India,Bihar,Bhagalpur,"DM Office_Kachari Chowk, Bhagalpur - BSPCB",10-02-2024 06:00:00,25.251013,86.989001,SO2,3,24,16
India,Bihar,Bhagalpur,"Mayaganj, Bhagalpur - BSPCB",10-02-2024 06:00:00,25.265194,87.012947,PM10,73,188,135
India,Bihar,Bhagalpur,"Mayaganj, Bhagalpur - BSPCB",10-02-2024 06:00:00,25.265194,87.012947,OZONE,31,65,48
India,Bihar,Bihar Sharif,"D M Colony, Bihar Sharif - BSPCB",10-02-2024 06:00:00,25.204762,85.514960,PM10,NA,NA,NA
India,Bihar,Bihar Sharif,"D M Colony, Bihar Sharif - BSPCB",10-02-2024 06:00:00,25.204762,85.514960,SO2,1,16,7
India,Bihar,Buxar,"Charitra Van, Buxar - BSPCB (Formerly known as Central Jail)",10-02-2024 06:00:00,25.567520,83.966379,NO2,13,15,14
India,Bihar,Buxar,"Charitra Van, Buxar - BSPCB (Formerly known as Central Jail)",10-02-2024 06:00:00,25.567520,83.966379,SO2,4,118,32
India,Bihar,Gaya,"Collectorate, Gaya - BSPCB",10-02-2024 06:00:00,24.7955,84.9994,SO2,18,32,24
India,Bihar,Gaya,"Collectorate, Gaya - BSPCB",10-02-2024 06:00:00,24.7955,84.9994,CO,34,56,37
India,Bihar,Gaya,"Kareemganj, Gaya - BSPCB",10-02-2024 06:00:00,24.792403,84.992416,NO2,30,31,30
India,Bihar,Gaya,"Kareemganj, Gaya - BSPCB",10-02-2024 06:00:00,24.792403,84.992416,NH3,1,5,3
India,Bihar,Gaya,"SFTI Kusdihra, Gaya - BSPCB",10-02-2024 06:00:00,24.762518,84.982348,CO,58,102,94
India,Bihar,Hajipur,"Industrial Area, Hajipur - BSPCB",10-02-2024 06:00:00,25.697189,85.245900,PM10,112,421,203
India,Bihar,Hajipur,"Industrial Area, Hajipur - BSPCB",10-02-2024 06:00:00,25.697189,85.245900,OZONE,45,224,66
India,Bihar,Katihar,"Mirchaibari, Katihar - BSPCB",10-02-2024 06:00:00,25.560083,87.553265,SO2,14,18,16
India,Bihar,Kishanganj,"SDM Office_Khagra, Kishanganj - BSPCB",10-02-2024 06:00:00,26.0881305,87.93840336,PM10,142,375,239
India,Bihar,Kishanganj,"SDM Office_Khagra, Kishanganj - BSPCB",10-02-2024 06:00:00,26.0881305,87.93840336,NO2,35,48,41
India,Bihar,Manguraha,"Forest Rest House, Manguraha - BSPCB",10-02-2024 06:00:00,27.308328,84.531742,PM10,78,215,102
India,Bihar,Manguraha,"Forest Rest House, Manguraha - BSPCB",10-02-2024 06:00:00,27.308328,84.531742,OZONE,40,100,41
India,Bihar,Muzaffarpur,"Buddha Colony, Muzaffarpur - BSPCB",10-02-2024 06:00:00,26.11442,85.39813,PM10,146,420,251
India,Bihar,Muzaffarpur,"Buddha Colony, Muzaffarpur - BSPCB",10-02-2024 06:00:00,26.11442,85.39813,NH3,4,12,9
India,Bihar,Muzaffarpur,"Buddha Colony, Muzaffarpur - BSPCB",10-02-2024 06:00:00,26.11442,85.39813,SO2,5,21,11
India,Bihar,Muzaffarpur,"MIT-Daudpur Kothi, Muzaffarpur - BSPCB",10-02-2024 06:00:00,26.1403345,85.3650192,PM2.5,60,321,156
India,Bihar,Muzaffarpur,"MIT-Daudpur Kothi, Muzaffarpur - BSPCB",10-02-2024 06:00:00,26.1403345,85.3650192,CO,11,130,62
India,Bihar,Muzaffarpur,"Muzaffarpur Collectorate, Muzaffarpur - BSPCB",10-02-2024 06:00:00,26.1209,85.3647,PM2.5,91,319,194
India,Bihar,Muzaffarpur,"Muzaffarpur Collectorate, Muzaffarpur - BSPCB",10-02-2024 06:00:00,26.1209,85.3647,SO2,4,12,9
India,Bihar,Patna,"DRM Office Danapur, Patna - BSPCB",10-02-2024 06:00:00,25.586562,85.043586,PM2.5,50,247,116
India,Bihar,Patna,"DRM Office Danapur, Patna - BSPCB",10-02-2024 06:00:00,25.586562,85.043586,PM10,110,306,171
India,Bihar,Patna,"IGSC Planetarium Complex, Patna - BSPCB",10-02-2024 06:00:00,25.610369,85.132568,NO2,12,12,12
India,Bihar,Purnia,"Mariam Nagar, Purnia - BSPCB",10-02-2024 06:00:00,25.366336,87.117468,CO,26,90,77
India,Bihar,Rajgir,"Dangi Tola, Rajgir - BSPCB",10-02-2024 06:00:00,25.03280,85.41948,PM10,84,264,129
India,Bihar,Rajgir,"Dangi Tola, Rajgir - BSPCB",10-02-2024 06:00:00,25.03280,85.41948,NH3,1,3,1
India,Bihar,Saharsa,"Police Line, Saharsa - BSPCB",10-02-2024 06:00:00,25.892357,86.590325,NO2,6,9,7
India,Bihar,Saharsa,"Police Line, Saharsa - BSPCB",10-02-2024 06:00:00,25.892357,86.590325,SO2,6,101,38
India,Bihar,Saharsa,"Police Line, Saharsa - BSPCB",10-02-2024 06:00:00,25.892357,86.590325,CO,5,94,43
India,Bihar,Samastipur,"DM Office_Kasipur, Samastipur - BSPCB",10-02-2024 06:00:00,25.859655,85.77944,OZONE,9,43,15
India,Bihar,Sasaram,"Dada Peer, Sasaram - BSPCB",10-02-2024 06:00:00,24.952822,84.002396,PM2.5,23,139,65
India,Bihar,Sasaram,"Dada Peer, Sasaram - BSPCB",10-02-2024 06:00:00,24.952822,84.002396,NH3,3,12,6
India,Bihar,Siwan,"Chitragupta Nagar, Siwan - BSPCB",10-02-2024 06:00:00,26.2271665,84.3570427,PM10,NA,NA,NA
India,Bihar,Siwan,"Chitragupta Nagar, Siwan - BSPCB",10-02-2024 06:00:00,26.2271665,84.3570427,SO2,NA,NA,NA
India,Chandigarh,Chandigarh,"Sector 22, Chandigarh - CPCC",10-02-2024 06:00:00,30.735567,76.775714,PM10,120,438,179
India,Chandigarh,Chandigarh,"Sector 22, Chandigarh - CPCC",10-02-2024 06:00:00,30.735567,76.775714,SO2,4,56,17
India,Chandigarh,Chandigarh,"Sector-53, Chandigarh - CPCC",10-02-2024 06:00:00,30.719859,76.738637,SO2,6,13,9
India,Chhattisgarh,Bhilai,"32Bungalows, Bhilai - CECB",10-02-2024 06:00:00,21.194815,81.314770,PM2.5,16,45,35
India,Chhattisgarh,Bhilai,"32Bungalows, Bhilai - CECB",10-02-2024 06:00:00,21.194815,81.314770,NH3,6,6,6
India,Chhattisgarh,Bhilai,"Civic Center, Bhilai - Bhilai Steel Plant",10-02-2024 06:00:00,21.185571,81.343175,NO2,7,65,18
India,Chhattisgarh,Bhilai,"Hathkhoj, Bhilai - CECB",10-02-2024 06:00:00,21.224231,81.408350,PM10,60,142,94
India,Chhattisgarh,Bhilai,"Hathkhoj, Bhilai - CECB",10-02-2024 06:00:00,21.224231,81.408350,NO2,25,45,33
India,Chhattisgarh,Bhilai,"Hathkhoj, Bhilai - CECB",10-02-2024 06:00:00,21.224231,81.408350,OZONE,12,18,14
India,Chhattisgarh,Bilaspur,"Mangala, Bilaspur - NTPC",10-02-2024 06:00:00,22.08815,82.13737,SO2,4,44,18
India,Chhattisgarh,Chhal,"Nawapara SECL Colony, Chhal - CECB",10-02-2024 06:00:00,22.118125,83.140608,PM2.5,20,68,40
India,Chhattisgarh,Chhal,"Nawapara SECL Colony, Chhal - CECB",10-02-2024 06:00:00,22.118125,83.140608,NH3,2,2,2
India,Chhattisgarh,Korba,"Rampur, Korba - CECB",10-02-2024 06:00:00,22.368195,82.746431,NO2,25,90,53
India,Chhattisgarh,Korba,"Urja Nagar, Korba - CECB",10-02-2024 06:00:00,22.348441,82.549611,NH3,4,7,5
India,Chhattisgarh,Raipur,"AIIMS, Raipur - CECB",10-02-2024 06:00:00,21.258815,81.578979,PM10,40,156,98
India,Chhattisgarh,Raipur,"AIIMS, Raipur - CECB",10-02-2024 06:00:00,21.258815,81.578979,NO2,48,75,59
India,Chhattisgarh,Raipur,"Bhatagaon New ISBT, Raipur - CECB",10-02-2024 06:00:00,21.219665,81.630094,NO2,68,91,78
India,Chhattisgarh,Raipur,"Bhatagaon New ISBT, Raipur - CECB",10-02-2024 06:00:00,21.219665,81.630094,OZONE,3,7,3
India,Chhattisgarh,Raipur,"Krishak Nagar, Raipur - CECB",10-02-2024 06:00:00,21.237755,81.705301,SO2,8,13,10
India,Chhattisgarh,Raipur,"Siltara Phase-II, Raipur - CECB",10-02-2024 06:00:00,21.371751,81.664929,NH3,2,3,3
India,Delhi,Delhi,"Alipur, Delhi - DPCC",10-02-2024 06:00:00,28.815329,77.153010,NO2,11,98,44
India,Delhi,Delhi,"Alipur, Delhi - DPCC",10-02-2024 06:00:00,28.815329,77.153010,OZONE,4,116,4
India,Delhi,Delhi,"Anand Vihar, Delhi - DPCC",10-02-2024 06:00:00,28.647622,77.3158090,PM10,138,500,315
India,Delhi,Delhi,"Anand Vihar, Delhi - DPCC",10-02-2024 06:00:00,28.647622,77.3158090,NO2,77,288,148
India,Delhi,Delhi,"Anand Vihar, Delhi - DPCC",10-02-2024 06:00:00,28.647622,77.3158090,OZONE,17,22,20
India,Delhi,Delhi,"Ashok Vihar, Delhi - DPCC",10-02-2024 06:00:00,28.695381,77.181665,SO2,20,39,29
India,Delhi,Delhi,"Aya Nagar, Delhi - IMD",10-02-2024 06:00:00,28.4706914,77.1099364,PM10,62,248,129
India,Delhi,Delhi,"Bawana, Delhi - DPCC",10-02-2024 06:00:00,28.776200,77.051074,PM10,77,500,257
India,Delhi,Delhi,"Bawana, Delhi - DPCC",10-02-2024 06:00:00,28.776200,77.051074,CO,26,141,110
India,Delhi,Delhi,"Burari Crossing, Delhi - IMD",10-02-2024 06:00:00,28.7256504,77.2011573,PM10,83,488,207
India,Delhi,Delhi,"Burari Crossing, Delhi - IMD",10-02-2024 06:00:00,28.7256504,77.2011573,CO,91,108,97
India,Delhi,Delhi,"CRRI Mathura Road, Delhi - IMD",10-02-2024 06:00:00,28.5512005,77.2735737,PM2.5,34,384,194
India,Delhi,Delhi,"Dr. Karni Singh Shooting Range, Delhi - DPCC",10-02-2024 06:00:00,28.498571,77.264840,PM2.5,38,348,182
India,Delhi,Delhi,"Dr. Karni Singh Shooting Range, Delhi - DPCC",10-02-2024 06:00:00,28.498571,77.264840,PM10,83,298,174
India,Delhi,Delhi,"Dr. Karni Singh Shooting Range, Delhi - DPCC",10-02-2024 06:00:00,28.498571,77.264840,NO2,40,152,94
India,Delhi,Delhi,"Dr. Karni Singh Shooting Range, Delhi - DPCC",10-02-2024 06:00:00,28.498571,77.264840,SO2,5,12,8
India,Delhi,Delhi,"Dwarka-Sector 8, Delhi - DPCC ",10-02-2024 06:00:00,28.5710274,77.0719006,NO2,24,98,52
India,Delhi,Delhi,"IGI Airport (T3), Delhi - IMD",10-02-2024 06:00:00,28.5627763,77.1180053,OZONE,11,59,12
India,Delhi,Delhi,"Jahangirpuri, Delhi - DPCC",10-02-2024 06:00:00,28.732820,77.170633,PM10,110,500,282
India,Delhi,Delhi,"Jahangirpuri, Delhi - DPCC",10-02-2024 06:00:00,28.732820,77.170633,SO2,10,47,20
India,Delhi,Delhi,"Jahangirpuri, Delhi - DPCC",10-02-2024 06:00:00,28.732820,77.170633,CO,34,158,109
India,Delhi,Delhi,"Jahangirpuri, Delhi - DPCC",10-02-2024 06:00:00,28.732820,77.170633,OZONE,5,167,10
India,Delhi,Delhi,"Lodhi Road, Delhi - IMD",10-02-2024 06:00:00,28.5918245,77.2273074,NO2,8,13,10
India,Delhi,Delhi,"Major Dhyan Chand National Stadium, Delhi - DPCC",10-02-2024 06:00:00,28.611281,77.237738,PM10,62,274,161
India,Delhi,Delhi,"Mandir Marg, Delhi - DPCC",10-02-2024 06:00:00,28.636429,77.201067,PM2.5,38,400,203
India,Delhi,Delhi,"Mandir Marg, Delhi - DPCC",10-02-2024 06:00:00,28.636429,77.201067,NO2,45,124,101
India,Delhi,Delhi,"Mandir Marg, Delhi - DPCC",10-02-2024 06:00:00,28.636429,77.201067,OZONE,10,87,11
India,Delhi,Delhi,"Mundka, Delhi - DPCC",10-02-2024 06:00:00,28.684678,77.076574,CO,30,94,84
India,Delhi,Delhi,"NSIT Dwarka, Delhi - CPCB",10-02-2024 06:00:00,28.60909,77.0325413,PM2.5,56,414,212
India,Delhi,Delhi,"NSIT Dwarka, Delhi - CPCB",10-02-2024 06:00:00,28.60909,77.0325413,PM10,94,500,260
India,Delhi,Delhi,"NSIT Dwarka, Delhi - CPCB",10-02-2024 06:00:00,28.60909,77.0325413,NO2,20,71,40
India,Delhi,Delhi,"Narela, Delhi - DPCC",10-02-2024 06:00:00,28.822836,77.101981,NO2,14,104,50
India,Delhi,Delhi,"Narela, Delhi - DPCC",10-02-2024 06:00:00,28.822836,77.101981,SO2,5,11,7
India,Delhi,Delhi,"Narela, Delhi - DPCC",10-02-2024 06:00:00,28.822836,77.101981,OZONE,3,153,7
India,Delhi,Delhi,"North Campus, DU, Delhi - IMD",10-02-2024 06:00:00,28.6573814,77.1585447,PM10,71,386,191
India,Delhi,Delhi,"North Campus, DU, Delhi - IMD",10-02-2024 06:00:00,28.6573814,77.1585447,OZONE,21,34,22
India,Delhi,Delhi,"Okhla Phase-2, Delhi - DPCC",10-02-2024 06:00:00,28.530785,77.271255,PM2.5,47,379,177
India,Delhi,Delhi,"Okhla Phase-2, Delhi - DPCC",10-02-2024 06:00:00,28.530785,77.271255,OZONE,10,98,11
India,Delhi,Delhi,"Pusa, Delhi - DPCC",10-02-2024 06:00:00,28.639652,77.146275,OZONE,12,43,16
India,Delhi,Delhi,"Pusa, Delhi - IMD",10-02-2024 06:00:00,28.636110,77.173332,PM2.5,NA,NA,NA
India,Delhi,Delhi,"Pusa, Delhi - IMD",10-02-2024 06:00:00,28.636110,77.173332,OZONE,12,15,13
India,Delhi,Delhi,"Rohini, Delhi - DPCC",10-02-2024 06:00:00,28.732528,77.119920,NO2,23,81,46
India,Delhi,Delhi,"Rohini, Delhi - DPCC",10-02-2024 06:00:00,28.732528,77.119920,NH3,6,10,8
India,Delhi,Delhi,"Shadipur, Delhi - CPCB",10-02-2024 06:00:00,28.6514781,77.1473105,PM10,121,453,255
India,Delhi,Delhi,"Shadipur, Delhi - CPCB",10-02-2024 06:00:00,28.6514781,77.1473105,SO2,11,20,14
India,Delhi,Delhi,"Sirifort, Delhi - CPCB",10-02-2024 06:00:00,28.5504249,77.2159377,PM10,24,106,60
India,Delhi,Delhi,"Sirifort, Delhi - CPCB",10-02-2024 06:00:00,28.5504249,77.2159377,NH3,5,11,8
India,Delhi,Delhi,"Sonia Vihar, Delhi - DPCC",10-02-2024 06:00:00,28.710508,77.249485,PM2.5,47,331,187
India,Delhi,Delhi,"Sonia Vihar, Delhi - DPCC",10-02-2024 06:00:00,28.710508,77.249485,NO2,24,95,59
India,Delhi,Delhi,"Sonia Vihar, Delhi - DPCC",10-02-2024 06:00:00,28.710508,77.249485,SO2,4,12,7
India,Delhi,Delhi,"Sonia Vihar, Delhi - DPCC",10-02-2024 06:00:00,28.710508,77.249485,CO,46,124,83
India,Delhi,Delhi,"Sri Aurobindo Marg, Delhi - DPCC",10-02-2024 06:00:00,28.531346,77.190156,CO,16,102,75
India,Delhi,Delhi,"Wazirpur, Delhi - DPCC",10-02-2024 06:00:00,28.699793,77.165453,SO2,8,58,34
India,Gujarat,Ahmedabad,"Chandkheda, Ahmedabad - IITM",10-02-2024 06:00:00,23.107969,72.574648,NH3,3,4,4
India,Gujarat,Ahmedabad,"Chandkheda, Ahmedabad - IITM",10-02-2024 06:00:00,23.107969,72.574648,OZONE,17,22,21
India,Gujarat,Ahmedabad,"Gyaspur, Ahmedabad - IITM",10-02-2024 06:00:00,22.977134,72.553024,PM10,102,425,151
India,Gujarat,Ahmedabad,"Gyaspur, Ahmedabad - IITM",10-02-2024 06:00:00,22.977134,72.553024,CO,22,46,41
India,Gujarat,Ahmedabad,"Gyaspur, Ahmedabad - IITM",10-02-2024 06:00:00,22.977134,72.553024,OZONE,5,36,8
India,Gujarat,Ahmedabad,"Rakhial, Ahmedabad - IITM",10-02-2024 06:00:00,23.016834,72.625775,NO2,57,83,72
India,Gujarat,Ahmedabad,"Rakhial, Ahmedabad - IITM",10-02-2024 06:00:00,23.016834,72.625775,OZONE,10,31,16
India,Gujarat,Ahmedabad,"SVPI Airport Hansol, Ahmedabad - IITM",10-02-2024 06:00:00,23.076793,72.627874,PM10,47,139,79
India,Gujarat,Ahmedabad,"SVPI Airport Hansol, Ahmedabad - IITM",10-02-2024 06:00:00,23.076793,72.627874,NO2,22,23,22
India,Gujarat,Ahmedabad,"SVPI Airport Hansol, Ahmedabad - IITM",10-02-2024 06:00:00,23.076793,72.627874,OZONE,NA,NA,NA
India,Gujarat,Ahmedabad,"Sardar Vallabhbhai Patel Stadium, Ahmedabad - IITM",10-02-2024 06:00:00,23.043070,72.562968,NO2,NA,NA,NA
India,Gujarat,Ankleshwar,"GIDC, Ankleshwar - GPCB",10-02-2024 06:00:00,21.613267,73.010555,PM2.5,60,120,84
India,Gujarat,Ankleshwar,"GIDC, Ankleshwar - GPCB",10-02-2024 06:00:00,21.613267,73.010555,OZONE,20,38,27
India,Gujarat,Gandhinagar,"GIFT City, Gandhinagar - IITM",10-02-2024 06:00:00,23.163798,72.677768,PM10,54,109,76
India,Gujarat,Gandhinagar,"IIPHG Lekawada, Gandhinagar - IITM",10-02-2024 06:00:00,23.243639,72.68994,SO2,1,42,14
India,Gujarat,Gandhinagar,"IIPHG Lekawada, Gandhinagar - IITM",10-02-2024 06:00:00,23.243639,72.68994,CO,22,50,41
India,Gujarat,Gandhinagar,"Sector-10, Gandhinagar - GPCB",10-02-2024 06:00:00,23.221714,72.654328,PM10,52,146,83
India,Gujarat,Vapi,"Phase-1 GIDC, Vapi - GPCB",10-02-2024 06:00:00,20.362421,72.918013,PM2.5,82,342,194
India,Gujarat,Vatva,"Phase-4 GIDC, Vatva - GPCB",10-02-2024 06:00:00,22.969611,72.643500,PM2.5,36,191,85
India,Gujarat,Vatva,"Phase-4 GIDC, Vatva - GPCB",10-02-2024 06:00:00,22.969611,72.643500,SO2,3,8,4
India,Haryana,Ambala,"Patti Mehar, Ambala - HSPCB",10-02-2024 06:00:00,30.379589,76.778328,PM2.5,64,217,114
India,Haryana,Ambala,"Patti Mehar, Ambala - HSPCB",10-02-2024 06:00:00,30.379589,76.778328,SO2,1,9,6
India,Haryana,Bahadurgarh,"Arya Nagar, Bahadurgarh - HSPCB",10-02-2024 06:00:00,28.6701,76.9254,PM2.5,50,346,196
India,Haryana,Bahadurgarh,"Arya Nagar, Bahadurgarh - HSPCB",10-02-2024 06:00:00,28.6701,76.9254,NH3,11,13,12
India,Haryana,Ballabgarh,"Nathu Colony, Ballabgarh - HSPCB",10-02-2024 06:00:00,28.3419248,77.319699,NO2,8,14,12
India,Haryana,Ballabgarh,"Nathu Colony, Ballabgarh - HSPCB",10-02-2024 06:00:00,28.3419248,77.319699,CO,16,139,89
India,Haryana,Bhiwani,"H.B. Colony, Bhiwani - HSPCB",10-02-2024 06:00:00,28.806223,76.141105,PM10,49,114,78
India,Haryana,Bhiwani,"H.B. Colony, Bhiwani - HSPCB",10-02-2024 06:00:00,28.806223,76.141105,NH3,6,6,6
India,Haryana,Charkhi Dadri,"Mini Secretariat, Charkhi Dadri - HSPCB",10-02-2024 06:00:00,28.593883,76.270653,PM2.5,42,167,99
India,Haryana,Charkhi Dadri,"Mini Secretariat, Charkhi Dadri - HSPCB",10-02-2024 06:00:00,28.593883,76.270653,PM10,42,122,87
India,Haryana,Charkhi Dadri,"Mini Secretariat, Charkhi Dadri - HSPCB",10-02-2024 06:00:00,28.593883,76.270653,NH3,5,7,6
India,Haryana,Charkhi Dadri,"Mini Secretariat, Charkhi Dadri - HSPCB",10-02-2024 06:00:00,28.593883,76.270653,OZONE,13,17,15
India,Haryana,Faridabad,"New Industrial Town, Faridabad - HSPCB",10-02-2024 06:00:00,28.39072,77.30059,PM2.5,82,342,220
India,Haryana,Faridabad,"New Industrial Town, Faridabad - HSPCB",10-02-2024 06:00:00,28.39072,77.30059,CO,14,54,47
India,Haryana,Faridabad,"Sector 11, Faridabad - HSPCB",10-02-2024 06:00:00,28.376058,77.315741,NO2,30,33,31
India,Haryana,Faridabad,"Sector 11, Faridabad - HSPCB",10-02-2024 06:00:00,28.376058,77.315741,NH3,6,6,6
India,Haryana,Faridabad,"Sector- 16A, Faridabad - HSPCB",10-02-2024 06:00:00,28.4088421,77.3099081,PM2.5,56,338,190
India,Haryana,Faridabad,"Sector- 16A, Faridabad - HSPCB",10-02-2024 06:00:00,28.4088421,77.3099081,CO,4,107,81
India,Haryana,Fatehabad,"Huda Sector, Fatehabad - HSPCB",10-02-2024 06:00:00,29.503664,75.467934,NH3,8,9,9
India,Haryana,Gurugram,"Teri Gram, Gurugram - HSPCB",10-02-2024 06:00:00,28.4275,77.1465,NH3,23,42,32
India,Haryana,Gurugram,"Vikas Sadan, Gurugram - HSPCB",10-02-2024 06:00:00,28.4501238,77.0263051,PM2.5,62,324,180
India,Haryana,Hisar,"Urban Estate-II, Hisar - HSPCB",10-02-2024 06:00:00,29.140560,75.744941,PM10,56,123,87
India,Haryana,Hisar,"Urban Estate-II, Hisar - HSPCB",10-02-2024 06:00:00,29.140560,75.744941,NO2,7,33,10
India,Haryana,Hisar,"Urban Estate-II, Hisar - HSPCB",10-02-2024 06:00:00,29.140560,75.744941,NH3,3,5,4
India,Haryana,Hisar,"Urban Estate-II, Hisar - HSPCB",10-02-2024 06:00:00,29.140560,75.744941,CO,66,108,103
India,Haryana,Jind,"Police Lines, Jind - HSPCB",10-02-2024 06:00:00,29.307814,76.337619,PM10,49,143,91
India,Haryana,Kaithal,"Rishi Nagar, Kaithal - HSPCB",10-02-2024 06:00:00,29.8006,76.4155,NO2,24,26,25
India,Haryana,Kaithal,"Rishi Nagar, Kaithal - HSPCB",10-02-2024 06:00:00,29.8006,76.4155,NH3,8,8,8
India,Haryana,Karnal,"Sector-12, Karnal - HSPCB",10-02-2024 06:00:00,29.695300,77.002700,OZONE,29,35,30
India,Haryana,Kurukshetra,"Sector-7, Kurukshetra - HSPCB",10-02-2024 06:00:00,29.966942,76.875879,PM10,100,277,146
India,Haryana,Kurukshetra,"Sector-7, Kurukshetra - HSPCB",10-02-2024 06:00:00,29.966942,76.875879,NH3,5,5,5
India,Haryana,Kurukshetra,"Sector-7, Kurukshetra - HSPCB",10-02-2024 06:00:00,29.966942,76.875879,OZONE,1,85,3
India,Haryana,Manesar,"Sector-2 IMT, Manesar - HSPCB",10-02-2024 06:00:00,28.360699,76.936090,PM2.5,72,390,204
India,Haryana,Narnaul,"Shastri Nagar, Narnaul - HSPCB",10-02-2024 06:00:00,28.060249,76.113115,PM10,NA,NA,NA
India,Haryana,Panipat,"Sector-18, Panipat - HSPCB",10-02-2024 06:00:00,29.497973,76.993331,CO,22,41,27
India,Haryana,Panipat,"Sector-18, Panipat - HSPCB",10-02-2024 06:00:00,29.497973,76.993331,OZONE,29,50,34
India,Haryana,Rohtak,"MD University, Rohtak - HSPCB",10-02-2024 06:00:00,28.52123,76.37138,PM2.5,8,199,106
India,Haryana,Rohtak,"MD University, Rohtak - HSPCB",10-02-2024 06:00:00,28.52123,76.37138,NO2,46,57,51
India,Haryana,Sirsa,"F-Block, Sirsa - HSPCB",10-02-2024 06:00:00,29.536400,75.015800,NO2,10,10,10
India,Haryana,Sonipat,"Murthal, Sonipat - HSPCB",10-02-2024 06:00:00,29.027200,77.062100,PM2.5,59,277,118
India,Haryana,Sonipat,"Murthal, Sonipat - HSPCB",10-02-2024 06:00:00,29.027200,77.062100,PM10,58,147,88
India,Haryana,Yamuna Nagar,"Gobind Pura, Yamuna Nagar - HSPCB",10-02-2024 06:00:00,30.1480566,77.2893471,NH3,1,5,3
India,Himachal Pradesh,Baddi,"HIMUDA Complex Phase-1, Baddi - HPPCB",10-02-2024 06:00:00,30.943887,76.801991,NO2,10,52,21
India,Himachal Pradesh,Baddi,"HIMUDA Complex Phase-1, Baddi - HPPCB",10-02-2024 06:00:00,30.943887,76.801991,SO2,22,132,54
India,Jharkhand,Dhanbad,"Kalakusuma, Dhanbad - DMC",10-02-2024 06:00:00,23.811548,86.481238,SO2,32,36,35
India,Jharkhand,Dhanbad,"Sardar Patel Nagar, Dhanbad - JSPCB",10-02-2024 06:00:00,23.80569,86.44268,NO2,1,152,40
India,Karnataka,Bagalkot,"Vidayagiri, Bagalkot - KSPCB",10-02-2024 06:00:00,16.172806,75.659694,OZONE,11,47,18
India,Karnataka,Belgaum,"Ramteerth Nagar, Belgaum - KSPCB",10-02-2024 06:00:00,15.888653,74.541751,OZONE,19,20,20
India,Karnataka,Bengaluru,"Bapuji Nagar, Bengaluru - KSPCB",10-02-2024 06:00:00,12.951913,77.539784,PM10,70,111,95
India,Karnataka,Bengaluru,"City Railway Station, Bengaluru - KSPCB",10-02-2024 06:00:00,12.9756843,77.5660749,SO2,13,13,13
India,Karnataka,Bengaluru,"Hebbal, Bengaluru - KSPCB",10-02-2024 06:00:00,13.029152,77.585901,PM10,54,122,85
India,Karnataka,Bengaluru,"Hebbal, Bengaluru - KSPCB",10-02-2024 06:00:00,13.029152,77.585901,SO2,14,23,17
India,Karnataka,Bengaluru,"Hombegowda Nagar, Bengaluru - KSPCB",10-02-2024 06:00:00,12.938539,77.590100,PM2.5,33,69,49
India,Karnataka,Bengaluru,"Hombegowda Nagar, Bengaluru - KSPCB",10-02-2024 06:00:00,12.938539,77.590100,SO2,3,4,4
India,Karnataka,Bengaluru,"Jayanagar 5th Block, Bengaluru - KSPCB",10-02-2024 06:00:00,12.920984,77.584908,NH3,2,5,4
India,Karnataka,Bengaluru,"Jigani, Bengaluru - KSPCB",10-02-2024 06:00:00,12.7816279,77.6299145,NH3,3,3,3
India,Karnataka,Bengaluru,"Jigani, Bengaluru - KSPCB",10-02-2024 06:00:00,12.7816279,77.6299145,OZONE,5,74,33
India,Karnataka,Bengaluru,"Kasturi Nagar, Bengaluru - KSPCB",10-02-2024 06:00:00,13.003872,77.664217,NH3,3,4,4
India,Karnataka,Bengaluru,"Kasturi Nagar, Bengaluru - KSPCB",10-02-2024 06:00:00,13.003872,77.664217,OZONE,27,102,62
India,Karnataka,Bengaluru,"Sanegurava Halli, Bengaluru - KSPCB",10-02-2024 06:00:00,12.990328,77.5431385,CO,12,56,16
India,Karnataka,Bengaluru,"Shivapura_Peenya, Bengaluru - KSPCB",10-02-2024 06:00:00,13.0246342,77.5080115,NH3,4,4,4
India,Karnataka,Bengaluru,"Silk Board, Bengaluru - KSPCB",10-02-2024 06:00:00,12.917348,77.622813,PM10,69,121,96
India,Karnataka,Bengaluru,"Silk Board, Bengaluru - KSPCB",10-02-2024 06:00:00,12.917348,77.622813,SO2,1,7,4
India,Karnataka,Bidar,"Naubad, Bidar - KSPCB",10-02-2024 06:00:00,17.930306,77.482194,SO2,15,28,19
India,Karnataka,Chamarajanagar,"Urban, Chamarajanagar - KSPCB",10-02-2024 06:00:00,11.55358,76.55521,PM2.5,25,54,35
India,Karnataka,Chikkaballapur,"Chikkaballapur Rural, Chikkaballapur - KSPCB",10-02-2024 06:00:00,13.428828,77.731418,PM10,61,162,86
India,Karnataka,Chikkaballapur,"Chikkaballapur Rural, Chikkaballapur - KSPCB",10-02-2024 06:00:00,13.428828,77.731418,NO2,6,12,8
India,Karnataka,Chikkaballapur,"Chikkaballapur Rural, Chikkaballapur - KSPCB",10-02-2024 06:00:00,13.428828,77.731418,SO2,11,22,20
India,Karnataka,Chikkaballapur,"Chikkaballapur Rural, Chikkaballapur - KSPCB",10-02-2024 06:00:00,13.428828,77.731418,OZONE,15,44,26
India,Karnataka,Chikkamagaluru,"Kalyana Nagara, Chikkamagaluru - KSPCB",10-02-2024 06:00:00,13.328028,75.797056,PM10,36,88,74
India,Karnataka,Chikkamagaluru,"Kalyana Nagara, Chikkamagaluru - KSPCB",10-02-2024 06:00:00,13.328028,75.797056,NO2,19,31,24
India,Karnataka,Davanagere,"Devaraj Urs Badavane, Davanagere - KSPCB",10-02-2024 06:00:00,14.475800,75.905200,NH3,NA,NA,NA
India,Karnataka,Gadag,"Panchal Nagar, Gadag - KSPCB",10-02-2024 06:00:00,15.411456,75.638133,NH3,2,3,2
India,Karnataka,Gadag,"Panchal Nagar, Gadag - KSPCB",10-02-2024 06:00:00,15.411456,75.638133,OZONE,35,71,43
India,Karnataka,Hassan,"B.Katihalli, Hassan - KSPCB",10-02-2024 06:00:00,13.008556,76.125258,OZONE,5,31,20
India,Karnataka,Haveri,"Ashwini Nagar, Haveri - KSPCB",10-02-2024 06:00:00,14.791800,75.389600,PM2.5,41,211,92
India,Karnataka,Kalaburagi,"Lal Bahadur Shastri Nagar, Kalaburagi - KSPCB",10-02-2024 06:00:00,17.321993,76.822628,PM10,1,118,37
India,Karnataka,Kalaburagi,"Lal Bahadur Shastri Nagar, Kalaburagi - KSPCB",10-02-2024 06:00:00,17.321993,76.822628,CO,36,93,44
India,Karnataka,Kalaburagi,"Mahatma Basaveswar Colony, Kalaburgi - KSPCB",10-02-2024 06:00:00,17.336318,76.847397,PM10,35,161,63
India,Karnataka,Kalaburagi,"Mahatma Basaveswar Colony, Kalaburgi - KSPCB",10-02-2024 06:00:00,17.336318,76.847397,NO2,16,22,17
India,Karnataka,Kalaburagi,"Mahatma Basaveswar Colony, Kalaburgi - KSPCB",10-02-2024 06:00:00,17.336318,76.847397,NH3,3,4,4
India,Karnataka,Kalaburagi,"Mahatma Basaveswar Colony, Kalaburgi - KSPCB",10-02-2024 06:00:00,17.336318,76.847397,SO2,5,38,11
India,Karnataka,Karwar,"KHB Colony, Karwar - KSPCB",10-02-2024 06:00:00,14.816666,74.141003,NO2,5,11,8
India,Karnataka,Karwar,"KHB Colony, Karwar - KSPCB",10-02-2024 06:00:00,14.816666,74.141003,SO2,18,18,18
India,Karnataka,Kolar,"Tamaka Ind. Area, Kolar - KSPCB",10-02-2024 06:00:00,13.1276288,78.1570122,PM10,57,187,102
India,Karnataka,Koppal,"Diwator Nagar, Koppal - KSPCB",10-02-2024 06:00:00,15.347630,76.181767,NH3,4,6,6
India,Karnataka,Koppal,"Diwator Nagar, Koppal - KSPCB",10-02-2024 06:00:00,15.347630,76.181767,CO,22,132,38
India,Karnataka,Mangalore,"Kadri, Mangalore - KSPCB",10-02-2024 06:00:00,12.889250,74.853000,OZONE,30,32,31
India,Karnataka,Mysuru,"Hebbal 1st Stage, Mysuru - KSPCB",10-02-2024 06:00:00,12.21041,76.37376,NO2,2,43,23
India,Karnataka,Mysuru,"Hebbal 1st Stage, Mysuru - KSPCB",10-02-2024 06:00:00,12.21041,76.37376,NH3,1,4,2
India,Karnataka,Mysuru,"Hebbal 1st Stage, Mysuru - KSPCB",10-02-2024 06:00:00,12.21041,76.37376,CO,5,106,22
India,Karnataka,Raichur,"Haji Colony, Raichur - KSPCB",10-02-2024 06:00:00,16.208139,77.348417,PM2.5,13,80,38
India,Karnataka,Raichur,"Haji Colony, Raichur - KSPCB",10-02-2024 06:00:00,16.208139,77.348417,PM10,39,158,111
India,Karnataka,Raichur,"Haji Colony, Raichur - KSPCB",10-02-2024 06:00:00,16.208139,77.348417,NH3,2,4,3
India,Karnataka,Raichur,"Haji Colony, Raichur - KSPCB",10-02-2024 06:00:00,16.208139,77.348417,CO,72,109,90
India,Karnataka,Raichur,"Haji Colony, Raichur - KSPCB",10-02-2024 06:00:00,16.208139,77.348417,OZONE,2,193,38
India,Karnataka,Shivamogga,"Vinoba Nagara, Shivamogga - KSPCB",10-02-2024 06:00:00,13.940000,75.555917,NH3,2,4,3
India,Karnataka,Tumakuru,"Thimmalapura, Tumakuru - KSPCB",10-02-2024 06:00:00,13.377516,77.099072,PM10,16,43,28
India,Karnataka,Tumakuru,"Thimmalapura, Tumakuru - KSPCB",10-02-2024 06:00:00,13.377516,77.099072,OZONE,13,58,27
India,Karnataka,Udupi,"Brahmagiri, Udupi - KSPCB",10-02-2024 06:00:00,13.34194444,74.74694444,PM10,47,93,69
India,Karnataka,Vijayapura,"Ibrahimpur, Vijayapura - KSPCB",10-02-2024 06:00:00,16.802639,75.722694,NH3,2,2,2
India,Karnataka,Vijayapura,"Ibrahimpur, Vijayapura - KSPCB",10-02-2024 06:00:00,16.802639,75.722694,SO2,NA,NA,NA
India,Karnataka,Yadgir,"Collector Office, Yadgir - KSPCB",10-02-2024 06:00:00,16.7602,77.1428,PM2.5,50,132,80
India,Karnataka,Yadgir,"Collector Office, Yadgir - KSPCB",10-02-2024 06:00:00,16.7602,77.1428,SO2,2,15,9
India,Kerala,Eloor,"Udyogamandal, Eloor - Kerala PCB",10-02-2024 06:00:00,10.073232,76.302765,SO2,1,5,2
India,Kerala,Eloor,"Udyogamandal, Eloor - Kerala PCB",10-02-2024 06:00:00,10.073232,76.302765,CO,6,96,22
India,Kerala,Eloor,"Udyogamandal, Eloor - Kerala PCB",10-02-2024 06:00:00,10.073232,76.302765,OZONE,10,19,11
India,Kerala,Kannur,"Thavakkara, Kannur - Kerala PCB",10-02-2024 06:00:00,11.875000,75.373200,NH3,1,1,1
India,Kerala,Kannur,"Thavakkara, Kannur - Kerala PCB",10-02-2024 06:00:00,11.875000,75.373200,SO2,4,6,5
India,Kerala,Kannur,"Thavakkara, Kannur - Kerala PCB",10-02-2024 06:00:00,11.875000,75.373200,CO,29,35,32
India,Kerala,Thiruvananthapuram,"Kariavattom, Thiruvananthapuram - Kerala PCB",10-02-2024 06:00:00,8.563700,76.886500,PM2.5,74,83,79
India,Kerala,Thiruvananthapuram,"Plammoodu, Thiruvananthapuram - Kerala PCB",10-02-2024 06:00:00,8.5149093,76.9435879,CO,20,57,34
India,Kerala,Thrissur,"Corporation Ground, Thrissur - Kerala PCB",10-02-2024 06:00:00,10.532400,76.215900,NH3,NA,NA,NA
India,Madhya Pradesh,Bhopal,"Idgah Hills, Bhopal - MPPCB",10-02-2024 06:00:00,23.264759,77.381568,PM2.5,23,63,42
India,Madhya Pradesh,Bhopal,"Idgah Hills, Bhopal - MPPCB",10-02-2024 06:00:00,23.264759,77.381568,NH3,3,3,3
India,Madhya Pradesh,Bhopal,"T T Nagar, Bhopal - MPPCB",10-02-2024 06:00:00,23.233584,77.400574,CO,4,84,26
India,Madhya Pradesh,Gwalior,"City Center, Gwalior - MPPCB",10-02-2024 06:00:00,26.203442,78.193251,PM10,79,224,136
India,Madhya Pradesh,Gwalior,"City Center, Gwalior - MPPCB",10-02-2024 06:00:00,26.203442,78.193251,NH3,3,5,4
India,Madhya Pradesh,Gwalior,"City Center, Gwalior - MPPCB",10-02-2024 06:00:00,26.203442,78.193251,CO,30,113,63
India,Madhya Pradesh,Gwalior,"Deen Dayal Nagar, Gwalior - MPPCB",10-02-2024 06:00:00,26.259242,78.216432,PM2.5,3,303,106
India,Madhya Pradesh,Gwalior,"Maharaj Bada, Gwalior - MPPCB",10-02-2024 06:00:00,26.200388,78.147714,PM10,85,403,172
India,Madhya Pradesh,Indore,"Residency Area, Indore - IMC",10-02-2024 06:00:00,22.7084,75.8815,NO2,28,58,43
India,Madhya Pradesh,Jabalpur,"Gupteshwar, Jabalpur - JMC",10-02-2024 06:00:00,23.142888,79.916147,NO2,7,75,24
India,Madhya Pradesh,Jabalpur,"Gupteshwar, Jabalpur - JMC",10-02-2024 06:00:00,23.142888,79.916147,OZONE,11,108,53
India,Madhya Pradesh,Jabalpur,"Marhatal, Jabalpur - MPPCB",10-02-2024 06:00:00,23.168606,79.932247,PM10,54,144,93
India,Madhya Pradesh,Jabalpur,"Marhatal, Jabalpur - MPPCB",10-02-2024 06:00:00,23.168606,79.932247,OZONE,21,57,47
India,Madhya Pradesh,Jabalpur,"Suhagi, Jabalpur - JMC",10-02-2024 06:00:00,23.218135,79.957770,PM10,44,158,102
India,Madhya Pradesh,Jabalpur,"Suhagi, Jabalpur - JMC",10-02-2024 06:00:00,23.218135,79.957770,NO2,40,50,46
India,Madhya Pradesh,Jabalpur,"Suhagi, Jabalpur - JMC",10-02-2024 06:00:00,23.218135,79.957770,CO,14,101,48
India,Madhya Pradesh,Katni,"Gole Bazar, Katni - MPPCB",10-02-2024 06:00:00,23.50016,80.23284,PM2.5,NA,NA,NA
India,Madhya Pradesh,Maihar,"Sahilara, Maihar - KJS Cements",10-02-2024 06:00:00,24.2613009,80.7231783,NO2,14,14,14
India,Madhya Pradesh,Maihar,"Sahilara, Maihar - KJS Cements",10-02-2024 06:00:00,24.2613009,80.7231783,SO2,12,14,13
India,Madhya Pradesh,Mandideep,"Sector-D Industrial Area, Mandideep - MPPCB",10-02-2024 06:00:00,23.108440,77.511428,PM2.5,49,317,120
India,Madhya Pradesh,Mandideep,"Sector-D Industrial Area, Mandideep - MPPCB",10-02-2024 06:00:00,23.108440,77.511428,NH3,9,12,11
India,Madhya Pradesh,Pithampur,"Sector-2 Industrial Area, Pithampur - MPPCB",10-02-2024 06:00:00,22.624758,75.675238,OZONE,30,56,36
India,Madhya Pradesh,Sagar,"Civil Lines, Sagar - MPPCB",10-02-2024 06:00:00,23.838586,78.759431,NH3,2,5,3
India,Madhya Pradesh,Satna,"Bandhavgar Colony, Satna - Birla Cement",10-02-2024 06:00:00,24.58434363,80.8549414,NO2,7,30,12
India,Madhya Pradesh,Singrauli,"Suryakiran Bhawan NCL, Singrauli - MPPCB",10-02-2024 06:00:00,24.108970,82.645580,NH3,1,5,2
India,Madhya Pradesh,Ujjain,"Mahakaleshwar Temple, Ujjain - MPPCB",10-02-2024 06:00:00,23.182719 ,75.768218 ,PM2.5,22,78,43
India,Maharashtra,Akola,"Ramdaspeth, Akola - MPCB",10-02-2024 06:00:00,20.719516,77.000253,PM10,60,163,110
India,Maharashtra,Akola,"Ramdaspeth, Akola - MPCB",10-02-2024 06:00:00,20.719516,77.000253,OZONE,14,59,27
India,Maharashtra,Amravati,"Shivneri Colony, Amravati - MPCB",10-02-2024 06:00:00,20.9402359,77.7895248,OZONE,38,152,64
India,Maharashtra,Amravati,"Shri Shivaji Science College, Amaravati - MPCB",10-02-2024 06:00:00,20.939198,77.765701,PM2.5,30,82,65
India,Maharashtra,Amravati,"Shri Shivaji Science College, Amaravati - MPCB",10-02-2024 06:00:00,20.939198,77.765701,PM10,66,152,112
India,Maharashtra,Amravati,"Shri Shivaji Science College, Amaravati - MPCB",10-02-2024 06:00:00,20.939198,77.765701,SO2,2,111,30
India,Maharashtra,Aurangabad,"More Chowk Waluj, Aurangabad - MPCB",10-02-2024 06:00:00,19.8389439,75.244448,SO2,9,13,11
India,Maharashtra,Aurangabad,"More Chowk Waluj, Aurangabad - MPCB",10-02-2024 06:00:00,19.8389439,75.244448,CO,16,110,37
India,Maharashtra,Aurangabad,"Rachnakar Colony, Aurangabad - MPCB",10-02-2024 06:00:00,19.863756,75.321188,PM10,83,472,148
India,Maharashtra,Aurangabad,"Rachnakar Colony, Aurangabad - MPCB",10-02-2024 06:00:00,19.863756,75.321188,SO2,18,74,42
India,Maharashtra,Belapur,"CBD Belapur, Belapur - MPCB",10-02-2024 06:00:00,19.0243902,73.0406721,NO2,26,73,49
India,Maharashtra,Bhiwandi,"Gokul Nagar, Bhiwandi - MPCB",10-02-2024 06:00:00,19.309073,73.057223,SO2,6,24,13
India,Maharashtra,Chandrapur,"Chauhan Colony, Chandrapur - MPCB",10-02-2024 06:00:00,19.962900,79.298714,PM10,40,89,62
India,Maharashtra,Chandrapur,"Chauhan Colony, Chandrapur - MPCB",10-02-2024 06:00:00,19.962900,79.298714,NO2,12,44,20
India,Maharashtra,Chandrapur,"Chauhan Colony, Chandrapur - MPCB",10-02-2024 06:00:00,19.962900,79.298714,SO2,4,114,16
India,Maharashtra,Chandrapur,"MIDC Khutala, Chandrapur - MPCB",10-02-2024 06:00:00,19.9775302,79.2337086,SO2,NA,NA,NA
India,Maharashtra,Jalgaon,"Prabhat Colony, Jalgaon - MPCB",10-02-2024 06:00:00,21.001264,75.565602,NH3,5,9,8
India,Maharashtra,Kalyan,"Khadakpada, Kalyan - MPCB",10-02-2024 06:00:00,19.25292,73.142019,OZONE,10,42,30
India,Maharashtra,Kolhapur,"Sinchan Bhavan, Kolhapur - MPCB",10-02-2024 06:00:00,16.7143745,74.2426398,NO2,NA,NA,NA
India,Maharashtra,Kolhapur,"Sinchan Bhavan, Kolhapur - MPCB",10-02-2024 06:00:00,16.7143745,74.2426398,NH3,NA,NA,NA
India,Maharashtra,Latur,"Sawe Wadi, Latur - MPCB",10-02-2024 06:00:00,18.39963,76.57452,PM2.5,76,222,116
India,Maharashtra,Mahad,"Kamble Tarf Birwadi, Mahad - MPCB",10-02-2024 06:00:00,18.1023399,73.4783687,PM2.5,124,146,134
India,Maharashtra,Mahad,"Kamble Tarf Birwadi, Mahad - MPCB",10-02-2024 06:00:00,18.1023399,73.4783687,PM10,136,146,140
India,Maharashtra,Mahad,"Kamble Tarf Birwadi, Mahad - MPCB",10-02-2024 06:00:00,18.1023399,73.4783687,NH3,4,6,5
India,Maharashtra,Malegaon,"Mahesh Nagar, Malegaon - MPCB",10-02-2024 06:00:00,20.555712,74.529236,PM2.5,97,271,144
India,Maharashtra,Mumbai,"Bandra Kurla Complex, Mumbai - MPCB",10-02-2024 06:00:00,19.065931,72.862131,PM10,78,409,145
India,Maharashtra,Mumbai,"Bandra Kurla Complex, Mumbai - MPCB",10-02-2024 06:00:00,19.065931,72.862131,NH3,11,17,13
India,Maharashtra,Mumbai,"Bandra Kurla Complex, Mumbai - MPCB",10-02-2024 06:00:00,19.065931,72.862131,CO,28,86,56
India,Maharashtra,Mumbai,"Borivali East, Mumbai - MPCB",10-02-2024 06:00:00,19.2243333,72.8658113,PM10,54,191,88
India,Maharashtra,Mumbai,"Chakala-Andheri East, Mumbai - IITM",10-02-2024 06:00:00,19.11074,72.86084,CO,50,110,91
India,Maharashtra,Mumbai,"Colaba, Mumbai - MPCB",10-02-2024 06:00:00,18.910000,72.820000,NO2,17,37,22
India,Maharashtra,Mumbai,"Colaba, Mumbai - MPCB",10-02-2024 06:00:00,18.910000,72.820000,OZONE,7,12,9
India,Maharashtra,Mumbai,"Ghatkopar, Mumbai - BMC",10-02-2024 06:00:00,19.083694,72.920967,OZONE,4,50,7
India,Maharashtra,Mumbai,"Kandivali West, Mumbai - BMC",10-02-2024 06:00:00,19.215859,72.831718,CO,14,28,22
India,Maharashtra,Mumbai,"Khindipada-Bhandup West, Mumbai - IITM",10-02-2024 06:00:00,19.1653323,72.922099,SO2,2,3,3
India,Maharashtra,Mumbai,"Kurla, Mumbai - MPCB",10-02-2024 06:00:00,19.0863,72.8888,PM10,63,132,94
India,Maharashtra,Mumbai,"Kurla, Mumbai - MPCB",10-02-2024 06:00:00,19.0863,72.8888,NO2,22,49,34
India,Maharashtra,Mumbai,"Malad West, Mumbai - IITM",10-02-2024 06:00:00,19.19709,72.82204,PM2.5,84,234,146
India,Maharashtra,Mumbai,"Mazgaon, Mumbai - IITM",10-02-2024 06:00:00,18.96702,72.84214,SO2,11,64,34
India,Maharashtra,Mumbai,"Mulund West, Mumbai - MPCB",10-02-2024 06:00:00,19.1750,72.9419,NH3,9,10,10
India,Maharashtra,Mumbai,"Mulund West, Mumbai - MPCB",10-02-2024 06:00:00,19.1750,72.9419,SO2,14,15,14
India,Maharashtra,Mumbai,"Powai, Mumbai - MPCB",10-02-2024 06:00:00,19.137500,72.915056,NH3,1,1,1
India,Maharashtra,Mumbai,"Powai, Mumbai - MPCB",10-02-2024 06:00:00,19.137500,72.915056,SO2,28,31,30
India,Maharashtra,Mumbai,"Sion, Mumbai - MPCB",10-02-2024 06:00:00,19.047000,72.874600,NH3,1,2,1
India,Maharashtra,Mumbai,"Sion, Mumbai - MPCB",10-02-2024 06:00:00,19.047000,72.874600,OZONE,11,26,12
India,Maharashtra,Mumbai,"Vasai West, Mumbai - MPCB",10-02-2024 06:00:00,19.383200,72.820400,NH3,4,4,4
India,Maharashtra,Mumbai,"Vile Parle West, Mumbai - MPCB",10-02-2024 06:00:00,19.10861,72.83622,NH3,7,10,9
India,Maharashtra,Mumbai,"Vile Parle West, Mumbai - MPCB",10-02-2024 06:00:00,19.10861,72.83622,OZONE,5,7,6
India,Maharashtra,Mumbai,"Worli, Mumbai - MPCB",10-02-2024 06:00:00,18.9936162,72.8128113,PM2.5,44,91,62
India,Maharashtra,Mumbai,"Worli, Mumbai - MPCB",10-02-2024 06:00:00,18.9936162,72.8128113,NO2,17,18,18
India,Maharashtra,Nagpur,"Ambazari, Nagpur - MPCB",10-02-2024 06:00:00,21.121801,79.04952,CO,16,101,50
India,Maharashtra,Nagpur,"Mahal, Nagpur - MPCB",10-02-2024 06:00:00,21.14472,79.107595,PM2.5,45,98,69
India,Maharashtra,Nagpur,"Mahal, Nagpur - MPCB",10-02-2024 06:00:00,21.14472,79.107595,SO2,27,76,48
India,Maharashtra,Nagpur,"Opp GPO Civil Lines, Nagpur - MPCB",10-02-2024 06:00:00,21.152875,79.0517531,PM10,65,169,99
India,Maharashtra,Nagpur,"Opp GPO Civil Lines, Nagpur - MPCB",10-02-2024 06:00:00,21.152875,79.0517531,NH3,5,20,8
India,Maharashtra,Nagpur,"Opp GPO Civil Lines, Nagpur - MPCB",10-02-2024 06:00:00,21.152875,79.0517531,SO2,8,83,30
India,Maharashtra,Nagpur,"Opp GPO Civil Lines, Nagpur - MPCB",10-02-2024 06:00:00,21.152875,79.0517531,OZONE,3,82,15
India,Maharashtra,Nagpur,"Ram Nagar, Nagpur - MPCB",10-02-2024 06:00:00,21.143383,79.048912,SO2,1,73,22
India,Maharashtra,Nanded,"Sneh Nagar, Nanded - MPCB",10-02-2024 06:00:00,19.173852,77.296291,PM2.5,79,142,103
India,Maharashtra,Nashik,"Gangapur Road, Nashik - MPCB",10-02-2024 06:00:00,20.0073285,73.7762427,PM10,65,124,95
India,Maharashtra,Nashik,"Gangapur Road, Nashik - MPCB",10-02-2024 06:00:00,20.0073285,73.7762427,OZONE,1,85,9
India,Maharashtra,Nashik,"Pandav Nagari, Nashik - MPCB",10-02-2024 06:00:00,19.9591346,73.7788008,PM10,77,118,105
India,Maharashtra,Nashik,"Pandav Nagari, Nashik - MPCB",10-02-2024 06:00:00,19.9591346,73.7788008,NH3,4,8,5
India,Maharashtra,Nashik,"Pandav Nagari, Nashik - MPCB",10-02-2024 06:00:00,19.9591346,73.7788008,SO2,22,41,27
India,Maharashtra,Nashik,"Pandav Nagari, Nashik - MPCB",10-02-2024 06:00:00,19.9591346,73.7788008,CO,28,46,43
India,Maharashtra,Navi Mumbai,"Mahape, Navi Mumbai - MPCB",10-02-2024 06:00:00,19.1135051,73.008978,SO2,26,26,26
India,Maharashtra,Navi Mumbai,"Nerul, Navi Mumbai - MPCB",10-02-2024 06:00:00,19.008751,73.016620,PM10,101,288,155
India,Maharashtra,Navi Mumbai,"Nerul, Navi Mumbai - MPCB",10-02-2024 06:00:00,19.008751,73.016620,NH3,3,6,4
India,Maharashtra,Navi Mumbai,"Sanpada, Navi Mumbai - MPCB",10-02-2024 06:00:00,19.0575752,73.0151367,PM2.5,75,76,75
India,Maharashtra,Navi Mumbai,"Sector-2E Kalamboli, Navi Mumbai - MPCB",10-02-2024 06:00:00,19.02579,73.10297,PM2.5,NA,NA,NA
India,Maharashtra,Navi Mumbai,"Sector-2E Kalamboli, Navi Mumbai - MPCB",10-02-2024 06:00:00,19.02579,73.10297,CO,NA,NA,NA
India,Maharashtra,Navi Mumbai,"Tondare-Taloja, Navi Mumbai - MPCB",10-02-2024 06:00:00,19.0630,73.1209,PM10,117,173,146
India,Maharashtra,Navi Mumbai,"Tondare-Taloja, Navi Mumbai - MPCB",10-02-2024 06:00:00,19.0630,73.1209,OZONE,2,89,42
India,Maharashtra,Pimpri-Chinchwad,"Gavalinagar, Pimpri Chinchwad - MPCB",10-02-2024 06:00:00,18.63673,73.82487,NO2,12,91,48
India,Maharashtra,Pimpri-Chinchwad,"Thergaon, Pimpri Chinchwad - MPCB",10-02-2024 06:00:00,18.616318,73.765797,PM2.5,157,323,263
India,Maharashtra,Pune,"Alandi, Pune - IITM",10-02-2024 06:00:00,18.675076,73.892743,CO,26,67,40
India,Maharashtra,Pune,"Katraj Dairy, Pune - MPCB",10-02-2024 06:00:00,18.454450,73.854155,PM2.5,NA,NA,NA
India,Maharashtra,Pune,"Katraj Dairy, Pune - MPCB",10-02-2024 06:00:00,18.454450,73.854155,PM10,NA,NA,NA
India,Maharashtra,Pune,"Katraj Dairy, Pune - MPCB",10-02-2024 06:00:00,18.454450,73.854155,SO2,NA,NA,NA
India,Maharashtra,Pune,"Katraj Dairy, Pune - MPCB",10-02-2024 06:00:00,18.454450,73.854155,CO,NA,NA,NA
India,Maharashtra,Pune,"Mhada Colony, Pune - IITM",10-02-2024 06:00:00,18.573040,73.927715,PM2.5,39,178,105
India,Maharashtra,Pune,"Revenue Colony-Shivajinagar, Pune - IITM",10-02-2024 06:00:00,18.530085,73.849598,NO2,67,209,148
India,Maharashtra,Pune,"Revenue Colony-Shivajinagar, Pune - IITM",10-02-2024 06:00:00,18.530085,73.849598,NH3,8,28,18
India,Maharashtra,Pune,"Revenue Colony-Shivajinagar, Pune - IITM",10-02-2024 06:00:00,18.530085,73.849598,SO2,59,128,106
India,Maharashtra,Pune,"Revenue Colony-Shivajinagar, Pune - IITM",10-02-2024 06:00:00,18.530085,73.849598,OZONE,1,62,25
India,Maharashtra,Pune,"Savitribai Phule Pune University, Pune - MPCB",10-02-2024 06:00:00,18.547056,73.826908,CO,10,54,40
India,Maharashtra,Pune,"Transport Nagar-Nigdi, Pune - IITM",10-02-2024 06:00:00,18.664282,73.763966,OZONE,2,67,31
India,Maharashtra,Sangli,"Vijay Nagar, Sangli - MPCB",10-02-2024 06:00:00, 16.5038,74.3623,NH3,1,4,2
India,Maharashtra,Sangli,"Vijay Nagar, Sangli - MPCB",10-02-2024 06:00:00, 16.5038,74.3623,SO2,1,31,10
India,Maharashtra,Sangli,"Vijay Nagar, Sangli - MPCB",10-02-2024 06:00:00, 16.5038,74.3623,OZONE,2,53,7
India,Maharashtra,Solapur,"Dnyaneshwar Nagar, Solapur - MPCB",10-02-2024 06:00:00,17.6336264,75.9132495,PM2.5,94,408,181
India,Maharashtra,Solapur,"Dnyaneshwar Nagar, Solapur - MPCB",10-02-2024 06:00:00,17.6336264,75.9132495,OZONE,5,117,60
India,Maharashtra,Solapur,"Solapur, Solapur - MPCB",10-02-2024 06:00:00,17.6599188,75.9063906,PM10,98,150,119
India,Maharashtra,Solapur,"Solapur, Solapur - MPCB",10-02-2024 06:00:00,17.6599188,75.9063906,SO2,31,44,35
India,Maharashtra,Thane,"Kasarvadavali, Thane - MPCB",10-02-2024 06:00:00,19.26777,72.97182,PM2.5,88,182,116
India,Maharashtra,Thane,"Kasarvadavali, Thane - MPCB",10-02-2024 06:00:00,19.26777,72.97182,NH3,5,16,8
India,Maharashtra,Thane,"Upvan Fort, Thane - MPCB",10-02-2024 06:00:00,19.222279,72.957979,SO2,11,23,16
India,Maharashtra,Ulhasnagar,"Sidhi Vinayak Nagar, Ulhasnagar - MPCB",10-02-2024 06:00:00,19.235581,73.159121,PM10,99,128,116
India,Manipur,Imphal,"Manipur University, Imphal - Manipur PCB",10-02-2024 06:00:00,24.7524239,93.9286218,CO,10,68,45
India,Meghalaya,Shillong,"Lumpyngngad, Shillong - Meghalaya PCB",10-02-2024 06:00:00,25.5586,91.8985,NO2,6,6,6
India,Mizoram,Aizawl,"Sikulpuikawn, Aizawl - Mizoram PCB",10-02-2024 06:00:00,23.7176342,92.7192841,NH3,NA,NA,NA
India,Nagaland,Kohima,"PWD Juction, Kohima - NPCB",10-02-2024 06:00:00,25.6635413,94.0989878,CO,12,63,27
India,Odisha,Angul,"Hakimapada, Angul - OSPCB",10-02-2024 06:00:00,20.832874,85.104082,PM2.5,93,500,250
India,Odisha,Barbil,"Forest Office, Barbil - OSPCB",10-02-2024 06:00:00,22.1166054,85.3945546,PM2.5,58,305,110
India,Odisha,Baripada,"Meher Colony, Baripada - OSPCB",10-02-2024 06:00:00,21.941841,86.728318,NO2,NA,NA,NA
India,Odisha,Baripada,"Meher Colony, Baripada - OSPCB",10-02-2024 06:00:00,21.941841,86.728318,OZONE,10,64,11
India,Odisha,Bhubaneswar,"Patia, Bhubaneswar - OSPCB",10-02-2024 06:00:00,20.34652,85.81630,PM2.5,67,250,123
India,Odisha,Bhubaneswar,"Patia, Bhubaneswar - OSPCB",10-02-2024 06:00:00,20.34652,85.81630,PM10,105,213,129
India,Odisha,Bhubaneswar,"Patia, Bhubaneswar - OSPCB",10-02-2024 06:00:00,20.34652,85.81630,CO,24,57,38
India,Odisha,Bileipada,"Tata Township, Bileipada - OSPCB",10-02-2024 06:00:00,22.06156703,85.47409613,SO2,NA,NA,NA
India,Odisha,Byasanagar,"Ferro Chrome Colony, Byasanagar - OSPCB",10-02-2024 06:00:00,20.94185,86.11510,OZONE,36,175,48
India,Odisha,Keonjhar,"Jagamohanpur, Keonjhar - OSPCB",10-02-2024 06:00:00,21.643900,85.599355,OZONE,NA,NA,NA
India,Odisha,Nayagarh,"Dabuna, Nayagarh - OSPCB",10-02-2024 06:00:00,21.847279,85.416905,NH3,4,5,5
India,Odisha,Rairangpur,"Divisional Forest Office, Rairangpur - OSPCB",10-02-2024 06:00:00,22.265816,86.174829,NH3,5,5,5
India,Odisha,Rairangpur,"Divisional Forest Office, Rairangpur - OSPCB",10-02-2024 06:00:00,22.265816,86.174829,CO,15,40,21
India,Odisha,Rourkela,"Fertilizer Township, Rourkela - OSPCB",10-02-2024 06:00:00,22.18972222,84.86277778,PM2.5,33,147,72
India,Odisha,Rourkela,"Raghunathpali, Rourkela - OSPCB",10-02-2024 06:00:00,22.220833,84.809444,CO,24,61,40
India,Odisha,Rourkela,"Sector-2, Rourkela - OSPCB",10-02-2024 06:00:00,22.24500000,84.88111111,CO,12,32,22
India,Odisha,Suakati,"OMC Colony, Suakati - OSPCB",10-02-2024 06:00:00,21.606865,85.510538,PM2.5,NA,NA,NA
India,Odisha,Talcher,"Talcher Coalfields,Talcher - OSPCB",10-02-2024 06:00:00,20.9360711,85.1707021,SO2,12,90,36
India,Odisha,Talcher,"Talcher Coalfields,Talcher - OSPCB",10-02-2024 06:00:00,20.9360711,85.1707021,OZONE,1,13,2
India,Odisha,Tensa,"Barsua Iron Ore Mines, Tensa - OSPCB",10-02-2024 06:00:00,21.869985,85.167016,CO,14,32,17
India,Odisha,Tensa,"Barsua Iron Ore Mines, Tensa - OSPCB",10-02-2024 06:00:00,21.869985,85.167016,OZONE,5,92,12
India,Puducherry,Puducherry,"Jawahar Nagar, Puducherry - PPCC",10-02-2024 06:00:00,11.9309,79.8027,NH3,2,3,3
India,Punjab,Bathinda,"Hardev Nagar, Bathinda - PPCB",10-02-2024 06:00:00,30.233011,74.907758,PM10,19,241,116
India,Punjab,Jalandhar,"Civil Line, Jalandhar - PPCB",10-02-2024 06:00:00,31.321907,75.578914,PM2.5,67,322,168
India,Punjab,Jalandhar,"Civil Line, Jalandhar - PPCB",10-02-2024 06:00:00,31.321907,75.578914,OZONE,2,69,17
India,Punjab,Mandi Gobindgarh,"RIMT University, Mandi Gobindgarh - PPCB",10-02-2024 06:00:00,30.649961,76.331442,SO2,1,87,29
India,Punjab,Rupnagar,"Ratanpura, Rupnagar - Ambuja Cements",10-02-2024 06:00:00,31.0325454,76.5623046,PM2.5,38,222,94
India,Punjab,Rupnagar,"Ratanpura, Rupnagar - Ambuja Cements",10-02-2024 06:00:00,31.0325454,76.5623046,PM10,42,438,152
India,Rajasthan,Ajmer,"Civil Lines,  Ajmer - RSPCB",10-02-2024 06:00:00,26.470859,74.646594,CO,8,54,26
India,Rajasthan,Alwar,"Moti Doongri, Alwar - RSPCB",10-02-2024 06:00:00,27.554793,76.611536,SO2,10,54,28
India,Rajasthan,Banswara,"Rati Talai, Banswara - RSPCB",10-02-2024 06:00:00,23.555190,74.440010,SO2,5,14,8
India,Rajasthan,Banswara,"Rati Talai, Banswara - RSPCB",10-02-2024 06:00:00,23.555190,74.440010,CO,14,62,18
India,Rajasthan,Banswara,"Rati Talai, Banswara - RSPCB",10-02-2024 06:00:00,23.555190,74.440010,OZONE,22,105,60
India,Rajasthan,Bharatpur,"Krishna Nagar, Bharatpur - RSPCB",10-02-2024 06:00:00,27.215415,77.50873,NO2,81,143,111
India,Rajasthan,Bharatpur,"Krishna Nagar, Bharatpur - RSPCB",10-02-2024 06:00:00,27.215415,77.50873,CO,74,132,107
India,Rajasthan,Bhilwara,"Pratap Nagar, Bhilwara - RSPCB",10-02-2024 06:00:00,25.339605,74.618883,PM2.5,7,206,69
India,Rajasthan,Bhilwara,"Pratap Nagar, Bhilwara - RSPCB",10-02-2024 06:00:00,25.339605,74.618883,NO2,16,66,37
India,Rajasthan,Bhilwara,"Pratap Nagar, Bhilwara - RSPCB",10-02-2024 06:00:00,25.339605,74.618883,NH3,1,7,2
India,Rajasthan,Bhiwadi,"RIICO Ind. Area III, Bhiwadi - RSPCB",10-02-2024 06:00:00,28.194909,76.862296,CO,1,94,22
India,Rajasthan,Bikaner,"MM Ground, Bikaner - RSPCB",10-02-2024 06:00:00,28.018792,73.292658,OZONE,1,78,30
India,Rajasthan,Bundi,"New Colony, Bundi - RSPCB",10-02-2024 06:00:00,25.435774,75.644272,NH3,3,3,3
India,Rajasthan,Bundi,"New Colony, Bundi - RSPCB",10-02-2024 06:00:00,25.435774,75.644272,CO,15,103,21
India,Rajasthan,Chittorgarh,"Shastri Nagar, Chittorgarh - RSPCB",10-02-2024 06:00:00,24.892047,74.623527,PM2.5,20,242,75
India,Rajasthan,Chittorgarh,"Shastri Nagar, Chittorgarh - RSPCB",10-02-2024 06:00:00,24.892047,74.623527,PM10,36,249,112
India,Rajasthan,Chittorgarh,"Shastri Nagar, Chittorgarh - RSPCB",10-02-2024 06:00:00,24.892047,74.623527,CO,15,57,34
India,Rajasthan,Churu,"Subash Chowk, Churu - RSPCB",10-02-2024 06:00:00,28.296139,74.961696,NH3,7,14,10
India,Rajasthan,Dausa,"Khatikan Mohalla, Dausa - RSPCB",10-02-2024 06:00:00,26.895552,76.334753,PM10,58,500,135
India,Rajasthan,Dausa,"Khatikan Mohalla, Dausa - RSPCB",10-02-2024 06:00:00,26.895552,76.334753,NO2,23,107,62
India,Rajasthan,Dausa,"Khatikan Mohalla, Dausa - RSPCB",10-02-2024 06:00:00,26.895552,76.334753,OZONE,26,73,56
India,Rajasthan,Dholpur,"Raja Ganj, Dholpur - RSPCB",10-02-2024 06:00:00,26.699557,77.898881,PM10,49,189,101
India,Rajasthan,Dholpur,"Raja Ganj, Dholpur - RSPCB",10-02-2024 06:00:00,26.699557,77.898881,SO2,1,41,8
India,Rajasthan,Dholpur,"Raja Ganj, Dholpur - RSPCB",10-02-2024 06:00:00,26.699557,77.898881,OZONE,1,142,18
India,Rajasthan,Dungarpur,"Bhoiwada, Dungarpur - RSPCB",10-02-2024 06:00:00,23.837789,73.714926,PM10,44,161,88
India,Rajasthan,Dungarpur,"Bhoiwada, Dungarpur - RSPCB",10-02-2024 06:00:00,23.837789,73.714926,CO,22,68,52
India,Rajasthan,Jaipur,"Adarsh Nagar, Jaipur - RSPCB",10-02-2024 06:00:00,26.902909,75.836858,SO2,3,36,12
India,Rajasthan,Jaipur,"Mansarovar Sector-12, Jaipur - RSPCB",10-02-2024 06:00:00,26.843698,75.766894,NO2,18,144,66
India,Rajasthan,Jaipur,"Mansarovar Sector-12, Jaipur - RSPCB",10-02-2024 06:00:00,26.843698,75.766894,NH3,1,81,8
India,Rajasthan,Jaipur,"Police Commissionerate, Jaipur - RSPCB",10-02-2024 06:00:00,26.9164092,75.7994901,NO2,22,110,63
India,Rajasthan,Jaipur,"Police Commissionerate, Jaipur - RSPCB",10-02-2024 06:00:00,26.9164092,75.7994901,NH3,3,12,10
India,Rajasthan,Jaipur,"Police Commissionerate, Jaipur - RSPCB",10-02-2024 06:00:00,26.9164092,75.7994901,SO2,10,23,18
India,Rajasthan,Jaipur,"Police Commissionerate, Jaipur - RSPCB",10-02-2024 06:00:00,26.9164092,75.7994901,OZONE,12,138,14
India,Rajasthan,Jaipur,"RIICO Sitapura, Jaipur - RSPCB",10-02-2024 06:00:00,26.786682,75.827928,PM10,81,318,154
India,Rajasthan,Jaipur,"RIICO Sitapura, Jaipur - RSPCB",10-02-2024 06:00:00,26.786682,75.827928,SO2,11,22,15
India,Rajasthan,Jaipur,"RIICO Sitapura, Jaipur - RSPCB",10-02-2024 06:00:00,26.786682,75.827928,CO,24,132,56
India,Rajasthan,Jaipur,"Sector-2 Murlipura, Jaipur - RSPCB",10-02-2024 06:00:00,26.960669,75.771817,SO2,8,59,18
India,Rajasthan,Jaipur,"Shastri Nagar, Jaipur - RSPCB",10-02-2024 06:00:00,26.9502929,75.730943,CO,14,114,37
India,Rajasthan,Jaisalmer,"Sadar Bazar, Jaisalmer - RSPCB",10-02-2024 06:00:00,26.912329,70.909168,NO2,15,82,38
India,Rajasthan,Jaisalmer,"Sadar Bazar, Jaisalmer - RSPCB",10-02-2024 06:00:00,26.912329,70.909168,NH3,3,63,19
India,Rajasthan,Jalore,"Mudtra Sili, Jalore - RSPCB",10-02-2024 06:00:00,25.344694,72.626208,PM10,48,467,137
India,Rajasthan,Jalore,"Mudtra Sili, Jalore - RSPCB",10-02-2024 06:00:00,25.344694,72.626208,NO2,13,129,47
India,Rajasthan,Jalore,"Mudtra Sili, Jalore - RSPCB",10-02-2024 06:00:00,25.344694,72.626208,NH3,2,5,4
India,Rajasthan,Jhalawar,"Rajlaxmi Nagar, Jhalawar - RSPCB",10-02-2024 06:00:00,24.588397,76.172782,NH3,4,7,5
India,Rajasthan,Jhunjhunu,"Indra Nagar, Jhunjhunu - RSPCB",10-02-2024 06:00:00,28.108988,75.386577,OZONE,6,97,30
India,Rajasthan,Jodhpur,"Collectorate, Jodhpur - RSPCB",10-02-2024 06:00:00,26.268249,73.0193853,OZONE,34,110,46
India,Rajasthan,Jodhpur,"Digari Kalan, Jodhpur - RSPCB",10-02-2024 06:00:00,26.295810,73.082283,PM2.5,5,278,64
India,Rajasthan,Jodhpur,"Digari Kalan, Jodhpur - RSPCB",10-02-2024 06:00:00,26.295810,73.082283,NO2,14,91,39
India,Rajasthan,Jodhpur,"Mandor, Jodhpur - RSPCB",10-02-2024 06:00:00,26.358805,73.047444,CO,15,46,33
India,Rajasthan,Jodhpur,"Samrat Ashok Udhyan, Jodhpur - RSPCB",10-02-2024 06:00:00,26.253384,72.976571,PM10,28,223,82
India,Rajasthan,Jodhpur,"Samrat Ashok Udhyan, Jodhpur - RSPCB",10-02-2024 06:00:00,26.253384,72.976571,SO2,4,22,8
India,Rajasthan,Jodhpur,"Samrat Ashok Udhyan, Jodhpur - RSPCB",10-02-2024 06:00:00,26.253384,72.976571,OZONE,7,132,47
India,Rajasthan,Karauli,"Satyawati Vihar, Karauli - RSPCB",10-02-2024 06:00:00,26.506177,77.025989,NH3,3,14,6
India,Rajasthan,Karauli,"Satyawati Vihar, Karauli - RSPCB",10-02-2024 06:00:00,26.506177,77.025989,CO,14,74,17
India,Rajasthan,Kota,"Shrinath Puram, Kota - RSPCB",10-02-2024 06:00:00,25.14389,75.821256,PM10,32,139,75
India,Rajasthan,Pali,"Indira Colony Vistar, Pali - RSPCB",10-02-2024 06:00:00,25.771061, 73.340227,PM2.5,16,86,51
India,Rajasthan,Pratapgarh,"Pragati Nagar, Pratapgarh - RSPCB",10-02-2024 06:00:00,24.041198,74.780702,NH3,4,6,5
India,Rajasthan,Pratapgarh,"Pragati Nagar, Pratapgarh - RSPCB",10-02-2024 06:00:00,24.041198,74.780702,OZONE,20,98,65
India,Rajasthan,Rajsamand,"Dhoinda, Rajsamand - RSPCB",10-02-2024 06:00:00,25.036360,73.883502,PM2.5,5,153,58
India,Rajasthan,Rajsamand,"Dhoinda, Rajsamand - RSPCB",10-02-2024 06:00:00,25.036360,73.883502,NO2,7,31,16
India,Rajasthan,Rajsamand,"Dhoinda, Rajsamand - RSPCB",10-02-2024 06:00:00,25.036360,73.883502,CO,28,78,68
India,Rajasthan,Sawai Madhopur,"Sahu Nagar, Sawai Madhopur - RSPCB",10-02-2024 06:00:00,26.031443,76.359327,NH3,1,32,15
India,Rajasthan,Sawai Madhopur,"Sahu Nagar, Sawai Madhopur - RSPCB",10-02-2024 06:00:00,26.031443,76.359327,CO,3,137,30
India,Rajasthan,Sawai Madhopur,"Sahu Nagar, Sawai Madhopur - RSPCB",10-02-2024 06:00:00,26.031443,76.359327,OZONE,2,97,14
India,Rajasthan,Sirohi,"Vedhaynath Colony, Sirohi - RSPCB",10-02-2024 06:00:00,24.885261,72.857549,NO2,11,70,32
India,Rajasthan,Sirohi,"Vedhaynath Colony, Sirohi - RSPCB",10-02-2024 06:00:00,24.885261,72.857549,NH3,3,7,4
India,Rajasthan,Sirohi,"Vedhaynath Colony, Sirohi - RSPCB",10-02-2024 06:00:00,24.885261,72.857549,CO,12,43,25
India,Rajasthan,Sirohi,"Vedhaynath Colony, Sirohi - RSPCB",10-02-2024 06:00:00,24.885261,72.857549,OZONE,24,148,77
India,Rajasthan,Tonk,"Shastri Nagar, Tonk - RSPCB",10-02-2024 06:00:00,26.159933,75.780517,PM2.5,39,288,107
India,Rajasthan,Tonk,"Shastri Nagar, Tonk - RSPCB",10-02-2024 06:00:00,26.159933,75.780517,NH3,6,18,9
India,Rajasthan,Tonk,"Shastri Nagar, Tonk - RSPCB",10-02-2024 06:00:00,26.159933,75.780517,SO2,1,4,2
India,Rajasthan,Udaipur,"Ashok Nagar, Udaipur - RSPCB",10-02-2024 06:00:00,24.5886166,73.6321397,CO,22,112,50
India,Sikkim,Gangtok,"Zero Point GICI, Gangtok - SSPCB",10-02-2024 06:00:00,27.338530,88.614099,NH3,1,1,1
India,Sikkim,Gangtok,"Zero Point GICI, Gangtok - SSPCB",10-02-2024 06:00:00,27.338530,88.614099,CO,9,30,13
India,Sikkim,Gangtok,"Zero Point GICI, Gangtok - SSPCB",10-02-2024 06:00:00,27.338530,88.614099,OZONE,19,68,24
India,TamilNadu,Chengalpattu,"Crescent University, Chengalpattu - TNPCB",10-02-2024 06:00:00,12.8777316,80.0834807,CO,24,30,29
India,TamilNadu,Chennai,"Alandur Bus Depot, Chennai - CPCB",10-02-2024 06:00:00,12.9099161,80.1076538,NH3,6,37,9
India,TamilNadu,Chennai,"Alandur Bus Depot, Chennai - CPCB",10-02-2024 06:00:00,12.9099161,80.1076538,CO,62,64,63
India,TamilNadu,Chennai,"Alandur Bus Depot, Chennai - CPCB",10-02-2024 06:00:00,12.9099161,80.1076538,OZONE,1,7,3
India,TamilNadu,Chennai,"Arumbakkam, Chennai - TNPCB",10-02-2024 06:00:00,13.0664,80.2112 ,PM10,37,125,72
India,TamilNadu,Chennai,"Gandhi Nagar_Ennore, Chennai - TNPCB",10-02-2024 06:00:00,13.218341,80.32027,OZONE,2,3,2
India,TamilNadu,Chennai,"Kodungaiyur, Chennai - TNPCB",10-02-2024 06:00:00,13.1278,80.2642,SO2,1,8,6
India,TamilNadu,Chennai,"Manali, Chennai - CPCB",10-02-2024 06:00:00,13.164544,80.26285,NO2,5,19,12
India,TamilNadu,Chennai,"Manali, Chennai - CPCB",10-02-2024 06:00:00,13.164544,80.26285,NH3,1,10,6
India,TamilNadu,Chennai,"Perungudi, Chennai - TNPCB",10-02-2024 06:00:00,12.9533,80.2357,PM2.5,39,195,68
India,TamilNadu,Chennai,"Royapuram, Chennai - TNPCB",10-02-2024 06:00:00,13.1036,80.2909,NO2,9,34,23
India,TamilNadu,Chennai,"Royapuram, Chennai - TNPCB",10-02-2024 06:00:00,13.1036,80.2909,CO,20,64,22
India,TamilNadu,Chennai,"Velachery Res. Area, Chennai - CPCB",10-02-2024 06:00:00,13.0052189,80.2398125,NO2,14,74,28
India,TamilNadu,Chennai,"Velachery Res. Area, Chennai - CPCB",10-02-2024 06:00:00,13.0052189,80.2398125,OZONE,7,22,15
India,TamilNadu,Coimbatore,"PSG College of Arts and Science, Coimbatore - TNPCB",10-02-2024 06:00:00,11.0328,77.0349,PM2.5,52,193,80
India,TamilNadu,Coimbatore,"PSG College of Arts and Science, Coimbatore - TNPCB",10-02-2024 06:00:00,11.0328,77.0349,NH3,1,1,1
India,TamilNadu,Cuddalore,"Kudikadu, Cuddalore - TNPCB",10-02-2024 06:00:00,11.6829898,79.7532099,PM10,48,136,72
India,TamilNadu,Kanchipuram,"Kilambi, Kanchipuram - TNPCB",10-02-2024 06:00:00,12.864618,79.659968,PM2.5,NA,NA,NA
India,TamilNadu,Kanchipuram,"Kilambi, Kanchipuram - TNPCB",10-02-2024 06:00:00,12.864618,79.659968,PM10,NA,NA,NA
India,TamilNadu,Kanchipuram,"Kilambi, Kanchipuram - TNPCB",10-02-2024 06:00:00,12.864618,79.659968,NH3,NA,NA,NA
India,TamilNadu,Palkalaiperur,"Bharathidasan University, Palkalaiperur - TNPCB",10-02-2024 06:00:00,10.681158,78.741746,OZONE,1,2,1
India,TamilNadu,Ramanathapuram,"Chalai Bazaar, Ramanathapuram - TNPCB",10-02-2024 06:00:00,9.36399,78.831977,PM2.5,31,68,52
India,TamilNadu,Ramanathapuram,"Chalai Bazaar, Ramanathapuram - TNPCB",10-02-2024 06:00:00,9.36399,78.831977,SO2,4,8,7
India,TamilNadu,Salem,"Sona College of Technology, Salem - TNPCB",10-02-2024 06:00:00,11.679111,78.125052,CO,40,43,41
India,TamilNadu,Thoothukudi,"Meelavittan, Thoothukudi - TNPCB",10-02-2024 06:00:00,8.816428 ,78.099039,NO2,14,23,18
India,TamilNadu,Tirupur,"Kumaran College, Tirupur - TNPCB",10-02-2024 06:00:00,11.0973603,77.3228673,PM10,44,135,79
India,Telangana,Hyderabad,"Bollaram Industrial Area, Hyderabad - TSPCB",10-02-2024 06:00:00,17.540891,78.358528,PM10,45,138,101
India,Telangana,Hyderabad,"ECIL Kapra, Hyderabad - TSPCB",10-02-2024 06:00:00,17.470431,78.566959,NO2,10,12,11
India,Telangana,Hyderabad,"ICRISAT Patancheru, Hyderabad - TSPCB",10-02-2024 06:00:00,17.518400,78.278777,OZONE,11,143,40
India,Telangana,Hyderabad,"Kokapet, Hyderabad - TSPCB",10-02-2024 06:00:00,17.393559,78.339194,PM2.5,NA,NA,NA
India,Telangana,Hyderabad,"Kokapet, Hyderabad - TSPCB",10-02-2024 06:00:00,17.393559,78.339194,PM10,NA,NA,NA
India,Telangana,Hyderabad,"Kokapet, Hyderabad - TSPCB",10-02-2024 06:00:00,17.393559,78.339194,OZONE,2,11,3
India,Telangana,Hyderabad,"Nacharam_TSIIC IALA, Hyderabad - TSPCB",10-02-2024 06:00:00,17.429398,78.569354,SO2,3,34,12
India,Telangana,Hyderabad,"Sanathnagar, Hyderabad - TSPCB",10-02-2024 06:00:00,17.4559458,78.4332152,OZONE,11,84,14
India,Telangana,Hyderabad,"Zoo Park, Hyderabad - TSPCB",10-02-2024 06:00:00,17.349694,78.451437,PM2.5,42,86,69
India,Telangana,Hyderabad,"Zoo Park, Hyderabad - TSPCB",10-02-2024 06:00:00,17.349694,78.451437,SO2,1,6,4
India,Tripura,Agartala,"Bardowali, Agartala - Tripura SPCB",10-02-2024 06:00:00,23.8175497,91.2726974,PM2.5,73,345,256
India,Tripura,Agartala,"Bardowali, Agartala - Tripura SPCB",10-02-2024 06:00:00,23.8175497,91.2726974,PM10,117,314,211
India,Uttar_Pradesh,Agra,"Rohta, Agra - UPPCB",10-02-2024 06:00:00,27.106972,78.000111,NO2,7,10,7
India,Uttar_Pradesh,Agra,"Sanjay Palace, Agra - UPPCB",10-02-2024 06:00:00,27.19865833,78.00598056,PM10,38,195,89
India,Uttar_Pradesh,Agra,"Sanjay Palace, Agra - UPPCB",10-02-2024 06:00:00,27.19865833,78.00598056,CO,8,140,100
India,Uttar_Pradesh,Agra,"Sector-3B Avas Vikas Colony, Agra - UPPCB",10-02-2024 06:00:00,27.19412,77.96237,OZONE,13,38,14
India,Uttar_Pradesh,Agra,"Shahjahan Garden, Agra - UPPCB",10-02-2024 06:00:00,27.169338,78.03582,NH3,10,12,11
India,Uttar_Pradesh,Agra,"Shastripuram, Agra - UPPCB",10-02-2024 06:00:00,27.19862,77.92066,NH3,1,25,8
India,Uttar_Pradesh,Baghpat,"Sardar Patel Inter College, Baghpat - UPPCB",10-02-2024 06:00:00,28.964949,77.278761,PM2.5,42,234,124
India,Uttar_Pradesh,Baghpat,"Sardar Patel Inter College, Baghpat - UPPCB",10-02-2024 06:00:00,28.964949,77.278761,NH3,2,8,4
India,Uttar_Pradesh,Bareilly,"Civil Lines, Bareilly - UPPCB",10-02-2024 06:00:00,28.359581,79.414455,PM10,NA,NA,NA
India,Uttar_Pradesh,Bareilly,"Civil Lines, Bareilly - UPPCB",10-02-2024 06:00:00,28.359581,79.414455,NH3,NA,NA,NA
India,Uttar_Pradesh,Bareilly,"Civil Lines, Bareilly - UPPCB",10-02-2024 06:00:00,28.359581,79.414455,SO2,NA,NA,NA
India,Uttar_Pradesh,Bareilly,"Rajendra Nagar, Bareilly - UPPCB",10-02-2024 06:00:00,28.38910936,79.42963708,PM2.5,40,110,67
India,Uttar_Pradesh,Bareilly,"Rajendra Nagar, Bareilly - UPPCB",10-02-2024 06:00:00,28.38910936,79.42963708,NH3,1,1,1
India,Uttar_Pradesh,Bulandshahr,"Yamunapuram, Bulandshahr - UPPCB",10-02-2024 06:00:00,28.406963,77.849831,NO2,20,90,46
India,Uttar_Pradesh,Bulandshahr,"Yamunapuram, Bulandshahr - UPPCB",10-02-2024 06:00:00,28.406963,77.849831,CO,4,123,25
India,Uttar_Pradesh,Bulandshahr,"Yamunapuram, Bulandshahr - UPPCB",10-02-2024 06:00:00,28.406963,77.849831,OZONE,1,133,4
India,Uttar_Pradesh,Firozabad,"Nagla Bhau, Firozabad - UPPCB",10-02-2024 06:00:00,27.168897,78.376960,OZONE,18,35,27
India,Uttar_Pradesh,Ghaziabad,"Indirapuram, Ghaziabad - UPPCB",10-02-2024 06:00:00,28.646233,77.358075,PM10,77,480,218
India,Uttar_Pradesh,Ghaziabad,"Indirapuram, Ghaziabad - UPPCB",10-02-2024 06:00:00,28.646233,77.358075,NH3,10,25,15
India,Uttar_Pradesh,Ghaziabad,"Loni, Ghaziabad - UPPCB",10-02-2024 06:00:00,28.757294,77.278792,PM2.5,32,317,162
India,Uttar_Pradesh,Ghaziabad,"Loni, Ghaziabad - UPPCB",10-02-2024 06:00:00,28.757294,77.278792,CO,12,103,70
India,Uttar_Pradesh,Gorakhpur,"Madan Mohan Malaviya University of Technology, Gorakhpur - UPPCB",10-02-2024 06:00:00,26.730136,83.433859,NO2,2,2,2
India,Uttar_Pradesh,Gorakhpur,"Madan Mohan Malaviya University of Technology, Gorakhpur - UPPCB",10-02-2024 06:00:00,26.730136,83.433859,SO2,38,41,39
India,Uttar_Pradesh,Gorakhpur,"Madan Mohan Malaviya University of Technology, Gorakhpur - UPPCB",10-02-2024 06:00:00,26.730136,83.433859,CO,19,95,65
India,Uttar_Pradesh,Greater Noida,"Knowledge Park - III, Greater Noida - UPPCB",10-02-2024 06:00:00,28.47272,77.482000,PM2.5,65,382,230
India,Uttar_Pradesh,Greater Noida,"Knowledge Park - III, Greater Noida - UPPCB",10-02-2024 06:00:00,28.47272,77.482000,PM10,107,477,257
India,Uttar_Pradesh,Greater Noida,"Knowledge Park - III, Greater Noida - UPPCB",10-02-2024 06:00:00,28.47272,77.482000,NH3,7,11,9
India,Uttar_Pradesh,Greater Noida,"Knowledge Park - V, Greater Noida - UPPCB",10-02-2024 06:00:00,28.557054,77.453663,PM10,90,453,233
India,Uttar_Pradesh,Hapur,"Anand Vihar, Hapur - UPPCB",10-02-2024 06:00:00,28.725645,77.749675,OZONE,7,248,17
India,Uttar_Pradesh,Kanpur,"FTI Kidwai Nagar, Kanpur - UPPCB",10-02-2024 06:00:00,26.428282,80.327067,OZONE,3,9,3
India,Uttar_Pradesh,Kanpur,"NSI Kalyanpur, Kanpur - UPPCB",10-02-2024 06:00:00,26.509954,80.249612,PM10,66,158,115
India,Uttar_Pradesh,Kanpur,"Nehru Nagar, Kanpur - UPPCB",10-02-2024 06:00:00,26.4703136,80.3229863,SO2,1,25,11
India,Uttar_Pradesh,Kanpur,"Nehru Nagar, Kanpur - UPPCB",10-02-2024 06:00:00,26.4703136,80.3229863,OZONE,11,176,20
India,Uttar_Pradesh,Khurja,"Kalindi Kunj, Khurja - UPPCB",10-02-2024 06:00:00,28.2348927,77.8683002,NO2,20,57,31
India,Uttar_Pradesh,Lucknow,"Gomti Nagar, Lucknow - UPPCB",10-02-2024 06:00:00,26.868120,81.005119,SO2,3,22,12
India,Uttar_Pradesh,Lucknow,"Kendriya Vidyalaya, Lucknow - CPCB",10-02-2024 06:00:00,26.906111,80.948222,NO2,29,142,74
India,Uttar_Pradesh,Lucknow,"Kukrail Picnic Spot-1, Lucknow - UPPCB",10-02-2024 06:00:00,26.90723,80.98579,PM2.5,48,216,98
India,Uttar_Pradesh,Lucknow,"Lalbagh, Lucknow - CPCB",10-02-2024 06:00:00,26.8458805,80.9365541,PM2.5,5,347,198
India,Uttar_Pradesh,Lucknow,"Lalbagh, Lucknow - CPCB",10-02-2024 06:00:00,26.8458805,80.9365541,SO2,4,45,15
India,Uttar_Pradesh,Meerut,"Ganga Nagar, Meerut - UPPCB",10-02-2024 06:00:00,28.999264,77.7590354,NH3,10,18,13
India,Uttar_Pradesh,Meerut,"Jai Bhim Nagar, Meerut - UPPCB",10-02-2024 06:00:00,28.9535882,77.7622941,PM2.5,61,315,179
India,Uttar_Pradesh,Meerut,"Jai Bhim Nagar, Meerut - UPPCB",10-02-2024 06:00:00,28.9535882,77.7622941,PM10,54,139,99
India,Uttar_Pradesh,Meerut,"Pallavpuram Phase 2, Meerut - UPPCB",10-02-2024 06:00:00,29.063510,77.709723,PM2.5,64,308,171
India,Uttar_Pradesh,Meerut,"Pallavpuram Phase 2, Meerut - UPPCB",10-02-2024 06:00:00,29.063510,77.709723,SO2,10,26,19
India,Uttar_Pradesh,Meerut,"Pallavpuram Phase 2, Meerut - UPPCB",10-02-2024 06:00:00,29.063510,77.709723,CO,48,109,86
India,Uttar_Pradesh,Moradabad,"Buddhi Vihar, Moradabad - UPPCB",10-02-2024 06:00:00,28.83526,78.74460,OZONE,13,69,13
India,Uttar_Pradesh,Moradabad,"Eco Herbal Park, Moradabad - UPPCB",10-02-2024 06:00:00,28.840739,78.697531,PM2.5,79,280,160
India,Uttar_Pradesh,Moradabad,"Eco Herbal Park, Moradabad - UPPCB",10-02-2024 06:00:00,28.840739,78.697531,NH3,7,34,10
India,Uttar_Pradesh,Moradabad,"Employment Office, Moradabad - UPPCB",10-02-2024 06:00:00,28.88528,78.73880,SO2,24,27,25
India,Uttar_Pradesh,Moradabad,"Employment Office, Moradabad - UPPCB",10-02-2024 06:00:00,28.88528,78.73880,OZONE,13,29,14
India,Uttar_Pradesh,Moradabad,"Jigar Colony, Moradabad - UPPCB",10-02-2024 06:00:00,28.856664,78.772638,CO,22,46,40
India,Uttar_Pradesh,Moradabad,"Jigar Colony, Moradabad - UPPCB",10-02-2024 06:00:00,28.856664,78.772638,OZONE,18,35,18
India,Uttar_Pradesh,Moradabad,"Kashiram Nagar, Moradabad - UPPCB",10-02-2024 06:00:00,28.849399,78.742362,PM10,74,418,127
India,Uttar_Pradesh,Moradabad,"Transport Nagar, Moradabad - UPPCB",10-02-2024 06:00:00,28.802625,78.753728,PM2.5,65,252,119
India,Uttar_Pradesh,Moradabad,"Transport Nagar, Moradabad - UPPCB",10-02-2024 06:00:00,28.802625,78.753728,SO2,43,54,45
India,Uttar_Pradesh,Muzaffarnagar,"New Mandi, Muzaffarnagar - UPPCB",10-02-2024 06:00:00,29.4723508,77.7194031,SO2,19,35,27
India,Uttar_Pradesh,Noida,"Sector - 125, Noida - UPPCB",10-02-2024 06:00:00,28.5447608,77.3231257,NH3,1,15,10
India,Uttar_Pradesh,Noida,"Sector - 125, Noida - UPPCB",10-02-2024 06:00:00,28.5447608,77.3231257,CO,18,136,123
India,Uttar_Pradesh,Noida,"Sector - 62, Noida - IMD",10-02-2024 06:00:00,28.6245479,77.3577104,PM10,81,432,211
India,Uttar_Pradesh,Noida,"Sector - 62, Noida - IMD",10-02-2024 06:00:00,28.6245479,77.3577104,CO,88,107,105
India,Uttar_Pradesh,Noida,"Sector-1, Noida - UPPCB",10-02-2024 06:00:00,28.5898,77.3101,PM10,103,435,229
India,Uttar_Pradesh,Prayagraj,"Jhunsi, Prayagraj - UPPCB",10-02-2024 06:00:00,25.425602,81.917152,PM2.5,12,139,59
India,Uttar_Pradesh,Prayagraj,"Nagar Nigam, Prayagraj - UPPCB",10-02-2024 06:00:00,25.44919916 ,81.82735986 ,PM2.5,29,136,65
India,Uttar_Pradesh,Prayagraj,"Nagar Nigam, Prayagraj - UPPCB",10-02-2024 06:00:00,25.44919916 ,81.82735986 ,NH3,2,8,4
India,Uttar_Pradesh,Varanasi,"Ardhali Bazar, Varanasi - UPPCB",10-02-2024 06:00:00,25.3505986,82.9083074,PM2.5,13,222,90
India,Uttar_Pradesh,Varanasi,"Bhelupur, Varanasi - UPPCB",10-02-2024 06:00:00,25.301778,82.996789,PM10,48,233,109
India,Uttar_Pradesh,Varanasi,"Bhelupur, Varanasi - UPPCB",10-02-2024 06:00:00,25.301778,82.996789,CO,16,117,85
India,Uttar_Pradesh,Varanasi,"Maldahiya, Varanasi - UPPCB",10-02-2024 06:00:00,25.32393,82.99687,PM10,36,155,82
India,Uttar_Pradesh,Varanasi,"Maldahiya, Varanasi - UPPCB",10-02-2024 06:00:00,25.32393,82.99687,SO2,31,32,32
India,Uttarakhand,Dehradun,"Doon University, Dehradun - UKPCB",10-02-2024 06:00:00,30.269444,78.044167,SO2,1,2,1
India,Uttarakhand,Rishikesh,"Shivaji Nagar, Rishikesh - UKPCB",10-02-2024 06:00:00,30.075911,78.2859547,PM10,42,98,75
India,Uttarakhand,Rishikesh,"Shivaji Nagar, Rishikesh - UKPCB",10-02-2024 06:00:00,30.075911,78.2859547,OZONE,4,94,18
India,West_Bengal,Durgapur,"Sidhu Kanhu Indoor Stadium, Durgapur - WBPCB",10-02-2024 06:00:00,23.5404352,87.2892225,PM10,85,154,114
India,West_Bengal,Haldia,"Priyambada Housing Estate, Haldia - WBPCB",10-02-2024 06:00:00,22.06047,88.109737,NO2,22,60,37
India,West_Bengal,Howrah,"Belur Math, Howrah - WBPCB",10-02-2024 06:00:00,22.629801,88.352017,NO2,13,43,26
India,West_Bengal,Howrah,"Ghusuri, Howrah - WBPCB",10-02-2024 06:00:00,22.611968,88.347422,NH3,7,12,9
India,West_Bengal,Howrah,"Padmapukur, Howrah - WBPCB",10-02-2024 06:00:00,22.5687319,88.2797276,CO,9,118,34
India,West_Bengal,Kolkata,"Fort William, Kolkata - WBPCB",10-02-2024 06:00:00,22.556640,88.342674,NH3,6,9,7
India,West_Bengal,Kolkata,"Fort William, Kolkata - WBPCB",10-02-2024 06:00:00,22.556640,88.342674,CO,9,44,33
India,West_Bengal,Kolkata,"Jadavpur, Kolkata - WBPCB",10-02-2024 06:00:00,22.49929,88.36917,NH3,4,5,4
India,West_Bengal,Kolkata,"Jadavpur, Kolkata - WBPCB",10-02-2024 06:00:00,22.49929,88.36917,OZONE,5,29,9
India,West_Bengal,Kolkata,"Rabindra Sarobar, Kolkata - WBPCB",10-02-2024 06:00:00,22.51106,88.35142,PM2.5,46,98,72
India,West_Bengal,Kolkata,"Rabindra Sarobar, Kolkata - WBPCB",10-02-2024 06:00:00,22.51106,88.35142,OZONE,3,90,8
India,West_Bengal,Kolkata,"Victoria, Kolkata - WBPCB",10-02-2024 06:00:00,22.5448082,88.3403691,NH3,1,6,4
India,West_Bengal,Siliguri,"Ward-32 Bapupara, Siliguri - WBPCB",10-02-2024 06:00:00,26.6879226,88.4152495,PM10,102,295,155
India,Andhra_Pradesh,Amaravati,"Secretariat, Amaravati - APPCB",10-02-2024 06:00:00,16.5150833,80.5181667,CO,18,107,36
India,Andhra_Pradesh,Anantapur,"Gulzarpet, Anantapur - APPCB",10-02-2024 06:00:00,14.675886,77.593027,PM10,51,106,73
India,Andhra_Pradesh,Chittoor,"Gangineni Cheruvu, Chittoor - APPCB",10-02-2024 06:00:00,13.204880,79.097889,SO2,NA,NA,NA
India,Andhra_Pradesh,Kadapa,"Yerramukkapalli, Kadapa - APPCB",10-02-2024 06:00:00,14.465052,78.824187,PM2.5,32,45,39
India,Andhra_Pradesh,Rajamahendravaram,"Anand Kala Kshetram, Rajamahendravaram - APPCB",10-02-2024 06:00:00,16.9872867,81.7363176,OZONE,5,6,6
India,Andhra_Pradesh,Tirupati,"Tirumala, Tirupati - APPCB",10-02-2024 06:00:00,13.67,79.35,PM10,51,102,69
India,Andhra_Pradesh,Tirupati,"Tirumala, Tirupati - APPCB",10-02-2024 06:00:00,13.67,79.35,NH3,1,2,1
India,Andhra_Pradesh,Tirupati,"Tirumala, Tirupati - APPCB",10-02-2024 06:00:00,13.67,79.35,SO2,3,13,6
India,Andhra_Pradesh,Tirupati,"Vaikuntapuram, Tirupati - APPCB",10-02-2024 06:00:00,13.615387,79.409230,NO2,15,26,19
India,Andhra_Pradesh,Tirupati,"Vaikuntapuram, Tirupati - APPCB",10-02-2024 06:00:00,13.615387,79.409230,SO2,4,6,5
India,Andhra_Pradesh,Vijayawada,"Kanuru, Vijayawada - APPCB",10-02-2024 06:00:00,16.486692,80.699436,SO2,5,10,6
India,Andhra_Pradesh,Vijayawada,"Rajiv Gandhi Park, Vijayawada - APPCB",10-02-2024 06:00:00,16.509717,80.612222,PM10,37,79,57
India,Andhra_Pradesh,Vijayawada,"Rajiv Gandhi Park, Vijayawada - APPCB",10-02-2024 06:00:00,16.509717,80.612222,CO,32,34,34
India,Andhra_Pradesh,Vijayawada,"Rajiv Nagar, Vijayawada - APPCB",10-02-2024 06:00:00,16.554731,80.649110,PM10,26,124,47
India,Andhra_Pradesh,Vijayawada,"Rajiv Nagar, Vijayawada - APPCB",10-02-2024 06:00:00,16.554731,80.649110,NO2,4,13,9
India,Andhra_Pradesh,Visakhapatnam,"GVM Corporation, Visakhapatnam - APPCB",10-02-2024 06:00:00,17.72,83.3,NO2,9,59,29
India,Andhra_Pradesh,Visakhapatnam,"GVM Corporation, Visakhapatnam - APPCB",10-02-2024 06:00:00,17.72,83.3,SO2,9,16,14
India,Arunachal_Pradesh,Naharlagun,"Naharlagun, Naharlagun - APSPCB",10-02-2024 06:00:00,27.103358,93.679645,SO2,3,3,3
India,Assam,Byrnihat,"Central Academy for SFS, Byrnihat - PCBA",10-02-2024 06:00:00,26.071318,91.87488,PM10,78,495,240
India,Assam,Guwahati,"IITG, Guwahati - PCBA",10-02-2024 06:00:00,26.2028636,91.70046436,PM2.5,87,291,158
India,Assam,Guwahati,"IITG, Guwahati - PCBA",10-02-2024 06:00:00,26.2028636,91.70046436,PM10,85,250,141
India,Assam,Guwahati,"Railway Colony, Guwahati - PCBA",10-02-2024 06:00:00,26.181742,91.78063,CO,22,55,41
India,Assam,Nagaon,"Christianpatty, Nagaon - PCBA",10-02-2024 06:00:00,26.349082,92.68449,SO2,2,19,9
India,Assam,Nalbari,"Bata Chowk, Nalbari - PCBA",10-02-2024 06:00:00,26.446912,91.439057,SO2,1,25,6
India,Assam,Silchar,"Tarapur, Silchar - PCBA",10-02-2024 06:00:00,24.82827,92.79525,PM10,1,49,44
India,Assam,Silchar,"Tarapur, Silchar - PCBA",10-02-2024 06:00:00,24.82827,92.79525,NO2,28,51,38
India,Assam,Sivasagar,"Girls College, Sivasagar - PCBA",10-02-2024 06:00:00,26.987634,94.636574,CO,6,52,41
India,Bihar,Araria,"Kharahiya Basti, Araria - BSPCB",10-02-2024 06:00:00,26.146529,87.454184,NO2,6,103,12
India,Bihar,Araria,"Kharahiya Basti, Araria - BSPCB",10-02-2024 06:00:00,26.146529,87.454184,OZONE,1,10,10
India,Bihar,Arrah,"New DM Office, Arrah - BSPCB",10-02-2024 06:00:00,25.5626095,84.663264,CO,2,18,9
India,Bihar,Aurangabad,"Gurdeo Nagar, Aurangabad - BSPCB",10-02-2024 06:00:00,24.75746,84.366208,PM10,59,169,115
India,Bihar,Aurangabad,"Gurdeo Nagar, Aurangabad - BSPCB",10-02-2024 06:00:00,24.75746,84.366208,NO2,6,13,8
India,Bihar,Aurangabad,"Gurdeo Nagar, Aurangabad - BSPCB",10-02-2024 06:00:00,24.75746,84.366208,SO2,1,15,10
India,Bihar,Aurangabad,"Gurdeo Nagar, Aurangabad - BSPCB",10-02-2024 06:00:00,24.75746,84.366208,OZONE,3,113,21
India,Bihar,Bettiah,"Kamalnath Nagar, Bettiah - BSPCB",10-02-2024 06:00:00,26.80365,84.51954,OZONE,1,8,3
India,Bihar,Bhagalpur,"DM Office_Kachari Chowk, Bhagalpur - BSPCB",10-02-2024 06:00:00,25.251013,86.989001,NH3,3,5,4
India,Bihar,Bhagalpur,"DM Office_Kachari Chowk, Bhagalpur - BSPCB",10-02-2024 06:00:00,25.251013,86.989001,CO,34,80,47
India,Bihar,Bhagalpur,"Mayaganj, Bhagalpur - BSPCB",10-02-2024 06:00:00,25.265194,87.012947,PM2.5,98,352,260
India,Bihar,Bhagalpur,"Mayaganj, Bhagalpur - BSPCB",10-02-2024 06:00:00,25.265194,87.012947,CO,8,10,9
India,Bihar,Bihar Sharif,"D M Colony, Bihar Sharif - BSPCB",10-02-2024 06:00:00,25.204762,85.514960,OZONE,6,52,13
India,Bihar,Buxar,"Charitra Van, Buxar - BSPCB (Formerly known as Central Jail)",10-02-2024 06:00:00,25.567520,83.966379,PM10,145,500,288
India,Bihar,Buxar,"Charitra Van, Buxar - BSPCB (Formerly known as Central Jail)",10-02-2024 06:00:00,25.567520,83.966379,OZONE,2,110,6
India,Bihar,Chhapra,"Darshan Nagar, Chhapra - BSPCB",10-02-2024 06:00:00,25.7808257,84.7446768,PM2.5,88,411,244
India,Bihar,Chhapra,"Darshan Nagar, Chhapra - BSPCB",10-02-2024 06:00:00,25.7808257,84.7446768,SO2,1,107,33
India,Bihar,Gaya,"Collectorate, Gaya - BSPCB",10-02-2024 06:00:00,24.7955,84.9994,NO2,15,18,16
India,Bihar,Gaya,"SFTI Kusdihra, Gaya - BSPCB",10-02-2024 06:00:00,24.762518,84.982348,PM2.5,37,136,73
India,Bihar,Gaya,"SFTI Kusdihra, Gaya - BSPCB",10-02-2024 06:00:00,24.762518,84.982348,NO2,19,37,29
India,Bihar,Hajipur,"Industrial Area, Hajipur - BSPCB",10-02-2024 06:00:00,25.697189,85.245900,SO2,7,8,8
India,Bihar,Katihar,"Mirchaibari, Katihar - BSPCB",10-02-2024 06:00:00,25.560083,87.553265,CO,NA,NA,NA
India,Bihar,Motihari,"Gandak Colony, Motihari - BSPCB",10-02-2024 06:00:00,26.63086,84.90051,PM10,68,198,129
India,Bihar,Motihari,"Gandak Colony, Motihari - BSPCB",10-02-2024 06:00:00,26.63086,84.90051,OZONE,26,106,53
India,Bihar,Munger,"Town Hall, Munger - BSPCB",10-02-2024 06:00:00,25.376776,86.471523,NO2,8,11,9
India,Bihar,Muzaffarpur,"MIT-Daudpur Kothi, Muzaffarpur - BSPCB",10-02-2024 06:00:00,26.1403345,85.3650192,NO2,6,8,7
India,Bihar,Muzaffarpur,"Muzaffarpur Collectorate, Muzaffarpur - BSPCB",10-02-2024 06:00:00,26.1209,85.3647,CO,14,78,14
India,Bihar,Patna,"DRM Office Danapur, Patna - BSPCB",10-02-2024 06:00:00,25.586562,85.043586,NO2,10,105,44
India,Bihar,Patna,"DRM Office Danapur, Patna - BSPCB",10-02-2024 06:00:00,25.586562,85.043586,SO2,7,10,8
India,Bihar,Patna,"IGSC Planetarium Complex, Patna - BSPCB",10-02-2024 06:00:00,25.610369,85.132568,CO,14,16,16
India,Bihar,Patna,"Muradpur, Patna - BSPCB",10-02-2024 06:00:00,25.619651,85.147382,OZONE,25,126,42
India,Bihar,Patna,"Rajbansi Nagar, Patna - BSPCB",10-02-2024 06:00:00,25.599486,85.113666,PM2.5,NA,NA,NA
India,Bihar,Patna,"Rajbansi Nagar, Patna - BSPCB",10-02-2024 06:00:00,25.599486,85.113666,SO2,NA,NA,NA
India,Bihar,Patna,"Samanpura, Patna - BSPCB",10-02-2024 06:00:00,25.596727,85.085624,PM10,134,500,300
India,Bihar,Patna,"Samanpura, Patna - BSPCB",10-02-2024 06:00:00,25.596727,85.085624,CO,41,183,143
India,Bihar,Purnia,"Mariam Nagar, Purnia - BSPCB",10-02-2024 06:00:00,25.366336,87.117468,NH3,1,1,1
India,Bihar,Rajgir,"Dangi Tola, Rajgir - BSPCB",10-02-2024 06:00:00,25.03280,85.41948,PM2.5,42,328,123
India,Bihar,Rajgir,"Dangi Tola, Rajgir - BSPCB",10-02-2024 06:00:00,25.03280,85.41948,OZONE,19,25,22
India,Bihar,Saharsa,"Police Line, Saharsa - BSPCB",10-02-2024 06:00:00,25.892357,86.590325,PM2.5,80,397,217
India,Bihar,Samastipur,"DM Office_Kasipur, Samastipur - BSPCB",10-02-2024 06:00:00,25.859655,85.77944,PM10,NA,NA,NA
India,Bihar,Samastipur,"DM Office_Kasipur, Samastipur - BSPCB",10-02-2024 06:00:00,25.859655,85.77944,SO2,NA,NA,NA
India,Bihar,Siwan,"Chitragupta Nagar, Siwan - BSPCB",10-02-2024 06:00:00,26.2271665,84.3570427,NH3,NA,NA,NA
India,Bihar,Siwan,"Chitragupta Nagar, Siwan - BSPCB",10-02-2024 06:00:00,26.2271665,84.3570427,OZONE,9,44,27
India,Chandigarh,Chandigarh,"Sector 22, Chandigarh - CPCC",10-02-2024 06:00:00,30.735567,76.775714,PM2.5,117,363,250
India,Chandigarh,Chandigarh,"Sector 22, Chandigarh - CPCC",10-02-2024 06:00:00,30.735567,76.775714,CO,44,109,72
India,Chandigarh,Chandigarh,"Sector 22, Chandigarh - CPCC",10-02-2024 06:00:00,30.735567,76.775714,OZONE,3,180,18
India,Chandigarh,Chandigarh,"Sector-25, Chandigarh - CPCC",10-02-2024 06:00:00,30.751462,76.762879,NO2,5,83,39
India,Chandigarh,Chandigarh,"Sector-25, Chandigarh - CPCC",10-02-2024 06:00:00,30.751462,76.762879,SO2,3,39,12
India,Chhattisgarh,Bhilai,"32Bungalows, Bhilai - CECB",10-02-2024 06:00:00,21.194815,81.314770,PM10,24,77,58
India,Chhattisgarh,Bhilai,"32Bungalows, Bhilai - CECB",10-02-2024 06:00:00,21.194815,81.314770,CO,18,40,35
India,Chhattisgarh,Bhilai,"Civic Center, Bhilai - Bhilai Steel Plant",10-02-2024 06:00:00,21.185571,81.343175,NH3,2,6,3
India,Chhattisgarh,Bhilai,"Civic Center, Bhilai - Bhilai Steel Plant",10-02-2024 06:00:00,21.185571,81.343175,SO2,4,13,10
India,Chhattisgarh,Bhilai,"Hathkhoj, Bhilai - CECB",10-02-2024 06:00:00,21.224231,81.408350,SO2,12,105,50
India,Chhattisgarh,Chhal,"Nawapara SECL Colony, Chhal - CECB",10-02-2024 06:00:00,22.118125,83.140608,NO2,11,46,20
India,Chhattisgarh,Chhal,"Nawapara SECL Colony, Chhal - CECB",10-02-2024 06:00:00,22.118125,83.140608,SO2,10,46,20
India,Chhattisgarh,Korba,"Rampur, Korba - CECB",10-02-2024 06:00:00,22.368195,82.746431,CO,12,30,23
India,Chhattisgarh,Milupara,"Govt. Higher Secondary School, Milupara - CECB",10-02-2024 06:00:00,22.1910172,83.5197009,PM2.5,16,44,28
India,Chhattisgarh,Raipur,"Bhatagaon New ISBT, Raipur - CECB",10-02-2024 06:00:00,21.219665,81.630094,PM2.5,28,58,43
India,Chhattisgarh,Raipur,"Krishak Nagar, Raipur - CECB",10-02-2024 06:00:00,21.237755,81.705301,PM2.5,29,60,45
India,Chhattisgarh,Raipur,"Krishak Nagar, Raipur - CECB",10-02-2024 06:00:00,21.237755,81.705301,NO2,24,41,32
India,Chhattisgarh,Raipur,"Siltara Phase-II, Raipur - CECB",10-02-2024 06:00:00,21.371751,81.664929,PM2.5,32,139,89
India,Chhattisgarh,Raipur,"Siltara Phase-II, Raipur - CECB",10-02-2024 06:00:00,21.371751,81.664929,PM10,38,145,101
India,Chhattisgarh,Raipur,"Siltara Phase-II, Raipur - CECB",10-02-2024 06:00:00,21.371751,81.664929,SO2,1,10,2
India,Chhattisgarh,Raipur,"Siltara Phase-II, Raipur - CECB",10-02-2024 06:00:00,21.371751,81.664929,CO,14,48,43
India,Chhattisgarh,Raipur,"Siltara Phase-II, Raipur - CECB",10-02-2024 06:00:00,21.371751,81.664929,OZONE,3,6,3
India,Delhi,Delhi,"Anand Vihar, Delhi - DPCC",10-02-2024 06:00:00,28.647622,77.3158090,SO2,14,62,36
India,Delhi,Delhi,"Ashok Vihar, Delhi - DPCC",10-02-2024 06:00:00,28.695381,77.181665,PM2.5,51,455,234
India,Delhi,Delhi,"Ashok Vihar, Delhi - DPCC",10-02-2024 06:00:00,28.695381,77.181665,NH3,5,8,6
India,Delhi,Delhi,"Ashok Vihar, Delhi - DPCC",10-02-2024 06:00:00,28.695381,77.181665,OZONE,4,20,4
India,Delhi,Delhi,"Bawana, Delhi - DPCC",10-02-2024 06:00:00,28.776200,77.051074,PM2.5,63,437,255
India,Delhi,Delhi,"Bawana, Delhi - DPCC",10-02-2024 06:00:00,28.776200,77.051074,NH3,5,7,6
India,Delhi,Delhi,"DTU, Delhi - CPCB",10-02-2024 06:00:00,28.7500499,77.1112615,NO2,4,55,42
India,Delhi,Delhi,"DTU, Delhi - CPCB",10-02-2024 06:00:00,28.7500499,77.1112615,NH3,10,37,16
India,Delhi,Delhi,"Dwarka-Sector 8, Delhi - DPCC ",10-02-2024 06:00:00,28.5710274,77.0719006,PM10,100,500,297
India,Delhi,Delhi,"IGI Airport (T3), Delhi - IMD",10-02-2024 06:00:00,28.5627763,77.1180053,CO,78,173,151
India,Delhi,Delhi,"IHBAS, Dilshad Garden, Delhi - CPCB",10-02-2024 06:00:00,28.6811736,77.3025234,PM2.5,33,292,141
India,Delhi,Delhi,"ITO, Delhi - CPCB",10-02-2024 06:00:00,28.628624,77.241060,NH3,1,11,5
India,Delhi,Delhi,"Jawaharlal Nehru Stadium, Delhi - DPCC",10-02-2024 06:00:00,28.580280,77.233829,NO2,39,138,84
India,Delhi,Delhi,"Jawaharlal Nehru Stadium, Delhi - DPCC",10-02-2024 06:00:00,28.580280,77.233829,SO2,3,44,14
India,Delhi,Delhi,"Lodhi Road, Delhi - IMD",10-02-2024 06:00:00,28.5918245,77.2273074,CO,40,106,102
India,Delhi,Delhi,"Major Dhyan Chand National Stadium, Delhi - DPCC",10-02-2024 06:00:00,28.611281,77.237738,CO,31,137,117
India,Delhi,Delhi,"Major Dhyan Chand National Stadium, Delhi - DPCC",10-02-2024 06:00:00,28.611281,77.237738,OZONE,1,171,1
India,Delhi,Delhi,"Mandir Marg, Delhi - DPCC",10-02-2024 06:00:00,28.636429,77.201067,PM10,73,345,170
India,Delhi,Delhi,"Mandir Marg, Delhi - DPCC",10-02-2024 06:00:00,28.636429,77.201067,NH3,16,18,17
India,Delhi,Delhi,"Mundka, Delhi - DPCC",10-02-2024 06:00:00,28.684678,77.076574,NO2,25,131,78
India,Delhi,Delhi,"Mundka, Delhi - DPCC",10-02-2024 06:00:00,28.684678,77.076574,NH3,6,11,8
India,Delhi,Delhi,"Mundka, Delhi - DPCC",10-02-2024 06:00:00,28.684678,77.076574,OZONE,1,7,2
India,Delhi,Delhi,"Najafgarh, Delhi - DPCC",10-02-2024 06:00:00,28.570173,76.933762,NO2,1,3,1
India,Delhi,Delhi,"Najafgarh, Delhi - DPCC",10-02-2024 06:00:00,28.570173,76.933762,NH3,1,1,1
India,Delhi,Delhi,"Nehru Nagar, Delhi - DPCC",10-02-2024 06:00:00,28.567890,77.250515,PM10,80,409,216
India,Delhi,Delhi,"Nehru Nagar, Delhi - DPCC",10-02-2024 06:00:00,28.567890,77.250515,SO2,3,24,12
India,Delhi,Delhi,"New Moti Bagh, Delhi - MHUA",10-02-2024 06:00:00,28.57834,77.18400,PM2.5,45,364,191
India,Delhi,Delhi,"New Moti Bagh, Delhi - MHUA",10-02-2024 06:00:00,28.57834,77.18400,NO2,1,7,4
India,Delhi,Delhi,"New Moti Bagh, Delhi - MHUA",10-02-2024 06:00:00,28.57834,77.18400,CO,14,137,125
India,Delhi,Delhi,"Okhla Phase-2, Delhi - DPCC",10-02-2024 06:00:00,28.530785,77.271255,NO2,45,157,105
India,Delhi,Delhi,"Patparganj, Delhi - DPCC",10-02-2024 06:00:00,28.623763,77.287209,PM10,96,446,237
India,Delhi,Delhi,"Patparganj, Delhi - DPCC",10-02-2024 06:00:00,28.623763,77.287209,NH3,7,12,9
India,Delhi,Delhi,"Patparganj, Delhi - DPCC",10-02-2024 06:00:00,28.623763,77.287209,SO2,8,18,12
India,Delhi,Delhi,"Patparganj, Delhi - DPCC",10-02-2024 06:00:00,28.623763,77.287209,OZONE,1,88,3
India,Delhi,Delhi,"Pusa, Delhi - DPCC",10-02-2024 06:00:00,28.639652,77.146275,PM2.5,50,332,196
India,Delhi,Delhi,"Pusa, Delhi - DPCC",10-02-2024 06:00:00,28.639652,77.146275,NO2,121,335,208
India,Delhi,Delhi,"R K Puram, Delhi - DPCC",10-02-2024 06:00:00,28.563262,77.186937,NH3,3,12,6
India,Delhi,Delhi,"Rohini, Delhi - DPCC",10-02-2024 06:00:00,28.732528,77.119920,CO,15,159,131
India,Delhi,Delhi,"Shadipur, Delhi - CPCB",10-02-2024 06:00:00,28.6514781,77.1473105,CO,22,73,41
India,Delhi,Delhi,"Sirifort, Delhi - CPCB",10-02-2024 06:00:00,28.5504249,77.2159377,CO,11,124,117
India,Delhi,Delhi,"Sonia Vihar, Delhi - DPCC",10-02-2024 06:00:00,28.710508,77.249485,NH3,5,7,6
India,Delhi,Delhi,"Sri Aurobindo Marg, Delhi - DPCC",10-02-2024 06:00:00,28.531346,77.190156,PM2.5,38,315,138
India,Delhi,Delhi,"Sri Aurobindo Marg, Delhi - DPCC",10-02-2024 06:00:00,28.531346,77.190156,NH3,6,9,7
India,Delhi,Delhi,"Sri Aurobindo Marg, Delhi - DPCC",10-02-2024 06:00:00,28.531346,77.190156,SO2,8,13,11
India,Delhi,Delhi,"Vivek Vihar, Delhi - DPCC",10-02-2024 06:00:00,28.672342,77.315260,PM2.5,60,480,234
India,Delhi,Delhi,"Vivek Vihar, Delhi - DPCC",10-02-2024 06:00:00,28.672342,77.315260,PM10,93,420,222
India,Delhi,Delhi,"Vivek Vihar, Delhi - DPCC",10-02-2024 06:00:00,28.672342,77.315260,NH3,3,7,6
India,Gujarat,Ahmedabad,"Chandkheda, Ahmedabad - IITM",10-02-2024 06:00:00,23.107969,72.574648,PM10,58,166,89
India,Gujarat,Ahmedabad,"Chandkheda, Ahmedabad - IITM",10-02-2024 06:00:00,23.107969,72.574648,CO,29,100,86
India,Gujarat,Ahmedabad,"Gyaspur, Ahmedabad - IITM",10-02-2024 06:00:00,22.977134,72.553024,PM2.5,94,396,170
India,Gujarat,Ahmedabad,"Maninagar, Ahmedabad - GPCB",10-02-2024 06:00:00,23.002657,72.591912,SO2,15,27,21
India,Gujarat,Ahmedabad,"Raikhad, Ahmedabad - IITM",10-02-2024 06:00:00,23.020509,72.579261,PM10,28,160,110
India,Gujarat,Ahmedabad,"Raikhad, Ahmedabad - IITM",10-02-2024 06:00:00,23.020509,72.579261,NH3,1,2,1
India,Gujarat,Ahmedabad,"Raikhad, Ahmedabad - IITM",10-02-2024 06:00:00,23.020509,72.579261,SO2,2,12,5
India,Gujarat,Ahmedabad,"SAC ISRO Bopal, Ahmedabad - IITM",10-02-2024 06:00:00,23.041137,72.456691,PM2.5,54,290,92
India,Gujarat,Ahmedabad,"SAC ISRO Bopal, Ahmedabad - IITM",10-02-2024 06:00:00,23.041137,72.456691,OZONE,6,17,8
India,Gujarat,Ahmedabad,"SAC ISRO Satellite, Ahmedabad - IITM",10-02-2024 06:00:00,23.023389,72.515201,PM10,101,111,108
India,Gujarat,Ahmedabad,"SAC ISRO Satellite, Ahmedabad - IITM",10-02-2024 06:00:00,23.023389,72.515201,SO2,12,22,14
India,Gujarat,Ahmedabad,"Sardar Vallabhbhai Patel Stadium, Ahmedabad - IITM",10-02-2024 06:00:00,23.043070,72.562968,PM2.5,55,158,93
India,Gujarat,Ahmedabad,"Sardar Vallabhbhai Patel Stadium, Ahmedabad - IITM",10-02-2024 06:00:00,23.043070,72.562968,NH3,NA,NA,NA
India,Gujarat,Ahmedabad,"Sardar Vallabhbhai Patel Stadium, Ahmedabad - IITM",10-02-2024 06:00:00,23.043070,72.562968,CO,14,51,25
India,Gujarat,Ankleshwar,"GIDC, Ankleshwar - GPCB",10-02-2024 06:00:00,21.613267,73.010555,PM10,64,110,81
India,Gujarat,Ankleshwar,"GIDC, Ankleshwar - GPCB",10-02-2024 06:00:00,21.613267,73.010555,SO2,14,124,44
India,Gujarat,Vapi,"Phase-1 GIDC, Vapi - GPCB",10-02-2024 06:00:00,20.362421,72.918013,SO2,44,45,44
India,Gujarat,Vapi,"Phase-1 GIDC, Vapi - GPCB",10-02-2024 06:00:00,20.362421,72.918013,OZONE,26,35,34
India,Haryana,Ambala,"Patti Mehar, Ambala - HSPCB",10-02-2024 06:00:00,30.379589,76.778328,CO,30,60,45
India,Haryana,Bahadurgarh,"Arya Nagar, Bahadurgarh - HSPCB",10-02-2024 06:00:00,28.6701,76.9254,NO2,35,40,36
India,Haryana,Bahadurgarh,"Arya Nagar, Bahadurgarh - HSPCB",10-02-2024 06:00:00,28.6701,76.9254,OZONE,38,48,42
India,Haryana,Bhiwani,"H.B. Colony, Bhiwani - HSPCB",10-02-2024 06:00:00,28.806223,76.141105,SO2,8,14,10
India,Haryana,Charkhi Dadri,"Mini Secretariat, Charkhi Dadri - HSPCB",10-02-2024 06:00:00,28.593883,76.270653,SO2,5,12,8
India,Haryana,Dharuhera,"Municipal Corporation Office, Dharuhera -  HSPCB",10-02-2024 06:00:00,28.206800,76.799700,NO2,45,110,75
India,Haryana,Faridabad,"New Industrial Town, Faridabad - HSPCB",10-02-2024 06:00:00,28.39072,77.30059,OZONE,41,223,47
India,Haryana,Faridabad,"Sector 30, Faridabad - HSPCB",10-02-2024 06:00:00,28.4417,77.3217,PM10,106,125,115
India,Haryana,Faridabad,"Sector 30, Faridabad - HSPCB",10-02-2024 06:00:00,28.4417,77.3217,NH3,9,9,9
India,Haryana,Faridabad,"Sector 30, Faridabad - HSPCB",10-02-2024 06:00:00,28.4417,77.3217,SO2,2,28,5
India,Haryana,Faridabad,"Sector- 16A, Faridabad - HSPCB",10-02-2024 06:00:00,28.4088421,77.3099081,OZONE,14,14,14
India,Haryana,Fatehabad,"Huda Sector, Fatehabad - HSPCB",10-02-2024 06:00:00,29.503664,75.467934,NO2,25,25,25
India,Haryana,Fatehabad,"Huda Sector, Fatehabad - HSPCB",10-02-2024 06:00:00,29.503664,75.467934,SO2,4,15,8
India,Haryana,Fatehabad,"Huda Sector, Fatehabad - HSPCB",10-02-2024 06:00:00,29.503664,75.467934,OZONE,20,25,22
India,Haryana,Gurugram,"Sector-51, Gurugram - HSPCB",10-02-2024 06:00:00,28.4227,77.0667,SO2,3,5,4
India,Haryana,Gurugram,"Teri Gram, Gurugram - HSPCB",10-02-2024 06:00:00,28.4275,77.1465,PM10,193,500,363
India,Haryana,Gurugram,"Teri Gram, Gurugram - HSPCB",10-02-2024 06:00:00,28.4275,77.1465,SO2,3,5,4
India,Haryana,Gurugram,"Vikas Sadan, Gurugram - HSPCB",10-02-2024 06:00:00,28.4501238,77.0263051,NO2,5,24,14
India,Haryana,Jind,"Police Lines, Jind - HSPCB",10-02-2024 06:00:00,29.307814,76.337619,PM2.5,44,221,106
India,Haryana,Jind,"Police Lines, Jind - HSPCB",10-02-2024 06:00:00,29.307814,76.337619,NO2,9,17,12
India,Haryana,Kaithal,"Rishi Nagar, Kaithal - HSPCB",10-02-2024 06:00:00,29.8006,76.4155,PM2.5,44,330,121
India,Haryana,Kurukshetra,"Sector-7, Kurukshetra - HSPCB",10-02-2024 06:00:00,29.966942,76.875879,CO,19,103,61
India,Haryana,Mandikhera,"General Hospital, Mandikhera - HSPCB",10-02-2024 06:00:00,27.9002,76.9938,PM10,35,128,79
India,Haryana,Mandikhera,"General Hospital, Mandikhera - HSPCB",10-02-2024 06:00:00,27.9002,76.9938,SO2,31,39,34
India,Haryana,Manesar,"Sector-2 IMT, Manesar - HSPCB",10-02-2024 06:00:00,28.360699,76.936090,NH3,1,3,2
India,Haryana,Manesar,"Sector-2 IMT, Manesar - HSPCB",10-02-2024 06:00:00,28.360699,76.936090,CO,19,101,71
India,Haryana,Palwal,"Shyam Nagar, Palwal - HSPCB",10-02-2024 06:00:00,28.1485564,77.3320667,PM2.5,50,94,72
India,Haryana,Sirsa,"F-Block, Sirsa - HSPCB",10-02-2024 06:00:00,29.536400,75.015800,PM2.5,41,84,64
India,Haryana,Sirsa,"F-Block, Sirsa - HSPCB",10-02-2024 06:00:00,29.536400,75.015800,OZONE,32,87,41
India,Haryana,Sonipat,"Murthal, Sonipat - HSPCB",10-02-2024 06:00:00,29.027200,77.062100,CO,14,49,36
India,Haryana,Sonipat,"Murthal, Sonipat - HSPCB",10-02-2024 06:00:00,29.027200,77.062100,OZONE,17,36,19
India,Himachal Pradesh,Baddi,"HIMUDA Complex Phase-1, Baddi - HPPCB",10-02-2024 06:00:00,30.943887,76.801991,CO,10,68,20
India,Jharkhand,Dhanbad,"Sardar Patel Nagar, Dhanbad - JSPCB",10-02-2024 06:00:00,23.80569,86.44268,PM2.5,8,308,79
India,Jharkhand,Pathardih,"Mohalbani Ghat, Pathardih - DMC",10-02-2024 06:00:00,23.669880,86.411725,PM10,68,301,113
India,Jharkhand,Pathardih,"Mohalbani Ghat, Pathardih - DMC",10-02-2024 06:00:00,23.669880,86.411725,NO2,14,163,45
India,Karnataka,Bagalkot,"Vidayagiri, Bagalkot - KSPCB",10-02-2024 06:00:00,16.172806,75.659694,SO2,9,10,9
India,Karnataka,Belgaum,"Ramteerth Nagar, Belgaum - KSPCB",10-02-2024 06:00:00,15.888653,74.541751,NH3,33,34,34
India,Karnataka,Belgaum,"Ramteerth Nagar, Belgaum - KSPCB",10-02-2024 06:00:00,15.888653,74.541751,SO2,8,9,8
India,Karnataka,Bengaluru,"BTM Layout, Bengaluru - CPCB",10-02-2024 06:00:00,12.9135218,77.5950804,PM10,NA,NA,NA
India,Karnataka,Bengaluru,"Bapuji Nagar, Bengaluru - KSPCB",10-02-2024 06:00:00,12.951913,77.539784,PM2.5,79,250,137
India,Karnataka,Bengaluru,"Bapuji Nagar, Bengaluru - KSPCB",10-02-2024 06:00:00,12.951913,77.539784,NO2,10,12,11
India,Karnataka,Bengaluru,"Bapuji Nagar, Bengaluru - KSPCB",10-02-2024 06:00:00,12.951913,77.539784,SO2,5,7,6
India,Karnataka,Bengaluru,"Hebbal, Bengaluru - KSPCB",10-02-2024 06:00:00,13.029152,77.585901,PM2.5,33,110,68
India,Karnataka,Bengaluru,"Hebbal, Bengaluru - KSPCB",10-02-2024 06:00:00,13.029152,77.585901,NO2,5,5,5
India,Karnataka,Bengaluru,"Hebbal, Bengaluru - KSPCB",10-02-2024 06:00:00,13.029152,77.585901,CO,3,52,8
India,Karnataka,Bengaluru,"Hebbal, Bengaluru - KSPCB",10-02-2024 06:00:00,13.029152,77.585901,OZONE,8,22,9
India,Karnataka,Bengaluru,"Hombegowda Nagar, Bengaluru - KSPCB",10-02-2024 06:00:00,12.938539,77.590100,PM10,50,103,74
India,Karnataka,Bengaluru,"Hombegowda Nagar, Bengaluru - KSPCB",10-02-2024 06:00:00,12.938539,77.590100,CO,14,29,17
India,Karnataka,Bengaluru,"Jigani, Bengaluru - KSPCB",10-02-2024 06:00:00,12.7816279,77.6299145,PM10,NA,NA,NA
India,Karnataka,Bengaluru,"Kasturi Nagar, Bengaluru - KSPCB",10-02-2024 06:00:00,13.003872,77.664217,PM10,110,141,124
India,Karnataka,Bengaluru,"Peenya, Bengaluru - CPCB",10-02-2024 06:00:00,13.0270199,77.494094,OZONE,27,88,67
India,Karnataka,Bengaluru,"Shivapura_Peenya, Bengaluru - KSPCB",10-02-2024 06:00:00,13.0246342,77.5080115,NO2,15,16,15
India,Karnataka,Bengaluru,"Silk Board, Bengaluru - KSPCB",10-02-2024 06:00:00,12.917348,77.622813,NH3,1,2,1
India,Karnataka,Bengaluru,"Silk Board, Bengaluru - KSPCB",10-02-2024 06:00:00,12.917348,77.622813,CO,20,48,30
India,Karnataka,Bidar,"Naubad, Bidar - KSPCB",10-02-2024 06:00:00,17.930306,77.482194,CO,48,81,69
India,Karnataka,Chamarajanagar,"Urban, Chamarajanagar - KSPCB",10-02-2024 06:00:00,11.55358,76.55521,NH3,2,2,2
India,Karnataka,Chamarajanagar,"Urban, Chamarajanagar - KSPCB",10-02-2024 06:00:00,11.55358,76.55521,OZONE,20,45,26
India,Karnataka,Davanagere,"Devaraj Urs Badavane, Davanagere - KSPCB",10-02-2024 06:00:00,14.475800,75.905200,NO2,NA,NA,NA
India,Karnataka,Dharwad,"Kalabhavan, Dharwad - KSPCB",10-02-2024 06:00:00,15.459706,75.008381,NO2,6,36,24
India,Karnataka,Gadag,"Panchal Nagar, Gadag - KSPCB",10-02-2024 06:00:00,15.411456,75.638133,CO,47,60,55
India,Karnataka,Hassan,"B.Katihalli, Hassan - KSPCB",10-02-2024 06:00:00,13.008556,76.125258,PM10,15,100,74
India,Karnataka,Hassan,"B.Katihalli, Hassan - KSPCB",10-02-2024 06:00:00,13.008556,76.125258,NO2,1,3,1
India,Karnataka,Haveri,"Ashwini Nagar, Haveri - KSPCB",10-02-2024 06:00:00,14.791800,75.389600,PM10,55,153,92
India,Karnataka,Haveri,"Ashwini Nagar, Haveri - KSPCB",10-02-2024 06:00:00,14.791800,75.389600,SO2,13,14,14
India,Karnataka,Hubballi,"Lingaraj Nagar, Hubballi - KSPCB",10-02-2024 06:00:00,15.3714823,75.1160168,CO,31,100,83
India,Karnataka,Kalaburagi,"Lal Bahadur Shastri Nagar, Kalaburagi - KSPCB",10-02-2024 06:00:00,17.321993,76.822628,NO2,11,11,11
India,Karnataka,Kalaburagi,"Mahatma Basaveswar Colony, Kalaburgi - KSPCB",10-02-2024 06:00:00,17.336318,76.847397,PM2.5,25,87,48
India,Karnataka,Kalaburagi,"Mahatma Basaveswar Colony, Kalaburgi - KSPCB",10-02-2024 06:00:00,17.336318,76.847397,OZONE,2,31,10
India,Karnataka,Karwar,"KHB Colony, Karwar - KSPCB",10-02-2024 06:00:00,14.816666,74.141003,OZONE,21,22,21
India,Karnataka,Koppal,"Diwator Nagar, Koppal - KSPCB",10-02-2024 06:00:00,15.347630,76.181767,PM2.5,28,76,49
India,Karnataka,Koppal,"Diwator Nagar, Koppal - KSPCB",10-02-2024 06:00:00,15.347630,76.181767,SO2,54,102,66
India,Karnataka,Madikeri,"Stuart Hill, Madikeri - KSPCB",10-02-2024 06:00:00,12.415911,75.735050,PM2.5,24,59,44
India,Karnataka,Mangalore,"Kadri, Mangalore - KSPCB",10-02-2024 06:00:00,12.889250,74.853000,PM10,57,82,70
India,Karnataka,Mangalore,"Kadri, Mangalore - KSPCB",10-02-2024 06:00:00,12.889250,74.853000,NO2,6,9,8
India,Karnataka,Mangalore,"Kadri, Mangalore - KSPCB",10-02-2024 06:00:00,12.889250,74.853000,SO2,18,21,20
India,Karnataka,Ramanagara,"Vijay Nagar, Ramanagara - KSPCB",10-02-2024 06:00:00,12.733409,77.298051,PM10,33,74,47
India,Karnataka,Ramanagara,"Vijay Nagar, Ramanagara - KSPCB",10-02-2024 06:00:00,12.733409,77.298051,NO2,3,19,6
India,Karnataka,Ramanagara,"Vijay Nagar, Ramanagara - KSPCB",10-02-2024 06:00:00,12.733409,77.298051,NH3,1,1,1
India,Karnataka,Ramanagara,"Vijay Nagar, Ramanagara - KSPCB",10-02-2024 06:00:00,12.733409,77.298051,OZONE,28,30,29
India,Karnataka,Shivamogga,"Vinoba Nagara, Shivamogga - KSPCB",10-02-2024 06:00:00,13.940000,75.555917,PM2.5,35,71,52
India,Karnataka,Shivamogga,"Vinoba Nagara, Shivamogga - KSPCB",10-02-2024 06:00:00,13.940000,75.555917,PM10,55,87,69
India,Karnataka,Udupi,"Brahmagiri, Udupi - KSPCB",10-02-2024 06:00:00,13.34194444,74.74694444,NO2,13,14,14
India,Karnataka,Udupi,"Brahmagiri, Udupi - KSPCB",10-02-2024 06:00:00,13.34194444,74.74694444,NH3,1,2,2
India,Karnataka,Vijayapura,"Ibrahimpur, Vijayapura - KSPCB",10-02-2024 06:00:00,16.802639,75.722694,PM2.5,25,31,30
India,Karnataka,Vijayapura,"Ibrahimpur, Vijayapura - KSPCB",10-02-2024 06:00:00,16.802639,75.722694,NO2,17,19,19
India,Kerala,Kollam,"Polayathode, Kollam - Kerala PCB",10-02-2024 06:00:00,8.8787,76.6073,PM2.5,48,86,66
India,Kerala,Kollam,"Polayathode, Kollam - Kerala PCB",10-02-2024 06:00:00,8.8787,76.6073,SO2,1,4,2
India,Kerala,Thiruvananthapuram,"Kariavattom, Thiruvananthapuram - Kerala PCB",10-02-2024 06:00:00,8.563700,76.886500,OZONE,27,30,29
India,Kerala,Thiruvananthapuram,"Plammoodu, Thiruvananthapuram - Kerala PCB",10-02-2024 06:00:00,8.5149093,76.9435879,NO2,11,13,12
India,Kerala,Thiruvananthapuram,"Plammoodu, Thiruvananthapuram - Kerala PCB",10-02-2024 06:00:00,8.5149093,76.9435879,OZONE,12,61,23
India,Kerala,Thrissur,"Corporation Ground, Thrissur - Kerala PCB",10-02-2024 06:00:00,10.532400,76.215900,PM10,NA,NA,NA
India,Kerala,Thrissur,"Corporation Ground, Thrissur - Kerala PCB",10-02-2024 06:00:00,10.532400,76.215900,SO2,NA,NA,NA
India,Madhya Pradesh,Bhopal,"Idgah Hills, Bhopal - MPPCB",10-02-2024 06:00:00,23.264759,77.381568,PM10,45,109,73
India,Madhya Pradesh,Bhopal,"Paryavaran Parisar, Bhopal - MPPCB",10-02-2024 06:00:00,23.210494,77.425409,NO2,22,90,44
India,Madhya Pradesh,Bhopal,"Paryavaran Parisar, Bhopal - MPPCB",10-02-2024 06:00:00,23.210494,77.425409,NH3,7,9,8
India,Madhya Pradesh,Bhopal,"T T Nagar, Bhopal - MPPCB",10-02-2024 06:00:00,23.233584,77.400574,PM10,58,124,89
India,Madhya Pradesh,Bhopal,"T T Nagar, Bhopal - MPPCB",10-02-2024 06:00:00,23.233584,77.400574,OZONE,28,108,58
India,Madhya Pradesh,Dewas,"Bhopal Chauraha, Dewas - MPPCB",10-02-2024 06:00:00,22.9682591,76.064118,NO2,11,13,12
India,Madhya Pradesh,Dewas,"Bhopal Chauraha, Dewas - MPPCB",10-02-2024 06:00:00,22.9682591,76.064118,NH3,3,3,3
India,Madhya Pradesh,Gwalior,"Maharaj Bada, Gwalior - MPPCB",10-02-2024 06:00:00,26.200388,78.147714,PM2.5,33,352,158
India,Madhya Pradesh,Gwalior,"Maharaj Bada, Gwalior - MPPCB",10-02-2024 06:00:00,26.200388,78.147714,SO2,12,49,25
India,Madhya Pradesh,Gwalior,"Maharaj Bada, Gwalior - MPPCB",10-02-2024 06:00:00,26.200388,78.147714,OZONE,4,116,6
India,Madhya Pradesh,Indore,"Chhoti Gwaltoli, Indore - MPPCB",10-02-2024 06:00:00,22.4310,75.5213,PM2.5,29,97,51
