country,state,city,station,last_update,latitude,longitude,pollutant_id,pollutant_min,pollutant_max,pollutant_avg
India,Andhra_Pradesh,Amaravati,"Secretariat, Amaravati - APPCB",01-05-2024 00:00:00,16.5150833,80.5181667,PM10,12,46,30
India,Andhra_Pradesh,Amaravati,"Secretariat, Amaravati - APPCB",01-05-2024 00:00:00,16.5150833,80.5181667,NO2,4,12,7
India,Andhra_Pradesh,Amaravati,"Secretariat, Amaravati - APPCB",01-05-2024 00:00:00,16.5150833,80.5181667,SO2,10,13,11
India,Andhra_Pradesh,Anantapur,"Gulzarpet, Anantapur - APPCB",01-05-2024 00:00:00,14.675886,77.593027,NO2,12,14,13
India,Andhra_Pradesh,Chittoor,"Gangineni Cheruvu, Chittoor - APPCB",01-05-2024 00:00:00,13.204880,79.097889,NO2,NA,NA,NA
India,Andhra_Pradesh,Chittoor,"Gangineni Cheruvu, Chittoor - APPCB",01-05-2024 00:00:00,13.204880,79.097889,NH3,NA,NA,NA
India,Andhra_Pradesh,Kadapa,"Yerramukkapalli, Kadapa - APPCB",01-05-2024 00:00:00,14.465052,78.824187,PM2.5,5,204,44
India,Andhra_Pradesh,Kadapa,"Yerramukkapalli, Kadapa - APPCB",01-05-2024 00:00:00,14.465052,78.824187,NO2,NA,NA,NA
India,Andhra_Pradesh,Tirupati,"Tirumala, Tirupati - APPCB",01-05-2024 00:00:00,13.67,79.35,NO2,13,28,20
India,Andhra_Pradesh,Tirupati,"Tirumala, Tirupati - APPCB",01-05-2024 00:00:00,13.67,79.35,CO,30,49,37
India,Andhra_Pradesh,Tirupati,"Vaikuntapuram, Tirupati - APPCB",01-05-2024 00:00:00,13.615387,79.409230,NO2,15,23,17
India,Andhra_Pradesh,Tirupati,"Vaikuntapuram, Tirupati - APPCB",01-05-2024 00:00:00,13.615387,79.409230,CO,10,16,12
India,Andhra_Pradesh,Vijayawada,"HB Colony, Vijayawada - APPCB",01-05-2024 00:00:00,16.536107,80.594233,OZONE,6,61,23
India,Andhra_Pradesh,Vijayawada,"Kanuru, Vijayawada - APPCB",01-05-2024 00:00:00,16.486692,80.699436,NO2,NA,NA,NA
India,Andhra_Pradesh,Vijayawada,"Kanuru, Vijayawada - APPCB",01-05-2024 00:00:00,16.486692,80.699436,NH3,NA,NA,NA
India,Andhra_Pradesh,Vijayawada,"Kanuru, Vijayawada - APPCB",01-05-2024 00:00:00,16.486692,80.699436,OZONE,28,34,28
India,Andhra_Pradesh,Vijayawada,"Rajiv Gandhi Park, Vijayawada - APPCB",01-05-2024 00:00:00,16.509717,80.612222,NH3,1,4,2
India,Andhra_Pradesh,Vijayawada,"Rajiv Gandhi Park, Vijayawada - APPCB",01-05-2024 00:00:00,16.509717,80.612222,SO2,5,19,8
India,Andhra_Pradesh,Vijayawada,"Rajiv Nagar, Vijayawada - APPCB",01-05-2024 00:00:00,16.554731,80.649110,NO2,NA,NA,NA
India,Andhra_Pradesh,Visakhapatnam,"GVM Corporation, Visakhapatnam - APPCB",01-05-2024 00:00:00,17.72,83.3,PM10,54,170,105
India,Andhra_Pradesh,Visakhapatnam,"GVM Corporation, Visakhapatnam - APPCB",01-05-2024 00:00:00,17.72,83.3,NH3,3,5,3
India,Andhra_Pradesh,Visakhapatnam,"GVM Corporation, Visakhapatnam - APPCB",01-05-2024 00:00:00,17.72,83.3,OZONE,13,16,15
India,Arunachal_Pradesh,Naharlagun,"Naharlagun, Naharlagun - APSPCB",01-05-2024 00:00:00,27.103358,93.679645,OZONE,2,2,2
India,Assam,Byrnihat,"Central Academy for SFS, Byrnihat - PCBA",01-05-2024 00:00:00,26.071318,91.87488,PM2.5,53,475,163
India,Assam,Byrnihat,"Central Academy for SFS, Byrnihat - PCBA",01-05-2024 00:00:00,26.071318,91.87488,NO2,43,110,71
India,Assam,Byrnihat,"Central Academy for SFS, Byrnihat - PCBA",01-05-2024 00:00:00,26.071318,91.87488,SO2,5,8,7
India,Assam,Guwahati,"Pan Bazaar, Guwahati - PCBA",01-05-2024 00:00:00,26.187500,91.744194,PM2.5,10,54,33
India,Assam,Guwahati,"Pan Bazaar, Guwahati - PCBA",01-05-2024 00:00:00,26.187500,91.744194,NH3,2,4,3
India,Assam,Guwahati,"Railway Colony, Guwahati - PCBA",01-05-2024 00:00:00,26.181742,91.78063,NO2,3,3,3
India,Assam,Nagaon,"Christianpatty, Nagaon - PCBA",01-05-2024 00:00:00,26.349082,92.68449,PM2.5,60,92,72
India,Assam,Nagaon,"Christianpatty, Nagaon - PCBA",01-05-2024 00:00:00,26.349082,92.68449,SO2,1,54,12
India,Assam,Nalbari,"Bata Chowk, Nalbari - PCBA",01-05-2024 00:00:00,26.446912,91.439057,PM2.5,25,75,45
India,Assam,Nalbari,"Bata Chowk, Nalbari - PCBA",01-05-2024 00:00:00,26.446912,91.439057,SO2,6,13,11
India,Assam,Silchar,"Tarapur, Silchar - PCBA",01-05-2024 00:00:00,24.82827,92.79525,PM2.5,23,35,29
India,Assam,Silchar,"Tarapur, Silchar - PCBA",01-05-2024 00:00:00,24.82827,92.79525,NO2,13,13,13
India,Assam,Sivasagar,"Girls College, Sivasagar - PCBA",01-05-2024 00:00:00,26.987634,94.636574,PM10,47,66,58
India,Bihar,Araria,"Kharahiya Basti, Araria - BSPCB",01-05-2024 00:00:00,26.146529,87.454184,PM2.5,49,267,118
India,Bihar,Arrah,"New DM Office, Arrah - BSPCB",01-05-2024 00:00:00,25.5626095,84.663264,NO2,1,24,12
India,Bihar,Bettiah,"Kamalnath Nagar, Bettiah - BSPCB",01-05-2024 00:00:00,26.80365,84.51954,PM2.5,NA,NA,NA
India,Bihar,Bettiah,"Kamalnath Nagar, Bettiah - BSPCB",01-05-2024 00:00:00,26.80365,84.51954,PM10,NA,NA,NA
India,Bihar,Bhagalpur,"DM Office_Kachari Chowk, Bhagalpur - BSPCB",01-05-2024 00:00:00,25.251013,86.989001,SO2,16,16,16
India,Bihar,Bhagalpur,"DM Office_Kachari Chowk, Bhagalpur - BSPCB",01-05-2024 00:00:00,25.251013,86.989001,CO,24,82,59
India,Bihar,Bihar Sharif,"D M Colony, Bihar Sharif - BSPCB",01-05-2024 00:00:00,25.204762,85.514960,SO2,1,15,5
India,Bihar,Buxar,"Charitra Van, Buxar - BSPCB (Formerly known as Central Jail)",01-05-2024 00:00:00,25.567520,83.966379,CO,51,106,69
India,Bihar,Chhapra,"Darshan Nagar, Chhapra - BSPCB",01-05-2024 00:00:00,25.7808257,84.7446768,PM2.5,100,207,151
India,Bihar,Chhapra,"Darshan Nagar, Chhapra - BSPCB",01-05-2024 00:00:00,25.7808257,84.7446768,CO,38,69,62
India,Bihar,Gaya,"Collectorate, Gaya - BSPCB",01-05-2024 00:00:00,24.7955,84.9994,PM2.5,40,218,94
India,Bihar,Gaya,"Kareemganj, Gaya - BSPCB",01-05-2024 00:00:00,24.792403,84.992416,PM10,51,143,92
India,Bihar,Gaya,"Kareemganj, Gaya - BSPCB",01-05-2024 00:00:00,24.792403,84.992416,SO2,6,11,9
India,Bihar,Gaya,"SFTI Kusdihra, Gaya - BSPCB",01-05-2024 00:00:00,24.762518,84.982348,OZONE,7,100,30
India,Bihar,Hajipur,"Industrial Area, Hajipur - BSPCB",01-05-2024 00:00:00,25.697189,85.245900,NH3,7,11,8
India,Bihar,Katihar,"Mirchaibari, Katihar - BSPCB",01-05-2024 00:00:00,25.560083,87.553265,PM10,74,202,142
India,Bihar,Kishanganj,"SDM Office_Khagra, Kishanganj - BSPCB",01-05-2024 00:00:00,26.0881305,87.93840336,PM2.5,57,250,112
India,Bihar,Motihari,"Gandak Colony, Motihari - BSPCB",01-05-2024 00:00:00,26.63086,84.90051,PM10,33,187,78
India,Bihar,Motihari,"Gandak Colony, Motihari - BSPCB",01-05-2024 00:00:00,26.63086,84.90051,CO,2,35,15
India,Bihar,Munger,"Town Hall, Munger - BSPCB",01-05-2024 00:00:00,25.376776,86.471523,PM10,97,185,128
India,Bihar,Munger,"Town Hall, Munger - BSPCB",01-05-2024 00:00:00,25.376776,86.471523,NH3,2,3,3
India,Bihar,Munger,"Town Hall, Munger - BSPCB",01-05-2024 00:00:00,25.376776,86.471523,SO2,19,34,28
India,Bihar,Muzaffarpur,"Buddha Colony, Muzaffarpur - BSPCB",01-05-2024 00:00:00,26.11442,85.39813,PM2.5,216,339,301
India,Bihar,Muzaffarpur,"Buddha Colony, Muzaffarpur - BSPCB",01-05-2024 00:00:00,26.11442,85.39813,PM10,161,301,232
India,Bihar,Muzaffarpur,"Buddha Colony, Muzaffarpur - BSPCB",01-05-2024 00:00:00,26.11442,85.39813,NO2,28,48,37
India,Bihar,Muzaffarpur,"Buddha Colony, Muzaffarpur - BSPCB",01-05-2024 00:00:00,26.11442,85.39813,NH3,17,21,19
India,Bihar,Muzaffarpur,"MIT-Daudpur Kothi, Muzaffarpur - BSPCB",01-05-2024 00:00:00,26.1403345,85.3650192,CO,9,113,42
India,Bihar,Muzaffarpur,"Muzaffarpur Collectorate, Muzaffarpur - BSPCB",01-05-2024 00:00:00,26.1209,85.3647,PM2.5,69,317,135
India,Bihar,Muzaffarpur,"Muzaffarpur Collectorate, Muzaffarpur - BSPCB",01-05-2024 00:00:00,26.1209,85.3647,NO2,11,54,26
India,Bihar,Muzaffarpur,"Muzaffarpur Collectorate, Muzaffarpur - BSPCB",01-05-2024 00:00:00,26.1209,85.3647,OZONE,68,141,76
India,Bihar,Patna,"DRM Office Danapur, Patna - BSPCB",01-05-2024 00:00:00,25.586562,85.043586,PM10,162,264,189
India,Bihar,Patna,"DRM Office Danapur, Patna - BSPCB",01-05-2024 00:00:00,25.586562,85.043586,NH3,3,3,3
India,Bihar,Patna,"Govt. High School Shikarpur, Patna - BSPCB",01-05-2024 00:00:00,25.592539,85.227158,NH3,5,6,5
India,Bihar,Patna,"Govt. High School Shikarpur, Patna - BSPCB",01-05-2024 00:00:00,25.592539,85.227158,SO2,7,11,10
India,Bihar,Patna,"Govt. High School Shikarpur, Patna - BSPCB",01-05-2024 00:00:00,25.592539,85.227158,CO,28,99,39
India,Bihar,Patna,"IGSC Planetarium Complex, Patna - BSPCB",01-05-2024 00:00:00,25.610369,85.132568,NO2,11,11,11
India,Bihar,Patna,"IGSC Planetarium Complex, Patna - BSPCB",01-05-2024 00:00:00,25.610369,85.132568,SO2,5,5,5
India,Bihar,Patna,"Muradpur, Patna - BSPCB",01-05-2024 00:00:00,25.619651,85.147382,SO2,7,15,11
India,Bihar,Patna,"Muradpur, Patna - BSPCB",01-05-2024 00:00:00,25.619651,85.147382,CO,14,105,44
India,Bihar,Patna,"Muradpur, Patna - BSPCB",01-05-2024 00:00:00,25.619651,85.147382,OZONE,8,76,59
India,Bihar,Patna,"Rajbansi Nagar, Patna - BSPCB",01-05-2024 00:00:00,25.599486,85.113666,NO2,26,51,37
India,Bihar,Patna,"Rajbansi Nagar, Patna - BSPCB",01-05-2024 00:00:00,25.599486,85.113666,SO2,2,35,18
India,Bihar,Patna,"Samanpura, Patna - BSPCB",01-05-2024 00:00:00,25.596727,85.085624,NO2,9,55,31
India,Bihar,Patna,"Samanpura, Patna - BSPCB",01-05-2024 00:00:00,25.596727,85.085624,OZONE,1,115,76
India,Bihar,Purnia,"Mariam Nagar, Purnia - BSPCB",01-05-2024 00:00:00,25.366336,87.117468,PM10,NA,NA,NA
India,Bihar,Rajgir,"Dangi Tola, Rajgir - BSPCB",01-05-2024 00:00:00,25.03280,85.41948,CO,26,49,38
India,Bihar,Saharsa,"Police Line, Saharsa - BSPCB",01-05-2024 00:00:00,25.892357,86.590325,PM2.5,NA,NA,NA
India,Bihar,Sasaram,"Dada Peer, Sasaram - BSPCB",01-05-2024 00:00:00,24.952822,84.002396,CO,32,102,79
India,Bihar,Siwan,"Chitragupta Nagar, Siwan - BSPCB",01-05-2024 00:00:00,26.2271665,84.3570427,SO2,1,33,25
India,Bihar,Siwan,"Chitragupta Nagar, Siwan - BSPCB",01-05-2024 00:00:00,26.2271665,84.3570427,CO,90,152,121
India,Chandigarh,Chandigarh,"Sector 22, Chandigarh - CPCC",01-05-2024 00:00:00,30.735567,76.775714,NO2,15,95,31
India,Chandigarh,Chandigarh,"Sector 22, Chandigarh - CPCC",01-05-2024 00:00:00,30.735567,76.775714,SO2,8,37,16
India,Chandigarh,Chandigarh,"Sector 22, Chandigarh - CPCC",01-05-2024 00:00:00,30.735567,76.775714,OZONE,32,177,103
India,Chandigarh,Chandigarh,"Sector-25, Chandigarh - CPCC",01-05-2024 00:00:00,30.751462,76.762879,CO,10,30,16
India,Chandigarh,Chandigarh,"Sector-53, Chandigarh - CPCC",01-05-2024 00:00:00,30.719859,76.738637,PM2.5,33,92,67
India,Chandigarh,Chandigarh,"Sector-53, Chandigarh - CPCC",01-05-2024 00:00:00,30.719859,76.738637,SO2,8,28,18
India,Chhattisgarh,Bhilai,"32Bungalows, Bhilai - CECB",01-05-2024 00:00:00,21.194815,81.314770,PM2.5,54,81,64
India,Chhattisgarh,Bhilai,"32Bungalows, Bhilai - CECB",01-05-2024 00:00:00,21.194815,81.314770,CO,18,50,32
India,Chhattisgarh,Bhilai,"Civic Center, Bhilai - Bhilai Steel Plant",01-05-2024 00:00:00,21.185571,81.343175,PM10,38,82,53
India,Chhattisgarh,Bhilai,"Civic Center, Bhilai - Bhilai Steel Plant",01-05-2024 00:00:00,21.185571,81.343175,NH3,2,8,4
India,Chhattisgarh,Bhilai,"Hathkhoj, Bhilai - CECB",01-05-2024 00:00:00,21.224231,81.408350,PM2.5,32,154,73
India,Chhattisgarh,Bhilai,"Hathkhoj, Bhilai - CECB",01-05-2024 00:00:00,21.224231,81.408350,NH3,7,9,8
India,Chhattisgarh,Bhilai,"Hathkhoj, Bhilai - CECB",01-05-2024 00:00:00,21.224231,81.408350,SO2,16,72,27
India,Chhattisgarh,Bilaspur,"Mangala, Bilaspur - NTPC",01-05-2024 00:00:00,22.08815,82.13737,PM2.5,49,75,63
India,Chhattisgarh,Bilaspur,"Mangala, Bilaspur - NTPC",01-05-2024 00:00:00,22.08815,82.13737,PM10,48,74,60
India,Chhattisgarh,Bilaspur,"Mangala, Bilaspur - NTPC",01-05-2024 00:00:00,22.08815,82.13737,NO2,13,15,14
India,Chhattisgarh,Chhal,"Nawapara SECL Colony, Chhal - CECB",01-05-2024 00:00:00,22.118125,83.140608,PM2.5,66,134,97
India,Chhattisgarh,Chhal,"Nawapara SECL Colony, Chhal - CECB",01-05-2024 00:00:00,22.118125,83.140608,PM10,50,119,85
India,Chhattisgarh,Chhal,"Nawapara SECL Colony, Chhal - CECB",01-05-2024 00:00:00,22.118125,83.140608,NH3,2,2,2
India,Chhattisgarh,Chhal,"Nawapara SECL Colony, Chhal - CECB",01-05-2024 00:00:00,22.118125,83.140608,OZONE,8,111,74
India,Chhattisgarh,Korba,"Rampur, Korba - CECB",01-05-2024 00:00:00,22.368195,82.746431,PM2.5,22,62,40
India,Chhattisgarh,Korba,"Rampur, Korba - CECB",01-05-2024 00:00:00,22.368195,82.746431,CO,16,49,23
India,Chhattisgarh,Korba,"Urja Nagar, Korba - CECB",01-05-2024 00:00:00,22.348441,82.549611,NO2,67,86,77
India,Chhattisgarh,Korba,"Urja Nagar, Korba - CECB",01-05-2024 00:00:00,22.348441,82.549611,NH3,5,14,8
India,Chhattisgarh,Kunjemura,"OP Jindal School, Kunjemura - CECB",01-05-2024 00:00:00,22.126650,83.483212,PM10,80,423,187
India,Chhattisgarh,Kunjemura,"OP Jindal School, Kunjemura - CECB",01-05-2024 00:00:00,22.126650,83.483212,SO2,4,14,9
India,Chhattisgarh,Milupara,"Govt. Higher Secondary School, Milupara - CECB",01-05-2024 00:00:00,22.1910172,83.5197009,PM10,NA,NA,NA
India,Chhattisgarh,Milupara,"Govt. Higher Secondary School, Milupara - CECB",01-05-2024 00:00:00,22.1910172,83.5197009,NH3,NA,NA,NA
India,Chhattisgarh,Raipur,"AIIMS, Raipur - CECB",01-05-2024 00:00:00,21.258815,81.578979,PM10,NA,NA,NA
India,Chhattisgarh,Raipur,"AIIMS, Raipur - CECB",01-05-2024 00:00:00,21.258815,81.578979,NO2,NA,NA,NA
India,Chhattisgarh,Raipur,"Bhatagaon New ISBT, Raipur - CECB",01-05-2024 00:00:00,21.219665,81.630094,PM10,35,76,48
India,Chhattisgarh,Raipur,"Bhatagaon New ISBT, Raipur - CECB",01-05-2024 00:00:00,21.219665,81.630094,NO2,19,46,31
India,Chhattisgarh,Raipur,"Siltara Phase-II, Raipur - CECB",01-05-2024 00:00:00,21.371751,81.664929,PM2.5,37,129,73
India,Chhattisgarh,Raipur,"Siltara Phase-II, Raipur - CECB",01-05-2024 00:00:00,21.371751,81.664929,PM10,48,147,101
India,Chhattisgarh,Raipur,"Siltara Phase-II, Raipur - CECB",01-05-2024 00:00:00,21.371751,81.664929,SO2,4,97,41
India,Chhattisgarh,Raipur,"Siltara Phase-II, Raipur - CECB",01-05-2024 00:00:00,21.371751,81.664929,CO,9,70,40
India,Chhattisgarh,Tumidih,"OP Jindal Industrial Park, Tumidih - CECB",01-05-2024 00:00:00,22.06631475,83.33820077,PM2.5,NA,NA,NA
India,Chhattisgarh,Tumidih,"OP Jindal Industrial Park, Tumidih - CECB",01-05-2024 00:00:00,22.06631475,83.33820077,SO2,NA,NA,NA
India,Delhi,Delhi,"Alipur, Delhi - DPCC",01-05-2024 00:00:00,28.815329,77.153010,NH3,3,8,5
India,Delhi,Delhi,"Alipur, Delhi - DPCC",01-05-2024 00:00:00,28.815329,77.153010,OZONE,1,147,75
India,Delhi,Delhi,"Ashok Vihar, Delhi - DPCC",01-05-2024 00:00:00,28.695381,77.181665,PM10,128,238,183
India,Delhi,Delhi,"Bawana, Delhi - DPCC",01-05-2024 00:00:00,28.776200,77.051074,PM2.5,38,402,173
India,Delhi,Delhi,"Bawana, Delhi - DPCC",01-05-2024 00:00:00,28.776200,77.051074,NH3,4,9,6
India,Delhi,Delhi,"Bawana, Delhi - DPCC",01-05-2024 00:00:00,28.776200,77.051074,SO2,7,56,27
India,Delhi,Delhi,"Burari Crossing, Delhi - IMD",01-05-2024 00:00:00,28.7256504,77.2011573,OZONE,7,84,47
India,Delhi,Delhi,"CRRI Mathura Road, Delhi - IMD",01-05-2024 00:00:00,28.5512005,77.2735737,PM2.5,68,301,127
India,Delhi,Delhi,"Chandni Chowk, Delhi - IITM",01-05-2024 00:00:00,28.656756,77.227234,NO2,NA,NA,NA
India,Delhi,Delhi,"Chandni Chowk, Delhi - IITM",01-05-2024 00:00:00,28.656756,77.227234,SO2,NA,NA,NA
India,Delhi,Delhi,"Chandni Chowk, Delhi - IITM",01-05-2024 00:00:00,28.656756,77.227234,CO,31,88,67
India,Delhi,Delhi,"DTU, Delhi - CPCB",01-05-2024 00:00:00,28.7500499,77.1112615,NH3,11,14,12
India,Delhi,Delhi,"Dr. Karni Singh Shooting Range, Delhi - DPCC",01-05-2024 00:00:00,28.498571,77.264840,NO2,26,153,66
India,Delhi,Delhi,"Dr. Karni Singh Shooting Range, Delhi - DPCC",01-05-2024 00:00:00,28.498571,77.264840,SO2,19,60,32
India,Delhi,Delhi,"Dr. Karni Singh Shooting Range, Delhi - DPCC",01-05-2024 00:00:00,28.498571,77.264840,CO,24,108,63
India,Delhi,Delhi,"Dwarka-Sector 8, Delhi - DPCC ",01-05-2024 00:00:00,28.5710274,77.0719006,SO2,5,35,17
India,Delhi,Delhi,"IGI Airport (T3), Delhi - IMD",01-05-2024 00:00:00,28.5627763,77.1180053,PM2.5,17,318,106
India,Delhi,Delhi,"ITO, Delhi - CPCB",01-05-2024 00:00:00,28.628624,77.241060,NO2,1,227,76
India,Delhi,Delhi,"Jahangirpuri, Delhi - DPCC",01-05-2024 00:00:00,28.732820,77.170633,NO2,33,162,80
India,Delhi,Delhi,"Jawaharlal Nehru Stadium, Delhi - DPCC",01-05-2024 00:00:00,28.580280,77.233829,PM2.5,28,142,53
India,Delhi,Delhi,"Jawaharlal Nehru Stadium, Delhi - DPCC",01-05-2024 00:00:00,28.580280,77.233829,PM10,102,182,143
India,Delhi,Delhi,"Jawaharlal Nehru Stadium, Delhi - DPCC",01-05-2024 00:00:00,28.580280,77.233829,SO2,5,56,21
India,Delhi,Delhi,"Lodhi Road, Delhi - IITM",01-05-2024 00:00:00,28.588333,77.221667,PM2.5,NA,NA,NA
India,Delhi,Delhi,"Lodhi Road, Delhi - IMD",01-05-2024 00:00:00,28.5918245,77.2273074,PM10,91,169,129
India,Delhi,Delhi,"Lodhi Road, Delhi - IMD",01-05-2024 00:00:00,28.5918245,77.2273074,NO2,3,18,7
India,Delhi,Delhi,"Lodhi Road, Delhi - IMD",01-05-2024 00:00:00,28.5918245,77.2273074,CO,5,16,10
India,Delhi,Delhi,"Mandir Marg, Delhi - DPCC",01-05-2024 00:00:00,28.636429,77.201067,OZONE,2,30,16
India,Delhi,Delhi,"Mundka, Delhi - DPCC",01-05-2024 00:00:00,28.684678,77.076574,NH3,3,6,5
India,Delhi,Delhi,"NSIT Dwarka, Delhi - CPCB",01-05-2024 00:00:00,28.60909,77.0325413,PM10,20,398,218
India,Delhi,Delhi,"NSIT Dwarka, Delhi - CPCB",01-05-2024 00:00:00,28.60909,77.0325413,SO2,4,23,14
India,Delhi,Delhi,"NSIT Dwarka, Delhi - CPCB",01-05-2024 00:00:00,28.60909,77.0325413,CO,26,50,40
India,Delhi,Delhi,"NSIT Dwarka, Delhi - CPCB",01-05-2024 00:00:00,28.60909,77.0325413,OZONE,12,91,46
India,Delhi,Delhi,"Najafgarh, Delhi - DPCC",01-05-2024 00:00:00,28.570173,76.933762,PM2.5,22,310,123
India,Delhi,Delhi,"Narela, Delhi - DPCC",01-05-2024 00:00:00,28.822836,77.101981,PM10,140,391,196
India,Delhi,Delhi,"Narela, Delhi - DPCC",01-05-2024 00:00:00,28.822836,77.101981,SO2,7,56,27
India,Delhi,Delhi,"Nehru Nagar, Delhi - DPCC",01-05-2024 00:00:00,28.567890,77.250515,NH3,2,2,2
India,Delhi,Delhi,"New Moti Bagh, Delhi - MHUA",01-05-2024 00:00:00,28.57834,77.18400,NO2,5,41,13
India,Delhi,Delhi,"North Campus, DU, Delhi - IMD",01-05-2024 00:00:00,28.6573814,77.1585447,OZONE,4,52,28
India,Delhi,Delhi,"Okhla Phase-2, Delhi - DPCC",01-05-2024 00:00:00,28.530785,77.271255,CO,44,118,94
India,Delhi,Delhi,"Patparganj, Delhi - DPCC",01-05-2024 00:00:00,28.623763,77.287209,NO2,23,105,47
India,Delhi,Delhi,"Patparganj, Delhi - DPCC",01-05-2024 00:00:00,28.623763,77.287209,CO,52,106,79
India,Delhi,Delhi,"Punjabi Bagh, Delhi - DPCC",01-05-2024 00:00:00,28.674045,77.131023,NO2,32,84,48
India,Delhi,Delhi,"Punjabi Bagh, Delhi - DPCC",01-05-2024 00:00:00,28.674045,77.131023,SO2,2,37,22
India,Delhi,Delhi,"Pusa, Delhi - DPCC",01-05-2024 00:00:00,28.639652,77.146275,NO2,45,162,83
India,Delhi,Delhi,"R K Puram, Delhi - DPCC",01-05-2024 00:00:00,28.563262,77.186937,NH3,1,5,2
India,Delhi,Delhi,"R K Puram, Delhi - DPCC",01-05-2024 00:00:00,28.563262,77.186937,CO,12,105,68
India,Delhi,Delhi,"R K Puram, Delhi - DPCC",01-05-2024 00:00:00,28.563262,77.186937,OZONE,15,198,85
India,Delhi,Delhi,"Shadipur, Delhi - CPCB",01-05-2024 00:00:00,28.6514781,77.1473105,NO2,55,97,74
India,Delhi,Delhi,"Shadipur, Delhi - CPCB",01-05-2024 00:00:00,28.6514781,77.1473105,CO,11,105,79
India,Delhi,Delhi,"Sirifort, Delhi - CPCB",01-05-2024 00:00:00,28.5504249,77.2159377,PM10,115,277,165
India,Delhi,Delhi,"Sirifort, Delhi - CPCB",01-05-2024 00:00:00,28.5504249,77.2159377,NH3,21,29,23
India,Delhi,Delhi,"Sirifort, Delhi - CPCB",01-05-2024 00:00:00,28.5504249,77.2159377,SO2,9,15,12
India,Delhi,Delhi,"Sri Aurobindo Marg, Delhi - DPCC",01-05-2024 00:00:00,28.531346,77.190156,PM2.5,41,311,93
India,Delhi,Delhi,"Sri Aurobindo Marg, Delhi - DPCC",01-05-2024 00:00:00,28.531346,77.190156,CO,4,50,22
India,Delhi,Delhi,"Vivek Vihar, Delhi - DPCC",01-05-2024 00:00:00,28.672342,77.315260,NO2,21,109,48
India,Delhi,Delhi,"Vivek Vihar, Delhi - DPCC",01-05-2024 00:00:00,28.672342,77.315260,NH3,15,16,16
India,Delhi,Delhi,"Vivek Vihar, Delhi - DPCC",01-05-2024 00:00:00,28.672342,77.315260,OZONE,10,135,65
India,Delhi,Delhi,"Wazirpur, Delhi - DPCC",01-05-2024 00:00:00,28.699793,77.165453,OZONE,4,137,59
India,Gujarat,Ahmedabad,"Gyaspur, Ahmedabad - IITM",01-05-2024 00:00:00,22.977134,72.553024,PM10,98,192,132
India,Gujarat,Ahmedabad,"Gyaspur, Ahmedabad - IITM",01-05-2024 00:00:00,22.977134,72.553024,NO2,17,23,20
India,Gujarat,Ahmedabad,"Gyaspur, Ahmedabad - IITM",01-05-2024 00:00:00,22.977134,72.553024,NH3,3,17,8
India,Gujarat,Ahmedabad,"Maninagar, Ahmedabad - GPCB",01-05-2024 00:00:00,23.002657,72.591912,NO2,25,86,40
India,Gujarat,Ahmedabad,"Raikhad, Ahmedabad - IITM",01-05-2024 00:00:00,23.020509,72.579261,SO2,5,9,6
India,Gujarat,Ahmedabad,"Raikhad, Ahmedabad - IITM",01-05-2024 00:00:00,23.020509,72.579261,OZONE,12,28,21
India,Gujarat,Ahmedabad,"Rakhial, Ahmedabad - IITM",01-05-2024 00:00:00,23.016834,72.625775,PM10,119,169,133
India,Gujarat,Ahmedabad,"Rakhial, Ahmedabad - IITM",01-05-2024 00:00:00,23.016834,72.625775,OZONE,4,52,25
India,Gujarat,Ahmedabad,"SAC ISRO Satellite, Ahmedabad - IITM",01-05-2024 00:00:00,23.023389,72.515201,NH3,3,3,3
India,Gujarat,Ahmedabad,"Sardar Vallabhbhai Patel Stadium, Ahmedabad - IITM",01-05-2024 00:00:00,23.043070,72.562968,PM10,67,130,85
India,Gujarat,Ahmedabad,"Sardar Vallabhbhai Patel Stadium, Ahmedabad - IITM",01-05-2024 00:00:00,23.043070,72.562968,SO2,6,6,6
India,Gujarat,Ahmedabad,"Sardar Vallabhbhai Patel Stadium, Ahmedabad - IITM",01-05-2024 00:00:00,23.043070,72.562968,OZONE,3,28,14
India,Gujarat,Ankleshwar,"GIDC, Ankleshwar - GPCB",01-05-2024 00:00:00,21.613267,73.010555,NO2,NA,NA,NA
India,Gujarat,Gandhinagar,"Sector-10, Gandhinagar - GPCB",01-05-2024 00:00:00,23.221714,72.654328,SO2,5,9,6
India,Gujarat,Gandhinagar,"Sector-10, Gandhinagar - GPCB",01-05-2024 00:00:00,23.221714,72.654328,CO,28,86,51
India,Gujarat,Nandesari,"GIDC, Nandesari - Nandesari Ind. Association",01-05-2024 00:00:00,22.410802,73.097923,PM2.5,47,428,231
India,Gujarat,Surat,"Science Center, Surat - SMC",01-05-2024 00:00:00,21.170046,72.795405,NO2,37,56,49
India,Gujarat,Surat,"Science Center, Surat - SMC",01-05-2024 00:00:00,21.170046,72.795405,CO,22,58,38
India,Gujarat,Vapi,"Phase-1 GIDC, Vapi - GPCB",01-05-2024 00:00:00,20.362421,72.918013,NO2,6,7,7
India,Gujarat,Vapi,"Phase-1 GIDC, Vapi - GPCB",01-05-2024 00:00:00,20.362421,72.918013,OZONE,1,116,1
India,Gujarat,Vatva,"Phase-4 GIDC, Vatva - GPCB",01-05-2024 00:00:00,22.969611,72.643500,NO2,22,92,44
India,Haryana,Ambala,"Patti Mehar, Ambala - HSPCB",01-05-2024 00:00:00,30.379589,76.778328,PM2.5,26,63,44
India,Haryana,Bahadurgarh,"Arya Nagar, Bahadurgarh - HSPCB",01-05-2024 00:00:00,28.6701,76.9254,PM2.5,33,162,78
India,Haryana,Bahadurgarh,"Arya Nagar, Bahadurgarh - HSPCB",01-05-2024 00:00:00,28.6701,76.9254,NO2,20,25,22
India,Haryana,Bahadurgarh,"Arya Nagar, Bahadurgarh - HSPCB",01-05-2024 00:00:00,28.6701,76.9254,OZONE,33,40,37
India,Haryana,Ballabgarh,"Nathu Colony, Ballabgarh - HSPCB",01-05-2024 00:00:00,28.3419248,77.319699,CO,2,90,55
India,Haryana,Bhiwani,"H.B. Colony, Bhiwani - HSPCB",01-05-2024 00:00:00,28.806223,76.141105,PM10,61,200,98
India,Haryana,Bhiwani,"H.B. Colony, Bhiwani - HSPCB",01-05-2024 00:00:00,28.806223,76.141105,OZONE,8,47,10
India,Haryana,Charkhi Dadri,"Mini Secretariat, Charkhi Dadri - HSPCB",01-05-2024 00:00:00,28.593883,76.270653,NO2,15,24,18
India,Haryana,Dharuhera,"Municipal Corporation Office, Dharuhera -  HSPCB",01-05-2024 00:00:00,28.206800,76.799700,PM10,NA,NA,NA
India,Haryana,Dharuhera,"Municipal Corporation Office, Dharuhera -  HSPCB",01-05-2024 00:00:00,28.206800,76.799700,NH3,NA,NA,NA
India,Haryana,Faridabad,"New Industrial Town, Faridabad - HSPCB",01-05-2024 00:00:00,28.39072,77.30059,PM2.5,75,339,213
India,Haryana,Faridabad,"New Industrial Town, Faridabad - HSPCB",01-05-2024 00:00:00,28.39072,77.30059,NO2,11,14,12
India,Haryana,Faridabad,"New Industrial Town, Faridabad - HSPCB",01-05-2024 00:00:00,28.39072,77.30059,SO2,5,11,8
India,Haryana,Faridabad,"Sector 11, Faridabad - HSPCB",01-05-2024 00:00:00,28.376058,77.315741,NH3,6,6,6
India,Haryana,Faridabad,"Sector 30, Faridabad - HSPCB",01-05-2024 00:00:00,28.4417,77.3217,NH3,NA,NA,NA
India,Haryana,Faridabad,"Sector 30, Faridabad - HSPCB",01-05-2024 00:00:00,28.4417,77.3217,CO,56,62,59
India,Haryana,Faridabad,"Sector- 16A, Faridabad - HSPCB",01-05-2024 00:00:00,28.4088421,77.3099081,OZONE,14,14,14
India,Haryana,Fatehabad,"Huda Sector, Fatehabad - HSPCB",01-05-2024 00:00:00,29.503664,75.467934,PM10,28,340,95
India,Haryana,Fatehabad,"Huda Sector, Fatehabad - HSPCB",01-05-2024 00:00:00,29.503664,75.467934,NO2,29,32,30
India,Haryana,Gurugram,"Sector-51, Gurugram - HSPCB",01-05-2024 00:00:00,28.4227,77.0667,PM10,131,423,178
India,Haryana,Gurugram,"Sector-51, Gurugram - HSPCB",01-05-2024 00:00:00,28.4227,77.0667,NH3,6,14,9
India,Haryana,Gurugram,"Teri Gram, Gurugram - HSPCB",01-05-2024 00:00:00,28.4275,77.1465,PM2.5,126,237,184
India,Haryana,Gurugram,"Teri Gram, Gurugram - HSPCB",01-05-2024 00:00:00,28.4275,77.1465,PM10,144,193,169
India,Haryana,Gurugram,"Teri Gram, Gurugram - HSPCB",01-05-2024 00:00:00,28.4275,77.1465,CO,13,58,49
India,Haryana,Gurugram,"Vikas Sadan, Gurugram - HSPCB",01-05-2024 00:00:00,28.4501238,77.0263051,NO2,5,26,14
India,Haryana,Jind,"Police Lines, Jind - HSPCB",01-05-2024 00:00:00,29.307814,76.337619,PM2.5,25,118,50
India,Haryana,Kaithal,"Rishi Nagar, Kaithal - HSPCB",01-05-2024 00:00:00,29.8006,76.4155,PM2.5,23,78,47
India,Haryana,Karnal,"Sector-12, Karnal - HSPCB",01-05-2024 00:00:00,29.695300,77.002700,NO2,7,12,10
India,Haryana,Karnal,"Sector-12, Karnal - HSPCB",01-05-2024 00:00:00,29.695300,77.002700,OZONE,28,35,31
India,Haryana,Kurukshetra,"Sector-7, Kurukshetra - HSPCB",01-05-2024 00:00:00,29.966942,76.875879,PM2.5,48,119,73
India,Haryana,Kurukshetra,"Sector-7, Kurukshetra - HSPCB",01-05-2024 00:00:00,29.966942,76.875879,NH3,5,5,5
India,Haryana,Kurukshetra,"Sector-7, Kurukshetra - HSPCB",01-05-2024 00:00:00,29.966942,76.875879,SO2,2,3,2
India,Haryana,Manesar,"Sector-2 IMT, Manesar - HSPCB",01-05-2024 00:00:00,28.360699,76.936090,NH3,1,50,14
India,Haryana,Narnaul,"Shastri Nagar, Narnaul - HSPCB",01-05-2024 00:00:00,28.060249,76.113115,NH3,5,27,15
India,Haryana,Palwal,"Shyam Nagar, Palwal - HSPCB",01-05-2024 00:00:00,28.1485564,77.3320667,CO,20,39,25
India,Haryana,Palwal,"Shyam Nagar, Palwal - HSPCB",01-05-2024 00:00:00,28.1485564,77.3320667,OZONE,14,44,20
India,Haryana,Panipat,"Sector-18, Panipat - HSPCB",01-05-2024 00:00:00,29.497973,76.993331,OZONE,30,30,30
India,Haryana,Rohtak,"MD University, Rohtak - HSPCB",01-05-2024 00:00:00,28.52123,76.37138,OZONE,44,54,48
India,Haryana,Sirsa,"F-Block, Sirsa - HSPCB",01-05-2024 00:00:00,29.536400,75.015800,PM2.5,17,308,71
India,Haryana,Sonipat,"Murthal, Sonipat - HSPCB",01-05-2024 00:00:00,29.027200,77.062100,PM10,81,82,81
India,Haryana,Sonipat,"Murthal, Sonipat - HSPCB",01-05-2024 00:00:00,29.027200,77.062100,CO,8,20,13
India,Haryana,Yamuna Nagar,"Gobind Pura, Yamuna Nagar - HSPCB",01-05-2024 00:00:00,30.1480566,77.2893471,NH3,1,6,4
India,Haryana,Yamuna Nagar,"Gobind Pura, Yamuna Nagar - HSPCB",01-05-2024 00:00:00,30.1480566,77.2893471,OZONE,18,33,26
India,Himachal Pradesh,Baddi,"HIMUDA Complex Phase-1, Baddi - HPPCB",01-05-2024 00:00:00,30.943887,76.801991,NH3,2,5,3
India,Jharkhand,Dhanbad,"Kalakusuma, Dhanbad - DMC",01-05-2024 00:00:00,23.811548,86.481238,PM2.5,NA,NA,NA
India,Jharkhand,Dhanbad,"Sardar Patel Nagar, Dhanbad - JSPCB",01-05-2024 00:00:00,23.80569,86.44268,OZONE,18,39,28
India,Karnataka,Bengaluru,"BTM Layout, Bengaluru - CPCB",01-05-2024 00:00:00,12.9135218,77.5950804,SO2,1,8,4
India,Karnataka,Bengaluru,"Bapuji Nagar, Bengaluru - KSPCB",01-05-2024 00:00:00,12.951913,77.539784,NO2,10,11,11
India,Karnataka,Bengaluru,"Hebbal, Bengaluru - KSPCB",01-05-2024 00:00:00,13.029152,77.585901,PM2.5,32,67,42
India,Karnataka,Bengaluru,"Hebbal, Bengaluru - KSPCB",01-05-2024 00:00:00,13.029152,77.585901,SO2,5,18,14
India,Karnataka,Bengaluru,"Hombegowda Nagar, Bengaluru - KSPCB",01-05-2024 00:00:00,12.938539,77.590100,NO2,11,21,16
India,Karnataka,Bengaluru,"Jayanagar 5th Block, Bengaluru - KSPCB",01-05-2024 00:00:00,12.920984,77.584908,NH3,NA,NA,NA
India,Karnataka,Bengaluru,"Kasturi Nagar, Bengaluru - KSPCB",01-05-2024 00:00:00,13.003872,77.664217,OZONE,10,132,67
India,Karnataka,Bengaluru,"Peenya, Bengaluru - CPCB",01-05-2024 00:00:00,13.0270199,77.494094,PM10,53,74,65
India,Karnataka,Bengaluru,"Peenya, Bengaluru - CPCB",01-05-2024 00:00:00,13.0270199,77.494094,CO,32,46,40
India,Karnataka,Bengaluru,"Peenya, Bengaluru - CPCB",01-05-2024 00:00:00,13.0270199,77.494094,OZONE,13,65,28
India,Karnataka,Bengaluru,"Sanegurava Halli, Bengaluru - KSPCB",01-05-2024 00:00:00,12.990328,77.5431385,CO,1,24,15
India,Karnataka,Bengaluru,"Shivapura_Peenya, Bengaluru - KSPCB",01-05-2024 00:00:00,13.0246342,77.5080115,CO,17,48,36
India,Karnataka,Bengaluru,"Shivapura_Peenya, Bengaluru - KSPCB",01-05-2024 00:00:00,13.0246342,77.5080115,OZONE,54,55,54
India,Karnataka,Bengaluru,"Silk Board, Bengaluru - KSPCB",01-05-2024 00:00:00,12.917348,77.622813,NH3,NA,NA,NA
India,Karnataka,Bidar,"Naubad, Bidar - KSPCB",01-05-2024 00:00:00,17.930306,77.482194,NO2,6,8,7
India,Karnataka,Chamarajanagar,"Urban, Chamarajanagar - KSPCB",01-05-2024 00:00:00,11.55358,76.55521,OZONE,29,52,36
India,Karnataka,Chikkaballapur,"Chikkaballapur Rural, Chikkaballapur - KSPCB",01-05-2024 00:00:00,13.428828,77.731418,NO2,5,14,9
India,Karnataka,Chikkamagaluru,"Kalyana Nagara, Chikkamagaluru - KSPCB",01-05-2024 00:00:00,13.328028,75.797056,PM10,39,488,102
India,Karnataka,Chikkamagaluru,"Kalyana Nagara, Chikkamagaluru - KSPCB",01-05-2024 00:00:00,13.328028,75.797056,NH3,2,4,3
India,Karnataka,Chikkamagaluru,"Kalyana Nagara, Chikkamagaluru - KSPCB",01-05-2024 00:00:00,13.328028,75.797056,CO,11,139,19
India,Karnataka,Chikkamagaluru,"Kalyana Nagara, Chikkamagaluru - KSPCB",01-05-2024 00:00:00,13.328028,75.797056,OZONE,14,69,33
India,Karnataka,Dharwad,"Kalabhavan, Dharwad - KSPCB",01-05-2024 00:00:00,15.459706,75.008381,OZONE,2,23,2
India,Karnataka,Gadag,"Panchal Nagar, Gadag - KSPCB",01-05-2024 00:00:00,15.411456,75.638133,PM2.5,29,58,41
India,Karnataka,Gadag,"Panchal Nagar, Gadag - KSPCB",01-05-2024 00:00:00,15.411456,75.638133,PM10,46,68,56
India,Karnataka,Gadag,"Panchal Nagar, Gadag - KSPCB",01-05-2024 00:00:00,15.411456,75.638133,NH3,1,3,2
India,Karnataka,Gadag,"Panchal Nagar, Gadag - KSPCB",01-05-2024 00:00:00,15.411456,75.638133,CO,48,57,51
India,Karnataka,Gadag,"Panchal Nagar, Gadag - KSPCB",01-05-2024 00:00:00,15.411456,75.638133,OZONE,25,90,66
India,Karnataka,Hassan,"B.Katihalli, Hassan - KSPCB",01-05-2024 00:00:00,13.008556,76.125258,CO,12,26,15
India,Karnataka,Haveri,"Ashwini Nagar, Haveri - KSPCB",01-05-2024 00:00:00,14.791800,75.389600,PM10,68,69,69
India,Karnataka,Haveri,"Ashwini Nagar, Haveri - KSPCB",01-05-2024 00:00:00,14.791800,75.389600,SO2,14,14,14
India,Karnataka,Haveri,"Ashwini Nagar, Haveri - KSPCB",01-05-2024 00:00:00,14.791800,75.389600,CO,37,38,38
India,Karnataka,Hubballi,"Deshpande Nagar, Hubballi - KSPCB",01-05-2024 00:00:00,15.351773,75.140726,PM10,NA,NA,NA
India,Karnataka,Hubballi,"Deshpande Nagar, Hubballi - KSPCB",01-05-2024 00:00:00,15.351773,75.140726,NO2,NA,NA,NA
India,Karnataka,Hubballi,"Deshpande Nagar, Hubballi - KSPCB",01-05-2024 00:00:00,15.351773,75.140726,NH3,NA,NA,NA
India,Karnataka,Hubballi,"Lingaraj Nagar, Hubballi - KSPCB",01-05-2024 00:00:00,15.3714823,75.1160168,SO2,1,4,2
India,Karnataka,Karwar,"KHB Colony, Karwar - KSPCB",01-05-2024 00:00:00,14.816666,74.141003,PM10,59,129,75
India,Karnataka,Koppal,"Diwator Nagar, Koppal - KSPCB",01-05-2024 00:00:00,15.347630,76.181767,NH3,5,9,8
India,Karnataka,Koppal,"Diwator Nagar, Koppal - KSPCB",01-05-2024 00:00:00,15.347630,76.181767,SO2,27,31,28
India,Karnataka,Koppal,"Diwator Nagar, Koppal - KSPCB",01-05-2024 00:00:00,15.347630,76.181767,OZONE,98,198,164
India,Karnataka,Madikeri,"Stuart Hill, Madikeri - KSPCB",01-05-2024 00:00:00,12.415911,75.735050,PM2.5,29,55,45
India,Karnataka,Madikeri,"Stuart Hill, Madikeri - KSPCB",01-05-2024 00:00:00,12.415911,75.735050,PM10,39,57,47
India,Karnataka,Madikeri,"Stuart Hill, Madikeri - KSPCB",01-05-2024 00:00:00,12.415911,75.735050,NO2,1,18,5
India,Karnataka,Madikeri,"Stuart Hill, Madikeri - KSPCB",01-05-2024 00:00:00,12.415911,75.735050,CO,4,78,27
India,Karnataka,Mangalore,"Kadri, Mangalore - KSPCB",01-05-2024 00:00:00,12.889250,74.853000,SO2,12,32,17
India,Karnataka,Ramanagara,"Vijay Nagar, Ramanagara - KSPCB",01-05-2024 00:00:00,12.733409,77.298051,PM2.5,29,100,54
India,Karnataka,Ramanagara,"Vijay Nagar, Ramanagara - KSPCB",01-05-2024 00:00:00,12.733409,77.298051,OZONE,27,30,29
India,Karnataka,Shivamogga,"Vinoba Nagara, Shivamogga - KSPCB",01-05-2024 00:00:00,13.940000,75.555917,PM10,47,78,57
India,Karnataka,Tumakuru,"Thimmalapura, Tumakuru - KSPCB",01-05-2024 00:00:00,13.377516,77.099072,OZONE,8,51,30
India,Karnataka,Vijayapura,"Ibrahimpur, Vijayapura - KSPCB",01-05-2024 00:00:00,16.802639,75.722694,PM2.5,26,31,30
India,Karnataka,Yadgir,"Collector Office, Yadgir - KSPCB",01-05-2024 00:00:00,16.7602,77.1428,PM2.5,43,92,57
India,Karnataka,Yadgir,"Collector Office, Yadgir - KSPCB",01-05-2024 00:00:00,16.7602,77.1428,NO2,5,10,6
India,Kerala,Eloor,"Udyogamandal, Eloor - Kerala PCB",01-05-2024 00:00:00,10.073232,76.302765,OZONE,12,19,14
India,Kerala,Kannur,"Thavakkara, Kannur - Kerala PCB",01-05-2024 00:00:00,11.875000,75.373200,PM2.5,68,79,72
India,Kerala,Kannur,"Thavakkara, Kannur - Kerala PCB",01-05-2024 00:00:00,11.875000,75.373200,SO2,1,4,1
India,Kerala,Kannur,"Thavakkara, Kannur - Kerala PCB",01-05-2024 00:00:00,11.875000,75.373200,CO,30,36,32
India,Kerala,Kollam,"Polayathode, Kollam - Kerala PCB",01-05-2024 00:00:00,8.8787,76.6073,NO2,NA,NA,NA
India,Kerala,Kollam,"Polayathode, Kollam - Kerala PCB",01-05-2024 00:00:00,8.8787,76.6073,CO,14,14,14
India,Kerala,Thiruvananthapuram,"Plammoodu, Thiruvananthapuram - Kerala PCB",01-05-2024 00:00:00,8.5149093,76.9435879,PM2.5,8,26,17
India,Kerala,Thiruvananthapuram,"Plammoodu, Thiruvananthapuram - Kerala PCB",01-05-2024 00:00:00,8.5149093,76.9435879,PM10,15,41,27
India,Kerala,Thiruvananthapuram,"Plammoodu, Thiruvananthapuram - Kerala PCB",01-05-2024 00:00:00,8.5149093,76.9435879,NO2,7,10,9
India,Kerala,Thrissur,"Corporation Ground, Thrissur - Kerala PCB",01-05-2024 00:00:00,10.532400,76.215900,PM2.5,44,50,47
India,Kerala,Thrissur,"Corporation Ground, Thrissur - Kerala PCB",01-05-2024 00:00:00,10.532400,76.215900,SO2,1,7,1
India,Kerala,Thrissur,"Corporation Ground, Thrissur - Kerala PCB",01-05-2024 00:00:00,10.532400,76.215900,CO,14,62,19
India,Madhya Pradesh,Bhopal,"Idgah Hills, Bhopal - MPPCB",01-05-2024 00:00:00,23.264759,77.381568,NH3,4,6,4
India,Madhya Pradesh,Bhopal,"Idgah Hills, Bhopal - MPPCB",01-05-2024 00:00:00,23.264759,77.381568,SO2,16,19,18
India,Madhya Pradesh,Bhopal,"Idgah Hills, Bhopal - MPPCB",01-05-2024 00:00:00,23.264759,77.381568,CO,22,76,45
India,Madhya Pradesh,Bhopal,"Paryavaran Parisar, Bhopal - MPPCB",01-05-2024 00:00:00,23.210494,77.425409,NH3,NA,NA,NA
India,Madhya Pradesh,Bhopal,"Paryavaran Parisar, Bhopal - MPPCB",01-05-2024 00:00:00,23.210494,77.425409,OZONE,37,90,87
India,Madhya Pradesh,Bhopal,"T T Nagar, Bhopal - MPPCB",01-05-2024 00:00:00,23.233584,77.400574,SO2,5,28,21
India,Madhya Pradesh,Bhopal,"T T Nagar, Bhopal - MPPCB",01-05-2024 00:00:00,23.233584,77.400574,OZONE,44,100,62
India,Madhya Pradesh,Gwalior,"City Center, Gwalior - MPPCB",01-05-2024 00:00:00,26.203442,78.193251,PM10,NA,NA,NA
India,Madhya Pradesh,Gwalior,"City Center, Gwalior - MPPCB",01-05-2024 00:00:00,26.203442,78.193251,NO2,NA,NA,NA
India,Madhya Pradesh,Gwalior,"City Center, Gwalior - MPPCB",01-05-2024 00:00:00,26.203442,78.193251,SO2,NA,NA,NA
India,Madhya Pradesh,Gwalior,"Deen Dayal Nagar, Gwalior - MPPCB",01-05-2024 00:00:00,26.259242,78.216432,PM2.5,40,168,80
India,Madhya Pradesh,Gwalior,"Deen Dayal Nagar, Gwalior - MPPCB",01-05-2024 00:00:00,26.259242,78.216432,SO2,10,16,13
India,Madhya Pradesh,Gwalior,"Maharaj Bada, Gwalior - MPPCB",01-05-2024 00:00:00,26.200388,78.147714,OZONE,50,133,107
India,Madhya Pradesh,Indore,"Chhoti Gwaltoli, Indore - MPPCB",01-05-2024 00:00:00,22.4310,75.5213,PM10,85,178,129
India,Madhya Pradesh,Indore,"Chhoti Gwaltoli, Indore - MPPCB",01-05-2024 00:00:00,22.4310,75.5213,NH3,1,3,2
India,Madhya Pradesh,Indore,"Residency Area, Indore - IMC",01-05-2024 00:00:00,22.7084,75.8815,CO,NA,NA,NA
India,Madhya Pradesh,Jabalpur,"Gupteshwar, Jabalpur - JMC",01-05-2024 00:00:00,23.142888,79.916147,PM10,44,111,71
India,Madhya Pradesh,Jabalpur,"Gupteshwar, Jabalpur - JMC",01-05-2024 00:00:00,23.142888,79.916147,NO2,14,63,24
India,Madhya Pradesh,Jabalpur,"Gupteshwar, Jabalpur - JMC",01-05-2024 00:00:00,23.142888,79.916147,OZONE,39,92,69
India,Madhya Pradesh,Jabalpur,"Marhatal, Jabalpur - MPPCB",01-05-2024 00:00:00,23.168606,79.932247,PM2.5,33,293,66
India,Madhya Pradesh,Jabalpur,"Marhatal, Jabalpur - MPPCB",01-05-2024 00:00:00,23.168606,79.932247,SO2,10,30,17
India,Madhya Pradesh,Jabalpur,"Suhagi, Jabalpur - JMC",01-05-2024 00:00:00,23.218135,79.957770,PM2.5,32,247,77
India,Madhya Pradesh,Jabalpur,"Suhagi, Jabalpur - JMC",01-05-2024 00:00:00,23.218135,79.957770,CO,32,108,71
India,Madhya Pradesh,Katni,"Gole Bazar, Katni - MPPCB",01-05-2024 00:00:00,23.50016,80.23284,SO2,8,120,42
India,Madhya Pradesh,Katni,"Gole Bazar, Katni - MPPCB",01-05-2024 00:00:00,23.50016,80.23284,CO,8,121,16
India,Madhya Pradesh,Mandideep,"Sector-D Industrial Area, Mandideep - MPPCB",01-05-2024 00:00:00,23.108440,77.511428,CO,11,42,26
India,Madhya Pradesh,Pithampur,"Sector-2 Industrial Area, Pithampur - MPPCB",01-05-2024 00:00:00,22.624758,75.675238,CO,38,48,41
India,Madhya Pradesh,Sagar,"Civil Lines, Sagar - MPPCB",01-05-2024 00:00:00,23.838586,78.759431,OZONE,12,131,69
India,Madhya Pradesh,Sagar,"Deen Dayal Nagar, Sagar - MPPCB",01-05-2024 00:00:00,23.8640158,78.80289321,PM2.5,23,85,41
India,Madhya Pradesh,Satna,"Bandhavgar Colony, Satna - Birla Cement",01-05-2024 00:00:00,24.58434363,80.8549414,PM2.5,12,102,29
India,Madhya Pradesh,Satna,"Bandhavgar Colony, Satna - Birla Cement",01-05-2024 00:00:00,24.58434363,80.8549414,PM10,67,105,89
India,Madhya Pradesh,Singrauli,"Suryakiran Bhawan NCL, Singrauli - MPPCB",01-05-2024 00:00:00,24.108970,82.645580,PM2.5,31,216,83
India,Madhya Pradesh,Singrauli,"Suryakiran Bhawan NCL, Singrauli - MPPCB",01-05-2024 00:00:00,24.108970,82.645580,PM10,56,238,123
India,Madhya Pradesh,Singrauli,"Suryakiran Bhawan NCL, Singrauli - MPPCB",01-05-2024 00:00:00,24.108970,82.645580,NH3,3,4,3
India,Maharashtra,Ahmednagar,"Tarakpur, Ahmednagar - MPCB",01-05-2024 00:00:00,19.10122,74.73339,OZONE,25,135,77
India,Maharashtra,Akola,"Ramdaspeth, Akola - MPCB",01-05-2024 00:00:00,20.719516,77.000253,NH3,5,9,6
India,Maharashtra,Amravati,"Shivneri Colony, Amravati - MPCB",01-05-2024 00:00:00,20.9402359,77.7895248,SO2,1,23,4
India,Maharashtra,Amravati,"Shivneri Colony, Amravati - MPCB",01-05-2024 00:00:00,20.9402359,77.7895248,OZONE,1,118,44
India,Maharashtra,Amravati,"Shri Shivaji Science College, Amaravati - MPCB",01-05-2024 00:00:00,20.939198,77.765701,NH3,2,11,4
India,Maharashtra,Aurangabad,"MIDC Chilkalthana, Aurangabad - MPCB",01-05-2024 00:00:00,19.875620,75.387310,NH3,3,4,3
India,Maharashtra,Aurangabad,"Rachnakar Colony, Aurangabad - MPCB",01-05-2024 00:00:00,19.863756,75.321188,OZONE,20,99,68
India,Maharashtra,Bhiwandi,"Gokul Nagar, Bhiwandi - MPCB",01-05-2024 00:00:00,19.309073,73.057223,NO2,17,81,37
India,Maharashtra,Boisar,"Khaira, Boisar - MPCB",01-05-2024 00:00:00,19.786089,72.757971,CO,12,70,27
India,Maharashtra,Boisar,"Khaira, Boisar - MPCB",01-05-2024 00:00:00,19.786089,72.757971,OZONE,30,92,53
India,Maharashtra,Chandrapur,"Chauhan Colony, Chandrapur - MPCB",01-05-2024 00:00:00,19.962900,79.298714,PM10,79,129,99
India,Maharashtra,Chandrapur,"Chauhan Colony, Chandrapur - MPCB",01-05-2024 00:00:00,19.962900,79.298714,NH3,1,1,1
India,Maharashtra,Dhule,"Deopur, Dhule - MPCB",01-05-2024 00:00:00,20.918946,74.776388,CO,12,22,16
India,Maharashtra,Jalgaon,"Prabhat Colony, Jalgaon - MPCB",01-05-2024 00:00:00,21.001264,75.565602,PM2.5,40,82,60
India,Maharashtra,Jalgaon,"Prabhat Colony, Jalgaon - MPCB",01-05-2024 00:00:00,21.001264,75.565602,NO2,13,40,25
India,Maharashtra,Jalgaon,"Prabhat Colony, Jalgaon - MPCB",01-05-2024 00:00:00,21.001264,75.565602,SO2,3,22,11
India,Maharashtra,Jalna,"Old MIDC, Jalna - MPCB",01-05-2024 00:00:00,19.854616,75.905894,NH3,6,8,7
India,Maharashtra,Jalna,"Old MIDC, Jalna - MPCB",01-05-2024 00:00:00,19.854616,75.905894,CO,14,50,28
India,Maharashtra,Kalyan,"Khadakpada, Kalyan - MPCB",01-05-2024 00:00:00,19.25292,73.142019,CO,18,42,20
India,Maharashtra,Kolhapur,"Sinchan Bhavan, Kolhapur - MPCB",01-05-2024 00:00:00,16.7143745,74.2426398,NH3,7,8,7
India,Maharashtra,Mahad,"Kamble Tarf Birwadi, Mahad - MPCB",01-05-2024 00:00:00,18.1023399,73.4783687,NH3,7,8,8
India,Maharashtra,Mahad,"Kamble Tarf Birwadi, Mahad - MPCB",01-05-2024 00:00:00,18.1023399,73.4783687,CO,19,72,51
India,Maharashtra,Malegaon,"Mahesh Nagar, Malegaon - MPCB",01-05-2024 00:00:00,20.555712,74.529236,PM2.5,69,207,99
India,Maharashtra,Mira-Bhayandar,"Bhayandar West, Mira-Bhayandar - MPCB",01-05-2024 00:00:00,19.296481,72.840923,PM10,54,351,155
India,Maharashtra,Mira-Bhayandar,"Bhayandar West, Mira-Bhayandar - MPCB",01-05-2024 00:00:00,19.296481,72.840923,NO2,5,28,13
India,Maharashtra,Mira-Bhayandar,"Bhayandar West, Mira-Bhayandar - MPCB",01-05-2024 00:00:00,19.296481,72.840923,OZONE,8,118,90
India,Maharashtra,Mumbai,"Borivali East, Mumbai - MPCB",01-05-2024 00:00:00,19.2243333,72.8658113,NO2,10,36,18
India,Maharashtra,Mumbai,"Borivali East, Mumbai - MPCB",01-05-2024 00:00:00,19.2243333,72.8658113,NH3,1,3,2
India,Maharashtra,Mumbai,"Borivali East, Mumbai - MPCB",01-05-2024 00:00:00,19.2243333,72.8658113,OZONE,13,15,13
India,Maharashtra,Mumbai,"Byculla, Mumbai - BMC",01-05-2024 00:00:00,18.9767,72.8380,PM2.5,14,49,32
India,Maharashtra,Mumbai,"Byculla, Mumbai - BMC",01-05-2024 00:00:00,18.9767,72.8380,NO2,7,14,10
India,Maharashtra,Mumbai,"Chakala-Andheri East, Mumbai - IITM",01-05-2024 00:00:00,19.11074,72.86084,PM2.5,66,220,139
India,Maharashtra,Mumbai,"Chakala-Andheri East, Mumbai - IITM",01-05-2024 00:00:00,19.11074,72.86084,PM10,107,170,136
India,Maharashtra,Mumbai,"Chakala-Andheri East, Mumbai - IITM",01-05-2024 00:00:00,19.11074,72.86084,NH3,8,24,15
India,Maharashtra,Mumbai,"Chembur, Mumbai - MPCB",01-05-2024 00:00:00,19.0364585,72.8954371,NO2,23,124,43
India,Maharashtra,Mumbai,"Chhatrapati Shivaji Intl. Airport (T2), Mumbai - MPCB",01-05-2024 00:00:00,19.10078,72.87462,PM2.5,53,117,76
India,Maharashtra,Mumbai,"Colaba, Mumbai - MPCB",01-05-2024 00:00:00,18.910000,72.820000,PM2.5,26,89,51
India,Maharashtra,Mumbai,"Colaba, Mumbai - MPCB",01-05-2024 00:00:00,18.910000,72.820000,CO,14,16,15
India,Maharashtra,Mumbai,"Ghatkopar, Mumbai - BMC",01-05-2024 00:00:00,19.083694,72.920967,SO2,1,1,1
India,Maharashtra,Mumbai,"Kandivali East, Mumbai - MPCB",01-05-2024 00:00:00,19.205800,72.868200,PM2.5,19,87,43
India,Maharashtra,Mumbai,"Kandivali West, Mumbai - BMC",01-05-2024 00:00:00,19.215859,72.831718,SO2,1,5,2
India,Maharashtra,Mumbai,"Kherwadi_Bandra East, Mumbai - MPCB",01-05-2024 00:00:00,19.0632143,72.8456324,NO2,10,50,21
India,Maharashtra,Mumbai,"Kherwadi_Bandra East, Mumbai - MPCB",01-05-2024 00:00:00,19.0632143,72.8456324,SO2,13,19,15
India,Maharashtra,Mumbai,"Kherwadi_Bandra East, Mumbai - MPCB",01-05-2024 00:00:00,19.0632143,72.8456324,OZONE,5,163,100
India,Maharashtra,Mumbai,"Kurla, Mumbai - MPCB",01-05-2024 00:00:00,19.0863,72.8888,NO2,15,19,17
India,Maharashtra,Mumbai,"Kurla, Mumbai - MPCB",01-05-2024 00:00:00,19.0863,72.8888,CO,4,26,14
India,Maharashtra,Mumbai,"Mazgaon, Mumbai - IITM",01-05-2024 00:00:00,18.96702,72.84214,PM2.5,37,66,50
India,Maharashtra,Mumbai,"Mazgaon, Mumbai - IITM",01-05-2024 00:00:00,18.96702,72.84214,CO,16,83,44
India,Maharashtra,Mumbai,"Mazgaon, Mumbai - IITM",01-05-2024 00:00:00,18.96702,72.84214,OZONE,43,160,78
India,Maharashtra,Mumbai,"Mindspace-Malad West, Mumbai - MPCB",01-05-2024 00:00:00,19.1878657,72.8304069,PM2.5,42,97,73
India,Maharashtra,Mumbai,"Mindspace-Malad West, Mumbai - MPCB",01-05-2024 00:00:00,19.1878657,72.8304069,CO,7,20,13
India,Maharashtra,Mumbai,"Mulund West, Mumbai - MPCB",01-05-2024 00:00:00,19.1750,72.9419,SO2,12,14,13
India,Maharashtra,Mumbai,"Mulund West, Mumbai - MPCB",01-05-2024 00:00:00,19.1750,72.9419,CO,38,39,39
India,Maharashtra,Mumbai,"Powai, Mumbai - MPCB",01-05-2024 00:00:00,19.137500,72.915056,PM2.5,NA,NA,NA
India,Maharashtra,Mumbai,"Powai, Mumbai - MPCB",01-05-2024 00:00:00,19.137500,72.915056,PM10,NA,NA,NA
India,Maharashtra,Mumbai,"Shivaji Nagar, Mumbai - BMC",01-05-2024 00:00:00,19.060498,72.923356,PM2.5,25,82,47
India,Maharashtra,Mumbai,"Shivaji Nagar, Mumbai - BMC",01-05-2024 00:00:00,19.060498,72.923356,CO,1,98,47
India,Maharashtra,Mumbai,"Siddharth Nagar-Worli, Mumbai - IITM",01-05-2024 00:00:00,19.000083,72.813993,NH3,4,7,6
India,Maharashtra,Mumbai,"Siddharth Nagar-Worli, Mumbai - IITM",01-05-2024 00:00:00,19.000083,72.813993,OZONE,36,195,105
India,Maharashtra,Mumbai,"Vasai West, Mumbai - MPCB",01-05-2024 00:00:00,19.383200,72.820400,PM2.5,NA,NA,NA
India,Maharashtra,Mumbai,"Worli, Mumbai - MPCB",01-05-2024 00:00:00,18.9936162,72.8128113,PM2.5,26,59,39
India,Maharashtra,Nagpur,"Mahal, Nagpur - MPCB",01-05-2024 00:00:00,21.14472,79.107595,CO,23,146,84
India,Maharashtra,Nagpur,"Opp GPO Civil Lines, Nagpur - MPCB",01-05-2024 00:00:00,21.152875,79.0517531,PM10,50,189,91
India,Maharashtra,Nagpur,"Opp GPO Civil Lines, Nagpur - MPCB",01-05-2024 00:00:00,21.152875,79.0517531,OZONE,3,85,29
India,Maharashtra,Nanded,"Sneh Nagar, Nanded - MPCB",01-05-2024 00:00:00,19.173852,77.296291,PM2.5,53,132,73
India,Maharashtra,Nanded,"Sneh Nagar, Nanded - MPCB",01-05-2024 00:00:00,19.173852,77.296291,OZONE,27,141,78
India,Maharashtra,Nashik,"Gangapur Road, Nashik - MPCB",01-05-2024 00:00:00,20.0073285,73.7762427,PM2.5,66,88,76
India,Maharashtra,Nashik,"Gangapur Road, Nashik - MPCB",01-05-2024 00:00:00,20.0073285,73.7762427,PM10,63,117,89
India,Maharashtra,Nashik,"Gangapur Road, Nashik - MPCB",01-05-2024 00:00:00,20.0073285,73.7762427,SO2,2,17,11
India,Maharashtra,Nashik,"Hirawadi, Nashik - MPCB",01-05-2024 00:00:00,20.021503,73.813844,PM10,67,94,81
India,Maharashtra,Nashik,"MIDC Ambad, Nashik - MPCB",01-05-2024 00:00:00,19.950220,73.731480,PM2.5,32,60,43
India,Maharashtra,Nashik,"MIDC Ambad, Nashik - MPCB",01-05-2024 00:00:00,19.950220,73.731480,PM10,48,74,62
India,Maharashtra,Nashik,"MIDC Ambad, Nashik - MPCB",01-05-2024 00:00:00,19.950220,73.731480,CO,11,38,21
India,Maharashtra,Navi Mumbai,"Kopripada-Vashi, Navi Mumbai - MPCB",01-05-2024 00:00:00,19.090337,73.014232,PM2.5,16,109,62
India,Maharashtra,Navi Mumbai,"Mahape, Navi Mumbai - MPCB",01-05-2024 00:00:00,19.1135051,73.008978,NO2,84,87,85
India,Maharashtra,Navi Mumbai,"Mahape, Navi Mumbai - MPCB",01-05-2024 00:00:00,19.1135051,73.008978,SO2,23,23,23
India,Maharashtra,Navi Mumbai,"Nerul, Navi Mumbai - MPCB",01-05-2024 00:00:00,19.008751,73.016620,PM2.5,58,174,99
India,Maharashtra,Navi Mumbai,"Nerul, Navi Mumbai - MPCB",01-05-2024 00:00:00,19.008751,73.016620,CO,26,52,34
India,Maharashtra,Navi Mumbai,"Sanpada, Navi Mumbai - MPCB",01-05-2024 00:00:00,19.0575752,73.0151367,PM10,99,149,120
India,Maharashtra,Navi Mumbai,"Sanpada, Navi Mumbai - MPCB",01-05-2024 00:00:00,19.0575752,73.0151367,NO2,13,47,26
India,Maharashtra,Navi Mumbai,"Sector-19A Nerul, Navi Mumbai - IITM",01-05-2024 00:00:00,19.044,73.0325,PM2.5,77,280,136
India,Maharashtra,Parbhani,"Masoom Colony, Parbhani - MPCB",01-05-2024 00:00:00,19.265594,76.761463,OZONE,16,90,61
India,Maharashtra,Pimpri-Chinchwad,"Park Street Wakad, Pimpri Chinchwad - MPCB",01-05-2024 00:00:00,18.59051,73.77946,PM2.5,NA,NA,NA
India,Maharashtra,Pimpri-Chinchwad,"Park Street Wakad, Pimpri Chinchwad - MPCB",01-05-2024 00:00:00,18.59051,73.77946,SO2,NA,NA,NA
India,Maharashtra,Pimpri-Chinchwad,"Thergaon, Pimpri Chinchwad - MPCB",01-05-2024 00:00:00,18.616318,73.765797,PM2.5,93,175,130
India,Maharashtra,Pimpri-Chinchwad,"Thergaon, Pimpri Chinchwad - MPCB",01-05-2024 00:00:00,18.616318,73.765797,OZONE,9,215,123
India,Maharashtra,Pune,"Bhosari, Pune - IITM",01-05-2024 00:00:00,18.640051,73.848956,OZONE,15,117,63
India,Maharashtra,Pune,"Karve Road, Pune - MPCB",01-05-2024 00:00:00,18.5011743,73.8165527,PM10,94,261,123
India,Maharashtra,Pune,"Katraj Dairy, Pune - MPCB",01-05-2024 00:00:00,18.454450,73.854155,NH3,2,7,3
India,Maharashtra,Pune,"Katraj Dairy, Pune - MPCB",01-05-2024 00:00:00,18.454450,73.854155,OZONE,25,76,59
India,Maharashtra,Pune,"Revenue Colony-Shivajinagar, Pune - IITM",01-05-2024 00:00:00,18.530085,73.849598,NO2,73,144,104
India,Maharashtra,Pune,"Revenue Colony-Shivajinagar, Pune - IITM",01-05-2024 00:00:00,18.530085,73.849598,NH3,9,18,12
India,Maharashtra,Pune,"Savitribai Phule Pune University, Pune - MPCB",01-05-2024 00:00:00,18.547056,73.826908,NO2,12,32,21
India,Maharashtra,Pune,"Savitribai Phule Pune University, Pune - MPCB",01-05-2024 00:00:00,18.547056,73.826908,SO2,3,21,10
India,Maharashtra,Pune,"Transport Nagar-Nigdi, Pune - IITM",01-05-2024 00:00:00,18.664282,73.763966,PM2.5,60,72,62
India,Maharashtra,Solapur,"Dnyaneshwar Nagar, Solapur - MPCB",01-05-2024 00:00:00,17.6336264,75.9132495,OZONE,42,105,68
India,Maharashtra,Solapur,"Solapur, Solapur - MPCB",01-05-2024 00:00:00,17.6599188,75.9063906,PM10,111,130,124
India,Maharashtra,Solapur,"Solapur, Solapur - MPCB",01-05-2024 00:00:00,17.6599188,75.9063906,SO2,102,105,104
India,Maharashtra,Thane,"Pimpleshwar Mandir, Thane - MPCB",01-05-2024 00:00:00,19.192056,72.9585188,PM10,NA,NA,NA
India,Maharashtra,Thane,"Pimpleshwar Mandir, Thane - MPCB",01-05-2024 00:00:00,19.192056,72.9585188,OZONE,NA,NA,NA
India,Maharashtra,Thane,"Upvan Fort, Thane - MPCB",01-05-2024 00:00:00,19.222279,72.957979,CO,5,14,5
India,Maharashtra,Thane,"Upvan Fort, Thane - MPCB",01-05-2024 00:00:00,19.222279,72.957979,OZONE,25,145,70
India,Maharashtra,Ulhasnagar,"Sidhi Vinayak Nagar, Ulhasnagar - MPCB",01-05-2024 00:00:00,19.235581,73.159121,PM2.5,92,303,141
India,Maharashtra,Ulhasnagar,"Sidhi Vinayak Nagar, Ulhasnagar - MPCB",01-05-2024 00:00:00,19.235581,73.159121,NO2,5,31,20
India,Maharashtra,Ulhasnagar,"Sidhi Vinayak Nagar, Ulhasnagar - MPCB",01-05-2024 00:00:00,19.235581,73.159121,CO,8,58,29
India,Maharashtra,Virar,"Bolinj, Virar - MPCB",01-05-2024 00:00:00,19.4458210,72.7988231,PM2.5,42,78,63
India,Maharashtra,Virar,"Bolinj, Virar - MPCB",01-05-2024 00:00:00,19.4458210,72.7988231,NH3,9,9,9
India,Manipur,Imphal,"DM College of Science, Imphal - Manipur PCB",01-05-2024 00:00:00,24.8207389,93.9423085,PM10,23,53,36
India,Manipur,Imphal,"DM College of Science, Imphal - Manipur PCB",01-05-2024 00:00:00,24.8207389,93.9423085,NH3,2,2,2
India,Mizoram,Aizawl,"Sikulpuikawn, Aizawl - Mizoram PCB",01-05-2024 00:00:00,23.7176342,92.7192841,NO2,1,4,1
India,Odisha,Balasore,"Kalidaspur, Balasore - OSPCB",01-05-2024 00:00:00,21.51161,86.89088,PM2.5,42,120,72
India,Odisha,Baripada,"Meher Colony, Baripada - OSPCB",01-05-2024 00:00:00,21.941841,86.728318,NO2,NA,NA,NA
India,Odisha,Bileipada,"Tata Township, Bileipada - OSPCB",01-05-2024 00:00:00,22.06156703,85.47409613,PM2.5,NA,NA,NA
India,Odisha,Bileipada,"Tata Township, Bileipada - OSPCB",01-05-2024 00:00:00,22.06156703,85.47409613,NO2,NA,NA,NA
India,Odisha,Bileipada,"Tata Township, Bileipada - OSPCB",01-05-2024 00:00:00,22.06156703,85.47409613,NH3,NA,NA,NA
India,Odisha,Bileipada,"Tata Township, Bileipada - OSPCB",01-05-2024 00:00:00,22.06156703,85.47409613,OZONE,31,45,33
India,Odisha,Brajrajnagar,"GM Office, Brajrajnagar - OSPCB",01-05-2024 00:00:00,21.8004996,83.8396977,PM10,NA,NA,NA
India,Odisha,Brajrajnagar,"GM Office, Brajrajnagar - OSPCB",01-05-2024 00:00:00,21.8004996,83.8396977,SO2,NA,NA,NA
India,Odisha,Byasanagar,"Ferro Chrome Colony, Byasanagar - OSPCB",01-05-2024 00:00:00,20.94185,86.11510,NO2,13,42,19
India,Odisha,Cuttack,"CDA Area, Cuttack - OSPCB",01-05-2024 00:00:00,20.48891     ,85.84768     ,PM2.5,27,243,106
India,Odisha,Cuttack,"CDA Area, Cuttack - OSPCB",01-05-2024 00:00:00,20.48891     ,85.84768     ,NO2,15,50,32
India,Odisha,Cuttack,"CDA Area, Cuttack - OSPCB",01-05-2024 00:00:00,20.48891     ,85.84768     ,CO,14,49,20
India,Odisha,Keonjhar,"Jagamohanpur, Keonjhar - OSPCB",01-05-2024 00:00:00,21.643900,85.599355,NH3,NA,NA,NA
India,Odisha,Nayagarh,"Dabuna, Nayagarh - OSPCB",01-05-2024 00:00:00,21.847279,85.416905,NO2,3,4,3
India,Odisha,Nayagarh,"Dabuna, Nayagarh - OSPCB",01-05-2024 00:00:00,21.847279,85.416905,NH3,5,5,5
India,Odisha,Nayagarh,"Dabuna, Nayagarh - OSPCB",01-05-2024 00:00:00,21.847279,85.416905,CO,10,34,25
India,Odisha,Nayagarh,"Dabuna, Nayagarh - OSPCB",01-05-2024 00:00:00,21.847279,85.416905,OZONE,22,39,30
India,Odisha,Rairangpur,"Divisional Forest Office, Rairangpur - OSPCB",01-05-2024 00:00:00,22.265816,86.174829,NO2,1,5,2
India,Odisha,Rairangpur,"Divisional Forest Office, Rairangpur - OSPCB",01-05-2024 00:00:00,22.265816,86.174829,NH3,3,3,3
India,Odisha,Rourkela,"Sector-2, Rourkela - OSPCB",01-05-2024 00:00:00,22.24500000,84.88111111,PM10,66,102,80
India,Odisha,Suakati,"OMC Colony, Suakati - OSPCB",01-05-2024 00:00:00,21.606865,85.510538,NO2,8,14,12
India,Odisha,Talcher,"Talcher Coalfields,Talcher - OSPCB",01-05-2024 00:00:00,20.9360711,85.1707021,PM2.5,80,350,190
India,Odisha,Talcher,"Talcher Coalfields,Talcher - OSPCB",01-05-2024 00:00:00,20.9360711,85.1707021,SO2,46,60,54
India,Odisha,Tensa,"Barsua Iron Ore Mines, Tensa - OSPCB",01-05-2024 00:00:00,21.869985,85.167016,NO2,17,64,34
India,Odisha,Tensa,"Barsua Iron Ore Mines, Tensa - OSPCB",01-05-2024 00:00:00,21.869985,85.167016,NH3,1,2,2
India,Puducherry,Puducherry,"Jawahar Nagar, Puducherry - PPCC",01-05-2024 00:00:00,11.9309,79.8027,NH3,3,7,5
India,Puducherry,Puducherry,"Jawahar Nagar, Puducherry - PPCC",01-05-2024 00:00:00,11.9309,79.8027,SO2,2,11,7
India,Punjab,Amritsar,"Golden Temple, Amritsar - PPCB",01-05-2024 00:00:00,31.620000,74.876512,SO2,10,21,16
India,Punjab,Bathinda,"Hardev Nagar, Bathinda - PPCB",01-05-2024 00:00:00,30.233011,74.907758,PM10,14,436,107
India,Punjab,Bathinda,"Hardev Nagar, Bathinda - PPCB",01-05-2024 00:00:00,30.233011,74.907758,CO,4,154,23
India,Punjab,Jalandhar,"Civil Line, Jalandhar - PPCB",01-05-2024 00:00:00,31.321907,75.578914,NO2,36,41,39
India,Punjab,Jalandhar,"Civil Line, Jalandhar - PPCB",01-05-2024 00:00:00,31.321907,75.578914,NH3,2,5,3
India,Punjab,Jalandhar,"Civil Line, Jalandhar - PPCB",01-05-2024 00:00:00,31.321907,75.578914,SO2,8,10,8
India,Punjab,Ludhiana,"Punjab Agricultural University, Ludhiana - PPCB",01-05-2024 00:00:00,30.9028,75.8086,PM2.5,8,128,59
India,Punjab,Mandi Gobindgarh,"RIMT University, Mandi Gobindgarh - PPCB",01-05-2024 00:00:00,30.649961,76.331442,NO2,NA,NA,NA
India,Punjab,Mandi Gobindgarh,"RIMT University, Mandi Gobindgarh - PPCB",01-05-2024 00:00:00,30.649961,76.331442,SO2,NA,NA,NA
India,Punjab,Patiala,"Model Town, Patiala - PPCB",01-05-2024 00:00:00,30.349388,76.366642,NH3,6,6,6
India,Punjab,Patiala,"Model Town, Patiala - PPCB",01-05-2024 00:00:00,30.349388,76.366642,CO,20,84,38
India,Punjab,Rupnagar,"Ratanpura, Rupnagar - Ambuja Cements",01-05-2024 00:00:00,31.0325454,76.5623046,PM2.5,43,300,98
India,Rajasthan,Alwar,"Moti Doongri, Alwar - RSPCB",01-05-2024 00:00:00,27.554793,76.611536,SO2,4,59,19
India,Rajasthan,Banswara,"Rati Talai, Banswara - RSPCB",01-05-2024 00:00:00,23.555190,74.440010,CO,24,60,31
India,Rajasthan,Baran,"Bamboliya, Baran - RSPCB",01-05-2024 00:00:00,25.106006,76.469948,NO2,9,101,28
India,Rajasthan,Baran,"Bamboliya, Baran - RSPCB",01-05-2024 00:00:00,25.106006,76.469948,SO2,2,13,6
India,Rajasthan,Baran,"Bamboliya, Baran - RSPCB",01-05-2024 00:00:00,25.106006,76.469948,OZONE,3,135,78
India,Rajasthan,Barmer,"Railway Colony, Barmer - RSPCB",01-05-2024 00:00:00,25.747299,71.393989,PM2.5,20,53,32
India,Rajasthan,Barmer,"Railway Colony, Barmer - RSPCB",01-05-2024 00:00:00,25.747299,71.393989,SO2,4,8,6
India,Rajasthan,Bharatpur,"Krishna Nagar, Bharatpur - RSPCB",01-05-2024 00:00:00,27.215415,77.50873,PM2.5,76,319,181
India,Rajasthan,Bharatpur,"Krishna Nagar, Bharatpur - RSPCB",01-05-2024 00:00:00,27.215415,77.50873,CO,7,101,43
India,Rajasthan,Bhilwara,"Pratap Nagar, Bhilwara - RSPCB",01-05-2024 00:00:00,25.339605,74.618883,NH3,NA,NA,NA
India,Rajasthan,Bhilwara,"Pratap Nagar, Bhilwara - RSPCB",01-05-2024 00:00:00,25.339605,74.618883,SO2,8,54,14
India,Rajasthan,Bhilwara,"Pratap Nagar, Bhilwara - RSPCB",01-05-2024 00:00:00,25.339605,74.618883,OZONE,14,87,55
India,Rajasthan,Bhiwadi,"RIICO Ind. Area III, Bhiwadi - RSPCB",01-05-2024 00:00:00,28.194909,76.862296,NH3,6,36,14
India,Rajasthan,Bhiwadi,"Vasundhara Nagar_UIT, Bhiwadi - RSPCB",01-05-2024 00:00:00,28.207266,76.829265,PM2.5,19,213,89
India,Rajasthan,Bhiwadi,"Vasundhara Nagar_UIT, Bhiwadi - RSPCB",01-05-2024 00:00:00,28.207266,76.829265,NH3,6,20,13
India,Rajasthan,Bikaner,"MM Ground, Bikaner - RSPCB",01-05-2024 00:00:00,28.018792,73.292658,PM10,114,349,218
India,Rajasthan,Bundi,"New Colony, Bundi - RSPCB",01-05-2024 00:00:00,25.435774,75.644272,PM2.5,2,278,90
India,Rajasthan,Chittorgarh,"Shastri Nagar, Chittorgarh - RSPCB",01-05-2024 00:00:00,24.892047,74.623527,CO,6,25,11
India,Rajasthan,Churu,"Subash Chowk, Churu - RSPCB",01-05-2024 00:00:00,28.296139,74.961696,CO,6,44,26
India,Rajasthan,Churu,"Subash Chowk, Churu - RSPCB",01-05-2024 00:00:00,28.296139,74.961696,OZONE,46,147,96
India,Rajasthan,Dausa,"Khatikan Mohalla, Dausa - RSPCB",01-05-2024 00:00:00,26.895552,76.334753,SO2,2,12,4
India,Rajasthan,Dausa,"Khatikan Mohalla, Dausa - RSPCB",01-05-2024 00:00:00,26.895552,76.334753,CO,1,92,45
India,Rajasthan,Dholpur,"Raja Ganj, Dholpur - RSPCB",01-05-2024 00:00:00,26.699557,77.898881,SO2,1,7,4
India,Rajasthan,Dungarpur,"Bhoiwada, Dungarpur - RSPCB",01-05-2024 00:00:00,23.837789,73.714926,CO,8,32,15
India,Rajasthan,Hanumangarh,"Housing Board, Hanumangarh - RSPCB",01-05-2024 00:00:00,29.610750,74.283608,PM10,39,260,116
India,Rajasthan,Jaipur,"Adarsh Nagar, Jaipur - RSPCB",01-05-2024 00:00:00,26.902909,75.836858,PM10,93,280,149
India,Rajasthan,Jaipur,"Mansarovar Sector-12, Jaipur - RSPCB",01-05-2024 00:00:00,26.843698,75.766894,NO2,8,130,34
India,Rajasthan,Jaipur,"Mansarovar Sector-12, Jaipur - RSPCB",01-05-2024 00:00:00,26.843698,75.766894,CO,2,77,25
India,Rajasthan,Jaipur,"Police Commissionerate, Jaipur - RSPCB",01-05-2024 00:00:00,26.9164092,75.7994901,PM2.5,67,293,144
India,Rajasthan,Jaipur,"Police Commissionerate, Jaipur - RSPCB",01-05-2024 00:00:00,26.9164092,75.7994901,PM10,98,350,172
India,Rajasthan,Jaipur,"RIICO Sitapura, Jaipur - RSPCB",01-05-2024 00:00:00,26.786682,75.827928,NO2,10,261,58
India,Rajasthan,Jaipur,"RIICO Sitapura, Jaipur - RSPCB",01-05-2024 00:00:00,26.786682,75.827928,NH3,1,11,7
India,Rajasthan,Jaipur,"RIICO Sitapura, Jaipur - RSPCB",01-05-2024 00:00:00,26.786682,75.827928,SO2,9,17,12
India,Rajasthan,Jaipur,"Sector-2 Murlipura, Jaipur - RSPCB",01-05-2024 00:00:00,26.960669,75.771817,PM2.5,52,210,97
India,Rajasthan,Jaipur,"Sector-2 Murlipura, Jaipur - RSPCB",01-05-2024 00:00:00,26.960669,75.771817,SO2,5,65,18
India,Rajasthan,Jaipur,"Shastri Nagar, Jaipur - RSPCB",01-05-2024 00:00:00,26.9502929,75.730943,OZONE,11,81,39
India,Rajasthan,Jaisalmer,"Sadar Bazar, Jaisalmer - RSPCB",01-05-2024 00:00:00,26.912329,70.909168,PM2.5,17,94,46
India,Rajasthan,Jaisalmer,"Sadar Bazar, Jaisalmer - RSPCB",01-05-2024 00:00:00,26.912329,70.909168,PM10,95,187,138
India,Rajasthan,Jalore,"Mudtra Sili, Jalore - RSPCB",01-05-2024 00:00:00,25.344694,72.626208,NH3,3,4,3
India,Rajasthan,Jhalawar,"Rajlaxmi Nagar, Jhalawar - RSPCB",01-05-2024 00:00:00,24.588397,76.172782,PM10,81,279,173
India,Rajasthan,Jhalawar,"Rajlaxmi Nagar, Jhalawar - RSPCB",01-05-2024 00:00:00,24.588397,76.172782,SO2,4,15,9
India,Rajasthan,Jhunjhunu,"Indra Nagar, Jhunjhunu - RSPCB",01-05-2024 00:00:00,28.108988,75.386577,PM10,103,277,145
India,Rajasthan,Jhunjhunu,"Indra Nagar, Jhunjhunu - RSPCB",01-05-2024 00:00:00,28.108988,75.386577,NO2,13,44,24
India,Rajasthan,Jhunjhunu,"Indra Nagar, Jhunjhunu - RSPCB",01-05-2024 00:00:00,28.108988,75.386577,OZONE,20,52,39
India,Rajasthan,Jodhpur,"Digari Kalan, Jodhpur - RSPCB",01-05-2024 00:00:00,26.295810,73.082283,NH3,1,4,2
India,Rajasthan,Jodhpur,"Mandor, Jodhpur - RSPCB",01-05-2024 00:00:00,26.358805,73.047444,CO,9,22,13
India,Rajasthan,Jodhpur,"Samrat Ashok Udhyan, Jodhpur - RSPCB",01-05-2024 00:00:00,26.253384,72.976571,PM2.5,22,93,50
India,Rajasthan,Jodhpur,"Samrat Ashok Udhyan, Jodhpur - RSPCB",01-05-2024 00:00:00,26.253384,72.976571,NO2,3,88,18
India,Rajasthan,Karauli,"Satyawati Vihar, Karauli - RSPCB",01-05-2024 00:00:00,26.506177,77.025989,SO2,18,35,25
India,Rajasthan,Karauli,"Satyawati Vihar, Karauli - RSPCB",01-05-2024 00:00:00,26.506177,77.025989,CO,2,34,6
India,Rajasthan,Karauli,"Satyawati Vihar, Karauli - RSPCB",01-05-2024 00:00:00,26.506177,77.025989,OZONE,31,157,108
India,Rajasthan,Kota,"Dhanmandi, Kota - RSPCB",01-05-2024 00:00:00,25.164090,75.858137,OZONE,1,98,60
India,Rajasthan,Kota,"Nayapura, Kota - RSPCB",01-05-2024 00:00:00,25.196024,75.855668,NH3,6,31,11
India,Rajasthan,Nagaur,"Karni Colony, Nagaur - RSPCB",01-05-2024 00:00:00,27.213494,73.734444,NO2,7,21,13
India,Rajasthan,Nagaur,"Karni Colony, Nagaur - RSPCB",01-05-2024 00:00:00,27.213494,73.734444,CO,9,24,17
India,Rajasthan,Pali,"Indira Colony Vistar, Pali - RSPCB",01-05-2024 00:00:00,25.771061, 73.340227,SO2,7,11,9
India,Rajasthan,Pratapgarh,"Pragati Nagar, Pratapgarh - RSPCB",01-05-2024 00:00:00,24.041198,74.780702,NH3,3,6,4
India,Rajasthan,Pratapgarh,"Pragati Nagar, Pratapgarh - RSPCB",01-05-2024 00:00:00,24.041198,74.780702,OZONE,35,110,79
India,Rajasthan,Rajsamand,"Dhoinda, Rajsamand - RSPCB",01-05-2024 00:00:00,25.036360,73.883502,SO2,3,56,12
India,Rajasthan,Rajsamand,"Dhoinda, Rajsamand - RSPCB",01-05-2024 00:00:00,25.036360,73.883502,OZONE,50,90,68
India,Rajasthan,Sawai Madhopur,"Sahu Nagar, Sawai Madhopur - RSPCB",01-05-2024 00:00:00,26.031443,76.359327,PM2.5,53,224,90
India,Rajasthan,Sawai Madhopur,"Sahu Nagar, Sawai Madhopur - RSPCB",01-05-2024 00:00:00,26.031443,76.359327,NH3,1,13,7
India,Rajasthan,Sirohi,"Vedhaynath Colony, Sirohi - RSPCB",01-05-2024 00:00:00,24.885261,72.857549,NO2,1,55,18
India,Rajasthan,Sirohi,"Vedhaynath Colony, Sirohi - RSPCB",01-05-2024 00:00:00,24.885261,72.857549,SO2,3,9,6
India,Rajasthan,Sirohi,"Vedhaynath Colony, Sirohi - RSPCB",01-05-2024 00:00:00,24.885261,72.857549,CO,22,66,28
India,Rajasthan,Sirohi,"Vedhaynath Colony, Sirohi - RSPCB",01-05-2024 00:00:00,24.885261,72.857549,OZONE,23,119,108
India,Rajasthan,Sri Ganganagar,"Old City, Sri Ganganagar - RSPCB",01-05-2024 00:00:00,29.931624,73.864511,PM2.5,43,315,133
India,Rajasthan,Sri Ganganagar,"Old City, Sri Ganganagar - RSPCB",01-05-2024 00:00:00,29.931624,73.864511,PM10,67,500,239
India,Rajasthan,Sri Ganganagar,"Old City, Sri Ganganagar - RSPCB",01-05-2024 00:00:00,29.931624,73.864511,CO,5,54,16
India,Rajasthan,Tonk,"Shastri Nagar, Tonk - RSPCB",01-05-2024 00:00:00,26.159933,75.780517,PM10,103,335,162
India,Rajasthan,Tonk,"Shastri Nagar, Tonk - RSPCB",01-05-2024 00:00:00,26.159933,75.780517,SO2,2,10,5
India,TamilNadu,Chennai,"Alandur Bus Depot, Chennai - CPCB",01-05-2024 00:00:00,12.9099161,80.1076538,SO2,2,7,4
India,TamilNadu,Chennai,"Alandur Bus Depot, Chennai - CPCB",01-05-2024 00:00:00,12.9099161,80.1076538,CO,48,104,74
India,TamilNadu,Chennai,"Arumbakkam, Chennai - TNPCB",01-05-2024 00:00:00,13.0664,80.2112 ,SO2,2,7,4
India,TamilNadu,Chennai,"Kodungaiyur, Chennai - TNPCB",01-05-2024 00:00:00,13.1278,80.2642,NH3,2,18,4
India,TamilNadu,Chennai,"Manali, Chennai - CPCB",01-05-2024 00:00:00,13.164544,80.26285,CO,13,109,69
India,TamilNadu,Chennai,"Perungudi, Chennai - TNPCB",01-05-2024 00:00:00,12.9533,80.2357,PM10,8,74,36
India,TamilNadu,Chennai,"Perungudi, Chennai - TNPCB",01-05-2024 00:00:00,12.9533,80.2357,NH3,2,2,2
India,TamilNadu,Chennai,"Royapuram, Chennai - TNPCB",01-05-2024 00:00:00,13.1036,80.2909,PM10,13,62,34
India,TamilNadu,Chennai,"Royapuram, Chennai - TNPCB",01-05-2024 00:00:00,13.1036,80.2909,NO2,9,20,14
India,TamilNadu,Chennai,"Velachery Res. Area, Chennai - CPCB",01-05-2024 00:00:00,13.0052189,80.2398125,PM10,15,36,23
India,TamilNadu,Chennai,"Velachery Res. Area, Chennai - CPCB",01-05-2024 00:00:00,13.0052189,80.2398125,NH3,10,23,15
India,TamilNadu,Chennai,"Velachery Res. Area, Chennai - CPCB",01-05-2024 00:00:00,13.0052189,80.2398125,CO,2,142,102
India,TamilNadu,Cuddalore,"Kudikadu, Cuddalore - TNPCB",01-05-2024 00:00:00,11.6829898,79.7532099,PM10,31,127,74
India,TamilNadu,Cuddalore,"Kudikadu, Cuddalore - TNPCB",01-05-2024 00:00:00,11.6829898,79.7532099,NO2,1,3,2
India,TamilNadu,Cuddalore,"Kudikadu, Cuddalore - TNPCB",01-05-2024 00:00:00,11.6829898,79.7532099,SO2,8,9,8
India,TamilNadu,Cuddalore,"Semmandalam, Cuddalore - TNPCB",01-05-2024 00:00:00,11.7637683,79.7499835,OZONE,1,3,2
India,TamilNadu,Gummidipoondi,"Anthoni Pillai Nagar, Gummidipoondi - TNPCB",01-05-2024 00:00:00,13.4127,80.1081,NH3,1,25,3
India,TamilNadu,Ooty,"Bombay Castel, Ooty - TNPCB",01-05-2024 00:00:00,11.4068288,76.7138973,PM2.5,25,137,53
India,TamilNadu,Ooty,"Bombay Castel, Ooty - TNPCB",01-05-2024 00:00:00,11.4068288,76.7138973,NO2,5,81,33
India,TamilNadu,Ooty,"Bombay Castel, Ooty - TNPCB",01-05-2024 00:00:00,11.4068288,76.7138973,OZONE,5,6,5
India,TamilNadu,Palkalaiperur,"Bharathidasan University, Palkalaiperur - TNPCB",01-05-2024 00:00:00,10.681158,78.741746,SO2,27,29,28
India,TamilNadu,Ramanathapuram,"Chalai Bazaar, Ramanathapuram - TNPCB",01-05-2024 00:00:00,9.36399,78.831977,PM10,8,38,19
India,TamilNadu,Ramanathapuram,"Chalai Bazaar, Ramanathapuram - TNPCB",01-05-2024 00:00:00,9.36399,78.831977,SO2,7,10,8
India,TamilNadu,Ramanathapuram,"Chalai Bazaar, Ramanathapuram - TNPCB",01-05-2024 00:00:00,9.36399,78.831977,OZONE,13,14,14
India,TamilNadu,Salem,"Sona College of Technology, Salem - TNPCB",01-05-2024 00:00:00,11.679111,78.125052,SO2,57,109,93
India,TamilNadu,Salem,"Sona College of Technology, Salem - TNPCB",01-05-2024 00:00:00,11.679111,78.125052,OZONE,1,3,3
India,TamilNadu,Vellore,"Vasanthapuram, Vellore - TNPCB",01-05-2024 00:00:00,12.909494,79.131861,PM2.5,NA,NA,NA
India,TamilNadu,Vellore,"Vasanthapuram, Vellore - TNPCB",01-05-2024 00:00:00,12.909494,79.131861,NH3,NA,NA,NA
India,TamilNadu,Vellore,"Vasanthapuram, Vellore - TNPCB",01-05-2024 00:00:00,12.909494,79.131861,SO2,NA,NA,NA
India,Telangana,Hyderabad,"Bollaram Industrial Area, Hyderabad - TSPCB",01-05-2024 00:00:00,17.540891,78.358528,NO2,13,77,38
India,Telangana,Hyderabad,"ECIL Kapra, Hyderabad - TSPCB",01-05-2024 00:00:00,17.470431,78.566959,PM2.5,48,84,60
India,Telangana,Hyderabad,"ECIL Kapra, Hyderabad - TSPCB",01-05-2024 00:00:00,17.470431,78.566959,CO,8,32,14
India,Telangana,Hyderabad,"ECIL Kapra, Hyderabad - TSPCB",01-05-2024 00:00:00,17.470431,78.566959,OZONE,3,65,40
India,Telangana,Hyderabad,"ICRISAT Patancheru, Hyderabad - TSPCB",01-05-2024 00:00:00,17.518400,78.278777,NH3,2,2,2
India,Telangana,Hyderabad,"Kokapet, Hyderabad - TSPCB",01-05-2024 00:00:00,17.393559,78.339194,CO,23,32,24
India,Telangana,Hyderabad,"Kokapet, Hyderabad - TSPCB",01-05-2024 00:00:00,17.393559,78.339194,OZONE,4,10,8
India,Telangana,Hyderabad,"Kompally Municipal Office, Hyderabad - TSPCB",01-05-2024 00:00:00,17.544899,78.486949,NO2,9,12,10
India,Telangana,Hyderabad,"Kompally Municipal Office, Hyderabad - TSPCB",01-05-2024 00:00:00,17.544899,78.486949,CO,12,102,42
India,Telangana,Hyderabad,"Nacharam_TSIIC IALA, Hyderabad - TSPCB",01-05-2024 00:00:00,17.429398,78.569354,NO2,12,15,14
India,Telangana,Hyderabad,"New Malakpet, Hyderabad - TSPCB",01-05-2024 00:00:00,17.37206,78.50864,PM10,46,105,75
India,Telangana,Hyderabad,"New Malakpet, Hyderabad - TSPCB",01-05-2024 00:00:00,17.37206,78.50864,NH3,3,3,3
India,Telangana,Hyderabad,"Ramachandrapuram, Hyderabad - TSPCB",01-05-2024 00:00:00,17.528544,78.286195,OZONE,3,56,30
India,Telangana,Hyderabad,"Sanathnagar, Hyderabad - TSPCB",01-05-2024 00:00:00,17.4559458,78.4332152,OZONE,11,159,15
India,Telangana,Hyderabad,"Somajiguda, Hyderabad - TSPCB",01-05-2024 00:00:00,17.417094,78.457437,PM2.5,NA,NA,NA
India,Telangana,Hyderabad,"Somajiguda, Hyderabad - TSPCB",01-05-2024 00:00:00,17.417094,78.457437,NH3,NA,NA,NA
India,Telangana,Hyderabad,"Zoo Park, Hyderabad - TSPCB",01-05-2024 00:00:00,17.349694,78.451437,CO,13,81,48
India,Tripura,Agartala,"Bardowali, Agartala - Tripura SPCB",01-05-2024 00:00:00,23.8175497,91.2726974,PM10,89,120,107
India,Tripura,Agartala,"Bardowali, Agartala - Tripura SPCB",01-05-2024 00:00:00,23.8175497,91.2726974,NH3,1,2,2
India,Tripura,Agartala,"Bardowali, Agartala - Tripura SPCB",01-05-2024 00:00:00,23.8175497,91.2726974,OZONE,8,38,21
India,Uttar_Pradesh,Agra,"Rohta, Agra - UPPCB",01-05-2024 00:00:00,27.106972,78.000111,CO,5,28,15
India,Uttar_Pradesh,Agra,"Sanjay Palace, Agra - UPPCB",01-05-2024 00:00:00,27.19865833,78.00598056,PM10,4,69,33
India,Uttar_Pradesh,Agra,"Sector-3B Avas Vikas Colony, Agra - UPPCB",01-05-2024 00:00:00,27.19412,77.96237,PM10,41,114,72
India,Uttar_Pradesh,Agra,"Shastripuram, Agra - UPPCB",01-05-2024 00:00:00,27.19862,77.92066,NH3,3,26,6
India,Uttar_Pradesh,Agra,"Shastripuram, Agra - UPPCB",01-05-2024 00:00:00,27.19862,77.92066,CO,10,20,14
India,Uttar_Pradesh,Baghpat,"Sardar Patel Inter College, Baghpat - UPPCB",01-05-2024 00:00:00,28.964949,77.278761,NH3,1,7,3
India,Uttar_Pradesh,Baghpat,"Sardar Patel Inter College, Baghpat - UPPCB",01-05-2024 00:00:00,28.964949,77.278761,CO,42,102,73
India,Uttar_Pradesh,Bareilly,"Civil Lines, Bareilly - UPPCB",01-05-2024 00:00:00,28.359581,79.414455,PM10,5,14,10
India,Uttar_Pradesh,Bareilly,"Civil Lines, Bareilly - UPPCB",01-05-2024 00:00:00,28.359581,79.414455,NH3,NA,NA,NA
India,Uttar_Pradesh,Bareilly,"Rajendra Nagar, Bareilly - UPPCB",01-05-2024 00:00:00,28.38910936,79.42963708,NO2,2,3,2
India,Uttar_Pradesh,Bulandshahr,"Yamunapuram, Bulandshahr - UPPCB",01-05-2024 00:00:00,28.406963,77.849831,CO,27,70,43
India,Uttar_Pradesh,Firozabad,"Nagla Bhau, Firozabad - UPPCB",01-05-2024 00:00:00,27.168897,78.376960,CO,12,33,19
India,Uttar_Pradesh,Firozabad,"Vibhab Nagar, Firozabad - UPPCB",01-05-2024 00:00:00,27.1594,78.3953,PM10,38,75,56
India,Uttar_Pradesh,Ghaziabad,"Indirapuram, Ghaziabad - UPPCB",01-05-2024 00:00:00,28.646233,77.358075,PM10,153,279,191
India,Uttar_Pradesh,Ghaziabad,"Indirapuram, Ghaziabad - UPPCB",01-05-2024 00:00:00,28.646233,77.358075,NO2,29,80,50
India,Uttar_Pradesh,Ghaziabad,"Indirapuram, Ghaziabad - UPPCB",01-05-2024 00:00:00,28.646233,77.358075,SO2,3,38,10
India,Uttar_Pradesh,Ghaziabad,"Indirapuram, Ghaziabad - UPPCB",01-05-2024 00:00:00,28.646233,77.358075,OZONE,4,70,36
India,Uttar_Pradesh,Ghaziabad,"Loni, Ghaziabad - UPPCB",01-05-2024 00:00:00,28.757294,77.278792,PM10,111,382,174
India,Uttar_Pradesh,Gorakhpur,"Madan Mohan Malaviya University of Technology, Gorakhpur - UPPCB",01-05-2024 00:00:00,26.730136,83.433859,NO2,11,11,11
India,Uttar_Pradesh,Greater Noida,"Knowledge Park - III, Greater Noida - UPPCB",01-05-2024 00:00:00,28.47272,77.482000,SO2,6,48,19
India,Uttar_Pradesh,Hapur,"Anand Vihar, Hapur - UPPCB",01-05-2024 00:00:00,28.725645,77.749675,PM10,110,180,137
India,Uttar_Pradesh,Hapur,"Anand Vihar, Hapur - UPPCB",01-05-2024 00:00:00,28.725645,77.749675,SO2,15,60,33
India,Uttar_Pradesh,Jhansi,"Shivaji Nagar, Jhansi - UPPCB",01-05-2024 00:00:00,25.4547,78.6039,PM10,22,159,42
India,Uttar_Pradesh,Jhansi,"Shivaji Nagar, Jhansi - UPPCB",01-05-2024 00:00:00,25.4547,78.6039,SO2,14,17,15
India,Uttar_Pradesh,Kanpur,"FTI Kidwai Nagar, Kanpur - UPPCB",01-05-2024 00:00:00,26.428282,80.327067,SO2,25,26,25
India,Uttar_Pradesh,Kanpur,"NSI Kalyanpur, Kanpur - UPPCB",01-05-2024 00:00:00,26.509954,80.249612,PM10,114,190,157
India,Uttar_Pradesh,Kanpur,"NSI Kalyanpur, Kanpur - UPPCB",01-05-2024 00:00:00,26.509954,80.249612,OZONE,32,60,41
India,Uttar_Pradesh,Kanpur,"Nehru Nagar, Kanpur - UPPCB",01-05-2024 00:00:00,26.4703136,80.3229863,PM2.5,12,113,63
India,Uttar_Pradesh,Kanpur,"Nehru Nagar, Kanpur - UPPCB",01-05-2024 00:00:00,26.4703136,80.3229863,PM10,9,96,56
India,Uttar_Pradesh,Kanpur,"Nehru Nagar, Kanpur - UPPCB",01-05-2024 00:00:00,26.4703136,80.3229863,NO2,3,43,26
India,Uttar_Pradesh,Lucknow,"B R Ambedkar University, Lucknow - UPPCB",01-05-2024 00:00:00,26.766433,80.927299,PM2.5,59,243,118
India,Uttar_Pradesh,Lucknow,"B R Ambedkar University, Lucknow - UPPCB",01-05-2024 00:00:00,26.766433,80.927299,SO2,34,41,36
India,Uttar_Pradesh,Lucknow,"B R Ambedkar University, Lucknow - UPPCB",01-05-2024 00:00:00,26.766433,80.927299,CO,20,54,23
India,Uttar_Pradesh,Lucknow,"Gomti Nagar, Lucknow - UPPCB",01-05-2024 00:00:00,26.868120,81.005119,PM10,102,177,134
India,Uttar_Pradesh,Lucknow,"Gomti Nagar, Lucknow - UPPCB",01-05-2024 00:00:00,26.868120,81.005119,NO2,10,12,11
India,Uttar_Pradesh,Lucknow,"Kukrail Picnic Spot-1, Lucknow - UPPCB",01-05-2024 00:00:00,26.90723,80.98579,CO,10,34,15
India,Uttar_Pradesh,Lucknow,"Lalbagh, Lucknow - CPCB",01-05-2024 00:00:00,26.8458805,80.9365541,NH3,18,22,19
India,Uttar_Pradesh,Lucknow,"Lalbagh, Lucknow - CPCB",01-05-2024 00:00:00,26.8458805,80.9365541,CO,14,104,87
India,Uttar_Pradesh,Meerut,"Jai Bhim Nagar, Meerut - UPPCB",01-05-2024 00:00:00,28.9535882,77.7622941,NO2,9,71,49
India,Uttar_Pradesh,Meerut,"Pallavpuram Phase 2, Meerut - UPPCB",01-05-2024 00:00:00,29.063510,77.709723,PM2.5,34,113,59
India,Uttar_Pradesh,Meerut,"Pallavpuram Phase 2, Meerut - UPPCB",01-05-2024 00:00:00,29.063510,77.709723,NO2,18,78,37
India,Uttar_Pradesh,Moradabad,"Buddhi Vihar, Moradabad - UPPCB",01-05-2024 00:00:00,28.83526,78.74460,PM2.5,33,95,54
India,Uttar_Pradesh,Moradabad,"Buddhi Vihar, Moradabad - UPPCB",01-05-2024 00:00:00,28.83526,78.74460,OZONE,20,45,35
India,Uttar_Pradesh,Moradabad,"Employment Office, Moradabad - UPPCB",01-05-2024 00:00:00,28.88528,78.73880,PM10,53,155,105
India,Uttar_Pradesh,Moradabad,"Kashiram Nagar, Moradabad - UPPCB",01-05-2024 00:00:00,28.849399,78.742362,PM2.5,34,98,56
India,Uttar_Pradesh,Moradabad,"Transport Nagar, Moradabad - UPPCB",01-05-2024 00:00:00,28.802625,78.753728,SO2,48,71,58
India,Uttar_Pradesh,Moradabad,"Transport Nagar, Moradabad - UPPCB",01-05-2024 00:00:00,28.802625,78.753728,OZONE,14,117,79
India,Uttar_Pradesh,Muzaffarnagar,"New Mandi, Muzaffarnagar - UPPCB",01-05-2024 00:00:00,29.4723508,77.7194031,CO,23,57,39
India,Uttar_Pradesh,Noida,"Sector - 62, Noida - IMD",01-05-2024 00:00:00,28.6245479,77.3577104,CO,20,34,28
India,Uttar_Pradesh,Noida,"Sector-1, Noida - UPPCB",01-05-2024 00:00:00,28.5898,77.3101,PM2.5,43,227,78
India,Uttar_Pradesh,Noida,"Sector-1, Noida - UPPCB",01-05-2024 00:00:00,28.5898,77.3101,NO2,37,146,69
India,Uttar_Pradesh,Noida,"Sector-1, Noida - UPPCB",01-05-2024 00:00:00,28.5898,77.3101,SO2,7,49,17
India,Uttar_Pradesh,Prayagraj,"Jhunsi, Prayagraj - UPPCB",01-05-2024 00:00:00,25.425602,81.917152,NO2,6,6,6
India,Uttar_Pradesh,Prayagraj,"Motilal Nehru NIT, Prayagraj - UPPCB",01-05-2024 00:00:00,25.494,81.863,SO2,28,60,38
India,Uttar_Pradesh,Prayagraj,"Motilal Nehru NIT, Prayagraj - UPPCB",01-05-2024 00:00:00,25.494,81.863,CO,9,21,15
India,Uttar_Pradesh,Prayagraj,"Nagar Nigam, Prayagraj - UPPCB",01-05-2024 00:00:00,25.44919916 ,81.82735986 ,PM10,36,417,109
India,Uttar_Pradesh,Prayagraj,"Nagar Nigam, Prayagraj - UPPCB",01-05-2024 00:00:00,25.44919916 ,81.82735986 ,NH3,2,6,4
India,Uttar_Pradesh,Prayagraj,"Nagar Nigam, Prayagraj - UPPCB",01-05-2024 00:00:00,25.44919916 ,81.82735986 ,SO2,2,43,24
India,Uttar_Pradesh,Varanasi,"Bhelupur, Varanasi - UPPCB",01-05-2024 00:00:00,25.301778,82.996789,PM2.5,4,17,9
India,Uttar_Pradesh,Varanasi,"Bhelupur, Varanasi - UPPCB",01-05-2024 00:00:00,25.301778,82.996789,OZONE,4,48,25
India,Uttar_Pradesh,Varanasi,"IESD Banaras Hindu University, Varanasi - UPPCB",01-05-2024 00:00:00,25.262326,82.995408,PM10,28,54,40
India,Uttar_Pradesh,Varanasi,"Maldahiya, Varanasi - UPPCB",01-05-2024 00:00:00,25.32393,82.99687,NH3,1,1,1
India,Uttar_Pradesh,Vrindavan,"Omex Eternity, Vrindavan - UPPCB",01-05-2024 00:00:00,27.5714090,77.6557570,PM2.5,21,54,37
India,Uttar_Pradesh,Vrindavan,"Omex Eternity, Vrindavan - UPPCB",01-05-2024 00:00:00,27.5714090,77.6557570,NO2,2,3,3
India,Uttarakhand,Dehradun,"Doon University, Dehradun - UKPCB",01-05-2024 00:00:00,30.269444,78.044167,CO,12,23,18
India,Uttarakhand,Rishikesh,"Shivaji Nagar, Rishikesh - UKPCB",01-05-2024 00:00:00,30.075911,78.2859547,NO2,7,44,17
India,West_Bengal,Asansol,"Asansol Court Area, Asansol - WBPCB",01-05-2024 00:00:00,23.685297,86.945968,NH3,8,15,11
India,West_Bengal,Barrackpore,"SVSPA Campus, Barrackpore - WBPCB",01-05-2024 00:00:00,22.7605581,88.3617589,OZONE,2,113,49
India,West_Bengal,Durgapur,"PCBL Residential Complex, Durgapur - WBPCB",01-05-2024 00:00:00,23.5087640,87.3544400,PM2.5,77,414,225
India,West_Bengal,Durgapur,"PCBL Residential Complex, Durgapur - WBPCB",01-05-2024 00:00:00,23.5087640,87.3544400,PM10,110,483,224
India,West_Bengal,Durgapur,"PCBL Residential Complex, Durgapur - WBPCB",01-05-2024 00:00:00,23.5087640,87.3544400,NO2,15,211,74
India,West_Bengal,Durgapur,"Sidhu Kanhu Indoor Stadium, Durgapur - WBPCB",01-05-2024 00:00:00,23.5404352,87.2892225,NH3,5,12,6
India,West_Bengal,Haldia,"Priyambada Housing Estate, Haldia - WBPCB",01-05-2024 00:00:00,22.06047,88.109737,NO2,13,27,16
India,West_Bengal,Haldia,"Priyambada Housing Estate, Haldia - WBPCB",01-05-2024 00:00:00,22.06047,88.109737,CO,16,32,22
India,West_Bengal,Howrah,"Belur Math, Howrah - WBPCB",01-05-2024 00:00:00,22.629801,88.352017,PM10,NA,NA,NA
India,West_Bengal,Howrah,"Belur Math, Howrah - WBPCB",01-05-2024 00:00:00,22.629801,88.352017,SO2,4,21,11
India,West_Bengal,Howrah,"Ghusuri, Howrah - WBPCB",01-05-2024 00:00:00,22.611968,88.347422,OZONE,12,24,17
India,West_Bengal,Howrah,"Padmapukur, Howrah - WBPCB",01-05-2024 00:00:00,22.5687319,88.2797276,PM10,59,124,90
India,West_Bengal,Kolkata,"Ballygunge, Kolkata - WBPCB",01-05-2024 00:00:00,22.5367507,88.3638022,PM2.5,39,162,82
India,West_Bengal,Kolkata,"Ballygunge, Kolkata - WBPCB",01-05-2024 00:00:00,22.5367507,88.3638022,PM10,49,122,89
India,West_Bengal,Kolkata,"Ballygunge, Kolkata - WBPCB",01-05-2024 00:00:00,22.5367507,88.3638022,NH3,6,8,7
India,West_Bengal,Kolkata,"Ballygunge, Kolkata - WBPCB",01-05-2024 00:00:00,22.5367507,88.3638022,SO2,12,60,25
India,West_Bengal,Kolkata,"Ballygunge, Kolkata - WBPCB",01-05-2024 00:00:00,22.5367507,88.3638022,OZONE,54,172,104
India,West_Bengal,Kolkata,"Bidhannagar, Kolkata - WBPCB",01-05-2024 00:00:00,22.58157048,88.41002457,NO2,20,32,24
India,West_Bengal,Kolkata,"Bidhannagar, Kolkata - WBPCB",01-05-2024 00:00:00,22.58157048,88.41002457,CO,29,40,34
India,West_Bengal,Kolkata,"Fort William, Kolkata - WBPCB",01-05-2024 00:00:00,22.556640,88.342674,PM2.5,55,99,74
India,West_Bengal,Kolkata,"Fort William, Kolkata - WBPCB",01-05-2024 00:00:00,22.556640,88.342674,NH3,2,2,2
India,West_Bengal,Kolkata,"Jadavpur, Kolkata - WBPCB",01-05-2024 00:00:00,22.49929,88.36917,PM2.5,24,93,56
India,West_Bengal,Kolkata,"Jadavpur, Kolkata - WBPCB",01-05-2024 00:00:00,22.49929,88.36917,PM10,50,108,76
India,West_Bengal,Kolkata,"Jadavpur, Kolkata - WBPCB",01-05-2024 00:00:00,22.49929,88.36917,SO2,8,36,17
India,West_Bengal,Kolkata,"Rabindra Bharati University, Kolkata - WBPCB",01-05-2024 00:00:00,22.627847,88.380669,NH3,17,18,18
India,West_Bengal,Kolkata,"Rabindra Bharati University, Kolkata - WBPCB",01-05-2024 00:00:00,22.627847,88.380669,OZONE,15,138,56
India,West_Bengal,Kolkata,"Rabindra Sarobar, Kolkata - WBPCB",01-05-2024 00:00:00,22.51106,88.35142,PM10,59,105,81
India,West_Bengal,Kolkata,"Rabindra Sarobar, Kolkata - WBPCB",01-05-2024 00:00:00,22.51106,88.35142,OZONE,26,115,60
India,West_Bengal,Kolkata,"Victoria, Kolkata - WBPCB",01-05-2024 00:00:00,22.5448082,88.3403691,NH3,3,5,4
India,West_Bengal,Kolkata,"Victoria, Kolkata - WBPCB",01-05-2024 00:00:00,22.5448082,88.3403691,CO,38,62,52
India,West_Bengal,Siliguri,"Ward-32 Bapupara, Siliguri - WBPCB",01-05-2024 00:00:00,26.6879226,88.4152495,NO2,25,90,46
India,West_Bengal,Siliguri,"Ward-32 Bapupara, Siliguri - WBPCB",01-05-2024 00:00:00,26.6879226,88.4152495,OZONE,24,61,43
India,Andhra_Pradesh,Amaravati,"Secretariat, Amaravati - APPCB",01-05-2024 00:00:00,16.5150833,80.5181667,PM2.5,4,28,17
India,Andhra_Pradesh,Anantapur,"Gulzarpet, Anantapur - APPCB",01-05-2024 00:00:00,14.675886,77.593027,CO,35,88,53
India,Andhra_Pradesh,Anantapur,"Gulzarpet, Anantapur - APPCB",01-05-2024 00:00:00,14.675886,77.593027,OZONE,2,63,37
India,Andhra_Pradesh,Kadapa,"Yerramukkapalli, Kadapa - APPCB",01-05-2024 00:00:00,14.465052,78.824187,SO2,1,3,2
India,Andhra_Pradesh,Rajamahendravaram,"Anand Kala Kshetram, Rajamahendravaram - APPCB",01-05-2024 00:00:00,16.9872867,81.7363176,PM10,16,38,25
India,Andhra_Pradesh,Tirupati,"Tirumala, Tirupati - APPCB",01-05-2024 00:00:00,13.67,79.35,SO2,4,22,11
India,Andhra_Pradesh,Tirupati,"Tirumala, Tirupati - APPCB",01-05-2024 00:00:00,13.67,79.35,OZONE,12,60,42
India,Andhra_Pradesh,Tirupati,"Vaikuntapuram, Tirupati - APPCB",01-05-2024 00:00:00,13.615387,79.409230,PM10,13,136,53
India,Andhra_Pradesh,Vijayawada,"HB Colony, Vijayawada - APPCB",01-05-2024 00:00:00,16.536107,80.594233,PM10,NA,NA,NA
India,Andhra_Pradesh,Vijayawada,"HB Colony, Vijayawada - APPCB",01-05-2024 00:00:00,16.536107,80.594233,CO,38,38,38
India,Andhra_Pradesh,Vijayawada,"Kanuru, Vijayawada - APPCB",01-05-2024 00:00:00,16.486692,80.699436,PM2.5,NA,NA,NA
India,Andhra_Pradesh,Vijayawada,"Rajiv Nagar, Vijayawada - APPCB",01-05-2024 00:00:00,16.554731,80.649110,OZONE,3,22,14
India,Assam,Guwahati,"Pan Bazaar, Guwahati - PCBA",01-05-2024 00:00:00,26.187500,91.744194,SO2,37,60,45
India,Assam,Nagaon,"Christianpatty, Nagaon - PCBA",01-05-2024 00:00:00,26.349082,92.68449,NO2,1,8,5
India,Assam,Nagaon,"Christianpatty, Nagaon - PCBA",01-05-2024 00:00:00,26.349082,92.68449,OZONE,44,92,81
India,Assam,Nalbari,"Bata Chowk, Nalbari - PCBA",01-05-2024 00:00:00,26.446912,91.439057,CO,22,94,71
India,Assam,Nalbari,"Bata Chowk, Nalbari - PCBA",01-05-2024 00:00:00,26.446912,91.439057,OZONE,10,15,13
India,Assam,Silchar,"Tarapur, Silchar - PCBA",01-05-2024 00:00:00,24.82827,92.79525,CO,25,44,33
India,Assam,Sivasagar,"Girls College, Sivasagar - PCBA",01-05-2024 00:00:00,26.987634,94.636574,NO2,8,16,12
India,Assam,Sivasagar,"Girls College, Sivasagar - PCBA",01-05-2024 00:00:00,26.987634,94.636574,OZONE,1,55,9
India,Bihar,Araria,"Kharahiya Basti, Araria - BSPCB",01-05-2024 00:00:00,26.146529,87.454184,NO2,5,9,7
India,Bihar,Araria,"Kharahiya Basti, Araria - BSPCB",01-05-2024 00:00:00,26.146529,87.454184,OZONE,9,10,9
India,Bihar,Arrah,"New DM Office, Arrah - BSPCB",01-05-2024 00:00:00,25.5626095,84.663264,PM2.5,50,160,89
India,Bihar,Arrah,"New DM Office, Arrah - BSPCB",01-05-2024 00:00:00,25.5626095,84.663264,CO,4,16,9
India,Bihar,Aurangabad,"Gurdeo Nagar, Aurangabad - BSPCB",01-05-2024 00:00:00,24.75746,84.366208,PM10,NA,NA,NA
India,Bihar,Aurangabad,"Gurdeo Nagar, Aurangabad - BSPCB",01-05-2024 00:00:00,24.75746,84.366208,NH3,4,58,15
India,Bihar,Aurangabad,"Gurdeo Nagar, Aurangabad - BSPCB",01-05-2024 00:00:00,24.75746,84.366208,CO,1,32,15
India,Bihar,Bettiah,"Kamalnath Nagar, Bettiah - BSPCB",01-05-2024 00:00:00,26.80365,84.51954,NH3,3,5,4
India,Bihar,Bhagalpur,"DM Office_Kachari Chowk, Bhagalpur - BSPCB",01-05-2024 00:00:00,25.251013,86.989001,NH3,3,5,4
India,Bihar,Bhagalpur,"Mayaganj, Bhagalpur - BSPCB",01-05-2024 00:00:00,25.265194,87.012947,PM10,NA,NA,NA
India,Bihar,Bhagalpur,"Mayaganj, Bhagalpur - BSPCB",01-05-2024 00:00:00,25.265194,87.012947,SO2,NA,NA,NA
India,Bihar,Bhagalpur,"Mayaganj, Bhagalpur - BSPCB",01-05-2024 00:00:00,25.265194,87.012947,CO,8,10,9
India,Bihar,Bihar Sharif,"D M Colony, Bihar Sharif - BSPCB",01-05-2024 00:00:00,25.204762,85.514960,PM10,62,116,86
India,Bihar,Bihar Sharif,"D M Colony, Bihar Sharif - BSPCB",01-05-2024 00:00:00,25.204762,85.514960,NH3,2,2,2
India,Bihar,Bihar Sharif,"D M Colony, Bihar Sharif - BSPCB",01-05-2024 00:00:00,25.204762,85.514960,OZONE,11,52,37
India,Bihar,Buxar,"Charitra Van, Buxar - BSPCB (Formerly known as Central Jail)",01-05-2024 00:00:00,25.567520,83.966379,PM10,NA,NA,NA
India,Bihar,Chhapra,"Darshan Nagar, Chhapra - BSPCB",01-05-2024 00:00:00,25.7808257,84.7446768,PM10,121,167,142
India,Bihar,Chhapra,"Darshan Nagar, Chhapra - BSPCB",01-05-2024 00:00:00,25.7808257,84.7446768,NO2,20,33,26
India,Bihar,Chhapra,"Darshan Nagar, Chhapra - BSPCB",01-05-2024 00:00:00,25.7808257,84.7446768,NH3,7,14,10
India,Bihar,Gaya,"Collectorate, Gaya - BSPCB",01-05-2024 00:00:00,24.7955,84.9994,CO,22,55,36
India,Bihar,Gaya,"Kareemganj, Gaya - BSPCB",01-05-2024 00:00:00,24.792403,84.992416,PM2.5,10,70,41
India,Bihar,Gaya,"SFTI Kusdihra, Gaya - BSPCB",01-05-2024 00:00:00,24.762518,84.982348,NO2,13,64,30
India,Bihar,Gaya,"SFTI Kusdihra, Gaya - BSPCB",01-05-2024 00:00:00,24.762518,84.982348,SO2,10,13,11
India,Bihar,Gaya,"SFTI Kusdihra, Gaya - BSPCB",01-05-2024 00:00:00,24.762518,84.982348,CO,14,38,28
India,Bihar,Hajipur,"Industrial Area, Hajipur - BSPCB",01-05-2024 00:00:00,25.697189,85.245900,PM2.5,66,135,99
India,Bihar,Katihar,"Mirchaibari, Katihar - BSPCB",01-05-2024 00:00:00,25.560083,87.553265,NH3,1,14,8
India,Bihar,Katihar,"Mirchaibari, Katihar - BSPCB",01-05-2024 00:00:00,25.560083,87.553265,OZONE,12,24,15
India,Bihar,Kishanganj,"SDM Office_Khagra, Kishanganj - BSPCB",01-05-2024 00:00:00,26.0881305,87.93840336,NH3,9,10,9
India,Bihar,Kishanganj,"SDM Office_Khagra, Kishanganj - BSPCB",01-05-2024 00:00:00,26.0881305,87.93840336,SO2,1,5,2
India,Bihar,Manguraha,"Forest Rest House, Manguraha - BSPCB",01-05-2024 00:00:00,27.308328,84.531742,SO2,NA,NA,NA
India,Bihar,Motihari,"Gandak Colony, Motihari - BSPCB",01-05-2024 00:00:00,26.63086,84.90051,PM2.5,33,318,98
India,Bihar,Muzaffarpur,"Buddha Colony, Muzaffarpur - BSPCB",01-05-2024 00:00:00,26.11442,85.39813,OZONE,14,41,27
India,Bihar,Muzaffarpur,"MIT-Daudpur Kothi, Muzaffarpur - BSPCB",01-05-2024 00:00:00,26.1403345,85.3650192,SO2,4,4,4
India,Bihar,Patna,"Govt. High School Shikarpur, Patna - BSPCB",01-05-2024 00:00:00,25.592539,85.227158,PM2.5,198,343,286
India,Bihar,Patna,"IGSC Planetarium Complex, Patna - BSPCB",01-05-2024 00:00:00,25.610369,85.132568,CO,12,12,12
India,Bihar,Patna,"Samanpura, Patna - BSPCB",01-05-2024 00:00:00,25.596727,85.085624,PM10,263,444,352
India,Bihar,Purnia,"Mariam Nagar, Purnia - BSPCB",01-05-2024 00:00:00,25.366336,87.117468,PM2.5,NA,NA,NA
India,Bihar,Rajgir,"Dangi Tola, Rajgir - BSPCB",01-05-2024 00:00:00,25.03280,85.41948,PM2.5,NA,NA,NA
India,Bihar,Rajgir,"Dangi Tola, Rajgir - BSPCB",01-05-2024 00:00:00,25.03280,85.41948,PM10,NA,NA,NA
India,Bihar,Rajgir,"Dangi Tola, Rajgir - BSPCB",01-05-2024 00:00:00,25.03280,85.41948,NO2,18,26,20
India,Bihar,Samastipur,"DM Office_Kasipur, Samastipur - BSPCB",01-05-2024 00:00:00,25.859655,85.77944,PM2.5,68,300,121
India,Bihar,Samastipur,"DM Office_Kasipur, Samastipur - BSPCB",01-05-2024 00:00:00,25.859655,85.77944,NH3,1,4,3
India,Bihar,Samastipur,"DM Office_Kasipur, Samastipur - BSPCB",01-05-2024 00:00:00,25.859655,85.77944,SO2,9,78,38
India,Bihar,Sasaram,"Dada Peer, Sasaram - BSPCB",01-05-2024 00:00:00,24.952822,84.002396,PM10,49,139,96
India,Bihar,Sasaram,"Dada Peer, Sasaram - BSPCB",01-05-2024 00:00:00,24.952822,84.002396,NO2,2,111,42
India,Bihar,Siwan,"Chitragupta Nagar, Siwan - BSPCB",01-05-2024 00:00:00,26.2271665,84.3570427,PM2.5,NA,NA,NA
India,Bihar,Siwan,"Chitragupta Nagar, Siwan - BSPCB",01-05-2024 00:00:00,26.2271665,84.3570427,OZONE,31,142,73
India,Chandigarh,Chandigarh,"Sector 22, Chandigarh - CPCC",01-05-2024 00:00:00,30.735567,76.775714,PM10,46,146,99
India,Chandigarh,Chandigarh,"Sector-25, Chandigarh - CPCC",01-05-2024 00:00:00,30.751462,76.762879,NH3,8,26,12
India,Chandigarh,Chandigarh,"Sector-53, Chandigarh - CPCC",01-05-2024 00:00:00,30.719859,76.738637,PM10,53,145,101
India,Chandigarh,Chandigarh,"Sector-53, Chandigarh - CPCC",01-05-2024 00:00:00,30.719859,76.738637,NO2,6,71,22
India,Chandigarh,Chandigarh,"Sector-53, Chandigarh - CPCC",01-05-2024 00:00:00,30.719859,76.738637,CO,32,72,48
India,Chhattisgarh,Bhilai,"Civic Center, Bhilai - Bhilai Steel Plant",01-05-2024 00:00:00,21.185571,81.343175,OZONE,12,78,42
India,Chhattisgarh,Bilaspur,"Mangala, Bilaspur - NTPC",01-05-2024 00:00:00,22.08815,82.13737,CO,30,45,42
India,Chhattisgarh,Kunjemura,"OP Jindal School, Kunjemura - CECB",01-05-2024 00:00:00,22.126650,83.483212,CO,25,101,40
India,Chhattisgarh,Milupara,"Govt. Higher Secondary School, Milupara - CECB",01-05-2024 00:00:00,22.1910172,83.5197009,SO2,NA,NA,NA
India,Chhattisgarh,Milupara,"Govt. Higher Secondary School, Milupara - CECB",01-05-2024 00:00:00,22.1910172,83.5197009,OZONE,19,20,20
India,Chhattisgarh,Raipur,"Bhatagaon New ISBT, Raipur - CECB",01-05-2024 00:00:00,21.219665,81.630094,PM2.5,20,80,45
India,Chhattisgarh,Raipur,"Krishak Nagar, Raipur - CECB",01-05-2024 00:00:00,21.237755,81.705301,CO,24,49,35
India,Chhattisgarh,Raipur,"Siltara Phase-II, Raipur - CECB",01-05-2024 00:00:00,21.371751,81.664929,NH3,3,3,3
India,Delhi,Delhi,"Anand Vihar, Delhi - DPCC",01-05-2024 00:00:00,28.647622,77.3158090,PM10,137,355,210
India,Delhi,Delhi,"Anand Vihar, Delhi - DPCC",01-05-2024 00:00:00,28.647622,77.3158090,NO2,37,146,84
India,Delhi,Delhi,"Ashok Vihar, Delhi - DPCC",01-05-2024 00:00:00,28.695381,77.181665,PM2.5,52,244,101
India,Delhi,Delhi,"Ashok Vihar, Delhi - DPCC",01-05-2024 00:00:00,28.695381,77.181665,SO2,20,72,40
India,Delhi,Delhi,"Aya Nagar, Delhi - IMD",01-05-2024 00:00:00,28.4706914,77.1099364,PM10,119,230,170
India,Delhi,Delhi,"Aya Nagar, Delhi - IMD",01-05-2024 00:00:00,28.4706914,77.1099364,CO,26,68,44
India,Delhi,Delhi,"Aya Nagar, Delhi - IMD",01-05-2024 00:00:00,28.4706914,77.1099364,OZONE,9,57,35
India,Delhi,Delhi,"CRRI Mathura Road, Delhi - IMD",01-05-2024 00:00:00,28.5512005,77.2735737,OZONE,2,62,22
India,Delhi,Delhi,"Chandni Chowk, Delhi - IITM",01-05-2024 00:00:00,28.656756,77.227234,PM10,NA,NA,NA
India,Delhi,Delhi,"DTU, Delhi - CPCB",01-05-2024 00:00:00,28.7500499,77.1112615,CO,18,56,35
India,Delhi,Delhi,"Dr. Karni Singh Shooting Range, Delhi - DPCC",01-05-2024 00:00:00,28.498571,77.264840,OZONE,1,207,81
India,Delhi,Delhi,"Dwarka-Sector 8, Delhi - DPCC ",01-05-2024 00:00:00,28.5710274,77.0719006,PM10,128,476,227
India,Delhi,Delhi,"Jahangirpuri, Delhi - DPCC",01-05-2024 00:00:00,28.732820,77.170633,NH3,5,42,14
India,Delhi,Delhi,"Lodhi Road, Delhi - IITM",01-05-2024 00:00:00,28.588333,77.221667,OZONE,16,20,18
India,Delhi,Delhi,"Lodhi Road, Delhi - IMD",01-05-2024 00:00:00,28.5918245,77.2273074,OZONE,6,62,32
India,Delhi,Delhi,"Major Dhyan Chand National Stadium, Delhi - DPCC",01-05-2024 00:00:00,28.611281,77.237738,PM2.5,NA,NA,NA
India,Delhi,Delhi,"Major Dhyan Chand National Stadium, Delhi - DPCC",01-05-2024 00:00:00,28.611281,77.237738,PM10,NA,NA,NA
India,Delhi,Delhi,"Mandir Marg, Delhi - DPCC",01-05-2024 00:00:00,28.636429,77.201067,PM2.5,28,184,79
India,Delhi,Delhi,"Mundka, Delhi - DPCC",01-05-2024 00:00:00,28.684678,77.076574,NO2,14,104,37
India,Delhi,Delhi,"Mundka, Delhi - DPCC",01-05-2024 00:00:00,28.684678,77.076574,OZONE,28,154,93
India,Delhi,Delhi,"Narela, Delhi - DPCC",01-05-2024 00:00:00,28.822836,77.101981,PM2.5,48,327,143
India,Delhi,Delhi,"Narela, Delhi - DPCC",01-05-2024 00:00:00,28.822836,77.101981,NO2,6,98,31
India,Delhi,Delhi,"Narela, Delhi - DPCC",01-05-2024 00:00:00,28.822836,77.101981,CO,26,61,47
India,Delhi,Delhi,"Nehru Nagar, Delhi - DPCC",01-05-2024 00:00:00,28.567890,77.250515,PM2.5,42,297,106
India,Delhi,Delhi,"Nehru Nagar, Delhi - DPCC",01-05-2024 00:00:00,28.567890,77.250515,CO,52,68,61
India,Delhi,Delhi,"North Campus, DU, Delhi - IMD",01-05-2024 00:00:00,28.6573814,77.1585447,PM2.5,58,299,132
India,Delhi,Delhi,"North Campus, DU, Delhi - IMD",01-05-2024 00:00:00,28.6573814,77.1585447,NO2,10,57,24
India,Delhi,Delhi,"Okhla Phase-2, Delhi - DPCC",01-05-2024 00:00:00,28.530785,77.271255,NO2,34,143,73
India,Delhi,Delhi,"Okhla Phase-2, Delhi - DPCC",01-05-2024 00:00:00,28.530785,77.271255,OZONE,10,118,46
India,Delhi,Delhi,"Punjabi Bagh, Delhi - DPCC",01-05-2024 00:00:00,28.674045,77.131023,NH3,3,5,4
India,Delhi,Delhi,"Pusa, Delhi - DPCC",01-05-2024 00:00:00,28.639652,77.146275,NH3,3,9,7
India,Delhi,Delhi,"Pusa, Delhi - DPCC",01-05-2024 00:00:00,28.639652,77.146275,SO2,7,65,24
India,Delhi,Delhi,"Pusa, Delhi - IMD",01-05-2024 00:00:00,28.636110,77.173332,PM10,145,264,194
India,Delhi,Delhi,"Pusa, Delhi - IMD",01-05-2024 00:00:00,28.636110,77.173332,NO2,4,25,9
India,Delhi,Delhi,"Pusa, Delhi - IMD",01-05-2024 00:00:00,28.636110,77.173332,CO,31,74,44
India,Delhi,Delhi,"R K Puram, Delhi - DPCC",01-05-2024 00:00:00,28.563262,77.186937,SO2,18,62,34
India,Delhi,Delhi,"Rohini, Delhi - DPCC",01-05-2024 00:00:00,28.732528,77.119920,NH3,7,14,10
India,Delhi,Delhi,"Rohini, Delhi - DPCC",01-05-2024 00:00:00,28.732528,77.119920,CO,16,119,57
India,Delhi,Delhi,"Shadipur, Delhi - CPCB",01-05-2024 00:00:00,28.6514781,77.1473105,PM2.5,96,445,284
India,Delhi,Delhi,"Shadipur, Delhi - CPCB",01-05-2024 00:00:00,28.6514781,77.1473105,PM10,106,486,222
India,Delhi,Delhi,"Shadipur, Delhi - CPCB",01-05-2024 00:00:00,28.6514781,77.1473105,OZONE,12,152,152
India,Delhi,Delhi,"Sonia Vihar, Delhi - DPCC",01-05-2024 00:00:00,28.710508,77.249485,SO2,8,53,21
India,Delhi,Delhi,"Wazirpur, Delhi - DPCC",01-05-2024 00:00:00,28.699793,77.165453,PM2.5,51,305,131
India,Delhi,Delhi,"Wazirpur, Delhi - DPCC",01-05-2024 00:00:00,28.699793,77.165453,NO2,6,38,15
India,Delhi,Delhi,"Wazirpur, Delhi - DPCC",01-05-2024 00:00:00,28.699793,77.165453,NH3,11,14,13
India,Gujarat,Ahmedabad,"Chandkheda, Ahmedabad - IITM",01-05-2024 00:00:00,23.107969,72.574648,OZONE,12,51,27
India,Gujarat,Ahmedabad,"Gyaspur, Ahmedabad - IITM",01-05-2024 00:00:00,22.977134,72.553024,CO,16,52,39
India,Gujarat,Ahmedabad,"Maninagar, Ahmedabad - GPCB",01-05-2024 00:00:00,23.002657,72.591912,PM10,83,133,103
India,Gujarat,Ahmedabad,"Maninagar, Ahmedabad - GPCB",01-05-2024 00:00:00,23.002657,72.591912,CO,57,104,91
India,Gujarat,Ahmedabad,"Rakhial, Ahmedabad - IITM",01-05-2024 00:00:00,23.016834,72.625775,PM2.5,105,212,139
India,Gujarat,Ahmedabad,"Rakhial, Ahmedabad - IITM",01-05-2024 00:00:00,23.016834,72.625775,SO2,2,45,9
India,Gujarat,Ahmedabad,"SAC ISRO Satellite, Ahmedabad - IITM",01-05-2024 00:00:00,23.023389,72.515201,OZONE,4,25,13
India,Gujarat,Gandhinagar,"Sector-10, Gandhinagar - GPCB",01-05-2024 00:00:00,23.221714,72.654328,PM2.5,31,58,44
India,Gujarat,Surat,"Science Center, Surat - SMC",01-05-2024 00:00:00,21.170046,72.795405,PM2.5,1,29,9
India,Haryana,Bahadurgarh,"Arya Nagar, Bahadurgarh - HSPCB",01-05-2024 00:00:00,28.6701,76.9254,CO,90,102,97
India,Haryana,Ballabgarh,"Nathu Colony, Ballabgarh - HSPCB",01-05-2024 00:00:00,28.3419248,77.319699,PM2.5,98,316,167
India,Haryana,Ballabgarh,"Nathu Colony, Ballabgarh - HSPCB",01-05-2024 00:00:00,28.3419248,77.319699,NO2,11,14,12
India,Haryana,Ballabgarh,"Nathu Colony, Ballabgarh - HSPCB",01-05-2024 00:00:00,28.3419248,77.319699,SO2,2,59,16
India,Haryana,Ballabgarh,"Nathu Colony, Ballabgarh - HSPCB",01-05-2024 00:00:00,28.3419248,77.319699,OZONE,2,31,12
India,Haryana,Bhiwani,"H.B. Colony, Bhiwani - HSPCB",01-05-2024 00:00:00,28.806223,76.141105,PM2.5,67,213,92
India,Haryana,Bhiwani,"H.B. Colony, Bhiwani - HSPCB",01-05-2024 00:00:00,28.806223,76.141105,NO2,8,12,9
India,Haryana,Bhiwani,"H.B. Colony, Bhiwani - HSPCB",01-05-2024 00:00:00,28.806223,76.141105,SO2,2,91,13
India,Haryana,Charkhi Dadri,"Mini Secretariat, Charkhi Dadri - HSPCB",01-05-2024 00:00:00,28.593883,76.270653,PM2.5,54,273,161
India,Haryana,Charkhi Dadri,"Mini Secretariat, Charkhi Dadri - HSPCB",01-05-2024 00:00:00,28.593883,76.270653,NH3,6,8,7
India,Haryana,Charkhi Dadri,"Mini Secretariat, Charkhi Dadri - HSPCB",01-05-2024 00:00:00,28.593883,76.270653,SO2,8,60,27
India,Haryana,Charkhi Dadri,"Mini Secretariat, Charkhi Dadri - HSPCB",01-05-2024 00:00:00,28.593883,76.270653,CO,7,100,56
India,Haryana,Charkhi Dadri,"Mini Secretariat, Charkhi Dadri - HSPCB",01-05-2024 00:00:00,28.593883,76.270653,OZONE,13,17,15
India,Haryana,Dharuhera,"Municipal Corporation Office, Dharuhera -  HSPCB",01-05-2024 00:00:00,28.206800,76.799700,PM2.5,NA,NA,NA
India,Haryana,Dharuhera,"Municipal Corporation Office, Dharuhera -  HSPCB",01-05-2024 00:00:00,28.206800,76.799700,NO2,NA,NA,NA
India,Haryana,Faridabad,"New Industrial Town, Faridabad - HSPCB",01-05-2024 00:00:00,28.39072,77.30059,NH3,3,4,3
India,Haryana,Faridabad,"New Industrial Town, Faridabad - HSPCB",01-05-2024 00:00:00,28.39072,77.30059,CO,8,32,17
India,Haryana,Faridabad,"Sector 30, Faridabad - HSPCB",01-05-2024 00:00:00,28.4417,77.3217,NO2,NA,NA,NA
India,Haryana,Fatehabad,"Huda Sector, Fatehabad - HSPCB",01-05-2024 00:00:00,29.503664,75.467934,NH3,10,10,10
India,Haryana,Fatehabad,"Huda Sector, Fatehabad - HSPCB",01-05-2024 00:00:00,29.503664,75.467934,CO,6,20,10
India,Haryana,Fatehabad,"Huda Sector, Fatehabad - HSPCB",01-05-2024 00:00:00,29.503664,75.467934,OZONE,28,67,48
India,Haryana,Gurugram,"Teri Gram, Gurugram - HSPCB",01-05-2024 00:00:00,28.4275,77.1465,NH3,9,19,14
India,Haryana,Gurugram,"Vikas Sadan, Gurugram - HSPCB",01-05-2024 00:00:00,28.4501238,77.0263051,SO2,23,45,31
India,Haryana,Kaithal,"Rishi Nagar, Kaithal - HSPCB",01-05-2024 00:00:00,29.8006,76.4155,NO2,24,26,25
India,Haryana,Kurukshetra,"Sector-7, Kurukshetra - HSPCB",01-05-2024 00:00:00,29.966942,76.875879,NO2,10,10,10
India,Haryana,Kurukshetra,"Sector-7, Kurukshetra - HSPCB",01-05-2024 00:00:00,29.966942,76.875879,OZONE,20,78,56
India,Haryana,Mandikhera,"General Hospital, Mandikhera - HSPCB",01-05-2024 00:00:00,27.9002,76.9938,NO2,19,24,21
India,Haryana,Mandikhera,"General Hospital, Mandikhera - HSPCB",01-05-2024 00:00:00,27.9002,76.9938,NH3,17,20,18
India,Haryana,Mandikhera,"General Hospital, Mandikhera - HSPCB",01-05-2024 00:00:00,27.9002,76.9938,SO2,30,38,33
India,Haryana,Manesar,"Sector-2 IMT, Manesar - HSPCB",01-05-2024 00:00:00,28.360699,76.936090,CO,16,58,30
India,Haryana,Narnaul,"Shastri Nagar, Narnaul - HSPCB",01-05-2024 00:00:00,28.060249,76.113115,PM10,60,136,99
India,Haryana,Narnaul,"Shastri Nagar, Narnaul - HSPCB",01-05-2024 00:00:00,28.060249,76.113115,CO,10,29,16
India,Haryana,Panchkula,"Sector-6, Panchkula - HSPCB ",01-05-2024 00:00:00,30.7057778,76.8531805555555,PM2.5,47,251,143
India,Haryana,Panchkula,"Sector-6, Panchkula - HSPCB ",01-05-2024 00:00:00,30.7057778,76.8531805555555,CO,4,19,8
India,Haryana,Panchkula,"Sector-6, Panchkula - HSPCB ",01-05-2024 00:00:00,30.7057778,76.8531805555555,OZONE,30,51,43
India,Haryana,Panipat,"Sector-18, Panipat - HSPCB",01-05-2024 00:00:00,29.497973,76.993331,CO,24,26,25
India,Haryana,Rohtak,"MD University, Rohtak - HSPCB",01-05-2024 00:00:00,28.52123,76.37138,PM2.5,4,360,97
India,Haryana,Sonipat,"Murthal, Sonipat - HSPCB",01-05-2024 00:00:00,29.027200,77.062100,NO2,37,44,40
India,Haryana,Yamuna Nagar,"Gobind Pura, Yamuna Nagar - HSPCB",01-05-2024 00:00:00,30.1480566,77.2893471,NO2,11,28,18
India,Jharkhand,Dhanbad,"Sardar Patel Nagar, Dhanbad - JSPCB",01-05-2024 00:00:00,23.80569,86.44268,PM10,NA,NA,NA
India,Jharkhand,Dhanbad,"Sardar Patel Nagar, Dhanbad - JSPCB",01-05-2024 00:00:00,23.80569,86.44268,NO2,NA,NA,NA
India,Karnataka,Belgaum,"Ramteerth Nagar, Belgaum - KSPCB",01-05-2024 00:00:00,15.888653,74.541751,SO2,8,9,8
India,Karnataka,Bengaluru,"BTM Layout, Bengaluru - CPCB",01-05-2024 00:00:00,12.9135218,77.5950804,PM2.5,32,35,34
India,Karnataka,Bengaluru,"BTM Layout, Bengaluru - CPCB",01-05-2024 00:00:00,12.9135218,77.5950804,NH3,5,5,5
India,Karnataka,Bengaluru,"Bapuji Nagar, Bengaluru - KSPCB",01-05-2024 00:00:00,12.951913,77.539784,CO,15,48,39
India,Karnataka,Bengaluru,"Bapuji Nagar, Bengaluru - KSPCB",01-05-2024 00:00:00,12.951913,77.539784,OZONE,26,34,28
India,Karnataka,Bengaluru,"Hebbal, Bengaluru - KSPCB",01-05-2024 00:00:00,13.029152,77.585901,OZONE,6,99,14
India,Karnataka,Bengaluru,"Hombegowda Nagar, Bengaluru - KSPCB",01-05-2024 00:00:00,12.938539,77.590100,NH3,1,1,1
India,Karnataka,Bengaluru,"Jayanagar 5th Block, Bengaluru - KSPCB",01-05-2024 00:00:00,12.920984,77.584908,CO,5,7,6
India,Karnataka,Bengaluru,"Kasturi Nagar, Bengaluru - KSPCB",01-05-2024 00:00:00,13.003872,77.664217,NH3,3,4,4
India,Karnataka,Bengaluru,"Kasturi Nagar, Bengaluru - KSPCB",01-05-2024 00:00:00,13.003872,77.664217,SO2,9,10,10
India,Karnataka,Bengaluru,"Kasturi Nagar, Bengaluru - KSPCB",01-05-2024 00:00:00,13.003872,77.664217,CO,20,25,23
India,Karnataka,Bengaluru,"Peenya, Bengaluru - CPCB",01-05-2024 00:00:00,13.0270199,77.494094,PM2.5,41,58,51
India,Karnataka,Bengaluru,"Peenya, Bengaluru - CPCB",01-05-2024 00:00:00,13.0270199,77.494094,NH3,3,5,4
