country,state,city,station,last_update,latitude,longitude,pollutant_id,pollutant_min,pollutant_max,pollutant_avg
India,Andhra_Pradesh,Amaravati,"Secretariat, Amaravati - APPCB",11-07-2024 20:00:00,16.5150833,80.5181667,CO,10,114,22
India,Andhra_Pradesh,Anantapur,"Gulzarpet, Anantapur - APPCB",11-07-2024 20:00:00,14.675886,77.593027,CO,17,45,35
India,Andhra_Pradesh,Kadapa,"Yerramukkapalli, Kadapa - APPCB",11-07-2024 20:00:00,14.465052,78.824187,CO,29,62,42
India,Andhra_Pradesh,Rajamahendravaram,"Anand Kala Kshetram, Rajamahendravaram - APPCB",11-07-2024 20:00:00,16.9872867,81.7363176,CO,17,79,50
India,Andhra_Pradesh,Tirupati,"Tirumala, Tirupati - APPCB",11-07-2024 20:00:00,13.67,79.35,OZONE,13,22,16
India,Andhra_Pradesh,Tirupati,"Vaikuntapuram, Tirupati - APPCB",11-07-2024 20:00:00,13.615387,79.409230,PM2.5,NA,NA,NA
India,Andhra_Pradesh,Vijayawada,"HB Colony, Vijayawada - APPCB",11-07-2024 20:00:00,16.536107,80.594233,PM2.5,37,63,48
India,Andhra_Pradesh,Vijayawada,"HB Colony, Vijayawada - APPCB",11-07-2024 20:00:00,16.536107,80.594233,NO2,6,36,14
India,Andhra_Pradesh,Vijayawada,"HB Colony, Vijayawada - APPCB",11-07-2024 20:00:00,16.536107,80.594233,SO2,6,92,13
India,Andhra_Pradesh,Vijayawada,"Kanuru, Vijayawada - APPCB",11-07-2024 20:00:00,16.486692,80.699436,CO,36,36,36
India,Andhra_Pradesh,Vijayawada,"Rajiv Gandhi Park, Vijayawada - APPCB",11-07-2024 20:00:00,16.509717,80.612222,NH3,2,6,5
India,Andhra_Pradesh,Vijayawada,"Rajiv Gandhi Park, Vijayawada - APPCB",11-07-2024 20:00:00,16.509717,80.612222,SO2,1,47,6
India,Andhra_Pradesh,Vijayawada,"Rajiv Gandhi Park, Vijayawada - APPCB",11-07-2024 20:00:00,16.509717,80.612222,CO,34,36,35
India,Andhra_Pradesh,Vijayawada,"Rajiv Nagar, Vijayawada - APPCB",11-07-2024 20:00:00,16.554731,80.649110,SO2,26,26,26
India,Andhra_Pradesh,Visakhapatnam,"GVM Corporation, Visakhapatnam - APPCB",11-07-2024 20:00:00,17.72,83.3,CO,1,61,24
India,Assam,Byrnihat,"Central Academy for SFS, Byrnihat - PCBA",11-07-2024 20:00:00,26.071318,91.87488,PM2.5,22,500,295
India,Assam,Byrnihat,"Central Academy for SFS, Byrnihat - PCBA",11-07-2024 20:00:00,26.071318,91.87488,NO2,12,23,16
India,Assam,Guwahati,"LGBI Airport, Guwahati - PCBA",11-07-2024 20:00:00,26.10887,91.589544,NO2,6,193,32
India,Assam,Guwahati,"LGBI Airport, Guwahati - PCBA",11-07-2024 20:00:00,26.10887,91.589544,NH3,1,8,3
India,Assam,Guwahati,"Railway Colony, Guwahati - PCBA",11-07-2024 20:00:00,26.181742,91.78063,PM10,NA,NA,NA
India,Assam,Guwahati,"Railway Colony, Guwahati - PCBA",11-07-2024 20:00:00,26.181742,91.78063,NO2,NA,NA,NA
India,Assam,Nagaon,"Christianpatty, Nagaon - PCBA",11-07-2024 20:00:00,26.349082,92.68449,PM10,15,32,18
India,Assam,Nagaon,"Christianpatty, Nagaon - PCBA",11-07-2024 20:00:00,26.349082,92.68449,NH3,1,4,1
India,Assam,Nalbari,"Bata Chowk, Nalbari - PCBA",11-07-2024 20:00:00,26.446912,91.439057,SO2,2,30,10
India,Assam,Silchar,"Tarapur, Silchar - PCBA",11-07-2024 20:00:00,24.82827,92.79525,PM2.5,34,35,34
India,Assam,Silchar,"Tarapur, Silchar - PCBA",11-07-2024 20:00:00,24.82827,92.79525,NH3,1,1,1
India,Assam,Sivasagar,"Girls College, Sivasagar - PCBA",11-07-2024 20:00:00,26.987634,94.636574,PM10,42,58,49
India,Assam,Sivasagar,"Girls College, Sivasagar - PCBA",11-07-2024 20:00:00,26.987634,94.636574,NO2,5,11,7
India,Assam,Sivasagar,"Girls College, Sivasagar - PCBA",11-07-2024 20:00:00,26.987634,94.636574,OZONE,1,5,2
India,Bihar,Araria,"Kharahiya Basti, Araria - BSPCB",11-07-2024 20:00:00,26.146529,87.454184,NO2,6,7,7
India,Bihar,Arrah,"New DM Office, Arrah - BSPCB",11-07-2024 20:00:00,25.5626095,84.663264,OZONE,2,80,24
India,Bihar,Aurangabad,"Gurdeo Nagar, Aurangabad - BSPCB",11-07-2024 20:00:00,24.75746,84.366208,SO2,7,19,15
India,Bihar,Bettiah,"Kamalnath Nagar, Bettiah - BSPCB",11-07-2024 20:00:00,26.80365,84.51954,PM2.5,NA,NA,NA
India,Bihar,Bettiah,"Kamalnath Nagar, Bettiah - BSPCB",11-07-2024 20:00:00,26.80365,84.51954,PM10,NA,NA,NA
India,Bihar,Bettiah,"Kamalnath Nagar, Bettiah - BSPCB",11-07-2024 20:00:00,26.80365,84.51954,NO2,20,31,28
India,Bihar,Bettiah,"Kamalnath Nagar, Bettiah - BSPCB",11-07-2024 20:00:00,26.80365,84.51954,NH3,17,25,21
India,Bihar,Bettiah,"Kamalnath Nagar, Bettiah - BSPCB",11-07-2024 20:00:00,26.80365,84.51954,SO2,11,21,16
India,Bihar,Bhagalpur,"DM Office_Kachari Chowk, Bhagalpur - BSPCB",11-07-2024 20:00:00,25.251013,86.989001,PM2.5,30,77,45
India,Bihar,Bhagalpur,"Mayaganj, Bhagalpur - BSPCB",11-07-2024 20:00:00,25.265194,87.012947,NH3,5,9,7
India,Bihar,Bhagalpur,"Mayaganj, Bhagalpur - BSPCB",11-07-2024 20:00:00,25.265194,87.012947,CO,18,28,25
India,Bihar,Buxar,"Charitra Van, Buxar - BSPCB (Formerly known as Central Jail)",11-07-2024 20:00:00,25.567520,83.966379,OZONE,12,46,36
India,Bihar,Chhapra,"Darshan Nagar, Chhapra - BSPCB",11-07-2024 20:00:00,25.7808257,84.7446768,PM10,NA,NA,NA
India,Bihar,Gaya,"Collectorate, Gaya - BSPCB",11-07-2024 20:00:00,24.7955,84.9994,OZONE,63,65,64
India,Bihar,Gaya,"Kareemganj, Gaya - BSPCB",11-07-2024 20:00:00,24.792403,84.992416,PM2.5,5,50,26
India,Bihar,Gaya,"Kareemganj, Gaya - BSPCB",11-07-2024 20:00:00,24.792403,84.992416,OZONE,5,44,26
India,Bihar,Hajipur,"Industrial Area, Hajipur - BSPCB",11-07-2024 20:00:00,25.697189,85.245900,PM2.5,56,188,87
India,Bihar,Hajipur,"Industrial Area, Hajipur - BSPCB",11-07-2024 20:00:00,25.697189,85.245900,PM10,53,129,79
India,Bihar,Hajipur,"Industrial Area, Hajipur - BSPCB",11-07-2024 20:00:00,25.697189,85.245900,NO2,5,25,10
India,Bihar,Hajipur,"Industrial Area, Hajipur - BSPCB",11-07-2024 20:00:00,25.697189,85.245900,OZONE,10,81,38
India,Bihar,Kishanganj,"SDM Office_Khagra, Kishanganj - BSPCB",11-07-2024 20:00:00,26.0881305,87.93840336,NH3,8,10,9
India,Bihar,Motihari,"Gandak Colony, Motihari - BSPCB",11-07-2024 20:00:00,26.63086,84.90051,SO2,5,9,7
India,Bihar,Motihari,"Gandak Colony, Motihari - BSPCB",11-07-2024 20:00:00,26.63086,84.90051,CO,1,27,8
India,Bihar,Munger,"Town Hall, Munger - BSPCB",11-07-2024 20:00:00,25.376776,86.471523,PM2.5,8,187,57
India,Bihar,Munger,"Town Hall, Munger - BSPCB",11-07-2024 20:00:00,25.376776,86.471523,SO2,6,36,17
India,Bihar,Muzaffarpur,"MIT-Daudpur Kothi, Muzaffarpur - BSPCB",11-07-2024 20:00:00,26.1403345,85.3650192,PM2.5,38,287,79
India,Bihar,Muzaffarpur,"Muzaffarpur Collectorate, Muzaffarpur - BSPCB",11-07-2024 20:00:00,26.1209,85.3647,PM2.5,14,72,37
India,Bihar,Muzaffarpur,"Muzaffarpur Collectorate, Muzaffarpur - BSPCB",11-07-2024 20:00:00,26.1209,85.3647,NO2,33,34,34
India,Bihar,Muzaffarpur,"Muzaffarpur Collectorate, Muzaffarpur - BSPCB",11-07-2024 20:00:00,26.1209,85.3647,SO2,5,17,8
India,Bihar,Patna,"DRM Office Danapur, Patna - BSPCB",11-07-2024 20:00:00,25.586562,85.043586,PM2.5,24,76,49
India,Bihar,Patna,"DRM Office Danapur, Patna - BSPCB",11-07-2024 20:00:00,25.586562,85.043586,NH3,2,3,3
India,Bihar,Patna,"Govt. High School Shikarpur, Patna - BSPCB",11-07-2024 20:00:00,25.592539,85.227158,SO2,7,11,9
India,Bihar,Patna,"IGSC Planetarium Complex, Patna - BSPCB",11-07-2024 20:00:00,25.610369,85.132568,PM2.5,35,103,75
India,Bihar,Patna,"IGSC Planetarium Complex, Patna - BSPCB",11-07-2024 20:00:00,25.610369,85.132568,SO2,5,8,6
India,Bihar,Patna,"Muradpur, Patna - BSPCB",11-07-2024 20:00:00,25.619651,85.147382,SO2,2,6,5
India,Bihar,Patna,"Muradpur, Patna - BSPCB",11-07-2024 20:00:00,25.619651,85.147382,OZONE,5,61,50
India,Bihar,Purnia,"Mariam Nagar, Purnia - BSPCB",11-07-2024 20:00:00,25.366336,87.117468,OZONE,16,58,35
India,Bihar,Rajgir,"Dangi Tola, Rajgir - BSPCB",11-07-2024 20:00:00,25.03280,85.41948,PM2.5,NA,NA,NA
India,Bihar,Rajgir,"Dangi Tola, Rajgir - BSPCB",11-07-2024 20:00:00,25.03280,85.41948,NH3,1,2,1
India,Bihar,Samastipur,"DM Office_Kasipur, Samastipur - BSPCB",11-07-2024 20:00:00,25.859655,85.77944,PM10,8,137,86
India,Bihar,Sasaram,"Dada Peer, Sasaram - BSPCB",11-07-2024 20:00:00,24.952822,84.002396,NH3,2,2,2
India,Chandigarh,Chandigarh,"Sector 22, Chandigarh - CPCC",11-07-2024 20:00:00,30.735567,76.775714,NH3,5,59,22
India,Chhattisgarh,Bhilai,"32Bungalows, Bhilai - CECB",11-07-2024 20:00:00,21.194815,81.314770,NH3,8,8,8
India,Chhattisgarh,Bhilai,"Civic Center, Bhilai - Bhilai Steel Plant",11-07-2024 20:00:00,21.185571,81.343175,PM2.5,13,31,19
India,Chhattisgarh,Bhilai,"Hathkhoj, Bhilai - CECB",11-07-2024 20:00:00,21.224231,81.408350,OZONE,14,36,30
India,Chhattisgarh,Korba,"Rampur, Korba - CECB",11-07-2024 20:00:00,22.368195,82.746431,PM10,NA,NA,NA
India,Chhattisgarh,Korba,"Rampur, Korba - CECB",11-07-2024 20:00:00,22.368195,82.746431,NO2,NA,NA,NA
India,Chhattisgarh,Korba,"Urja Nagar, Korba - CECB",11-07-2024 20:00:00,22.348441,82.549611,NO2,24,32,28
India,Chhattisgarh,Milupara,"Govt. Higher Secondary School, Milupara - CECB",11-07-2024 20:00:00,22.1910172,83.5197009,NO2,11,54,24
India,Chhattisgarh,Raipur,"Krishak Nagar, Raipur - CECB",11-07-2024 20:00:00,21.237755,81.705301,NO2,5,5,5
India,Chhattisgarh,Raipur,"Krishak Nagar, Raipur - CECB",11-07-2024 20:00:00,21.237755,81.705301,SO2,6,14,10
India,Chhattisgarh,Raipur,"Siltara Phase-II, Raipur - CECB",11-07-2024 20:00:00,21.371751,81.664929,SO2,7,17,11
India,Delhi,Delhi,"Alipur, Delhi - DPCC",11-07-2024 20:00:00,28.815329,77.153010,NH3,4,16,7
India,Delhi,Delhi,"Alipur, Delhi - DPCC",11-07-2024 20:00:00,28.815329,77.153010,OZONE,4,71,50
India,Delhi,Delhi,"Anand Vihar, Delhi - DPCC",11-07-2024 20:00:00,28.647622,77.3158090,NO2,2,69,16
India,Delhi,Delhi,"Ashok Vihar, Delhi - DPCC",11-07-2024 20:00:00,28.695381,77.181665,PM10,77,113,97
India,Delhi,Delhi,"CRRI Mathura Road, Delhi - IMD",11-07-2024 20:00:00,28.5512005,77.2735737,OZONE,4,99,64
India,Delhi,Delhi,"Chandni Chowk, Delhi - IITM",11-07-2024 20:00:00,28.656756,77.227234,CO,40,71,48
India,Delhi,Delhi,"DTU, Delhi - CPCB",11-07-2024 20:00:00,28.7500499,77.1112615,PM10,77,155,109
India,Delhi,Delhi,"DTU, Delhi - CPCB",11-07-2024 20:00:00,28.7500499,77.1112615,CO,36,80,40
India,Delhi,Delhi,"Dr. Karni Singh Shooting Range, Delhi - DPCC",11-07-2024 20:00:00,28.498571,77.264840,PM10,80,123,102
India,Delhi,Delhi,"Dr. Karni Singh Shooting Range, Delhi - DPCC",11-07-2024 20:00:00,28.498571,77.264840,NH3,2,4,3
India,Delhi,Delhi,"Dr. Karni Singh Shooting Range, Delhi - DPCC",11-07-2024 20:00:00,28.498571,77.264840,SO2,4,8,6
India,Delhi,Delhi,"Dwarka-Sector 8, Delhi - DPCC ",11-07-2024 20:00:00,28.5710274,77.0719006,CO,49,108,59
India,Delhi,Delhi,"ITO, Delhi - CPCB",11-07-2024 20:00:00,28.628624,77.241060,NO2,8,19,13
India,Delhi,Delhi,"ITO, Delhi - CPCB",11-07-2024 20:00:00,28.628624,77.241060,SO2,5,13,10
India,Delhi,Delhi,"Jawaharlal Nehru Stadium, Delhi - DPCC",11-07-2024 20:00:00,28.580280,77.233829,PM10,70,116,92
India,Delhi,Delhi,"Jawaharlal Nehru Stadium, Delhi - DPCC",11-07-2024 20:00:00,28.580280,77.233829,SO2,2,17,8
India,Delhi,Delhi,"Jawaharlal Nehru Stadium, Delhi - DPCC",11-07-2024 20:00:00,28.580280,77.233829,OZONE,7,74,50
India,Delhi,Delhi,"Lodhi Road, Delhi - IMD",11-07-2024 20:00:00,28.5918245,77.2273074,CO,26,49,29
India,Delhi,Delhi,"Major Dhyan Chand National Stadium, Delhi - DPCC",11-07-2024 20:00:00,28.611281,77.237738,NH3,6,17,11
India,Delhi,Delhi,"Major Dhyan Chand National Stadium, Delhi - DPCC",11-07-2024 20:00:00,28.611281,77.237738,OZONE,1,143,132
India,Delhi,Delhi,"Mandir Marg, Delhi - DPCC",11-07-2024 20:00:00,28.636429,77.201067,PM10,67,116,91
India,Delhi,Delhi,"Mandir Marg, Delhi - DPCC",11-07-2024 20:00:00,28.636429,77.201067,SO2,6,17,10
India,Delhi,Delhi,"Mandir Marg, Delhi - DPCC",11-07-2024 20:00:00,28.636429,77.201067,OZONE,5,52,43
India,Delhi,Delhi,"Mundka, Delhi - DPCC",11-07-2024 20:00:00,28.684678,77.076574,PM2.5,38,130,75
India,Delhi,Delhi,"Mundka, Delhi - DPCC",11-07-2024 20:00:00,28.684678,77.076574,NO2,31,151,60
India,Delhi,Delhi,"Mundka, Delhi - DPCC",11-07-2024 20:00:00,28.684678,77.076574,SO2,1,13,6
India,Delhi,Delhi,"Mundka, Delhi - DPCC",11-07-2024 20:00:00,28.684678,77.076574,CO,37,78,43
India,Delhi,Delhi,"Mundka, Delhi - DPCC",11-07-2024 20:00:00,28.684678,77.076574,OZONE,6,99,64
India,Delhi,Delhi,"NSIT Dwarka, Delhi - CPCB",11-07-2024 20:00:00,28.60909,77.0325413,PM2.5,62,147,111
India,Delhi,Delhi,"NSIT Dwarka, Delhi - CPCB",11-07-2024 20:00:00,28.60909,77.0325413,NH3,10,10,10
India,Delhi,Delhi,"Najafgarh, Delhi - DPCC",11-07-2024 20:00:00,28.570173,76.933762,NH3,6,11,8
India,Delhi,Delhi,"Narela, Delhi - DPCC",11-07-2024 20:00:00,28.822836,77.101981,OZONE,90,171,121
India,Delhi,Delhi,"Nehru Nagar, Delhi - DPCC",11-07-2024 20:00:00,28.567890,77.250515,PM10,81,149,113
India,Delhi,Delhi,"Okhla Phase-2, Delhi - DPCC",11-07-2024 20:00:00,28.530785,77.271255,PM10,91,179,122
India,Delhi,Delhi,"Patparganj, Delhi - DPCC",11-07-2024 20:00:00,28.623763,77.287209,SO2,10,18,15
India,Delhi,Delhi,"Patparganj, Delhi - DPCC",11-07-2024 20:00:00,28.623763,77.287209,OZONE,2,72,52
India,Delhi,Delhi,"Punjabi Bagh, Delhi - DPCC",11-07-2024 20:00:00,28.674045,77.131023,PM2.5,20,170,93
India,Delhi,Delhi,"Punjabi Bagh, Delhi - DPCC",11-07-2024 20:00:00,28.674045,77.131023,NH3,3,10,6
India,Delhi,Delhi,"Pusa, Delhi - IMD",11-07-2024 20:00:00,28.636110,77.173332,CO,62,86,64
India,Delhi,Delhi,"Shadipur, Delhi - CPCB",11-07-2024 20:00:00,28.6514781,77.1473105,NH3,6,7,6
India,Delhi,Delhi,"Sirifort, Delhi - CPCB",11-07-2024 20:00:00,28.5504249,77.2159377,PM2.5,50,134,85
India,Delhi,Delhi,"Sri Aurobindo Marg, Delhi - DPCC",11-07-2024 20:00:00,28.531346,77.190156,PM10,86,125,106
India,Gujarat,Ahmedabad,"Chandkheda, Ahmedabad - IITM",11-07-2024 20:00:00,23.107969,72.574648,PM10,25,66,41
India,Gujarat,Ahmedabad,"Chandkheda, Ahmedabad - IITM",11-07-2024 20:00:00,23.107969,72.574648,SO2,9,21,14
India,Gujarat,Ahmedabad,"Gyaspur, Ahmedabad - IITM",11-07-2024 20:00:00,22.977134,72.553024,CO,16,32,25
India,Gujarat,Ahmedabad,"Raikhad, Ahmedabad - IITM",11-07-2024 20:00:00,23.020509,72.579261,PM2.5,40,117,66
India,Gujarat,Ahmedabad,"Rakhial, Ahmedabad - IITM",11-07-2024 20:00:00,23.016834,72.625775,CO,16,90,36
India,Gujarat,Ahmedabad,"Rakhial, Ahmedabad - IITM",11-07-2024 20:00:00,23.016834,72.625775,OZONE,10,131,46
India,Gujarat,Ahmedabad,"SVPI Airport Hansol, Ahmedabad - IITM",11-07-2024 20:00:00,23.076793,72.627874,PM10,43,80,63
India,Gujarat,Ahmedabad,"SVPI Airport Hansol, Ahmedabad - IITM",11-07-2024 20:00:00,23.076793,72.627874,NO2,55,91,67
India,Gujarat,Ankleshwar,"GIDC, Ankleshwar - GPCB",11-07-2024 20:00:00,21.613267,73.010555,NO2,NA,NA,NA
India,Gujarat,Nandesari,"GIDC, Nandesari - Nandesari Ind. Association",11-07-2024 20:00:00,22.410802,73.097923,PM2.5,58,324,176
India,Gujarat,Surat,"Science Center, Surat - SMC",11-07-2024 20:00:00,21.170046,72.795405,PM10,NA,NA,NA
India,Gujarat,Surat,"Science Center, Surat - SMC",11-07-2024 20:00:00,21.170046,72.795405,SO2,11,12,11
India,Gujarat,Vapi,"Phase-1 GIDC, Vapi - GPCB",11-07-2024 20:00:00,20.362421,72.918013,PM2.5,6,27,15
India,Gujarat,Vatva,"Phase-4 GIDC, Vatva - GPCB",11-07-2024 20:00:00,22.969611,72.643500,PM2.5,22,49,33
India,Gujarat,Vatva,"Phase-4 GIDC, Vatva - GPCB",11-07-2024 20:00:00,22.969611,72.643500,SO2,7,25,12
India,Haryana,Ambala,"Patti Mehar, Ambala - HSPCB",11-07-2024 20:00:00,30.379589,76.778328,OZONE,38,52,43
India,Haryana,Ballabgarh,"Nathu Colony, Ballabgarh - HSPCB",11-07-2024 20:00:00,28.3419248,77.319699,NH3,1,2,2
India,Haryana,Charkhi Dadri,"Mini Secretariat, Charkhi Dadri - HSPCB",11-07-2024 20:00:00,28.593883,76.270653,PM10,16,82,40
India,Haryana,Charkhi Dadri,"Mini Secretariat, Charkhi Dadri - HSPCB",11-07-2024 20:00:00,28.593883,76.270653,OZONE,13,18,16
India,Haryana,Dharuhera,"Municipal Corporation Office, Dharuhera -  HSPCB",11-07-2024 20:00:00,28.206800,76.799700,PM10,37,117,63
India,Haryana,Faridabad,"New Industrial Town, Faridabad - HSPCB",11-07-2024 20:00:00,28.39072,77.30059,SO2,3,37,24
India,Haryana,Faridabad,"Sector 11, Faridabad - HSPCB",11-07-2024 20:00:00,28.376058,77.315741,PM2.5,84,97,91
India,Haryana,Faridabad,"Sector 11, Faridabad - HSPCB",11-07-2024 20:00:00,28.376058,77.315741,SO2,2,84,13
India,Haryana,Faridabad,"Sector 11, Faridabad - HSPCB",11-07-2024 20:00:00,28.376058,77.315741,OZONE,7,22,14
India,Haryana,Faridabad,"Sector- 16A, Faridabad - HSPCB",11-07-2024 20:00:00,28.4088421,77.3099081,NO2,70,132,94
India,Haryana,Fatehabad,"Huda Sector, Fatehabad - HSPCB",11-07-2024 20:00:00,29.503664,75.467934,NH3,9,11,10
India,Haryana,Fatehabad,"Huda Sector, Fatehabad - HSPCB",11-07-2024 20:00:00,29.503664,75.467934,CO,75,108,92
India,Haryana,Gurugram,"Sector-51, Gurugram - HSPCB",11-07-2024 20:00:00,28.4227,77.0667,NO2,13,29,23
India,Haryana,Gurugram,"Sector-51, Gurugram - HSPCB",11-07-2024 20:00:00,28.4227,77.0667,SO2,1,5,2
India,Haryana,Gurugram,"Vikas Sadan, Gurugram - HSPCB",11-07-2024 20:00:00,28.4501238,77.0263051,PM2.5,26,71,46
India,Haryana,Gurugram,"Vikas Sadan, Gurugram - HSPCB",11-07-2024 20:00:00,28.4501238,77.0263051,OZONE,8,68,50
India,Haryana,Hisar,"Urban Estate-II, Hisar - HSPCB",11-07-2024 20:00:00,29.140560,75.744941,NH3,4,6,4
India,Haryana,Jind,"Police Lines, Jind - HSPCB",11-07-2024 20:00:00,29.307814,76.337619,PM10,42,80,59
India,Haryana,Kaithal,"Rishi Nagar, Kaithal - HSPCB",11-07-2024 20:00:00,29.8006,76.4155,CO,20,44,29
India,Haryana,Mandikhera,"General Hospital, Mandikhera - HSPCB",11-07-2024 20:00:00,27.9002,76.9938,SO2,31,37,34
India,Haryana,Manesar,"Sector-2 IMT, Manesar - HSPCB",11-07-2024 20:00:00,28.360699,76.936090,CO,45,55,51
India,Haryana,Manesar,"Sector-2 IMT, Manesar - HSPCB",11-07-2024 20:00:00,28.360699,76.936090,OZONE,10,49,46
India,Haryana,Panipat,"Sector-18, Panipat - HSPCB",11-07-2024 20:00:00,29.432304,76.972765,NH3,2,3,2
India,Haryana,Panipat,"Sector-18, Panipat - HSPCB",11-07-2024 20:00:00,29.432304,76.972765,CO,24,26,25
India,Haryana,Rohtak,"MD University, Rohtak - HSPCB",11-07-2024 20:00:00,28.52123,76.37138,PM2.5,18,116,57
India,Haryana,Rohtak,"MD University, Rohtak - HSPCB",11-07-2024 20:00:00,28.52123,76.37138,SO2,5,9,7
India,Haryana,Sonipat,"Murthal, Sonipat - HSPCB",11-07-2024 20:00:00,29.027200,77.062100,NO2,37,44,40
India,Jammu_and_Kashmir,Srinagar,"Rajbagh, Srinagar - JKSPCB",11-07-2024 20:00:00,34.066206,74.819820,SO2,3,110,30
India,Karnataka,Bagalkot,"Vidayagiri, Bagalkot - KSPCB",11-07-2024 20:00:00,16.172806,75.659694,NO2,10,11,11
India,Karnataka,Belgaum,"Ramteerth Nagar, Belgaum - KSPCB",11-07-2024 20:00:00,15.888653,74.541751,PM2.5,14,53,30
India,Karnataka,Belgaum,"Ramteerth Nagar, Belgaum - KSPCB",11-07-2024 20:00:00,15.888653,74.541751,NH3,1,10,6
India,Karnataka,Belgaum,"Ramteerth Nagar, Belgaum - KSPCB",11-07-2024 20:00:00,15.888653,74.541751,CO,56,68,60
India,Karnataka,Belgaum,"Ramteerth Nagar, Belgaum - KSPCB",11-07-2024 20:00:00,15.888653,74.541751,OZONE,19,20,19
India,Karnataka,Bengaluru,"BTM Layout, Bengaluru - CPCB",11-07-2024 20:00:00,12.9135218,77.5950804,NH3,3,3,3
India,Karnataka,Bengaluru,"BTM Layout, Bengaluru - CPCB",11-07-2024 20:00:00,12.9135218,77.5950804,CO,20,20,20
India,Karnataka,Bengaluru,"Bapuji Nagar, Bengaluru - KSPCB",11-07-2024 20:00:00,12.951913,77.539784,CO,18,32,24
India,Karnataka,Bengaluru,"Hebbal, Bengaluru - KSPCB",11-07-2024 20:00:00,13.029152,77.585901,PM10,27,57,36
India,Karnataka,Bengaluru,"Hombegowda Nagar, Bengaluru - KSPCB",11-07-2024 20:00:00,12.938539,77.590100,PM10,15,40,25
India,Karnataka,Bengaluru,"Hombegowda Nagar, Bengaluru - KSPCB",11-07-2024 20:00:00,12.938539,77.590100,CO,13,34,17
India,Karnataka,Bengaluru,"Jayanagar 5th Block, Bengaluru - KSPCB",11-07-2024 20:00:00,12.920984,77.584908,PM10,16,61,31
India,Karnataka,Bengaluru,"Jayanagar 5th Block, Bengaluru - KSPCB",11-07-2024 20:00:00,12.920984,77.584908,CO,4,61,24
India,Karnataka,Bengaluru,"Kasturi Nagar, Bengaluru - KSPCB",11-07-2024 20:00:00,13.003872,77.664217,SO2,10,11,10
India,Karnataka,Bengaluru,"Peenya, Bengaluru - CPCB",11-07-2024 20:00:00,13.0270199,77.494094,NO2,35,36,36
India,Karnataka,Bengaluru,"Peenya, Bengaluru - CPCB",11-07-2024 20:00:00,13.0270199,77.494094,OZONE,13,25,24
India,Karnataka,Bengaluru,"RVCE-Mailasandra, Bengaluru - KSPCB",11-07-2024 20:00:00,12.921418,77.502466,NO2,NA,NA,NA
India,Karnataka,Bengaluru,"Shivapura_Peenya, Bengaluru - KSPCB",11-07-2024 20:00:00,13.0246342,77.5080115,PM10,20,61,40
India,Karnataka,Bengaluru,"Shivapura_Peenya, Bengaluru - KSPCB",11-07-2024 20:00:00,13.0246342,77.5080115,OZONE,53,56,54
India,Karnataka,Bengaluru,"Silk Board, Bengaluru - KSPCB",11-07-2024 20:00:00,12.917348,77.622813,OZONE,11,22,18
India,Karnataka,Bidar,"Naubad, Bidar - KSPCB",11-07-2024 20:00:00,17.930306,77.482194,OZONE,7,14,13
India,Karnataka,Chamarajanagar,"Urban, Chamarajanagar - KSPCB",11-07-2024 20:00:00,11.55358,76.55521,PM2.5,20,50,30
India,Karnataka,Chamarajanagar,"Urban, Chamarajanagar - KSPCB",11-07-2024 20:00:00,11.55358,76.55521,PM10,35,58,43
India,Karnataka,Chamarajanagar,"Urban, Chamarajanagar - KSPCB",11-07-2024 20:00:00,11.55358,76.55521,NH3,1,2,2
India,Karnataka,Chikkaballapur,"Chikkaballapur Rural, Chikkaballapur - KSPCB",11-07-2024 20:00:00,13.428828,77.731418,NO2,5,10,7
India,Karnataka,Chikkamagaluru,"Kalyana Nagara, Chikkamagaluru - KSPCB",11-07-2024 20:00:00,13.328028,75.797056,PM2.5,5,37,20
India,Karnataka,Chikkamagaluru,"Kalyana Nagara, Chikkamagaluru - KSPCB",11-07-2024 20:00:00,13.328028,75.797056,PM10,20,110,42
India,Karnataka,Chikkamagaluru,"Kalyana Nagara, Chikkamagaluru - KSPCB",11-07-2024 20:00:00,13.328028,75.797056,OZONE,13,38,30
India,Karnataka,Davanagere,"Devaraj Urs Badavane, Davanagere - KSPCB",11-07-2024 20:00:00,14.475800,75.905200,NO2,8,10,9
India,Karnataka,Dharwad,"Kalabhavan, Dharwad - KSPCB",11-07-2024 20:00:00,15.459706,75.008381,NO2,16,20,17
India,Karnataka,Hassan,"B.Katihalli, Hassan - KSPCB",11-07-2024 20:00:00,13.008556,76.125258,NH3,1,2,2
India,Karnataka,Haveri,"Ashwini Nagar, Haveri - KSPCB",11-07-2024 20:00:00,14.791800,75.389600,NH3,NA,NA,NA
India,Karnataka,Haveri,"Ashwini Nagar, Haveri - KSPCB",11-07-2024 20:00:00,14.791800,75.389600,SO2,11,12,12
India,Karnataka,Hubballi,"Lingaraj Nagar, Hubballi - KSPCB",11-07-2024 20:00:00,15.3714823,75.1160168,NO2,8,15,10
India,Karnataka,Kalaburagi,"Lal Bahadur Shastri Nagar, Kalaburagi - KSPCB",11-07-2024 20:00:00,17.321993,76.822628,CO,48,50,49
India,Karnataka,Kalaburagi,"Mahatma Basaveswar Colony, Kalaburgi - KSPCB",11-07-2024 20:00:00,17.336318,76.847397,SO2,3,9,4
India,Karnataka,Kalaburagi,"Mahatma Basaveswar Colony, Kalaburgi - KSPCB",11-07-2024 20:00:00,17.336318,76.847397,CO,25,66,31
India,Karnataka,Karwar,"KHB Colony, Karwar - KSPCB",11-07-2024 20:00:00,14.816666,74.141003,NH3,NA,NA,NA
India,Karnataka,Karwar,"KHB Colony, Karwar - KSPCB",11-07-2024 20:00:00,14.816666,74.141003,OZONE,21,22,21
India,Karnataka,Kolar,"Tamaka Ind. Area, Kolar - KSPCB",11-07-2024 20:00:00,13.1276288,78.1570122,SO2,70,71,70
India,Karnataka,Koppal,"Diwator Nagar, Koppal - KSPCB",11-07-2024 20:00:00,15.347630,76.181767,PM2.5,2,12,7
India,Karnataka,Madikeri,"Stuart Hill, Madikeri - KSPCB",11-07-2024 20:00:00,12.415911,75.735050,PM10,NA,NA,NA
India,Karnataka,Mangalore,"Kadri, Mangalore - KSPCB",11-07-2024 20:00:00,12.889250,74.853000,CO,14,21,20
India,Karnataka,Raichur,"Haji Colony, Raichur - KSPCB",11-07-2024 20:00:00,16.208139,77.348417,NH3,3,4,3
India,Karnataka,Ramanagara,"Vijay Nagar, Ramanagara - KSPCB",11-07-2024 20:00:00,12.733409,77.298051,NO2,5,13,9
India,Karnataka,Ramanagara,"Vijay Nagar, Ramanagara - KSPCB",11-07-2024 20:00:00,12.733409,77.298051,CO,3,30,10
India,Karnataka,Shivamogga,"Vinoba Nagara, Shivamogga - KSPCB",11-07-2024 20:00:00,13.940000,75.555917,PM10,29,64,41
India,Karnataka,Shivamogga,"Vinoba Nagara, Shivamogga - KSPCB",11-07-2024 20:00:00,13.940000,75.555917,NH3,1,10,3
India,Karnataka,Tumakuru,"Thimmalapura, Tumakuru - KSPCB",11-07-2024 20:00:00,13.377516,77.099072,PM10,43,159,90
India,Karnataka,Udupi,"Brahmagiri, Udupi - KSPCB",11-07-2024 20:00:00,13.34194444,74.74694444,SO2,17,21,18
India,Karnataka,Vijayapura,"Ibrahimpur, Vijayapura - KSPCB",11-07-2024 20:00:00,16.802639,75.722694,PM2.5,25,31,30
India,Karnataka,Vijayapura,"Ibrahimpur, Vijayapura - KSPCB",11-07-2024 20:00:00,16.802639,75.722694,OZONE,13,16,15
India,Kerala,Eloor,"Udyogamandal, Eloor - Kerala PCB",11-07-2024 20:00:00,10.073232,76.302765,PM10,42,54,47
India,Kerala,Kannur,"Thavakkara, Kannur - Kerala PCB",11-07-2024 20:00:00,11.875000,75.373200,SO2,NA,NA,NA
India,Kerala,Kollam,"Polayathode, Kollam - Kerala PCB",11-07-2024 20:00:00,8.8787,76.6073,NH3,NA,NA,NA
India,Kerala,Kollam,"Polayathode, Kollam - Kerala PCB",11-07-2024 20:00:00,8.8787,76.6073,OZONE,31,36,35
India,Kerala,Thiruvananthapuram,"Kariavattom, Thiruvananthapuram - Kerala PCB",11-07-2024 20:00:00,8.563700,76.886500,PM2.5,26,35,32
India,Kerala,Thiruvananthapuram,"Kariavattom, Thiruvananthapuram - Kerala PCB",11-07-2024 20:00:00,8.563700,76.886500,PM10,48,57,54
India,Kerala,Thiruvananthapuram,"Plammoodu, Thiruvananthapuram - Kerala PCB",11-07-2024 20:00:00,8.5149093,76.9435879,NH3,1,1,1
India,Madhya Pradesh,Bhopal,"Idgah Hills, Bhopal - MPPCB",11-07-2024 20:00:00,23.264759,77.381568,PM2.5,NA,NA,NA
India,Madhya Pradesh,Bhopal,"Paryavaran Parisar, Bhopal - MPPCB",11-07-2024 20:00:00,23.210494,77.425409,NO2,9,17,12
India,Madhya Pradesh,Bhopal,"T T Nagar, Bhopal - MPPCB",11-07-2024 20:00:00,23.233584,77.400574,PM2.5,20,35,26
India,Madhya Pradesh,Bhopal,"T T Nagar, Bhopal - MPPCB",11-07-2024 20:00:00,23.233584,77.400574,NO2,8,48,18
India,Madhya Pradesh,Gwalior,"City Center, Gwalior - MPPCB",11-07-2024 20:00:00,26.203442,78.193251,NO2,11,38,16
India,Madhya Pradesh,Gwalior,"Deen Dayal Nagar, Gwalior - MPPCB",11-07-2024 20:00:00,26.259242,78.216432,PM10,19,150,76
India,Madhya Pradesh,Gwalior,"Deen Dayal Nagar, Gwalior - MPPCB",11-07-2024 20:00:00,26.259242,78.216432,NH3,6,10,7
India,Madhya Pradesh,Indore,"Chhoti Gwaltoli, Indore - MPPCB",11-07-2024 20:00:00,22.4310,75.5213,NO2,35,65,45
India,Madhya Pradesh,Indore,"Chhoti Gwaltoli, Indore - MPPCB",11-07-2024 20:00:00,22.4310,75.5213,SO2,11,13,12
India,Madhya Pradesh,Indore,"Chhoti Gwaltoli, Indore - MPPCB",11-07-2024 20:00:00,22.4310,75.5213,OZONE,16,44,40
India,Madhya Pradesh,Indore,"Regional Park, Indore - IMC",11-07-2024 20:00:00,22.6780,75.8559,SO2,39,41,40
India,Madhya Pradesh,Indore,"Regional Park, Indore - IMC",11-07-2024 20:00:00,22.6780,75.8559,OZONE,5,8,8
India,Madhya Pradesh,Indore,"Residency Area, Indore - IMC",11-07-2024 20:00:00,22.7084,75.8815,SO2,29,30,29
India,Madhya Pradesh,Jabalpur,"Gupteshwar, Jabalpur - JMC",11-07-2024 20:00:00,23.142888,79.916147,NH3,4,5,4
India,Madhya Pradesh,Jabalpur,"Gupteshwar, Jabalpur - JMC",11-07-2024 20:00:00,23.142888,79.916147,CO,6,45,21
India,Madhya Pradesh,Jabalpur,"Marhatal, Jabalpur - MPPCB",11-07-2024 20:00:00,23.168606,79.932247,OZONE,8,27,18
India,Madhya Pradesh,Jabalpur,"Suhagi, Jabalpur - JMC",11-07-2024 20:00:00,23.218135,79.957770,PM2.5,22,52,33
India,Madhya Pradesh,Katni,"Gole Bazar, Katni - MPPCB",11-07-2024 20:00:00,23.50016,80.23284,NO2,19,52,26
India,Madhya Pradesh,Katni,"Gole Bazar, Katni - MPPCB",11-07-2024 20:00:00,23.50016,80.23284,SO2,11,37,25
India,Madhya Pradesh,Mandideep,"Sector-D Industrial Area, Mandideep - MPPCB",11-07-2024 20:00:00,23.108440,77.511428,SO2,5,15,10
India,Madhya Pradesh,Mandideep,"Sector-D Industrial Area, Mandideep - MPPCB",11-07-2024 20:00:00,23.108440,77.511428,OZONE,13,45,28
India,Madhya Pradesh,Pithampur,"Sector-2 Industrial Area, Pithampur - MPPCB",11-07-2024 20:00:00,22.624758,75.675238,NH3,3,4,4
India,Madhya Pradesh,Sagar,"Civil Lines, Sagar - MPPCB",11-07-2024 20:00:00,23.838586,78.759431,PM2.5,19,39,29
India,Madhya Pradesh,Sagar,"Civil Lines, Sagar - MPPCB",11-07-2024 20:00:00,23.838586,78.759431,OZONE,35,74,50
India,Madhya Pradesh,Sagar,"Deen Dayal Nagar, Sagar - MPPCB",11-07-2024 20:00:00,23.8640158,78.80289321,PM10,31,98,66
India,Madhya Pradesh,Satna,"Bandhavgar Colony, Satna - Birla Cement",11-07-2024 20:00:00,24.58434363,80.8549414,PM2.5,NA,NA,NA
India,Madhya Pradesh,Singrauli,"Suryakiran Bhawan NCL, Singrauli - MPPCB",11-07-2024 20:00:00,24.108970,82.645580,NH3,1,3,1
India,Madhya Pradesh,Ujjain,"Mahakaleshwar Temple, Ujjain - MPPCB",11-07-2024 20:00:00,23.182719 ,75.768218 ,NH3,3,6,5
India,Maharashtra,Ahmednagar,"Tarakpur, Ahmednagar - MPCB",11-07-2024 20:00:00,19.10122,74.73339,PM2.5,NA,NA,NA
India,Maharashtra,Akola,"Ramdaspeth, Akola - MPCB",11-07-2024 20:00:00,20.719516,77.000253,PM2.5,19,75,39
India,Maharashtra,Amravati,"Shri Shivaji Science College, Amaravati - MPCB",11-07-2024 20:00:00,20.939198,77.765701,OZONE,1,32,23
India,Maharashtra,Aurangabad,"MIDC Chilkalthana, Aurangabad - MPCB",11-07-2024 20:00:00,19.875620,75.387310,NO2,6,31,14
India,Maharashtra,Aurangabad,"MIDC Chilkalthana, Aurangabad - MPCB",11-07-2024 20:00:00,19.875620,75.387310,OZONE,15,57,47
India,Maharashtra,Aurangabad,"More Chowk Waluj, Aurangabad - MPCB",11-07-2024 20:00:00,19.8389439,75.244448,NO2,26,33,30
India,Maharashtra,Aurangabad,"More Chowk Waluj, Aurangabad - MPCB",11-07-2024 20:00:00,19.8389439,75.244448,CO,9,104,61
India,Maharashtra,Belapur,"CBD Belapur, Belapur - MPCB",11-07-2024 20:00:00,19.0243902,73.0406721,CO,19,54,28
India,Maharashtra,Bhiwandi,"Gokul Nagar, Bhiwandi - MPCB",11-07-2024 20:00:00,19.309073,73.057223,PM2.5,31,103,52
India,Maharashtra,Bhiwandi,"Gokul Nagar, Bhiwandi - MPCB",11-07-2024 20:00:00,19.309073,73.057223,SO2,3,13,10
India,Maharashtra,Boisar,"Khaira, Boisar - MPCB",11-07-2024 20:00:00,19.786089,72.757971,PM2.5,12,44,24
India,Maharashtra,Chandrapur,"Chauhan Colony, Chandrapur - MPCB",11-07-2024 20:00:00,19.962900,79.298714,PM2.5,15,70,36
India,Maharashtra,Dhule,"Deopur, Dhule - MPCB",11-07-2024 20:00:00,20.918946,74.776388,PM10,36,119,70
India,Maharashtra,Jalgaon,"Prabhat Colony, Jalgaon - MPCB",11-07-2024 20:00:00,21.001264,75.565602,PM2.5,12,50,30
India,Maharashtra,Jalgaon,"Prabhat Colony, Jalgaon - MPCB",11-07-2024 20:00:00,21.001264,75.565602,CO,17,44,25
India,Maharashtra,Jalna,"Old MIDC, Jalna - MPCB",11-07-2024 20:00:00,19.854616,75.905894,PM2.5,47,166,79
India,Maharashtra,Jalna,"Old MIDC, Jalna - MPCB",11-07-2024 20:00:00,19.854616,75.905894,PM10,41,110,66
India,Maharashtra,Kalyan,"Khadakpada, Kalyan - MPCB",11-07-2024 20:00:00,19.25292,73.142019,PM2.5,10,24,15
India,Maharashtra,Kolhapur,"Shivaji University, Kolhapur - MPCB",11-07-2024 20:00:00,16.6870449,74.2505872,PM10,21,72,44
India,Maharashtra,Kolhapur,"Shivaji University, Kolhapur - MPCB",11-07-2024 20:00:00,16.6870449,74.2505872,NO2,9,24,16
India,Maharashtra,Kolhapur,"Sinchan Bhavan, Kolhapur - MPCB",11-07-2024 20:00:00,16.7143745,74.2426398,SO2,NA,NA,NA
India,Maharashtra,Malegaon,"Mahesh Nagar, Malegaon - MPCB",11-07-2024 20:00:00,20.555712,74.529236,NO2,8,40,21
India,Maharashtra,Malegaon,"Mahesh Nagar, Malegaon - MPCB",11-07-2024 20:00:00,20.555712,74.529236,CO,11,24,18
India,Maharashtra,Malegaon,"Mahesh Nagar, Malegaon - MPCB",11-07-2024 20:00:00,20.555712,74.529236,OZONE,7,46,31
India,Maharashtra,Mira-Bhayandar,"Bhayandar West, Mira-Bhayandar - MPCB",11-07-2024 20:00:00,19.296481,72.840923,NO2,4,35,15
India,Maharashtra,Mumbai,"Bandra Kurla Complex, Mumbai - MPCB",11-07-2024 20:00:00,19.065931,72.862131,SO2,2,4,3
India,Maharashtra,Mumbai,"Borivali East, Mumbai - IITM",11-07-2024 20:00:00,19.23241,72.86895,NH3,3,4,3
India,Maharashtra,Mumbai,"Borivali East, Mumbai - MPCB",11-07-2024 20:00:00,19.2243333,72.8658113,CO,10,22,21
India,Maharashtra,Mumbai,"Chembur, Mumbai - MPCB",11-07-2024 20:00:00,19.0364585,72.8954371,OZONE,3,51,27
India,Maharashtra,Mumbai,"Chhatrapati Shivaji Intl. Airport (T2), Mumbai - MPCB",11-07-2024 20:00:00,19.10078,72.87462,OZONE,1,2,1
India,Maharashtra,Mumbai,"Colaba, Mumbai - MPCB",11-07-2024 20:00:00,18.910000,72.820000,PM10,4,33,18
India,Maharashtra,Mumbai,"Colaba, Mumbai - MPCB",11-07-2024 20:00:00,18.910000,72.820000,NH3,1,1,1
India,Maharashtra,Mumbai,"Colaba, Mumbai - MPCB",11-07-2024 20:00:00,18.910000,72.820000,SO2,10,11,10
India,Maharashtra,Mumbai,"Colaba, Mumbai - MPCB",11-07-2024 20:00:00,18.910000,72.820000,CO,12,14,13
India,Maharashtra,Mumbai,"Ghatkopar, Mumbai - BMC",11-07-2024 20:00:00,19.083694,72.920967,NH3,1,3,2
India,Maharashtra,Mumbai,"Ghatkopar, Mumbai - BMC",11-07-2024 20:00:00,19.083694,72.920967,OZONE,10,22,17
India,Maharashtra,Mumbai,"Kandivali East, Mumbai - MPCB",11-07-2024 20:00:00,19.205800,72.868200,NO2,10,35,23
India,Maharashtra,Mumbai,"Kandivali East, Mumbai - MPCB",11-07-2024 20:00:00,19.205800,72.868200,OZONE,30,31,30
India,Maharashtra,Mumbai,"Kherwadi_Bandra East, Mumbai - MPCB",11-07-2024 20:00:00,19.0632143,72.8456324,PM2.5,1,42,24
India,Maharashtra,Mumbai,"Kherwadi_Bandra East, Mumbai - MPCB",11-07-2024 20:00:00,19.0632143,72.8456324,NO2,9,62,25
India,Maharashtra,Mumbai,"Khindipada-Bhandup West, Mumbai - IITM",11-07-2024 20:00:00,19.1653323,72.922099,NO2,3,9,6
India,Maharashtra,Mumbai,"Khindipada-Bhandup West, Mumbai - IITM",11-07-2024 20:00:00,19.1653323,72.922099,SO2,2,9,6
India,Maharashtra,Mumbai,"Malad West, Mumbai - IITM",11-07-2024 20:00:00,19.19709,72.82204,NO2,8,22,14
India,Maharashtra,Mumbai,"Mindspace-Malad West, Mumbai - MPCB",11-07-2024 20:00:00,19.1878657,72.8304069,NO2,8,47,22
India,Maharashtra,Mumbai,"Mulund West, Mumbai - MPCB",11-07-2024 20:00:00,19.1750,72.9419,PM10,10,51,27
India,Maharashtra,Mumbai,"Mulund West, Mumbai - MPCB",11-07-2024 20:00:00,19.1750,72.9419,NH3,10,10,10
India,Maharashtra,Mumbai,"Navy Nagar-Colaba, Mumbai - IITM",11-07-2024 20:00:00,18.897756,72.813320,PM10,20,30,25
India,Maharashtra,Mumbai,"Navy Nagar-Colaba, Mumbai - IITM",11-07-2024 20:00:00,18.897756,72.813320,SO2,NA,NA,NA
India,Maharashtra,Mumbai,"Navy Nagar-Colaba, Mumbai - IITM",11-07-2024 20:00:00,18.897756,72.813320,CO,8,22,15
India,Maharashtra,Mumbai,"Powai, Mumbai - MPCB",11-07-2024 20:00:00,19.137500,72.915056,OZONE,5,7,6
India,Maharashtra,Mumbai,"Sewri, Mumbai - BMC",11-07-2024 20:00:00,19.000084,72.856730,PM2.5,7,35,17
India,Maharashtra,Mumbai,"Shivaji Nagar, Mumbai - BMC",11-07-2024 20:00:00,19.060498,72.923356,SO2,1,6,3
India,Maharashtra,Mumbai,"Shivaji Nagar, Mumbai - BMC",11-07-2024 20:00:00,19.060498,72.923356,OZONE,1,10,5
India,Maharashtra,Mumbai,"Sion, Mumbai - MPCB",11-07-2024 20:00:00,19.047000,72.874600,NH3,1,1,1
India,Maharashtra,Mumbai,"Sion, Mumbai - MPCB",11-07-2024 20:00:00,19.047000,72.874600,SO2,27,27,27
India,Maharashtra,Mumbai,"Vasai West, Mumbai - MPCB",11-07-2024 20:00:00,19.383200,72.820400,PM2.5,12,46,27
India,Maharashtra,Mumbai,"Vile Parle West, Mumbai - MPCB",11-07-2024 20:00:00,19.10861,72.83622,OZONE,11,13,11
India,Maharashtra,Nagpur,"Ambazari, Nagpur - MPCB",11-07-2024 20:00:00,21.121801,79.04952,PM10,48,85,68
India,Maharashtra,Nagpur,"Mahal, Nagpur - MPCB",11-07-2024 20:00:00,21.14472,79.107595,NO2,8,24,12
India,Maharashtra,Nagpur,"Mahal, Nagpur - MPCB",11-07-2024 20:00:00,21.14472,79.107595,CO,14,89,48
India,Maharashtra,Nanded,"Sneh Nagar, Nanded - MPCB",11-07-2024 20:00:00,19.173852,77.296291,NH3,3,5,4
India,Maharashtra,Nanded,"Sneh Nagar, Nanded - MPCB",11-07-2024 20:00:00,19.173852,77.296291,SO2,10,14,12
India,Maharashtra,Nashik,"Gangapur Road, Nashik - MPCB",11-07-2024 20:00:00,20.0073285,73.7762427,SO2,7,17,12
India,Maharashtra,Nashik,"Gangapur Road, Nashik - MPCB",11-07-2024 20:00:00,20.0073285,73.7762427,CO,20,65,43
India,Maharashtra,Nashik,"Hirawadi, Nashik - MPCB",11-07-2024 20:00:00,20.021503,73.813844,PM10,14,43,27
India,Maharashtra,Nashik,"Hirawadi, Nashik - MPCB",11-07-2024 20:00:00,20.021503,73.813844,OZONE,14,43,34
India,Maharashtra,Nashik,"MIDC Ambad, Nashik - MPCB",11-07-2024 20:00:00,19.950220,73.731480,OZONE,15,31,26
India,Maharashtra,Nashik,"Pandav Nagari, Nashik - MPCB",11-07-2024 20:00:00,19.9591346,73.7788008,PM2.5,10,81,36
India,Maharashtra,Nashik,"Pandav Nagari, Nashik - MPCB",11-07-2024 20:00:00,19.9591346,73.7788008,NH3,3,8,6
India,Maharashtra,Navi Mumbai,"Kopripada-Vashi, Navi Mumbai - MPCB",11-07-2024 20:00:00,19.090337,73.014232,PM10,20,42,31
India,Maharashtra,Navi Mumbai,"Mahape, Navi Mumbai - MPCB",11-07-2024 20:00:00,19.1135051,73.008978,SO2,15,15,15
India,Maharashtra,Navi Mumbai,"Nerul, Navi Mumbai - MPCB",11-07-2024 20:00:00,19.008751,73.016620,NH3,3,7,5
India,Maharashtra,Navi Mumbai,"Nerul, Navi Mumbai - MPCB",11-07-2024 20:00:00,19.008751,73.016620,SO2,7,8,8
India,Maharashtra,Navi Mumbai,"Nerul, Navi Mumbai - MPCB",11-07-2024 20:00:00,19.008751,73.016620,OZONE,18,44,33
India,Maharashtra,Navi Mumbai,"Tondare-Taloja, Navi Mumbai - MPCB",11-07-2024 20:00:00,19.0630,73.1209,OZONE,4,91,28
India,Maharashtra,Pimpri-Chinchwad,"Gavalinagar, Pimpri Chinchwad - MPCB",11-07-2024 20:00:00,18.63673,73.82487,NH3,4,4,4
India,Maharashtra,Pimpri-Chinchwad,"Park Street Wakad, Pimpri Chinchwad - MPCB",11-07-2024 20:00:00,18.59051,73.77946,CO,8,22,13
India,Maharashtra,Pune,"Alandi, Pune - IITM",11-07-2024 20:00:00,18.675076,73.892743,PM2.5,9,33,17
India,Maharashtra,Pune,"Alandi, Pune - IITM",11-07-2024 20:00:00,18.675076,73.892743,PM10,16,57,38
India,Maharashtra,Pune,"Bhumkar Nagar, Pune - IITM",11-07-2024 20:00:00,18.605770,73.749976,CO,42,130,83
India,Maharashtra,Pune,"Hadapsar, Pune - IITM",11-07-2024 20:00:00,18.501793,73.927532,PM10,26,61,44
India,Maharashtra,Pune,"Hadapsar, Pune - IITM",11-07-2024 20:00:00,18.501793,73.927532,NO2,25,42,30
India,Maharashtra,Pune,"Karve Road, Pune - MPCB",11-07-2024 20:00:00,18.5011743,73.8165527,PM10,1,500,51
India,Maharashtra,Pune,"Karve Road, Pune - MPCB",11-07-2024 20:00:00,18.5011743,73.8165527,CO,8,105,31
India,Maharashtra,Pune,"Katraj Dairy, Pune - MPCB",11-07-2024 20:00:00,18.454450,73.854155,PM2.5,11,32,21
India,Maharashtra,Pune,"Katraj Dairy, Pune - MPCB",11-07-2024 20:00:00,18.454450,73.854155,SO2,1,3,2
India,Maharashtra,Pune,"Katraj Dairy, Pune - MPCB",11-07-2024 20:00:00,18.454450,73.854155,OZONE,18,27,22
India,Maharashtra,Pune,"Savitribai Phule Pune University, Pune - MPCB",11-07-2024 20:00:00,18.547056,73.826908,SO2,3,6,5
India,Maharashtra,Sangli,"Vijay Nagar, Sangli - MPCB",11-07-2024 20:00:00, 16.5038,74.3623,NO2,4,17,8
India,Maharashtra,Solapur,"Dnyaneshwar Nagar, Solapur - MPCB",11-07-2024 20:00:00,17.6336264,75.9132495,PM2.5,7,44,20
India,Maharashtra,Solapur,"Dnyaneshwar Nagar, Solapur - MPCB",11-07-2024 20:00:00,17.6336264,75.9132495,CO,6,24,8
India,Maharashtra,Solapur,"Ratandeep Housing Society, Solapur - MPCB",11-07-2024 20:00:00,17.65439,75.90649,PM2.5,17,39,27
India,Maharashtra,Solapur,"Ratandeep Housing Society, Solapur - MPCB",11-07-2024 20:00:00,17.65439,75.90649,NO2,2,9,5
India,Maharashtra,Solapur,"Ratandeep Housing Society, Solapur - MPCB",11-07-2024 20:00:00,17.65439,75.90649,CO,10,42,24
India,Maharashtra,Thane,"Kasarvadavali, Thane - MPCB",11-07-2024 20:00:00,19.26777,72.97182,PM2.5,17,41,30
India,Maharashtra,Thane,"Kasarvadavali, Thane - MPCB",11-07-2024 20:00:00,19.26777,72.97182,CO,10,50,20
India,Maharashtra,Thane,"Pimpleshwar Mandir, Thane - MPCB",11-07-2024 20:00:00,19.192056,72.9585188,SO2,1,9,3
India,Maharashtra,Thane,"Pimpleshwar Mandir, Thane - MPCB",11-07-2024 20:00:00,19.192056,72.9585188,CO,2,96,38
India,Maharashtra,Thane,"Upvan Fort, Thane - MPCB",11-07-2024 20:00:00,19.222279,72.957979,NO2,5,36,22
India,Maharashtra,Thane,"Upvan Fort, Thane - MPCB",11-07-2024 20:00:00,19.222279,72.957979,SO2,3,5,4
India,Maharashtra,Virar,"Bolinj, Virar - MPCB",11-07-2024 20:00:00,19.4458210,72.7988231,CO,12,62,30
India,Manipur,Imphal,"DM College of Science, Imphal - Manipur PCB",11-07-2024 20:00:00,24.8207389,93.9423085,NH3,NA,NA,NA
India,Mizoram,Aizawl,"Sikulpuikawn, Aizawl - Mizoram PCB",11-07-2024 20:00:00,23.7176342,92.7192841,PM2.5,2,10,4
India,Nagaland,Kohima,"PWD Juction, Kohima - NPCB",11-07-2024 20:00:00,25.6635413,94.0989878,PM10,9,87,38
India,Nagaland,Kohima,"PWD Juction, Kohima - NPCB",11-07-2024 20:00:00,25.6635413,94.0989878,CO,4,16,10
India,Odisha,Balasore,"Kalidaspur, Balasore - OSPCB",11-07-2024 20:00:00,21.51161,86.89088,PM2.5,37,107,65
India,Odisha,Balasore,"Kalidaspur, Balasore - OSPCB",11-07-2024 20:00:00,21.51161,86.89088,NO2,3,32,15
India,Odisha,Balasore,"Kalidaspur, Balasore - OSPCB",11-07-2024 20:00:00,21.51161,86.89088,CO,24,116,105
India,Odisha,Baripada,"Meher Colony, Baripada - OSPCB",11-07-2024 20:00:00,21.941841,86.728318,PM2.5,8,60,42
India,Odisha,Bhubaneswar,"Lingraj Mandir, Bhubaneswar - OSPCB",11-07-2024 20:00:00,20.240790,85.836784,NO2,3,15,8
India,Odisha,Bhubaneswar,"Lingraj Mandir, Bhubaneswar - OSPCB",11-07-2024 20:00:00,20.240790,85.836784,SO2,NA,NA,NA
India,Odisha,Bhubaneswar,"Lingraj Mandir, Bhubaneswar - OSPCB",11-07-2024 20:00:00,20.240790,85.836784,CO,2,60,21
India,Odisha,Bhubaneswar,"Lingraj Mandir, Bhubaneswar - OSPCB",11-07-2024 20:00:00,20.240790,85.836784,OZONE,31,118,61
India,Odisha,Bhubaneswar,"Patia, Bhubaneswar - OSPCB",11-07-2024 20:00:00,20.34652,85.81630,PM2.5,32,78,55
India,Odisha,Bhubaneswar,"Patia, Bhubaneswar - OSPCB",11-07-2024 20:00:00,20.34652,85.81630,NO2,3,8,5
India,Odisha,Bhubaneswar,"Patia, Bhubaneswar - OSPCB",11-07-2024 20:00:00,20.34652,85.81630,CO,16,23,20
India,Odisha,Bhubaneswar,"Patia, Bhubaneswar - OSPCB",11-07-2024 20:00:00,20.34652,85.81630,OZONE,40,84,69
India,Odisha,Bileipada,"Tata Township, Bileipada - OSPCB",11-07-2024 20:00:00,22.06156703,85.47409613,SO2,9,71,23
India,Odisha,Byasanagar,"Ferro Chrome Colony, Byasanagar - OSPCB",11-07-2024 20:00:00,20.94185,86.11510,SO2,4,13,6
India,Odisha,Cuttack,"CDA Area, Cuttack - OSPCB",11-07-2024 20:00:00,20.48891     ,85.84768     ,PM10,23,102,73
India,Odisha,Cuttack,"CDA Area, Cuttack - OSPCB",11-07-2024 20:00:00,20.48891     ,85.84768     ,CO,12,18,15
India,Odisha,Keonjhar,"Jagamohanpur, Keonjhar - OSPCB",11-07-2024 20:00:00,21.643900,85.599355,CO,16,52,33
India,Odisha,Nayagarh,"Dabuna, Nayagarh - OSPCB",11-07-2024 20:00:00,21.847279,85.416905,NH3,2,3,3
India,Odisha,Rairangpur,"Divisional Forest Office, Rairangpur - OSPCB",11-07-2024 20:00:00,22.265816,86.174829,PM2.5,44,74,57
India,Odisha,Rourkela,"Fertilizer Township, Rourkela - OSPCB",11-07-2024 20:00:00,22.18972222,84.86277778,NO2,NA,NA,NA
India,Odisha,Rourkela,"Fertilizer Township, Rourkela - OSPCB",11-07-2024 20:00:00,22.18972222,84.86277778,CO,12,24,20
India,Odisha,Rourkela,"Sector-2, Rourkela - OSPCB",11-07-2024 20:00:00,22.24500000,84.88111111,PM10,49,88,63
India,Odisha,Suakati,"OMC Colony, Suakati - OSPCB",11-07-2024 20:00:00,21.606865,85.510538,PM2.5,26,57,38
India,Odisha,Suakati,"OMC Colony, Suakati - OSPCB",11-07-2024 20:00:00,21.606865,85.510538,SO2,7,11,8
India,Odisha,Talcher,"Talcher Coalfields,Talcher - OSPCB",11-07-2024 20:00:00,20.9360711,85.1707021,OZONE,25,72,50
India,Puducherry,Puducherry,"Jawahar Nagar, Puducherry - PPCC",11-07-2024 20:00:00,11.9309,79.8027,SO2,NA,NA,NA
India,Punjab,Amritsar,"Golden Temple, Amritsar - PPCB",11-07-2024 20:00:00,31.620000,74.876512,NO2,6,112,42
India,Punjab,Amritsar,"Golden Temple, Amritsar - PPCB",11-07-2024 20:00:00,31.620000,74.876512,SO2,9,14,12
India,Punjab,Jalandhar,"Civil Line, Jalandhar - PPCB",11-07-2024 20:00:00,31.321907,75.578914,NH3,4,4,4
India,Punjab,Khanna,"Kalal Majra, Khanna - PPCB",11-07-2024 20:00:00,30.736056 ,76.209694,PM2.5,56,153,102
India,Punjab,Ludhiana,"Punjab Agricultural University, Ludhiana - PPCB",11-07-2024 20:00:00,30.9028,75.8086,NH3,5,8,7
India,Punjab,Ludhiana,"Punjab Agricultural University, Ludhiana - PPCB",11-07-2024 20:00:00,30.9028,75.8086,SO2,4,10,7
India,Punjab,Patiala,"Model Town, Patiala - PPCB",11-07-2024 20:00:00,30.349388,76.366642,PM10,75,98,87
India,Punjab,Rupnagar,"Ratanpura, Rupnagar - Ambuja Cements",11-07-2024 20:00:00,31.0325454,76.5623046,NO2,NA,NA,NA
India,Punjab,Rupnagar,"Ratanpura, Rupnagar - Ambuja Cements",11-07-2024 20:00:00,31.0325454,76.5623046,SO2,NA,NA,NA
India,Rajasthan,Alwar,"Moti Doongri, Alwar - RSPCB",11-07-2024 20:00:00,27.554793,76.611536,CO,26,82,40
India,Rajasthan,Baran,"Bamboliya, Baran - RSPCB",11-07-2024 20:00:00,25.106006,76.469948,SO2,5,7,6
India,Rajasthan,Baran,"Bamboliya, Baran - RSPCB",11-07-2024 20:00:00,25.106006,76.469948,CO,19,28,23
India,Rajasthan,Barmer,"Railway Colony, Barmer - RSPCB",11-07-2024 20:00:00,25.747299,71.393989,PM2.5,12,74,34
India,Rajasthan,Bhilwara,"Pratap Nagar, Bhilwara - RSPCB",11-07-2024 20:00:00,25.339605,74.618883,OZONE,6,30,21
India,Rajasthan,Bhiwadi,"RIICO Ind. Area III, Bhiwadi - RSPCB",11-07-2024 20:00:00,28.194909,76.862296,NO2,9,36,18
India,Rajasthan,Bhiwadi,"Vasundhara Nagar_UIT, Bhiwadi - RSPCB",11-07-2024 20:00:00,28.207266,76.829265,PM2.5,21,119,52
India,Rajasthan,Bikaner,"MM Ground, Bikaner - RSPCB",11-07-2024 20:00:00,28.018792,73.292658,SO2,4,7,5
India,Rajasthan,Bikaner,"MM Ground, Bikaner - RSPCB",11-07-2024 20:00:00,28.018792,73.292658,OZONE,2,58,33
India,Rajasthan,Bundi,"New Colony, Bundi - RSPCB",11-07-2024 20:00:00,25.435774,75.644272,PM2.5,24,148,67
India,Rajasthan,Bundi,"New Colony, Bundi - RSPCB",11-07-2024 20:00:00,25.435774,75.644272,NO2,7,25,14
India,Rajasthan,Bundi,"New Colony, Bundi - RSPCB",11-07-2024 20:00:00,25.435774,75.644272,NH3,2,4,3
India,Rajasthan,Bundi,"New Colony, Bundi - RSPCB",11-07-2024 20:00:00,25.435774,75.644272,SO2,1,3,2
India,Rajasthan,Chittorgarh,"Shastri Nagar, Chittorgarh - RSPCB",11-07-2024 20:00:00,24.892047,74.623527,PM2.5,17,163,92
India,Rajasthan,Chittorgarh,"Shastri Nagar, Chittorgarh - RSPCB",11-07-2024 20:00:00,24.892047,74.623527,PM10,88,139,117
India,Rajasthan,Chittorgarh,"Shastri Nagar, Chittorgarh - RSPCB",11-07-2024 20:00:00,24.892047,74.623527,SO2,4,11,8
India,Rajasthan,Churu,"Subash Chowk, Churu - RSPCB",11-07-2024 20:00:00,28.296139,74.961696,PM2.5,18,64,40
India,Rajasthan,Churu,"Subash Chowk, Churu - RSPCB",11-07-2024 20:00:00,28.296139,74.961696,PM10,51,213,94
India,Rajasthan,Dausa,"Khatikan Mohalla, Dausa - RSPCB",11-07-2024 20:00:00,26.895552,76.334753,PM2.5,2,98,54
India,Rajasthan,Dausa,"Khatikan Mohalla, Dausa - RSPCB",11-07-2024 20:00:00,26.895552,76.334753,PM10,18,155,86
India,Rajasthan,Dholpur,"Raja Ganj, Dholpur - RSPCB",11-07-2024 20:00:00,26.699557,77.898881,SO2,NA,NA,NA
India,Rajasthan,Dungarpur,"Bhoiwada, Dungarpur - RSPCB",11-07-2024 20:00:00,23.837789,73.714926,NH3,3,5,4
India,Rajasthan,Jaipur,"Mansarovar Sector-12, Jaipur - RSPCB",11-07-2024 20:00:00,26.843698,75.766894,PM10,29,167,79
India,Rajasthan,Jaipur,"Mansarovar Sector-12, Jaipur - RSPCB",11-07-2024 20:00:00,26.843698,75.766894,OZONE,16,76,63
India,Rajasthan,Jaipur,"Police Commissionerate, Jaipur - RSPCB",11-07-2024 20:00:00,26.9164092,75.7994901,CO,2,39,19
India,Rajasthan,Jaipur,"Police Commissionerate, Jaipur - RSPCB",11-07-2024 20:00:00,26.9164092,75.7994901,OZONE,25,76,57
India,Rajasthan,Jaipur,"Shastri Nagar, Jaipur - RSPCB",11-07-2024 20:00:00,26.9502929,75.730943,CO,30,74,40
India,Rajasthan,Jaipur,"Shastri Nagar, Jaipur - RSPCB",11-07-2024 20:00:00,26.9502929,75.730943,OZONE,16,38,27
India,Rajasthan,Jaisalmer,"Sadar Bazar, Jaisalmer - RSPCB",11-07-2024 20:00:00,26.912329,70.909168,PM10,35,156,77
India,Rajasthan,Jaisalmer,"Sadar Bazar, Jaisalmer - RSPCB",11-07-2024 20:00:00,26.912329,70.909168,NO2,8,19,12
India,Rajasthan,Jaisalmer,"Sadar Bazar, Jaisalmer - RSPCB",11-07-2024 20:00:00,26.912329,70.909168,NH3,1,10,5
India,Rajasthan,Jhalawar,"Rajlaxmi Nagar, Jhalawar - RSPCB",11-07-2024 20:00:00,24.588397,76.172782,PM2.5,46,83,64
India,Rajasthan,Jhalawar,"Rajlaxmi Nagar, Jhalawar - RSPCB",11-07-2024 20:00:00,24.588397,76.172782,OZONE,38,61,54
India,Rajasthan,Jhunjhunu,"Indra Nagar, Jhunjhunu - RSPCB",11-07-2024 20:00:00,28.108988,75.386577,NH3,15,45,26
India,Rajasthan,Jhunjhunu,"Indra Nagar, Jhunjhunu - RSPCB",11-07-2024 20:00:00,28.108988,75.386577,OZONE,4,39,24
India,Rajasthan,Jodhpur,"Collectorate, Jodhpur - RSPCB",11-07-2024 20:00:00,26.268249,73.0193853,PM10,27,152,61
India,Rajasthan,Jodhpur,"Digari Kalan, Jodhpur - RSPCB",11-07-2024 20:00:00,26.295810,73.082283,NO2,5,14,8
India,Rajasthan,Jodhpur,"Digari Kalan, Jodhpur - RSPCB",11-07-2024 20:00:00,26.295810,73.082283,NH3,2,7,4
India,Rajasthan,Jodhpur,"Mandor, Jodhpur - RSPCB",11-07-2024 20:00:00,26.358805,73.047444,PM10,25,56,41
India,Rajasthan,Jodhpur,"Mandor, Jodhpur - RSPCB",11-07-2024 20:00:00,26.358805,73.047444,NO2,17,28,23
India,Rajasthan,Jodhpur,"Mandor, Jodhpur - RSPCB",11-07-2024 20:00:00,26.358805,73.047444,OZONE,25,63,50
India,Rajasthan,Jodhpur,"Samrat Ashok Udhyan, Jodhpur - RSPCB",11-07-2024 20:00:00,26.253384,72.976571,CO,11,19,12
India,Rajasthan,Karauli,"Satyawati Vihar, Karauli - RSPCB",11-07-2024 20:00:00,26.506177,77.025989,PM10,5,74,28
India,Rajasthan,Kota,"Dhanmandi, Kota - RSPCB",11-07-2024 20:00:00,25.164090,75.858137,CO,26,47,35
India,Rajasthan,Kota,"Nayapura, Kota - RSPCB",11-07-2024 20:00:00,25.196024,75.855668,PM10,16,92,60
India,Rajasthan,Kota,"Shrinath Puram, Kota - RSPCB",11-07-2024 20:00:00,25.14389,75.821256,OZONE,20,50,38
India,Rajasthan,Nagaur,"Karni Colony, Nagaur - RSPCB",11-07-2024 20:00:00,27.213494,73.734444,NH3,4,9,7
India,Rajasthan,Nagaur,"Karni Colony, Nagaur - RSPCB",11-07-2024 20:00:00,27.213494,73.734444,CO,14,30,23
India,Rajasthan,Pali,"Indira Colony Vistar, Pali - RSPCB",11-07-2024 20:00:00,25.771061, 73.340227,NO2,18,57,29
India,Rajasthan,Pali,"Indira Colony Vistar, Pali - RSPCB",11-07-2024 20:00:00,25.771061, 73.340227,NH3,6,17,12
India,Rajasthan,Pratapgarh,"Pragati Nagar, Pratapgarh - RSPCB",11-07-2024 20:00:00,24.041198,74.780702,NO2,7,15,11
India,Rajasthan,Pratapgarh,"Pragati Nagar, Pratapgarh - RSPCB",11-07-2024 20:00:00,24.041198,74.780702,CO,12,25,15
India,Rajasthan,Pratapgarh,"Pragati Nagar, Pratapgarh - RSPCB",11-07-2024 20:00:00,24.041198,74.780702,OZONE,51,91,80
India,Rajasthan,Rajsamand,"Dhoinda, Rajsamand - RSPCB",11-07-2024 20:00:00,25.036360,73.883502,NH3,1,4,4
India,Rajasthan,Rajsamand,"Dhoinda, Rajsamand - RSPCB",11-07-2024 20:00:00,25.036360,73.883502,SO2,9,11,10
India,Rajasthan,Sawai Madhopur,"Sahu Nagar, Sawai Madhopur - RSPCB",11-07-2024 20:00:00,26.031443,76.359327,PM2.5,9,33,22
India,Rajasthan,Sawai Madhopur,"Sahu Nagar, Sawai Madhopur - RSPCB",11-07-2024 20:00:00,26.031443,76.359327,NH3,2,3,2
India,Rajasthan,Sawai Madhopur,"Sahu Nagar, Sawai Madhopur - RSPCB",11-07-2024 20:00:00,26.031443,76.359327,CO,26,64,44
India,Rajasthan,Sikar,"Radhakishan Pura, Sikar - RSPCB",11-07-2024 20:00:00,27.608912,75.153302,NO2,7,19,13
India,Rajasthan,Sikar,"Radhakishan Pura, Sikar - RSPCB",11-07-2024 20:00:00,27.608912,75.153302,OZONE,39,109,91
India,Rajasthan,Sirohi,"Vedhaynath Colony, Sirohi - RSPCB",11-07-2024 20:00:00,24.885261,72.857549,SO2,2,6,4
India,Rajasthan,Sri Ganganagar,"Old City, Sri Ganganagar - RSPCB",11-07-2024 20:00:00,29.931624,73.864511,PM10,117,425,259
India,Rajasthan,Sri Ganganagar,"Old City, Sri Ganganagar - RSPCB",11-07-2024 20:00:00,29.931624,73.864511,CO,1,17,6
India,Rajasthan,Tonk,"Shastri Nagar, Tonk - RSPCB",11-07-2024 20:00:00,26.159933,75.780517,SO2,3,6,5
India,Rajasthan,Tonk,"Shastri Nagar, Tonk - RSPCB",11-07-2024 20:00:00,26.159933,75.780517,CO,13,31,15
India,Rajasthan,Udaipur,"Ashok Nagar, Udaipur - RSPCB",11-07-2024 20:00:00,24.5886166,73.6321397,PM2.5,39,77,57
India,Rajasthan,Udaipur,"Ashok Nagar, Udaipur - RSPCB",11-07-2024 20:00:00,24.5886166,73.6321397,NO2,9,88,52
India,Sikkim,Gangtok,"Zero Point GICI, Gangtok - SSPCB",11-07-2024 20:00:00,27.338530,88.614099,NH3,1,1,1
India,Sikkim,Gangtok,"Zero Point GICI, Gangtok - SSPCB",11-07-2024 20:00:00,27.338530,88.614099,SO2,11,12,12
India,Sikkim,Gangtok,"Zero Point GICI, Gangtok - SSPCB",11-07-2024 20:00:00,27.338530,88.614099,CO,3,11,8
India,TamilNadu,Ariyalur,"Keelapalur, Ariyalur - TNPCB",11-07-2024 20:00:00,11.06825,79.07033,PM10,NA,NA,NA
India,TamilNadu,Ariyalur,"Keelapalur, Ariyalur - TNPCB",11-07-2024 20:00:00,11.06825,79.07033,NH3,1,3,2
India,TamilNadu,Ariyalur,"Keelapalur, Ariyalur - TNPCB",11-07-2024 20:00:00,11.06825,79.07033,SO2,35,37,36
India,TamilNadu,Chennai,"Alandur Bus Depot, Chennai - CPCB",11-07-2024 20:00:00,12.9099161,80.1076538,CO,60,64,62
India,TamilNadu,Chennai,"Kodungaiyur, Chennai - TNPCB",11-07-2024 20:00:00,13.1278,80.2642,PM10,1,66,39
India,TamilNadu,Chennai,"Manali, Chennai - CPCB",11-07-2024 20:00:00,13.164544,80.26285,PM2.5,10,75,49
India,TamilNadu,Chennai,"Perungudi, Chennai - TNPCB",11-07-2024 20:00:00,12.9533,80.2357,PM2.5,7,50,26
India,TamilNadu,Chennai,"Perungudi, Chennai - TNPCB",11-07-2024 20:00:00,12.9533,80.2357,OZONE,8,17,10
India,TamilNadu,Chennai,"Royapuram, Chennai - TNPCB",11-07-2024 20:00:00,13.1036,80.2909,OZONE,4,9,6
India,TamilNadu,Chennai,"Velachery Res. Area, Chennai - CPCB",11-07-2024 20:00:00,13.0052189,80.2398125,PM2.5,NA,NA,NA
India,TamilNadu,Chennai,"Velachery Res. Area, Chennai - CPCB",11-07-2024 20:00:00,13.0052189,80.2398125,PM10,NA,NA,NA
India,TamilNadu,Chennai,"Velachery Res. Area, Chennai - CPCB",11-07-2024 20:00:00,13.0052189,80.2398125,SO2,NA,NA,NA
India,TamilNadu,Chennai,"Velachery Res. Area, Chennai - CPCB",11-07-2024 20:00:00,13.0052189,80.2398125,OZONE,6,13,8
India,TamilNadu,Cuddalore,"Semmandalam, Cuddalore - TNPCB",11-07-2024 20:00:00,11.7637683,79.7499835,OZONE,1,2,1
India,TamilNadu,Ooty,"Bombay Castel, Ooty - TNPCB",11-07-2024 20:00:00,11.4068288,76.7138973,PM2.5,NA,NA,NA
India,TamilNadu,Ooty,"Bombay Castel, Ooty - TNPCB",11-07-2024 20:00:00,11.4068288,76.7138973,NH3,NA,NA,NA
India,TamilNadu,Ooty,"Bombay Castel, Ooty - TNPCB",11-07-2024 20:00:00,11.4068288,76.7138973,SO2,NA,NA,NA
India,TamilNadu,Palkalaiperur,"Bharathidasan University, Palkalaiperur - TNPCB",11-07-2024 20:00:00,10.681158,78.741746,PM10,NA,NA,NA
India,TamilNadu,Palkalaiperur,"Bharathidasan University, Palkalaiperur - TNPCB",11-07-2024 20:00:00,10.681158,78.741746,CO,2,8,4
India,TamilNadu,Ramanathapuram,"Chalai Bazaar, Ramanathapuram - TNPCB",11-07-2024 20:00:00,9.36399,78.831977,PM10,20,75,39
India,TamilNadu,Thoothukudi,"Meelavittan, Thoothukudi - TNPCB",11-07-2024 20:00:00,8.816428 ,78.099039,SO2,11,18,14
India,TamilNadu,Vellore,"Vasanthapuram, Vellore - TNPCB",11-07-2024 20:00:00,12.909494,79.131861,PM2.5,NA,NA,NA
India,TamilNadu,Virudhunagar,"Collectorate Office, Virudhunagar - TNPCB",11-07-2024 20:00:00,9.559382,77.948828,PM10,8,93,34
India,TamilNadu,Virudhunagar,"Collectorate Office, Virudhunagar - TNPCB",11-07-2024 20:00:00,9.559382,77.948828,NO2,NA,NA,NA
India,TamilNadu,Virudhunagar,"Collectorate Office, Virudhunagar - TNPCB",11-07-2024 20:00:00,9.559382,77.948828,OZONE,6,6,6
India,Telangana,Hyderabad,"ICRISAT Patancheru, Hyderabad - TSPCB",11-07-2024 20:00:00,17.518400,78.278777,PM2.5,6,27,14
India,Telangana,Hyderabad,"ICRISAT Patancheru, Hyderabad - TSPCB",11-07-2024 20:00:00,17.518400,78.278777,PM10,11,36,25
India,Telangana,Hyderabad,"ICRISAT Patancheru, Hyderabad - TSPCB",11-07-2024 20:00:00,17.518400,78.278777,NO2,6,174,16
India,Telangana,Hyderabad,"IDA Pashamylaram, Hyderabad - TSPCB",11-07-2024 20:00:00,17.5316895,78.218939,PM10,19,106,44
India,Telangana,Hyderabad,"IDA Pashamylaram, Hyderabad - TSPCB",11-07-2024 20:00:00,17.5316895,78.218939,CO,29,42,40
India,Telangana,Hyderabad,"IDA Pashamylaram, Hyderabad - TSPCB",11-07-2024 20:00:00,17.5316895,78.218939,OZONE,7,12,9
India,Telangana,Hyderabad,"IITH Kandi, Hyderabad - TSPCB",11-07-2024 20:00:00,17.585705,78.126199,PM10,NA,NA,NA
India,Telangana,Hyderabad,"Kompally Municipal Office, Hyderabad - TSPCB",11-07-2024 20:00:00,17.544899,78.486949,SO2,6,21,13
India,Telangana,Hyderabad,"Nacharam_TSIIC IALA, Hyderabad - TSPCB",11-07-2024 20:00:00,17.429398,78.569354,PM2.5,NA,NA,NA
India,Telangana,Hyderabad,"Nacharam_TSIIC IALA, Hyderabad - TSPCB",11-07-2024 20:00:00,17.429398,78.569354,OZONE,45,45,45
India,Telangana,Hyderabad,"New Malakpet, Hyderabad - TSPCB",11-07-2024 20:00:00,17.37206,78.50864,CO,18,50,34
India,Telangana,Hyderabad,"Ramachandrapuram, Hyderabad - TSPCB",11-07-2024 20:00:00,17.528544,78.286195,PM2.5,NA,NA,NA
India,Telangana,Hyderabad,"Zoo Park, Hyderabad - TSPCB",11-07-2024 20:00:00,17.349694,78.451437,PM10,NA,NA,NA
India,Tripura,Agartala,"Bardowali, Agartala - Tripura SPCB",11-07-2024 20:00:00,23.8175497,91.2726974,NO2,5,9,7
India,Tripura,Agartala,"Bardowali, Agartala - Tripura SPCB",11-07-2024 20:00:00,23.8175497,91.2726974,NH3,3,7,6
India,Uttar_Pradesh,Agra,"Manoharpur, Agra - UPPCB",11-07-2024 20:00:00,27.23711,78.01936,OZONE,2,11,9
India,Uttar_Pradesh,Agra,"Sector-3B Avas Vikas Colony, Agra - UPPCB",11-07-2024 20:00:00,27.19412,77.96237,SO2,16,19,17
India,Uttar_Pradesh,Agra,"Sector-3B Avas Vikas Colony, Agra - UPPCB",11-07-2024 20:00:00,27.19412,77.96237,CO,7,20,8
India,Uttar_Pradesh,Agra,"Shahjahan Garden, Agra - UPPCB",11-07-2024 20:00:00,27.169338,78.03582,PM2.5,NA,NA,NA
India,Uttar_Pradesh,Agra,"Shahjahan Garden, Agra - UPPCB",11-07-2024 20:00:00,27.169338,78.03582,NO2,NA,NA,NA
India,Uttar_Pradesh,Agra,"Shahjahan Garden, Agra - UPPCB",11-07-2024 20:00:00,27.169338,78.03582,NH3,NA,NA,NA
India,Uttar_Pradesh,Bareilly,"Civil Lines, Bareilly - UPPCB",11-07-2024 20:00:00,28.359581,79.414455,NH3,NA,NA,NA
India,Uttar_Pradesh,Bareilly,"Civil Lines, Bareilly - UPPCB",11-07-2024 20:00:00,28.359581,79.414455,SO2,21,24,23
India,Uttar_Pradesh,Bareilly,"Civil Lines, Bareilly - UPPCB",11-07-2024 20:00:00,28.359581,79.414455,CO,2,33,7
India,Uttar_Pradesh,Bareilly,"Civil Lines, Bareilly - UPPCB",11-07-2024 20:00:00,28.359581,79.414455,OZONE,4,13,6
India,Uttar_Pradesh,Bareilly,"Rajendra Nagar, Bareilly - UPPCB",11-07-2024 20:00:00,28.38910936,79.42963708,NH3,1,1,1
India,Uttar_Pradesh,Bareilly,"Rajendra Nagar, Bareilly - UPPCB",11-07-2024 20:00:00,28.38910936,79.42963708,SO2,19,20,19
India,Uttar_Pradesh,Bulandshahr,"Yamunapuram, Bulandshahr - UPPCB",11-07-2024 20:00:00,28.406963,77.849831,NO2,6,28,13
India,Uttar_Pradesh,Bulandshahr,"Yamunapuram, Bulandshahr - UPPCB",11-07-2024 20:00:00,28.406963,77.849831,SO2,12,18,15
India,Uttar_Pradesh,Bulandshahr,"Yamunapuram, Bulandshahr - UPPCB",11-07-2024 20:00:00,28.406963,77.849831,OZONE,1,43,31
India,Uttar_Pradesh,Firozabad,"Nagla Bhau, Firozabad - UPPCB",11-07-2024 20:00:00,27.168897,78.376960,SO2,17,19,18
India,Uttar_Pradesh,Firozabad,"Vibhab Nagar, Firozabad - UPPCB",11-07-2024 20:00:00,27.1594,78.3953,PM2.5,NA,NA,NA
India,Uttar_Pradesh,Firozabad,"Vibhab Nagar, Firozabad - UPPCB",11-07-2024 20:00:00,27.1594,78.3953,NH3,1,2,2
India,Uttar_Pradesh,Firozabad,"Vibhab Nagar, Firozabad - UPPCB",11-07-2024 20:00:00,27.1594,78.3953,CO,9,26,18
India,Uttar_Pradesh,Ghaziabad,"Indirapuram, Ghaziabad - UPPCB",11-07-2024 20:00:00,28.646233,77.358075,NH3,13,16,14
India,Uttar_Pradesh,Ghaziabad,"Loni, Ghaziabad - UPPCB",11-07-2024 20:00:00,28.757294,77.278792,NH3,1,9,4
India,Uttar_Pradesh,Ghaziabad,"Sanjay Nagar, Ghaziabad - UPPCB",11-07-2024 20:00:00,28.685382,77.453839,SO2,10,19,15
India,Uttar_Pradesh,Ghaziabad,"Vasundhara, Ghaziabad - UPPCB",11-07-2024 20:00:00,28.6603346,77.3572563,SO2,3,11,7
India,Uttar_Pradesh,Greater Noida,"Knowledge Park - III, Greater Noida - UPPCB",11-07-2024 20:00:00,28.47272,77.482000,OZONE,1,115,88
India,Uttar_Pradesh,Greater Noida,"Knowledge Park - V, Greater Noida - UPPCB",11-07-2024 20:00:00,28.557054,77.453663,PM2.5,61,218,99
India,Uttar_Pradesh,Greater Noida,"Knowledge Park - V, Greater Noida - UPPCB",11-07-2024 20:00:00,28.557054,77.453663,NO2,18,47,27
India,Uttar_Pradesh,Hapur,"Anand Vihar, Hapur - UPPCB",11-07-2024 20:00:00,28.725645,77.749675,CO,52,149,71
India,Uttar_Pradesh,Hapur,"Anand Vihar, Hapur - UPPCB",11-07-2024 20:00:00,28.725645,77.749675,OZONE,11,91,28
India,Uttar_Pradesh,Jhansi,"Shivaji Nagar, Jhansi - UPPCB",11-07-2024 20:00:00,25.4547,78.6039,SO2,19,26,21
India,Uttar_Pradesh,Kanpur,"FTI Kidwai Nagar, Kanpur - UPPCB",11-07-2024 20:00:00,26.428282,80.327067,OZONE,19,44,27
India,Uttar_Pradesh,Kanpur,"NSI Kalyanpur, Kanpur - UPPCB",11-07-2024 20:00:00,26.509954,80.249612,PM10,41,122,73
India,Uttar_Pradesh,Kanpur,"NSI Kalyanpur, Kanpur - UPPCB",11-07-2024 20:00:00,26.509954,80.249612,SO2,18,23,20
India,Uttar_Pradesh,Kanpur,"NSI Kalyanpur, Kanpur - UPPCB",11-07-2024 20:00:00,26.509954,80.249612,OZONE,19,52,37
India,Uttar_Pradesh,Kanpur,"Nehru Nagar, Kanpur - UPPCB",11-07-2024 20:00:00,26.4703136,80.3229863,OZONE,8,27,11
India,Uttar_Pradesh,Lucknow,"B R Ambedkar University, Lucknow - UPPCB",11-07-2024 20:00:00,26.766433,80.927299,SO2,13,13,13
India,Uttar_Pradesh,Lucknow,"Kendriya Vidyalaya, Lucknow - CPCB",11-07-2024 20:00:00,26.906111,80.948222,PM10,44,72,56
India,Uttar_Pradesh,Lucknow,"Kendriya Vidyalaya, Lucknow - CPCB",11-07-2024 20:00:00,26.906111,80.948222,NO2,12,35,19
India,Uttar_Pradesh,Lucknow,"Kendriya Vidyalaya, Lucknow - CPCB",11-07-2024 20:00:00,26.906111,80.948222,OZONE,2,27,19
India,Uttar_Pradesh,Lucknow,"Talkatora District Industries Center, Lucknow - CPCB",11-07-2024 20:00:00,26.83399722,80.8917361,PM2.5,36,88,58
India,Uttar_Pradesh,Lucknow,"Talkatora District Industries Center, Lucknow - CPCB",11-07-2024 20:00:00,26.83399722,80.8917361,PM10,81,113,99
India,Uttar_Pradesh,Meerut,"Ganga Nagar, Meerut - UPPCB",11-07-2024 20:00:00,28.999264,77.7590354,OZONE,2,21,19
India,Uttar_Pradesh,Meerut,"Jai Bhim Nagar, Meerut - UPPCB",11-07-2024 20:00:00,28.9535882,77.7622941,SO2,6,8,7
India,Uttar_Pradesh,Moradabad,"Buddhi Vihar, Moradabad - UPPCB",11-07-2024 20:00:00,28.83526,78.74460,SO2,22,28,25
India,Uttar_Pradesh,Moradabad,"Employment Office, Moradabad - UPPCB",11-07-2024 20:00:00,28.88528,78.73880,PM10,41,66,52
India,Uttar_Pradesh,Moradabad,"Employment Office, Moradabad - UPPCB",11-07-2024 20:00:00,28.88528,78.73880,NO2,14,18,17
India,Uttar_Pradesh,Moradabad,"Jigar Colony, Moradabad - UPPCB",11-07-2024 20:00:00,28.856664,78.772638,NH3,3,3,3
India,Uttar_Pradesh,Moradabad,"Jigar Colony, Moradabad - UPPCB",11-07-2024 20:00:00,28.856664,78.772638,SO2,15,17,16
India,Uttar_Pradesh,Moradabad,"Jigar Colony, Moradabad - UPPCB",11-07-2024 20:00:00,28.856664,78.772638,OZONE,2,30,7
India,Uttar_Pradesh,Moradabad,"Kashiram Nagar, Moradabad - UPPCB",11-07-2024 20:00:00,28.849399,78.742362,PM10,38,101,61
India,Uttar_Pradesh,Muzaffarnagar,"New Mandi, Muzaffarnagar - UPPCB",11-07-2024 20:00:00,29.4723508,77.7194031,PM10,98,150,119
India,Uttar_Pradesh,Muzaffarnagar,"New Mandi, Muzaffarnagar - UPPCB",11-07-2024 20:00:00,29.4723508,77.7194031,OZONE,11,115,90
India,Uttar_Pradesh,Noida,"Sector - 125, Noida - UPPCB",11-07-2024 20:00:00,28.5447608,77.3231257,OZONE,4,10,8
India,Uttar_Pradesh,Noida,"Sector - 62, Noida - IMD",11-07-2024 20:00:00,28.6245479,77.3577104,PM10,66,161,107
India,Uttar_Pradesh,Noida,"Sector-1, Noida - UPPCB",11-07-2024 20:00:00,28.5898,77.3101,PM2.5,50,237,109
India,Uttar_Pradesh,Noida,"Sector-1, Noida - UPPCB",11-07-2024 20:00:00,28.5898,77.3101,NH3,5,15,8
India,Uttar_Pradesh,Noida,"Sector-1, Noida - UPPCB",11-07-2024 20:00:00,28.5898,77.3101,CO,1,64,22
India,Uttar_Pradesh,Noida,"Sector-116, Noida - UPPCB",11-07-2024 20:00:00,28.569230,77.393848,OZONE,2,273,183
India,Uttar_Pradesh,Prayagraj,"Jhunsi, Prayagraj - UPPCB",11-07-2024 20:00:00,25.425602,81.917152,NO2,6,6,6
India,Uttar_Pradesh,Prayagraj,"Jhunsi, Prayagraj - UPPCB",11-07-2024 20:00:00,25.425602,81.917152,NH3,5,5,5
India,Uttar_Pradesh,Prayagraj,"Jhunsi, Prayagraj - UPPCB",11-07-2024 20:00:00,25.425602,81.917152,CO,10,24,14
India,Uttar_Pradesh,Prayagraj,"Motilal Nehru NIT, Prayagraj - UPPCB",11-07-2024 20:00:00,25.494,81.863,PM10,12,78,20
India,Uttar_Pradesh,Prayagraj,"Motilal Nehru NIT, Prayagraj - UPPCB",11-07-2024 20:00:00,25.494,81.863,SO2,11,28,15
India,Uttar_Pradesh,Prayagraj,"Motilal Nehru NIT, Prayagraj - UPPCB",11-07-2024 20:00:00,25.494,81.863,OZONE,6,25,18
India,Uttar_Pradesh,Prayagraj,"Nagar Nigam, Prayagraj - UPPCB",11-07-2024 20:00:00,25.44919916 ,81.82735986 ,PM10,15,90,30
India,Uttar_Pradesh,Varanasi,"Ardhali Bazar, Varanasi - UPPCB",11-07-2024 20:00:00,25.3505986,82.9083074,PM2.5,22,79,58
India,Uttar_Pradesh,Varanasi,"Ardhali Bazar, Varanasi - UPPCB",11-07-2024 20:00:00,25.3505986,82.9083074,NO2,39,53,43
India,Uttar_Pradesh,Varanasi,"Ardhali Bazar, Varanasi - UPPCB",11-07-2024 20:00:00,25.3505986,82.9083074,OZONE,9,183,59
India,Uttar_Pradesh,Varanasi,"Bhelupur, Varanasi - UPPCB",11-07-2024 20:00:00,25.301778,82.996789,PM2.5,16,55,29
India,Uttar_Pradesh,Varanasi,"Maldahiya, Varanasi - UPPCB",11-07-2024 20:00:00,25.32393,82.99687,NO2,1,13,2
India,Uttar_Pradesh,Vrindavan,"Omex Eternity, Vrindavan - UPPCB",11-07-2024 20:00:00,27.5714090,77.6557570,PM10,15,282,62
India,Uttarakhand,Dehradun,"Doon University, Dehradun - UKPCB",11-07-2024 20:00:00,30.269444,78.044167,PM2.5,11,119,56
India,Uttarakhand,Kashipur,"Govt. Girls Inter College, Kashipur - UKPCB",11-07-2024 20:00:00,29.2124114,78.9611753,PM10,22,108,77
India,Uttarakhand,Rishikesh,"Shivaji Nagar, Rishikesh - UKPCB",11-07-2024 20:00:00,30.075911,78.2859547,NO2,6,10,8
India,Uttarakhand,Rishikesh,"Shivaji Nagar, Rishikesh - UKPCB",11-07-2024 20:00:00,30.075911,78.2859547,NH3,2,4,3
India,West_Bengal,Asansol,"Asansol Court Area, Asansol - WBPCB",11-07-2024 20:00:00,23.685297,86.945968,PM2.5,39,138,84
India,West_Bengal,Asansol,"Asansol Court Area, Asansol - WBPCB",11-07-2024 20:00:00,23.685297,86.945968,PM10,49,138,98
India,West_Bengal,Asansol,"Asansol Court Area, Asansol - WBPCB",11-07-2024 20:00:00,23.685297,86.945968,SO2,11,20,13
India,West_Bengal,Asansol,"Asansol Court Area, Asansol - WBPCB",11-07-2024 20:00:00,23.685297,86.945968,CO,11,150,27
India,West_Bengal,Asansol,"Evelyn Lodge, Asansol - WBPCB",11-07-2024 20:00:00,23.6979360,86.9443950,OZONE,23,62,50
India,West_Bengal,Barrackpore,"SVSPA Campus, Barrackpore - WBPCB",11-07-2024 20:00:00,22.7605581,88.3617589,PM2.5,NA,NA,NA
India,West_Bengal,Barrackpore,"SVSPA Campus, Barrackpore - WBPCB",11-07-2024 20:00:00,22.7605581,88.3617589,SO2,NA,NA,NA
India,West_Bengal,Barrackpore,"SVSPA Campus, Barrackpore - WBPCB",11-07-2024 20:00:00,22.7605581,88.3617589,CO,28,43,33
India,West_Bengal,Durgapur,"PCBL Residential Complex, Durgapur - WBPCB",11-07-2024 20:00:00,23.5087640,87.3544400,NO2,17,100,45
India,West_Bengal,Durgapur,"PCBL Residential Complex, Durgapur - WBPCB",11-07-2024 20:00:00,23.5087640,87.3544400,NH3,1,1,1
India,West_Bengal,Durgapur,"PCBL Residential Complex, Durgapur - WBPCB",11-07-2024 20:00:00,23.5087640,87.3544400,OZONE,1,41,31
India,West_Bengal,Haldia,"Priyambada Housing Estate, Haldia - WBPCB",11-07-2024 20:00:00,22.06047,88.109737,PM10,37,70,50
India,West_Bengal,Howrah,"Belur Math, Howrah - WBPCB",11-07-2024 20:00:00,22.629801,88.352017,NH3,5,6,5
India,West_Bengal,Howrah,"Botanical Garden, Howrah - WBPCB",11-07-2024 20:00:00,22.554954,88.292568,SO2,NA,NA,NA
India,West_Bengal,Howrah,"Botanical Garden, Howrah - WBPCB",11-07-2024 20:00:00,22.554954,88.292568,CO,16,22,19
India,West_Bengal,Howrah,"Padmapukur, Howrah - WBPCB",11-07-2024 20:00:00,22.5687319,88.2797276,NO2,16,24,20
India,West_Bengal,Howrah,"Padmapukur, Howrah - WBPCB",11-07-2024 20:00:00,22.5687319,88.2797276,CO,9,66,29
India,West_Bengal,Kolkata,"Bidhannagar, Kolkata - WBPCB",11-07-2024 20:00:00,22.58157048,88.41002457,OZONE,27,33,30
India,West_Bengal,Kolkata,"Fort William, Kolkata - WBPCB",11-07-2024 20:00:00,22.556640,88.342674,PM2.5,26,138,53
India,West_Bengal,Kolkata,"Fort William, Kolkata - WBPCB",11-07-2024 20:00:00,22.556640,88.342674,NO2,16,36,24
India,West_Bengal,Kolkata,"Jadavpur, Kolkata - WBPCB",11-07-2024 20:00:00,22.49929,88.36917,NO2,14,18,16
India,West_Bengal,Kolkata,"Jadavpur, Kolkata - WBPCB",11-07-2024 20:00:00,22.49929,88.36917,CO,18,22,20
India,West_Bengal,Kolkata,"Rabindra Sarobar, Kolkata - WBPCB",11-07-2024 20:00:00,22.51106,88.35142,OZONE,14,34,29
India,West_Bengal,Kolkata,"Victoria, Kolkata - WBPCB",11-07-2024 20:00:00,22.5448082,88.3403691,CO,10,28,21
India,West_Bengal,Kolkata,"Victoria, Kolkata - WBPCB",11-07-2024 20:00:00,22.5448082,88.3403691,OZONE,1,33,15
India,West_Bengal,Siliguri,"Ward-32 Bapupara, Siliguri - WBPCB",11-07-2024 20:00:00,26.6879226,88.4152495,NH3,10,11,10
India,Andhra_Pradesh,Amaravati,"Secretariat, Amaravati - APPCB",11-07-2024 20:00:00,16.5150833,80.5181667,PM2.5,11,44,25
India,Andhra_Pradesh,Amaravati,"Secretariat, Amaravati - APPCB",11-07-2024 20:00:00,16.5150833,80.5181667,NO2,4,19,8
India,Andhra_Pradesh,Amaravati,"Secretariat, Amaravati - APPCB",11-07-2024 20:00:00,16.5150833,80.5181667,NH3,3,4,4
India,Andhra_Pradesh,Amaravati,"Secretariat, Amaravati - APPCB",11-07-2024 20:00:00,16.5150833,80.5181667,SO2,16,20,17
India,Andhra_Pradesh,Anantapur,"Gulzarpet, Anantapur - APPCB",11-07-2024 20:00:00,14.675886,77.593027,PM10,32,461,77
India,Andhra_Pradesh,Anantapur,"Gulzarpet, Anantapur - APPCB",11-07-2024 20:00:00,14.675886,77.593027,NO2,10,12,10
India,Andhra_Pradesh,Chittoor,"Gangineni Cheruvu, Chittoor - APPCB",11-07-2024 20:00:00,13.204880,79.097889,PM10,29,88,48
India,Andhra_Pradesh,Chittoor,"Gangineni Cheruvu, Chittoor - APPCB",11-07-2024 20:00:00,13.204880,79.097889,CO,22,34,27
India,Andhra_Pradesh,Rajamahendravaram,"Anand Kala Kshetram, Rajamahendravaram - APPCB",11-07-2024 20:00:00,16.9872867,81.7363176,PM2.5,16,51,31
India,Andhra_Pradesh,Rajamahendravaram,"Anand Kala Kshetram, Rajamahendravaram - APPCB",11-07-2024 20:00:00,16.9872867,81.7363176,OZONE,4,41,9
India,Andhra_Pradesh,Tirupati,"Tirumala, Tirupati - APPCB",11-07-2024 20:00:00,13.67,79.35,NO2,NA,NA,NA
India,Andhra_Pradesh,Tirupati,"Tirumala, Tirupati - APPCB",11-07-2024 20:00:00,13.67,79.35,SO2,NA,NA,NA
India,Andhra_Pradesh,Tirupati,"Vaikuntapuram, Tirupati - APPCB",11-07-2024 20:00:00,13.615387,79.409230,PM10,NA,NA,NA
India,Andhra_Pradesh,Tirupati,"Vaikuntapuram, Tirupati - APPCB",11-07-2024 20:00:00,13.615387,79.409230,CO,17,42,28
India,Andhra_Pradesh,Vijayawada,"Kanuru, Vijayawada - APPCB",11-07-2024 20:00:00,16.486692,80.699436,PM10,52,84,63
India,Andhra_Pradesh,Vijayawada,"Kanuru, Vijayawada - APPCB",11-07-2024 20:00:00,16.486692,80.699436,SO2,6,12,8
India,Andhra_Pradesh,Vijayawada,"Rajiv Nagar, Vijayawada - APPCB",11-07-2024 20:00:00,16.554731,80.649110,PM2.5,47,76,50
India,Andhra_Pradesh,Vijayawada,"Rajiv Nagar, Vijayawada - APPCB",11-07-2024 20:00:00,16.554731,80.649110,PM10,53,88,56
India,Andhra_Pradesh,Vijayawada,"Rajiv Nagar, Vijayawada - APPCB",11-07-2024 20:00:00,16.554731,80.649110,NO2,10,10,10
India,Andhra_Pradesh,Visakhapatnam,"GVM Corporation, Visakhapatnam - APPCB",11-07-2024 20:00:00,17.72,83.3,PM2.5,39,128,70
India,Andhra_Pradesh,Visakhapatnam,"GVM Corporation, Visakhapatnam - APPCB",11-07-2024 20:00:00,17.72,83.3,PM10,88,189,121
India,Andhra_Pradesh,Visakhapatnam,"GVM Corporation, Visakhapatnam - APPCB",11-07-2024 20:00:00,17.72,83.3,OZONE,9,24,13
India,Arunachal_Pradesh,Naharlagun,"Naharlagun, Naharlagun - APSPCB",11-07-2024 20:00:00,27.103358,93.679645,PM2.5,3,28,16
India,Arunachal_Pradesh,Naharlagun,"Naharlagun, Naharlagun - APSPCB",11-07-2024 20:00:00,27.103358,93.679645,OZONE,3,3,3
India,Assam,Byrnihat,"Central Academy for SFS, Byrnihat - PCBA",11-07-2024 20:00:00,26.071318,91.87488,CO,8,17,10
India,Assam,Guwahati,"LGBI Airport, Guwahati - PCBA",11-07-2024 20:00:00,26.10887,91.589544,OZONE,25,28,26
India,Assam,Guwahati,"Railway Colony, Guwahati - PCBA",11-07-2024 20:00:00,26.181742,91.78063,OZONE,4,45,7
India,Assam,Nagaon,"Christianpatty, Nagaon - PCBA",11-07-2024 20:00:00,26.349082,92.68449,NO2,1,35,5
India,Assam,Nagaon,"Christianpatty, Nagaon - PCBA",11-07-2024 20:00:00,26.349082,92.68449,SO2,10,11,10
India,Assam,Nagaon,"Christianpatty, Nagaon - PCBA",11-07-2024 20:00:00,26.349082,92.68449,CO,42,101,61
India,Assam,Sivasagar,"Girls College, Sivasagar - PCBA",11-07-2024 20:00:00,26.987634,94.636574,NH3,1,3,1
India,Assam,Sivasagar,"Girls College, Sivasagar - PCBA",11-07-2024 20:00:00,26.987634,94.636574,SO2,4,14,8
India,Bihar,Araria,"Kharahiya Basti, Araria - BSPCB",11-07-2024 20:00:00,26.146529,87.454184,PM2.5,NA,NA,NA
India,Bihar,Arrah,"New DM Office, Arrah - BSPCB",11-07-2024 20:00:00,25.5626095,84.663264,PM10,NA,NA,NA
India,Bihar,Arrah,"New DM Office, Arrah - BSPCB",11-07-2024 20:00:00,25.5626095,84.663264,NH3,NA,NA,NA
India,Bihar,Bettiah,"Kamalnath Nagar, Bettiah - BSPCB",11-07-2024 20:00:00,26.80365,84.51954,OZONE,1,9,4
India,Bihar,Bhagalpur,"Mayaganj, Bhagalpur - BSPCB",11-07-2024 20:00:00,25.265194,87.012947,SO2,19,49,31
India,Bihar,Bihar Sharif,"D M Colony, Bihar Sharif - BSPCB",11-07-2024 20:00:00,25.204762,85.514960,PM2.5,8,50,30
India,Bihar,Bihar Sharif,"D M Colony, Bihar Sharif - BSPCB",11-07-2024 20:00:00,25.204762,85.514960,NH3,1,1,1
India,Bihar,Buxar,"Charitra Van, Buxar - BSPCB (Formerly known as Central Jail)",11-07-2024 20:00:00,25.567520,83.966379,NH3,1,1,1
India,Bihar,Buxar,"Charitra Van, Buxar - BSPCB (Formerly known as Central Jail)",11-07-2024 20:00:00,25.567520,83.966379,SO2,2,5,4
India,Bihar,Chhapra,"Darshan Nagar, Chhapra - BSPCB",11-07-2024 20:00:00,25.7808257,84.7446768,SO2,NA,NA,NA
India,Bihar,Chhapra,"Darshan Nagar, Chhapra - BSPCB",11-07-2024 20:00:00,25.7808257,84.7446768,CO,26,49,36
India,Bihar,Hajipur,"Industrial Area, Hajipur - BSPCB",11-07-2024 20:00:00,25.697189,85.245900,CO,6,30,17
India,Bihar,Katihar,"Mirchaibari, Katihar - BSPCB",11-07-2024 20:00:00,25.560083,87.553265,PM10,7,83,52
India,Bihar,Katihar,"Mirchaibari, Katihar - BSPCB",11-07-2024 20:00:00,25.560083,87.553265,OZONE,4,4,4
India,Bihar,Kishanganj,"SDM Office_Khagra, Kishanganj - BSPCB",11-07-2024 20:00:00,26.0881305,87.93840336,PM10,14,79,41
India,Bihar,Kishanganj,"SDM Office_Khagra, Kishanganj - BSPCB",11-07-2024 20:00:00,26.0881305,87.93840336,NO2,32,48,37
India,Bihar,Kishanganj,"SDM Office_Khagra, Kishanganj - BSPCB",11-07-2024 20:00:00,26.0881305,87.93840336,SO2,9,42,19
India,Bihar,Motihari,"Gandak Colony, Motihari - BSPCB",11-07-2024 20:00:00,26.63086,84.90051,PM2.5,NA,NA,NA
India,Bihar,Motihari,"Gandak Colony, Motihari - BSPCB",11-07-2024 20:00:00,26.63086,84.90051,NO2,3,12,8
India,Bihar,Munger,"Town Hall, Munger - BSPCB",11-07-2024 20:00:00,25.376776,86.471523,NH3,2,2,2
India,Bihar,Muzaffarpur,"Buddha Colony, Muzaffarpur - BSPCB",11-07-2024 20:00:00,26.11442,85.39813,NH3,3,5,4
India,Bihar,Muzaffarpur,"Buddha Colony, Muzaffarpur - BSPCB",11-07-2024 20:00:00,26.11442,85.39813,SO2,6,8,7
India,Bihar,Muzaffarpur,"Buddha Colony, Muzaffarpur - BSPCB",11-07-2024 20:00:00,26.11442,85.39813,CO,30,43,35
India,Bihar,Muzaffarpur,"MIT-Daudpur Kothi, Muzaffarpur - BSPCB",11-07-2024 20:00:00,26.1403345,85.3650192,PM10,NA,NA,NA
India,Bihar,Muzaffarpur,"MIT-Daudpur Kothi, Muzaffarpur - BSPCB",11-07-2024 20:00:00,26.1403345,85.3650192,CO,6,112,27
India,Bihar,Muzaffarpur,"MIT-Daudpur Kothi, Muzaffarpur - BSPCB",11-07-2024 20:00:00,26.1403345,85.3650192,OZONE,24,44,26
India,Bihar,Patna,"DRM Office Danapur, Patna - BSPCB",11-07-2024 20:00:00,25.586562,85.043586,OZONE,4,21,14
India,Bihar,Patna,"Govt. High School Shikarpur, Patna - BSPCB",11-07-2024 20:00:00,25.592539,85.227158,PM2.5,22,74,54
India,Bihar,Patna,"Muradpur, Patna - BSPCB",11-07-2024 20:00:00,25.619651,85.147382,PM10,51,131,102
India,Bihar,Patna,"Muradpur, Patna - BSPCB",11-07-2024 20:00:00,25.619651,85.147382,NO2,1,35,8
India,Bihar,Patna,"Rajbansi Nagar, Patna - BSPCB",11-07-2024 20:00:00,25.599486,85.113666,SO2,1,19,9
India,Bihar,Patna,"Rajbansi Nagar, Patna - BSPCB",11-07-2024 20:00:00,25.599486,85.113666,OZONE,15,62,28
India,Bihar,Patna,"Samanpura, Patna - BSPCB",11-07-2024 20:00:00,25.596727,85.085624,SO2,2,3,3
India,Bihar,Patna,"Samanpura, Patna - BSPCB",11-07-2024 20:00:00,25.596727,85.085624,OZONE,12,74,50
India,Bihar,Purnia,"Mariam Nagar, Purnia - BSPCB",11-07-2024 20:00:00,25.366336,87.117468,PM10,NA,NA,NA
India,Bihar,Purnia,"Mariam Nagar, Purnia - BSPCB",11-07-2024 20:00:00,25.366336,87.117468,CO,24,60,42
India,Bihar,Rajgir,"Dangi Tola, Rajgir - BSPCB",11-07-2024 20:00:00,25.03280,85.41948,PM10,NA,NA,NA
India,Bihar,Rajgir,"Dangi Tola, Rajgir - BSPCB",11-07-2024 20:00:00,25.03280,85.41948,OZONE,29,50,35
India,Bihar,Saharsa,"Police Line, Saharsa - BSPCB",11-07-2024 20:00:00,25.892357,86.590325,PM10,1,107,63
India,Bihar,Samastipur,"DM Office_Kasipur, Samastipur - BSPCB",11-07-2024 20:00:00,25.859655,85.77944,NO2,NA,NA,NA
India,Bihar,Sasaram,"Dada Peer, Sasaram - BSPCB",11-07-2024 20:00:00,24.952822,84.002396,SO2,4,8,5
India,Bihar,Siwan,"Chitragupta Nagar, Siwan - BSPCB",11-07-2024 20:00:00,26.2271665,84.3570427,PM2.5,28,83,53
India,Bihar,Siwan,"Chitragupta Nagar, Siwan - BSPCB",11-07-2024 20:00:00,26.2271665,84.3570427,NH3,2,34,6
India,Bihar,Siwan,"Chitragupta Nagar, Siwan - BSPCB",11-07-2024 20:00:00,26.2271665,84.3570427,OZONE,1,46,12
India,Chandigarh,Chandigarh,"Sector 22, Chandigarh - CPCC",11-07-2024 20:00:00,30.735567,76.775714,CO,32,92,40
India,Chandigarh,Chandigarh,"Sector-25, Chandigarh - CPCC",11-07-2024 20:00:00,30.751462,76.762879,SO2,6,40,9
India,Chandigarh,Chandigarh,"Sector-53, Chandigarh - CPCC",11-07-2024 20:00:00,30.719859,76.738637,PM10,82,185,113
India,Chandigarh,Chandigarh,"Sector-53, Chandigarh - CPCC",11-07-2024 20:00:00,30.719859,76.738637,NO2,11,121,37
India,Chandigarh,Chandigarh,"Sector-53, Chandigarh - CPCC",11-07-2024 20:00:00,30.719859,76.738637,CO,30,101,47
India,Chandigarh,Chandigarh,"Sector-53, Chandigarh - CPCC",11-07-2024 20:00:00,30.719859,76.738637,OZONE,6,69,63
India,Chhattisgarh,Bhilai,"32Bungalows, Bhilai - CECB",11-07-2024 20:00:00,21.194815,81.314770,OZONE,9,12,10
India,Chhattisgarh,Bhilai,"Civic Center, Bhilai - Bhilai Steel Plant",11-07-2024 20:00:00,21.185571,81.343175,NH3,3,4,4
India,Chhattisgarh,Bhilai,"Civic Center, Bhilai - Bhilai Steel Plant",11-07-2024 20:00:00,21.185571,81.343175,CO,30,44,41
India,Chhattisgarh,Bhilai,"Hathkhoj, Bhilai - CECB",11-07-2024 20:00:00,21.224231,81.408350,CO,9,24,16
India,Chhattisgarh,Chhal,"Nawapara SECL Colony, Chhal - CECB",11-07-2024 20:00:00,22.118125,83.140608,CO,16,38,23
India,Chhattisgarh,Korba,"Rampur, Korba - CECB",11-07-2024 20:00:00,22.368195,82.746431,SO2,NA,NA,NA
India,Chhattisgarh,Milupara,"Govt. Higher Secondary School, Milupara - CECB",11-07-2024 20:00:00,22.1910172,83.5197009,PM10,40,110,67
India,Chhattisgarh,Raipur,"AIIMS, Raipur - CECB",11-07-2024 20:00:00,21.258815,81.578979,NO2,8,17,12
India,Chhattisgarh,Raipur,"AIIMS, Raipur - CECB",11-07-2024 20:00:00,21.258815,81.578979,CO,14,33,28
India,Chhattisgarh,Raipur,"Siltara Phase-II, Raipur - CECB",11-07-2024 20:00:00,21.371751,81.664929,PM10,83,114,100
India,Chhattisgarh,Raipur,"Siltara Phase-II, Raipur - CECB",11-07-2024 20:00:00,21.371751,81.664929,NO2,10,40,14
India,Chhattisgarh,Raipur,"Siltara Phase-II, Raipur - CECB",11-07-2024 20:00:00,21.371751,81.664929,NH3,3,3,3
India,Chhattisgarh,Tumidih,"OP Jindal Industrial Park, Tumidih - CECB",11-07-2024 20:00:00,22.06631475,83.33820077,PM2.5,NA,NA,NA
India,Chhattisgarh,Tumidih,"OP Jindal Industrial Park, Tumidih - CECB",11-07-2024 20:00:00,22.06631475,83.33820077,CO,16,28,20
India,Delhi,Delhi,"Anand Vihar, Delhi - DPCC",11-07-2024 20:00:00,28.647622,77.3158090,PM2.5,25,300,127
India,Delhi,Delhi,"Anand Vihar, Delhi - DPCC",11-07-2024 20:00:00,28.647622,77.3158090,PM10,58,237,164
India,Delhi,Delhi,"Anand Vihar, Delhi - DPCC",11-07-2024 20:00:00,28.647622,77.3158090,NH3,1,8,3
India,Delhi,Delhi,"Ashok Vihar, Delhi - DPCC",11-07-2024 20:00:00,28.695381,77.181665,NH3,5,11,9
India,Delhi,Delhi,"Bawana, Delhi - DPCC",11-07-2024 20:00:00,28.776200,77.051074,NO2,8,70,29
India,Delhi,Delhi,"Bawana, Delhi - DPCC",11-07-2024 20:00:00,28.776200,77.051074,SO2,7,11,8
India,Delhi,Delhi,"Burari Crossing, Delhi - IMD",11-07-2024 20:00:00,28.7256504,77.2011573,PM10,57,264,106
India,Delhi,Delhi,"Burari Crossing, Delhi - IMD",11-07-2024 20:00:00,28.7256504,77.2011573,CO,55,77,58
India,Delhi,Delhi,"Burari Crossing, Delhi - IMD",11-07-2024 20:00:00,28.7256504,77.2011573,OZONE,34,96,84
India,Delhi,Delhi,"CRRI Mathura Road, Delhi - IMD",11-07-2024 20:00:00,28.5512005,77.2735737,NO2,11,21,13
India,Delhi,Delhi,"DTU, Delhi - CPCB",11-07-2024 20:00:00,28.7500499,77.1112615,NO2,61,68,64
India,Delhi,Delhi,"Dr. Karni Singh Shooting Range, Delhi - DPCC",11-07-2024 20:00:00,28.498571,77.264840,CO,44,71,51
India,Delhi,Delhi,"Dwarka-Sector 8, Delhi - DPCC ",11-07-2024 20:00:00,28.5710274,77.0719006,SO2,5,10,7
India,Delhi,Delhi,"IHBAS, Dilshad Garden, Delhi - CPCB",11-07-2024 20:00:00,28.6811736,77.3025234,PM2.5,43,94,64
India,Delhi,Delhi,"IHBAS, Dilshad Garden, Delhi - CPCB",11-07-2024 20:00:00,28.6811736,77.3025234,NH3,1,4,2
India,Delhi,Delhi,"Jawaharlal Nehru Stadium, Delhi - DPCC",11-07-2024 20:00:00,28.580280,77.233829,CO,24,81,30
India,Delhi,Delhi,"Lodhi Road, Delhi - IITM",11-07-2024 20:00:00,28.588333,77.221667,PM2.5,NA,NA,NA
India,Delhi,Delhi,"Lodhi Road, Delhi - IITM",11-07-2024 20:00:00,28.588333,77.221667,NO2,39,54,44
India,Delhi,Delhi,"Mandir Marg, Delhi - DPCC",11-07-2024 20:00:00,28.636429,77.201067,NO2,51,86,65
India,Delhi,Delhi,"Mundka, Delhi - DPCC",11-07-2024 20:00:00,28.684678,77.076574,NH3,2,9,4
India,Delhi,Delhi,"NSIT Dwarka, Delhi - CPCB",11-07-2024 20:00:00,28.60909,77.0325413,CO,12,67,44
India,Delhi,Delhi,"NSIT Dwarka, Delhi - CPCB",11-07-2024 20:00:00,28.60909,77.0325413,OZONE,16,62,53
India,Delhi,Delhi,"Najafgarh, Delhi - DPCC",11-07-2024 20:00:00,28.570173,76.933762,PM2.5,37,77,58
India,Delhi,Delhi,"Najafgarh, Delhi - DPCC",11-07-2024 20:00:00,28.570173,76.933762,OZONE,9,32,20
India,Delhi,Delhi,"Narela, Delhi - DPCC",11-07-2024 20:00:00,28.822836,77.101981,PM2.5,60,308,115
India,Delhi,Delhi,"Narela, Delhi - DPCC",11-07-2024 20:00:00,28.822836,77.101981,PM10,88,182,129
India,Delhi,Delhi,"Nehru Nagar, Delhi - DPCC",11-07-2024 20:00:00,28.567890,77.250515,NO2,10,69,28
India,Delhi,Delhi,"Nehru Nagar, Delhi - DPCC",11-07-2024 20:00:00,28.567890,77.250515,SO2,2,9,5
India,Delhi,Delhi,"Nehru Nagar, Delhi - DPCC",11-07-2024 20:00:00,28.567890,77.250515,OZONE,9,117,72
India,Delhi,Delhi,"Okhla Phase-2, Delhi - DPCC",11-07-2024 20:00:00,28.530785,77.271255,OZONE,5,79,58
India,Delhi,Delhi,"Punjabi Bagh, Delhi - DPCC",11-07-2024 20:00:00,28.674045,77.131023,OZONE,1,70,63
India,Delhi,Delhi,"Pusa, Delhi - DPCC",11-07-2024 20:00:00,28.639652,77.146275,PM2.5,50,127,75
India,Delhi,Delhi,"Pusa, Delhi - DPCC",11-07-2024 20:00:00,28.639652,77.146275,NO2,46,97,68
India,Delhi,Delhi,"Pusa, Delhi - DPCC",11-07-2024 20:00:00,28.639652,77.146275,NH3,3,5,4
India,Delhi,Delhi,"Pusa, Delhi - DPCC",11-07-2024 20:00:00,28.639652,77.146275,SO2,1,4,2
India,Delhi,Delhi,"Pusa, Delhi - DPCC",11-07-2024 20:00:00,28.639652,77.146275,CO,11,78,35
India,Delhi,Delhi,"Pusa, Delhi - IMD",11-07-2024 20:00:00,28.636110,77.173332,OZONE,26,43,27
India,Delhi,Delhi,"R K Puram, Delhi - DPCC",11-07-2024 20:00:00,28.563262,77.186937,NO2,24,96,45
India,Delhi,Delhi,"R K Puram, Delhi - DPCC",11-07-2024 20:00:00,28.563262,77.186937,SO2,2,20,12
India,Delhi,Delhi,"Rohini, Delhi - DPCC",11-07-2024 20:00:00,28.732528,77.119920,PM2.5,50,123,82
India,Delhi,Delhi,"Shadipur, Delhi - CPCB",11-07-2024 20:00:00,28.6514781,77.1473105,PM2.5,50,415,77
India,Delhi,Delhi,"Sirifort, Delhi - CPCB",11-07-2024 20:00:00,28.5504249,77.2159377,SO2,45,47,46
India,Delhi,Delhi,"Sirifort, Delhi - CPCB",11-07-2024 20:00:00,28.5504249,77.2159377,CO,34,114,54
India,Delhi,Delhi,"Sirifort, Delhi - CPCB",11-07-2024 20:00:00,28.5504249,77.2159377,OZONE,7,50,33
India,Delhi,Delhi,"Sonia Vihar, Delhi - DPCC",11-07-2024 20:00:00,28.710508,77.249485,PM10,101,220,136
India,Delhi,Delhi,"Sonia Vihar, Delhi - DPCC",11-07-2024 20:00:00,28.710508,77.249485,NH3,5,15,11
India,Delhi,Delhi,"Sri Aurobindo Marg, Delhi - DPCC",11-07-2024 20:00:00,28.531346,77.190156,NO2,9,56,25
India,Delhi,Delhi,"Sri Aurobindo Marg, Delhi - DPCC",11-07-2024 20:00:00,28.531346,77.190156,SO2,9,15,12
India,Delhi,Delhi,"Vivek Vihar, Delhi - DPCC",11-07-2024 20:00:00,28.672342,77.315260,SO2,4,7,6
India,Delhi,Delhi,"Vivek Vihar, Delhi - DPCC",11-07-2024 20:00:00,28.672342,77.315260,CO,48,94,56
India,Delhi,Delhi,"Wazirpur, Delhi - DPCC",11-07-2024 20:00:00,28.699793,77.165453,OZONE,1,17,11
India,Gujarat,Ahmedabad,"Gyaspur, Ahmedabad - IITM",11-07-2024 20:00:00,22.977134,72.553024,SO2,16,18,16
India,Gujarat,Ahmedabad,"Maninagar, Ahmedabad - GPCB",11-07-2024 20:00:00,23.002657,72.591912,PM2.5,29,67,49
India,Gujarat,Ahmedabad,"Maninagar, Ahmedabad - GPCB",11-07-2024 20:00:00,23.002657,72.591912,PM10,54,97,75
India,Gujarat,Ahmedabad,"Raikhad, Ahmedabad - IITM",11-07-2024 20:00:00,23.020509,72.579261,SO2,12,15,13
India,Gujarat,Ahmedabad,"Raikhad, Ahmedabad - IITM",11-07-2024 20:00:00,23.020509,72.579261,CO,1,23,6
India,Gujarat,Ahmedabad,"Raikhad, Ahmedabad - IITM",11-07-2024 20:00:00,23.020509,72.579261,OZONE,16,69,35
India,Gujarat,Ahmedabad,"Rakhial, Ahmedabad - IITM",11-07-2024 20:00:00,23.016834,72.625775,PM2.5,29,257,55
India,Gujarat,Ahmedabad,"Rakhial, Ahmedabad - IITM",11-07-2024 20:00:00,23.016834,72.625775,NH3,5,17,9
India,Gujarat,Ahmedabad,"SVPI Airport Hansol, Ahmedabad - IITM",11-07-2024 20:00:00,23.076793,72.627874,OZONE,12,46,38
India,Gujarat,Ahmedabad,"Sardar Vallabhbhai Patel Stadium, Ahmedabad - IITM",11-07-2024 20:00:00,23.043070,72.562968,NO2,17,35,27
India,Gujarat,Ahmedabad,"Sardar Vallabhbhai Patel Stadium, Ahmedabad - IITM",11-07-2024 20:00:00,23.043070,72.562968,SO2,12,16,15
India,Gujarat,Ahmedabad,"Sardar Vallabhbhai Patel Stadium, Ahmedabad - IITM",11-07-2024 20:00:00,23.043070,72.562968,CO,12,36,22
India,Gujarat,Gandhinagar,"Sector-10, Gandhinagar - GPCB",11-07-2024 20:00:00,23.221714,72.654328,SO2,4,6,6
India,Gujarat,Gandhinagar,"Sector-10, Gandhinagar - GPCB",11-07-2024 20:00:00,23.221714,72.654328,CO,27,35,30
India,Gujarat,Surat,"Science Center, Surat - SMC",11-07-2024 20:00:00,21.170046,72.795405,NO2,11,34,26
India,Gujarat,Vatva,"Phase-4 GIDC, Vatva - GPCB",11-07-2024 20:00:00,22.969611,72.643500,CO,22,22,22
India,Haryana,Bahadurgarh,"Arya Nagar, Bahadurgarh - HSPCB",11-07-2024 20:00:00,28.6701,76.9254,SO2,NA,NA,NA
India,Haryana,Ballabgarh,"Nathu Colony, Ballabgarh - HSPCB",11-07-2024 20:00:00,28.3419248,77.319699,PM2.5,64,122,88
India,Haryana,Ballabgarh,"Nathu Colony, Ballabgarh - HSPCB",11-07-2024 20:00:00,28.3419248,77.319699,SO2,3,112,21
India,Haryana,Ballabgarh,"Nathu Colony, Ballabgarh - HSPCB",11-07-2024 20:00:00,28.3419248,77.319699,CO,14,40,19
India,Haryana,Bhiwani,"H.B. Colony, Bhiwani - HSPCB",11-07-2024 20:00:00,28.806223,76.141105,CO,32,57,45
India,Haryana,Charkhi Dadri,"Mini Secretariat, Charkhi Dadri - HSPCB",11-07-2024 20:00:00,28.593883,76.270653,PM2.5,20,105,49
India,Haryana,Dharuhera,"Municipal Corporation Office, Dharuhera -  HSPCB",11-07-2024 20:00:00,28.206800,76.799700,PM2.5,37,158,66
India,Haryana,Dharuhera,"Municipal Corporation Office, Dharuhera -  HSPCB",11-07-2024 20:00:00,28.206800,76.799700,SO2,6,15,10
India,Haryana,Dharuhera,"Municipal Corporation Office, Dharuhera -  HSPCB",11-07-2024 20:00:00,28.206800,76.799700,OZONE,22,57,28
India,Haryana,Faridabad,"Sector 11, Faridabad - HSPCB",11-07-2024 20:00:00,28.376058,77.315741,PM10,103,110,107
India,Haryana,Faridabad,"Sector 11, Faridabad - HSPCB",11-07-2024 20:00:00,28.376058,77.315741,NO2,30,33,31
India,Haryana,Faridabad,"Sector 11, Faridabad - HSPCB",11-07-2024 20:00:00,28.376058,77.315741,NH3,6,6,6
India,Haryana,Faridabad,"Sector 30, Faridabad - HSPCB",11-07-2024 20:00:00,28.4417,77.3217,PM2.5,77,161,111
India,Haryana,Faridabad,"Sector- 16A, Faridabad - HSPCB",11-07-2024 20:00:00,28.4088421,77.3099081,PM2.5,NA,NA,NA
India,Haryana,Faridabad,"Sector- 16A, Faridabad - HSPCB",11-07-2024 20:00:00,28.4088421,77.3099081,SO2,16,27,25
India,Haryana,Faridabad,"Sector- 16A, Faridabad - HSPCB",11-07-2024 20:00:00,28.4088421,77.3099081,OZONE,14,14,14
India,Haryana,Fatehabad,"Huda Sector, Fatehabad - HSPCB",11-07-2024 20:00:00,29.503664,75.467934,NO2,29,31,30
India,Haryana,Gurugram,"Teri Gram, Gurugram - HSPCB",11-07-2024 20:00:00,28.4275,77.1465,PM2.5,NA,NA,NA
India,Haryana,Gurugram,"Teri Gram, Gurugram - HSPCB",11-07-2024 20:00:00,28.4275,77.1465,CO,4,92,17
India,Haryana,Gurugram,"Vikas Sadan, Gurugram - HSPCB",11-07-2024 20:00:00,28.4501238,77.0263051,NO2,4,25,14
India,Haryana,Hisar,"Urban Estate-II, Hisar - HSPCB",11-07-2024 20:00:00,29.140560,75.744941,PM2.5,34,54,44
India,Haryana,Hisar,"Urban Estate-II, Hisar - HSPCB",11-07-2024 20:00:00,29.140560,75.744941,PM10,43,81,64
India,Haryana,Hisar,"Urban Estate-II, Hisar - HSPCB",11-07-2024 20:00:00,29.140560,75.744941,OZONE,16,37,31
India,Haryana,Jind,"Police Lines, Jind - HSPCB",11-07-2024 20:00:00,29.307814,76.337619,PM2.5,26,58,41
India,Haryana,Kaithal,"Rishi Nagar, Kaithal - HSPCB",11-07-2024 20:00:00,29.8006,76.4155,NO2,24,25,25
India,Haryana,Karnal,"Sector-12, Karnal - HSPCB",11-07-2024 20:00:00,29.695300,77.002700,PM2.5,22,41,30
India,Haryana,Karnal,"Sector-12, Karnal - HSPCB",11-07-2024 20:00:00,29.695300,77.002700,CO,24,40,35
India,Haryana,Karnal,"Sector-12, Karnal - HSPCB",11-07-2024 20:00:00,29.695300,77.002700,OZONE,22,27,24
India,Haryana,Kurukshetra,"Sector-7, Kurukshetra - HSPCB",11-07-2024 20:00:00,29.966942,76.875879,PM2.5,60,95,75
India,Haryana,Mandikhera,"General Hospital, Mandikhera - HSPCB",11-07-2024 20:00:00,27.9002,76.9938,NH3,16,20,18
India,Haryana,Narnaul,"Shastri Nagar, Narnaul - HSPCB",11-07-2024 20:00:00,28.060249,76.113115,NO2,15,32,25
India,Haryana,Narnaul,"Shastri Nagar, Narnaul - HSPCB",11-07-2024 20:00:00,28.060249,76.113115,NH3,3,6,5
India,Haryana,Narnaul,"Shastri Nagar, Narnaul - HSPCB",11-07-2024 20:00:00,28.060249,76.113115,CO,12,62,28
India,Haryana,Narnaul,"Shastri Nagar, Narnaul - HSPCB",11-07-2024 20:00:00,28.060249,76.113115,OZONE,39,61,51
India,Haryana,Palwal,"Shyam Nagar, Palwal - HSPCB",11-07-2024 20:00:00,28.1485564,77.3320667,PM2.5,30,61,46
India,Haryana,Palwal,"Shyam Nagar, Palwal - HSPCB",11-07-2024 20:00:00,28.1485564,77.3320667,PM10,43,117,80
India,Haryana,Palwal,"Shyam Nagar, Palwal - HSPCB",11-07-2024 20:00:00,28.1485564,77.3320667,CO,10,20,13
India,Haryana,Panchkula,"Sector-6, Panchkula - HSPCB ",11-07-2024 20:00:00,30.7057778,76.8531805555555,CO,6,12,9
India,Haryana,Panipat,"Sector-18, Panipat - HSPCB",11-07-2024 20:00:00,29.432304,76.972765,NO2,31,32,31
India,Haryana,Panipat,"Sector-18, Panipat - HSPCB",11-07-2024 20:00:00,29.432304,76.972765,OZONE,30,31,30
India,Haryana,Rohtak,"MD University, Rohtak - HSPCB",11-07-2024 20:00:00,28.52123,76.37138,OZONE,47,53,50
India,Haryana,Sirsa,"F-Block, Sirsa - HSPCB",11-07-2024 20:00:00,29.536400,75.015800,NO2,9,11,10
India,Haryana,Sonipat,"Murthal, Sonipat - HSPCB",11-07-2024 20:00:00,29.027200,77.062100,NH3,7,10,9
India,Haryana,Yamuna Nagar,"Gobind Pura, Yamuna Nagar - HSPCB",11-07-2024 20:00:00,30.1480566,77.2893471,CO,2,33,15
India,Haryana,Yamuna Nagar,"Gobind Pura, Yamuna Nagar - HSPCB",11-07-2024 20:00:00,30.1480566,77.2893471,OZONE,10,23,18
India,Himachal Pradesh,Baddi,"HIMUDA Complex Phase-1, Baddi - HPPCB",11-07-2024 20:00:00,30.943887,76.801991,PM10,NA,NA,NA
India,Himachal Pradesh,Baddi,"HIMUDA Complex Phase-1, Baddi - HPPCB",11-07-2024 20:00:00,30.943887,76.801991,CO,28,41,31
India,Jammu_and_Kashmir,Srinagar,"Rajbagh, Srinagar - JKSPCB",11-07-2024 20:00:00,34.066206,74.819820,NH3,1,1,1
India,Jammu_and_Kashmir,Srinagar,"Rajbagh, Srinagar - JKSPCB",11-07-2024 20:00:00,34.066206,74.819820,OZONE,12,27,20
India,Karnataka,Bagalkot,"Vidayagiri, Bagalkot - KSPCB",11-07-2024 20:00:00,16.172806,75.659694,PM2.5,27,41,39
India,Karnataka,Belgaum,"Ramteerth Nagar, Belgaum - KSPCB",11-07-2024 20:00:00,15.888653,74.541751,NO2,10,44,25
India,Karnataka,Belgaum,"Ramteerth Nagar, Belgaum - KSPCB",11-07-2024 20:00:00,15.888653,74.541751,SO2,9,9,9
India,Karnataka,Bengaluru,"BTM Layout, Bengaluru - CPCB",11-07-2024 20:00:00,12.9135218,77.5950804,NO2,41,67,57
India,Karnataka,Bengaluru,"BTM Layout, Bengaluru - CPCB",11-07-2024 20:00:00,12.9135218,77.5950804,SO2,14,14,14
India,Karnataka,Bengaluru,"Bapuji Nagar, Bengaluru - KSPCB",11-07-2024 20:00:00,12.951913,77.539784,PM10,20,70,41
India,Karnataka,Bengaluru,"Bapuji Nagar, Bengaluru - KSPCB",11-07-2024 20:00:00,12.951913,77.539784,NH3,1,1,1
India,Karnataka,Bengaluru,"Hebbal, Bengaluru - KSPCB",11-07-2024 20:00:00,13.029152,77.585901,NH3,1,16,2
India,Karnataka,Bengaluru,"Hombegowda Nagar, Bengaluru - KSPCB",11-07-2024 20:00:00,12.938539,77.590100,NH3,1,1,1
India,Karnataka,Bengaluru,"Jayanagar 5th Block, Bengaluru - KSPCB",11-07-2024 20:00:00,12.920984,77.584908,NO2,8,13,10
India,Karnataka,Bengaluru,"Jayanagar 5th Block, Bengaluru - KSPCB",11-07-2024 20:00:00,12.920984,77.584908,NH3,2,2,2
India,Karnataka,Bengaluru,"Kasturi Nagar, Bengaluru - KSPCB",11-07-2024 20:00:00,13.003872,77.664217,PM2.5,27,32,29
India,Karnataka,Bengaluru,"Peenya, Bengaluru - CPCB",11-07-2024 20:00:00,13.0270199,77.494094,CO,76,89,89
India,Karnataka,Bengaluru,"RVCE-Mailasandra, Bengaluru - KSPCB",11-07-2024 20:00:00,12.921418,77.502466,SO2,NA,NA,NA
India,Karnataka,Bengaluru,"Shivapura_Peenya, Bengaluru - KSPCB",11-07-2024 20:00:00,13.0246342,77.5080115,NO2,15,16,16
India,Karnataka,Bengaluru,"Shivapura_Peenya, Bengaluru - KSPCB",11-07-2024 20:00:00,13.0246342,77.5080115,SO2,2,6,3
India,Karnataka,Bengaluru,"Silk Board, Bengaluru - KSPCB",11-07-2024 20:00:00,12.917348,77.622813,PM10,69,149,112
India,Karnataka,Chamarajanagar,"Urban, Chamarajanagar - KSPCB",11-07-2024 20:00:00,11.55358,76.55521,NO2,18,30,25
India,Karnataka,Davanagere,"Devaraj Urs Badavane, Davanagere - KSPCB",11-07-2024 20:00:00,14.475800,75.905200,SO2,4,7,6
India,Karnataka,Davanagere,"Devaraj Urs Badavane, Davanagere - KSPCB",11-07-2024 20:00:00,14.475800,75.905200,CO,24,28,26
India,Karnataka,Dharwad,"Kalabhavan, Dharwad - KSPCB",11-07-2024 20:00:00,15.459706,75.008381,PM10,17,109,50
India,Karnataka,Gadag,"Panchal Nagar, Gadag - KSPCB",11-07-2024 20:00:00,15.411456,75.638133,CO,46,50,49
India,Karnataka,Gadag,"Panchal Nagar, Gadag - KSPCB",11-07-2024 20:00:00,15.411456,75.638133,OZONE,10,19,17
India,Karnataka,Hassan,"B.Katihalli, Hassan - KSPCB",11-07-2024 20:00:00,13.008556,76.125258,NO2,8,11,10
India,Karnataka,Hassan,"B.Katihalli, Hassan - KSPCB",11-07-2024 20:00:00,13.008556,76.125258,SO2,1,2,1
India,Karnataka,Hassan,"B.Katihalli, Hassan - KSPCB",11-07-2024 20:00:00,13.008556,76.125258,CO,2,4,3
India,Karnataka,Haveri,"Ashwini Nagar, Haveri - KSPCB",11-07-2024 20:00:00,14.791800,75.389600,PM2.5,14,30,22
India,Karnataka,Hubballi,"Lingaraj Nagar, Hubballi - KSPCB",11-07-2024 20:00:00,15.3714823,75.1160168,CO,2,14,5
India,Karnataka,Hubballi,"Lingaraj Nagar, Hubballi - KSPCB",11-07-2024 20:00:00,15.3714823,75.1160168,OZONE,15,27,22
India,Karnataka,Kalaburagi,"Lal Bahadur Shastri Nagar, Kalaburagi - KSPCB",11-07-2024 20:00:00,17.321993,76.822628,PM10,22,79,39
India,Karnataka,Kalaburagi,"Lal Bahadur Shastri Nagar, Kalaburagi - KSPCB",11-07-2024 20:00:00,17.321993,76.822628,NO2,10,12,11
India,Karnataka,Kalaburagi,"Lal Bahadur Shastri Nagar, Kalaburagi - KSPCB",11-07-2024 20:00:00,17.321993,76.822628,SO2,1,4,1
India,Karnataka,Kalaburagi,"Lal Bahadur Shastri Nagar, Kalaburagi - KSPCB",11-07-2024 20:00:00,17.321993,76.822628,OZONE,5,12,10
India,Karnataka,Kalaburagi,"Mahatma Basaveswar Colony, Kalaburgi - KSPCB",11-07-2024 20:00:00,17.336318,76.847397,PM2.5,7,31,22
India,Karnataka,Kalaburagi,"Mahatma Basaveswar Colony, Kalaburgi - KSPCB",11-07-2024 20:00:00,17.336318,76.847397,NH3,2,3,2
India,Karnataka,Karwar,"KHB Colony, Karwar - KSPCB",11-07-2024 20:00:00,14.816666,74.141003,SO2,20,21,20
India,Karnataka,Kolar,"Tamaka Ind. Area, Kolar - KSPCB",11-07-2024 20:00:00,13.1276288,78.1570122,NH3,10,17,14
India,Karnataka,Kolar,"Tamaka Ind. Area, Kolar - KSPCB",11-07-2024 20:00:00,13.1276288,78.1570122,OZONE,25,50,45
India,Karnataka,Koppal,"Diwator Nagar, Koppal - KSPCB",11-07-2024 20:00:00,15.347630,76.181767,PM10,4,14,9
India,Karnataka,Madikeri,"Stuart Hill, Madikeri - KSPCB",11-07-2024 20:00:00,12.415911,75.735050,NO2,NA,NA,NA
India,Karnataka,Madikeri,"Stuart Hill, Madikeri - KSPCB",11-07-2024 20:00:00,12.415911,75.735050,SO2,NA,NA,NA
India,Karnataka,Mangalore,"Kadri, Mangalore - KSPCB",11-07-2024 20:00:00,12.889250,74.853000,SO2,15,16,15
India,Karnataka,Mysuru,"Hebbal 1st Stage, Mysuru - KSPCB",11-07-2024 20:00:00,12.21041,76.37376,PM10,27,63,40
India,Karnataka,Mysuru,"Hebbal 1st Stage, Mysuru - KSPCB",11-07-2024 20:00:00,12.21041,76.37376,NH3,1,2,2
India,Karnataka,Raichur,"Haji Colony, Raichur - KSPCB",11-07-2024 20:00:00,16.208139,77.348417,PM2.5,1,13,6
India,Karnataka,Raichur,"Haji Colony, Raichur - KSPCB",11-07-2024 20:00:00,16.208139,77.348417,PM10,20,47,31
India,Karnataka,Raichur,"Haji Colony, Raichur - KSPCB",11-07-2024 20:00:00,16.208139,77.348417,NO2,6,27,16
India,Karnataka,Raichur,"Haji Colony, Raichur - KSPCB",11-07-2024 20:00:00,16.208139,77.348417,SO2,68,77,72
India,Karnataka,Ramanagara,"Vijay Nagar, Ramanagara - KSPCB",11-07-2024 20:00:00,12.733409,77.298051,PM2.5,4,24,15
India,Karnataka,Ramanagara,"Vijay Nagar, Ramanagara - KSPCB",11-07-2024 20:00:00,12.733409,77.298051,PM10,6,35,23
India,Karnataka,Shivamogga,"Vinoba Nagara, Shivamogga - KSPCB",11-07-2024 20:00:00,13.940000,75.555917,SO2,2,8,4
India,Karnataka,Udupi,"Brahmagiri, Udupi - KSPCB",11-07-2024 20:00:00,13.34194444,74.74694444,NH3,2,3,2
India,Karnataka,Udupi,"Brahmagiri, Udupi - KSPCB",11-07-2024 20:00:00,13.34194444,74.74694444,CO,45,55,52
India,Karnataka,Udupi,"Brahmagiri, Udupi - KSPCB",11-07-2024 20:00:00,13.34194444,74.74694444,OZONE,21,24,23
India,Karnataka,Vijayapura,"Ibrahimpur, Vijayapura - KSPCB",11-07-2024 20:00:00,16.802639,75.722694,CO,78,104,91
India,Karnataka,Yadgir,"Collector Office, Yadgir - KSPCB",11-07-2024 20:00:00,16.7602,77.1428,NH3,1,1,1
India,Karnataka,Yadgir,"Collector Office, Yadgir - KSPCB",11-07-2024 20:00:00,16.7602,77.1428,SO2,7,20,16
India,Karnataka,Yadgir,"Collector Office, Yadgir - KSPCB",11-07-2024 20:00:00,16.7602,77.1428,CO,16,26,23
India,Karnataka,Yadgir,"Collector Office, Yadgir - KSPCB",11-07-2024 20:00:00,16.7602,77.1428,OZONE,17,21,20
India,Kerala,Eloor,"Udyogamandal, Eloor - Kerala PCB",11-07-2024 20:00:00,10.073232,76.302765,NO2,5,6,5
India,Kerala,Eloor,"Udyogamandal, Eloor - Kerala PCB",11-07-2024 20:00:00,10.073232,76.302765,OZONE,9,14,12
India,Kerala,Kannur,"Thavakkara, Kannur - Kerala PCB",11-07-2024 20:00:00,11.875000,75.373200,NO2,5,5,5
India,Kerala,Kannur,"Thavakkara, Kannur - Kerala PCB",11-07-2024 20:00:00,11.875000,75.373200,CO,60,73,66
India,Kerala,Thiruvananthapuram,"Kariavattom, Thiruvananthapuram - Kerala PCB",11-07-2024 20:00:00,8.563700,76.886500,SO2,1,8,4
India,Kerala,Thiruvananthapuram,"Plammoodu, Thiruvananthapuram - Kerala PCB",11-07-2024 20:00:00,8.5149093,76.9435879,PM2.5,2,25,11
India,Kerala,Thiruvananthapuram,"Plammoodu, Thiruvananthapuram - Kerala PCB",11-07-2024 20:00:00,8.5149093,76.9435879,SO2,4,12,8
India,Kerala,Thrissur,"Corporation Ground, Thrissur - Kerala PCB",11-07-2024 20:00:00,10.532400,76.215900,PM10,NA,NA,NA
India,Kerala,Thrissur,"Corporation Ground, Thrissur - Kerala PCB",11-07-2024 20:00:00,10.532400,76.215900,OZONE,20,23,22
India,Madhya Pradesh,Bhopal,"Paryavaran Parisar, Bhopal - MPPCB",11-07-2024 20:00:00,23.210494,77.425409,NH3,1,2,1
India,Madhya Pradesh,Bhopal,"Paryavaran Parisar, Bhopal - MPPCB",11-07-2024 20:00:00,23.210494,77.425409,CO,12,34,20
India,Madhya Pradesh,Bhopal,"Paryavaran Parisar, Bhopal - MPPCB",11-07-2024 20:00:00,23.210494,77.425409,OZONE,24,48,40
India,Madhya Pradesh,Bhopal,"T T Nagar, Bhopal - MPPCB",11-07-2024 20:00:00,23.233584,77.400574,NH3,3,7,4
India,Madhya Pradesh,Dewas,"Bhopal Chauraha, Dewas - MPPCB",11-07-2024 20:00:00,22.9682591,76.064118,PM10,36,81,47
India,Madhya Pradesh,Dewas,"Bhopal Chauraha, Dewas - MPPCB",11-07-2024 20:00:00,22.9682591,76.064118,OZONE,19,39,32
India,Madhya Pradesh,Gwalior,"Maharaj Bada, Gwalior - MPPCB",11-07-2024 20:00:00,26.200388,78.147714,PM10,19,113,59
India,Madhya Pradesh,Gwalior,"Maharaj Bada, Gwalior - MPPCB",11-07-2024 20:00:00,26.200388,78.147714,SO2,13,26,16
India,Madhya Pradesh,Gwalior,"Phool Bagh, Gwalior - Mondelez Ind. Food",11-07-2024 20:00:00,26.210536,78.171,NO2,3,5,4
India,Madhya Pradesh,Gwalior,"Phool Bagh, Gwalior - Mondelez Ind. Food",11-07-2024 20:00:00,26.210536,78.171,CO,60,74,70
India,Madhya Pradesh,Indore,"Chhoti Gwaltoli, Indore - MPPCB",11-07-2024 20:00:00,22.4310,75.5213,PM10,40,101,61
India,Madhya Pradesh,Indore,"Residency Area, Indore - IMC",11-07-2024 20:00:00,22.7084,75.8815,OZONE,10,13,12
India,Madhya Pradesh,Jabalpur,"Gupteshwar, Jabalpur - JMC",11-07-2024 20:00:00,23.142888,79.916147,PM10,26,40,32
India,Madhya Pradesh,Jabalpur,"Marhatal, Jabalpur - MPPCB",11-07-2024 20:00:00,23.168606,79.932247,PM2.5,10,48,22
India,Madhya Pradesh,Jabalpur,"Marhatal, Jabalpur - MPPCB",11-07-2024 20:00:00,23.168606,79.932247,PM10,29,80,54
India,Madhya Pradesh,Jabalpur,"Marhatal, Jabalpur - MPPCB",11-07-2024 20:00:00,23.168606,79.932247,NH3,2,8,3
India,Madhya Pradesh,Jabalpur,"Suhagi, Jabalpur - JMC",11-07-2024 20:00:00,23.218135,79.957770,OZONE,9,40,26
India,Madhya Pradesh,Katni,"Gole Bazar, Katni - MPPCB",11-07-2024 20:00:00,23.50016,80.23284,PM2.5,23,71,42
