country,state,city,station,last_update,latitude,longitude,pollutant_id,pollutant_min,pollutant_max,pollutant_avg
India,Andhra_Pradesh,Anantapur,"Gulzarpet, Anantapur - APPCB",24-02-2024 14:00:00,14.675886,77.593027,PM2.5,NA,NA,NA
India,Andhra_Pradesh,Anantapur,"Gulzarpet, Anantapur - APPCB",24-02-2024 14:00:00,14.675886,77.593027,NH3,NA,NA,NA
India,Andhra_Pradesh,Anantapur,"Gulzarpet, Anantapur - APPCB",24-02-2024 14:00:00,14.675886,77.593027,SO2,7,14,9
India,Andhra_Pradesh,Anantapur,"Gulzarpet, Anantapur - APPCB",24-02-2024 14:00:00,14.675886,77.593027,OZONE,4,78,36
India,Andhra_Pradesh,Chittoor,"Gangineni Cheruvu, Chittoor - APPCB",24-02-2024 14:00:00,13.204880,79.097889,NH3,1,2,2
India,Andhra_Pradesh,Chittoor,"Gangineni Cheruvu, Chittoor - APPCB",24-02-2024 14:00:00,13.204880,79.097889,OZONE,30,146,61
India,Andhra_Pradesh,Kadapa,"Yerramukkapalli, Kadapa - APPCB",24-02-2024 14:00:00,14.465052,78.824187,PM2.5,30,69,54
India,Andhra_Pradesh,Rajamahendravaram,"Anand Kala Kshetram, Rajamahendravaram - APPCB",24-02-2024 14:00:00,16.9872867,81.7363176,CO,NA,NA,NA
India,Andhra_Pradesh,Rajamahendravaram,"Anand Kala Kshetram, Rajamahendravaram - APPCB",24-02-2024 14:00:00,16.9872867,81.7363176,OZONE,NA,NA,NA
India,Andhra_Pradesh,Tirupati,"Vaikuntapuram, Tirupati - APPCB",24-02-2024 14:00:00,13.615387,79.409230,PM10,19,214,57
India,Andhra_Pradesh,Vijayawada,"Kanuru, Vijayawada - APPCB",24-02-2024 14:00:00,16.486692,80.699436,OZONE,25,25,25
India,Andhra_Pradesh,Vijayawada,"Rajiv Gandhi Park, Vijayawada - APPCB",24-02-2024 14:00:00,16.509717,80.612222,PM2.5,37,83,55
India,Andhra_Pradesh,Vijayawada,"Rajiv Gandhi Park, Vijayawada - APPCB",24-02-2024 14:00:00,16.509717,80.612222,SO2,4,9,6
India,Andhra_Pradesh,Vijayawada,"Rajiv Nagar, Vijayawada - APPCB",24-02-2024 14:00:00,16.554731,80.649110,PM2.5,35,257,99
India,Andhra_Pradesh,Vijayawada,"Rajiv Nagar, Vijayawada - APPCB",24-02-2024 14:00:00,16.554731,80.649110,NH3,1,8,3
India,Andhra_Pradesh,Visakhapatnam,"GVM Corporation, Visakhapatnam - APPCB",24-02-2024 14:00:00,17.72,83.3,NO2,29,45,39
India,Assam,Guwahati,"IITG, Guwahati - PCBA",24-02-2024 14:00:00,26.2028636,91.70046436,NH3,5,5,5
India,Assam,Guwahati,"IITG, Guwahati - PCBA",24-02-2024 14:00:00,26.2028636,91.70046436,SO2,12,15,13
India,Assam,Guwahati,"LGBI Airport, Guwahati - PCBA",24-02-2024 14:00:00,26.10887,91.589544,PM10,NA,NA,NA
India,Assam,Guwahati,"LGBI Airport, Guwahati - PCBA",24-02-2024 14:00:00,26.10887,91.589544,NO2,NA,NA,NA
India,Assam,Guwahati,"Pan Bazaar, Guwahati - PCBA",24-02-2024 14:00:00,26.187500,91.744194,SO2,59,96,70
India,Assam,Guwahati,"Railway Colony, Guwahati - PCBA",24-02-2024 14:00:00,26.181742,91.78063,PM2.5,50,371,170
India,Assam,Guwahati,"Railway Colony, Guwahati - PCBA",24-02-2024 14:00:00,26.181742,91.78063,PM10,71,310,155
India,Assam,Guwahati,"Railway Colony, Guwahati - PCBA",24-02-2024 14:00:00,26.181742,91.78063,SO2,5,15,10
India,Assam,Nagaon,"Christianpatty, Nagaon - PCBA",24-02-2024 14:00:00,26.349082,92.68449,PM2.5,50,402,162
India,Assam,Silchar,"Tarapur, Silchar - PCBA",24-02-2024 14:00:00,24.82827,92.79525,CO,20,49,22
India,Assam,Sivasagar,"Girls College, Sivasagar - PCBA",24-02-2024 14:00:00,26.987634,94.636574,PM10,11,94,46
India,Bihar,Araria,"Kharahiya Basti, Araria - BSPCB",24-02-2024 14:00:00,26.146529,87.454184,CO,24,30,28
India,Bihar,Araria,"Kharahiya Basti, Araria - BSPCB",24-02-2024 14:00:00,26.146529,87.454184,OZONE,8,10,10
India,Bihar,Arrah,"New DM Office, Arrah - BSPCB",24-02-2024 14:00:00,25.5626095,84.663264,NO2,13,47,28
India,Bihar,Aurangabad,"Gurdeo Nagar, Aurangabad - BSPCB",24-02-2024 14:00:00,24.75746,84.366208,NH3,6,9,8
India,Bihar,Aurangabad,"Gurdeo Nagar, Aurangabad - BSPCB",24-02-2024 14:00:00,24.75746,84.366208,CO,48,73,71
India,Bihar,Bettiah,"Kamalnath Nagar, Bettiah - BSPCB",24-02-2024 14:00:00,26.80365,84.51954,PM10,36,198,88
India,Bihar,Bhagalpur,"Mayaganj, Bhagalpur - BSPCB",24-02-2024 14:00:00,25.265194,87.012947,PM10,44,137,91
India,Bihar,Bhagalpur,"Mayaganj, Bhagalpur - BSPCB",24-02-2024 14:00:00,25.265194,87.012947,CO,8,10,9
India,Bihar,Bihar Sharif,"D M Colony, Bihar Sharif - BSPCB",24-02-2024 14:00:00,25.204762,85.514960,PM10,24,103,67
India,Bihar,Buxar,"Charitra Van, Buxar - BSPCB (Formerly known as Central Jail)",24-02-2024 14:00:00,25.567520,83.966379,PM2.5,NA,NA,NA
India,Bihar,Chhapra,"Darshan Nagar, Chhapra - BSPCB",24-02-2024 14:00:00,25.7808257,84.7446768,NH3,8,13,10
India,Bihar,Gaya,"Collectorate, Gaya - BSPCB",24-02-2024 14:00:00,24.7955,84.9994,NO2,1,4,2
India,Bihar,Gaya,"Collectorate, Gaya - BSPCB",24-02-2024 14:00:00,24.7955,84.9994,SO2,3,16,9
India,Bihar,Gaya,"Collectorate, Gaya - BSPCB",24-02-2024 14:00:00,24.7955,84.9994,OZONE,46,80,68
India,Bihar,Gaya,"Kareemganj, Gaya - BSPCB",24-02-2024 14:00:00,24.792403,84.992416,NH3,1,5,3
India,Bihar,Gaya,"Kareemganj, Gaya - BSPCB",24-02-2024 14:00:00,24.792403,84.992416,CO,11,107,45
India,Bihar,Gaya,"SFTI Kusdihra, Gaya - BSPCB",24-02-2024 14:00:00,24.762518,84.982348,OZONE,1,59,26
India,Bihar,Kishanganj,"SDM Office_Khagra, Kishanganj - BSPCB",24-02-2024 14:00:00,26.0881305,87.93840336,CO,3,9,7
India,Bihar,Motihari,"Gandak Colony, Motihari - BSPCB",24-02-2024 14:00:00,26.63086,84.90051,SO2,1,14,7
India,Bihar,Motihari,"Gandak Colony, Motihari - BSPCB",24-02-2024 14:00:00,26.63086,84.90051,OZONE,32,163,152
India,Bihar,Munger,"Town Hall, Munger - BSPCB",24-02-2024 14:00:00,25.376776,86.471523,PM2.5,50,314,114
India,Bihar,Munger,"Town Hall, Munger - BSPCB",24-02-2024 14:00:00,25.376776,86.471523,NO2,8,9,9
India,Bihar,Muzaffarpur,"Buddha Colony, Muzaffarpur - BSPCB",24-02-2024 14:00:00,26.11442,85.39813,CO,8,48,28
India,Bihar,Muzaffarpur,"MIT-Daudpur Kothi, Muzaffarpur - BSPCB",24-02-2024 14:00:00,26.1403345,85.3650192,PM10,103,259,168
India,Bihar,Muzaffarpur,"MIT-Daudpur Kothi, Muzaffarpur - BSPCB",24-02-2024 14:00:00,26.1403345,85.3650192,OZONE,8,75,42
India,Bihar,Patna,"Muradpur, Patna - BSPCB",24-02-2024 14:00:00,25.619651,85.147382,NO2,6,15,11
India,Bihar,Patna,"Muradpur, Patna - BSPCB",24-02-2024 14:00:00,25.619651,85.147382,NH3,2,4,3
India,Bihar,Patna,"Muradpur, Patna - BSPCB",24-02-2024 14:00:00,25.619651,85.147382,OZONE,7,69,34
India,Bihar,Patna,"Rajbansi Nagar, Patna - BSPCB",24-02-2024 14:00:00,25.599486,85.113666,NO2,38,62,46
India,Bihar,Patna,"Samanpura, Patna - BSPCB",24-02-2024 14:00:00,25.596727,85.085624,NO2,50,92,69
India,Bihar,Purnia,"Mariam Nagar, Purnia - BSPCB",24-02-2024 14:00:00,25.366336,87.117468,CO,54,82,66
India,Bihar,Rajgir,"Dangi Tola, Rajgir - BSPCB",24-02-2024 14:00:00,25.03280,85.41948,PM10,38,144,82
India,Bihar,Saharsa,"Police Line, Saharsa - BSPCB",24-02-2024 14:00:00,25.892357,86.590325,CO,12,38,22
India,Bihar,Samastipur,"DM Office_Kasipur, Samastipur - BSPCB",24-02-2024 14:00:00,25.859655,85.77944,PM10,60,229,112
India,Bihar,Sasaram,"Dada Peer, Sasaram - BSPCB",24-02-2024 14:00:00,24.952822,84.002396,NO2,13,30,21
India,Bihar,Siwan,"Chitragupta Nagar, Siwan - BSPCB",24-02-2024 14:00:00,26.2271665,84.3570427,PM2.5,38,324,192
India,Chandigarh,Chandigarh,"Sector 22, Chandigarh - CPCC",24-02-2024 14:00:00,30.735567,76.775714,PM10,33,160,90
India,Chandigarh,Chandigarh,"Sector 22, Chandigarh - CPCC",24-02-2024 14:00:00,30.735567,76.775714,NH3,3,5,4
India,Chandigarh,Chandigarh,"Sector 22, Chandigarh - CPCC",24-02-2024 14:00:00,30.735567,76.775714,CO,28,81,43
India,Chandigarh,Chandigarh,"Sector 22, Chandigarh - CPCC",24-02-2024 14:00:00,30.735567,76.775714,OZONE,3,147,70
India,Chandigarh,Chandigarh,"Sector-53, Chandigarh - CPCC",24-02-2024 14:00:00,30.719859,76.738637,SO2,11,23,17
India,Chhattisgarh,Bhilai,"32Bungalows, Bhilai - CECB",24-02-2024 14:00:00,21.194815,81.314770,PM2.5,25,62,42
India,Chhattisgarh,Bhilai,"32Bungalows, Bhilai - CECB",24-02-2024 14:00:00,21.194815,81.314770,NH3,6,6,6
India,Chhattisgarh,Bhilai,"Civic Center, Bhilai - Bhilai Steel Plant",24-02-2024 14:00:00,21.185571,81.343175,PM2.5,16,96,33
India,Chhattisgarh,Bhilai,"Hathkhoj, Bhilai - CECB",24-02-2024 14:00:00,21.224231,81.408350,PM2.5,19,74,47
India,Chhattisgarh,Bilaspur,"Mangala, Bilaspur - NTPC",24-02-2024 14:00:00,22.08815,82.13737,PM2.5,23,86,48
India,Chhattisgarh,Chhal,"Nawapara SECL Colony, Chhal - CECB",24-02-2024 14:00:00,22.118125,83.140608,PM10,35,104,63
India,Chhattisgarh,Chhal,"Nawapara SECL Colony, Chhal - CECB",24-02-2024 14:00:00,22.118125,83.140608,NH3,2,2,2
India,Chhattisgarh,Korba,"Rampur, Korba - CECB",24-02-2024 14:00:00,22.368195,82.746431,PM10,43,66,53
India,Chhattisgarh,Korba,"Rampur, Korba - CECB",24-02-2024 14:00:00,22.368195,82.746431,CO,16,22,18
India,Chhattisgarh,Korba,"Urja Nagar, Korba - CECB",24-02-2024 14:00:00,22.348441,82.549611,PM2.5,18,53,29
India,Chhattisgarh,Korba,"Urja Nagar, Korba - CECB",24-02-2024 14:00:00,22.348441,82.549611,NO2,29,89,74
India,Chhattisgarh,Kunjemura,"OP Jindal School, Kunjemura - CECB",24-02-2024 14:00:00,22.126650,83.483212,PM2.5,18,88,41
India,Chhattisgarh,Kunjemura,"OP Jindal School, Kunjemura - CECB",24-02-2024 14:00:00,22.126650,83.483212,CO,17,39,29
India,Chhattisgarh,Raipur,"Bhatagaon New ISBT, Raipur - CECB",24-02-2024 14:00:00,21.219665,81.630094,CO,24,52,26
India,Chhattisgarh,Raipur,"Siltara Phase-II, Raipur - CECB",24-02-2024 14:00:00,21.371751,81.664929,NO2,NA,NA,NA
India,Delhi,Delhi,"Alipur, Delhi - DPCC",24-02-2024 14:00:00,28.815329,77.153010,PM2.5,29,306,129
India,Delhi,Delhi,"Alipur, Delhi - DPCC",24-02-2024 14:00:00,28.815329,77.153010,CO,25,78,46
India,Delhi,Delhi,"Anand Vihar, Delhi - DPCC",24-02-2024 14:00:00,28.647622,77.3158090,CO,38,122,81
India,Delhi,Delhi,"Ashok Vihar, Delhi - DPCC",24-02-2024 14:00:00,28.695381,77.181665,SO2,21,41,27
India,Delhi,Delhi,"Bawana, Delhi - DPCC",24-02-2024 14:00:00,28.776200,77.051074,PM2.5,50,394,204
India,Delhi,Delhi,"Burari Crossing, Delhi - IMD",24-02-2024 14:00:00,28.7256504,77.2011573,CO,36,66,58
India,Delhi,Delhi,"Chandni Chowk, Delhi - IITM",24-02-2024 14:00:00,28.656756,77.227234,PM10,9,500,189
India,Delhi,Delhi,"Chandni Chowk, Delhi - IITM",24-02-2024 14:00:00,28.656756,77.227234,NO2,19,20,20
India,Delhi,Delhi,"DTU, Delhi - CPCB",24-02-2024 14:00:00,28.7500499,77.1112615,PM10,78,404,173
India,Delhi,Delhi,"DTU, Delhi - CPCB",24-02-2024 14:00:00,28.7500499,77.1112615,OZONE,25,34,28
India,Delhi,Delhi,"IGI Airport (T3), Delhi - IMD",24-02-2024 14:00:00,28.5627763,77.1180053,OZONE,2,66,23
India,Delhi,Delhi,"IHBAS, Dilshad Garden, Delhi - CPCB",24-02-2024 14:00:00,28.6811736,77.3025234,OZONE,3,36,19
India,Delhi,Delhi,"Jahangirpuri, Delhi - DPCC",24-02-2024 14:00:00,28.732820,77.170633,PM2.5,34,386,214
India,Delhi,Delhi,"Lodhi Road, Delhi - IITM",24-02-2024 14:00:00,28.588333,77.221667,PM2.5,NA,NA,NA
India,Delhi,Delhi,"Major Dhyan Chand National Stadium, Delhi - DPCC",24-02-2024 14:00:00,28.611281,77.237738,PM10,60,168,124
India,Delhi,Delhi,"Major Dhyan Chand National Stadium, Delhi - DPCC",24-02-2024 14:00:00,28.611281,77.237738,NH3,5,9,7
India,Delhi,Delhi,"Mandir Marg, Delhi - DPCC",24-02-2024 14:00:00,28.636429,77.201067,SO2,7,11,9
India,Delhi,Delhi,"NSIT Dwarka, Delhi - CPCB",24-02-2024 14:00:00,28.60909,77.0325413,OZONE,16,94,39
India,Delhi,Delhi,"Narela, Delhi - DPCC",24-02-2024 14:00:00,28.822836,77.101981,SO2,5,18,11
India,Delhi,Delhi,"Narela, Delhi - DPCC",24-02-2024 14:00:00,28.822836,77.101981,CO,28,62,46
India,Delhi,Delhi,"Narela, Delhi - DPCC",24-02-2024 14:00:00,28.822836,77.101981,OZONE,2,173,173
India,Delhi,Delhi,"North Campus, DU, Delhi - IMD",24-02-2024 14:00:00,28.6573814,77.1585447,PM10,100,242,155
India,Delhi,Delhi,"Okhla Phase-2, Delhi - DPCC",24-02-2024 14:00:00,28.530785,77.271255,PM2.5,37,362,171
India,Delhi,Delhi,"Okhla Phase-2, Delhi - DPCC",24-02-2024 14:00:00,28.530785,77.271255,PM10,90,348,184
India,Delhi,Delhi,"Okhla Phase-2, Delhi - DPCC",24-02-2024 14:00:00,28.530785,77.271255,SO2,12,23,16
India,Delhi,Delhi,"Okhla Phase-2, Delhi - DPCC",24-02-2024 14:00:00,28.530785,77.271255,CO,30,114,83
India,Delhi,Delhi,"Patparganj, Delhi - DPCC",24-02-2024 14:00:00,28.623763,77.287209,NH3,7,13,10
India,Delhi,Delhi,"Patparganj, Delhi - DPCC",24-02-2024 14:00:00,28.623763,77.287209,CO,11,60,37
India,Delhi,Delhi,"Punjabi Bagh, Delhi - DPCC",24-02-2024 14:00:00,28.674045,77.131023,NH3,2,3,3
India,Delhi,Delhi,"Pusa, Delhi - DPCC",24-02-2024 14:00:00,28.639652,77.146275,CO,102,133,110
India,Delhi,Delhi,"Rohini, Delhi - DPCC",24-02-2024 14:00:00,28.732528,77.119920,PM2.5,35,351,190
India,Delhi,Delhi,"Rohini, Delhi - DPCC",24-02-2024 14:00:00,28.732528,77.119920,PM10,67,375,195
India,Delhi,Delhi,"Shadipur, Delhi - CPCB",24-02-2024 14:00:00,28.6514781,77.1473105,NH3,1,35,13
India,Delhi,Delhi,"Sonia Vihar, Delhi - DPCC",24-02-2024 14:00:00,28.710508,77.249485,PM2.5,30,317,163
India,Delhi,Delhi,"Sri Aurobindo Marg, Delhi - DPCC",24-02-2024 14:00:00,28.531346,77.190156,PM2.5,42,213,115
India,Delhi,Delhi,"Sri Aurobindo Marg, Delhi - DPCC",24-02-2024 14:00:00,28.531346,77.190156,NO2,18,115,51
India,Delhi,Delhi,"Vivek Vihar, Delhi - DPCC",24-02-2024 14:00:00,28.672342,77.315260,PM2.5,38,329,180
India,Delhi,Delhi,"Vivek Vihar, Delhi - DPCC",24-02-2024 14:00:00,28.672342,77.315260,SO2,23,27,25
India,Delhi,Delhi,"Vivek Vihar, Delhi - DPCC",24-02-2024 14:00:00,28.672342,77.315260,CO,8,80,49
India,Delhi,Delhi,"Wazirpur, Delhi - DPCC",24-02-2024 14:00:00,28.699793,77.165453,SO2,2,50,29
India,Delhi,Delhi,"Wazirpur, Delhi - DPCC",24-02-2024 14:00:00,28.699793,77.165453,OZONE,13,104,50
India,Gujarat,Ahmedabad,"Gyaspur, Ahmedabad - IITM",24-02-2024 14:00:00,22.977134,72.553024,SO2,3,6,4
India,Gujarat,Ahmedabad,"Gyaspur, Ahmedabad - IITM",24-02-2024 14:00:00,22.977134,72.553024,CO,24,32,31
India,Gujarat,Ahmedabad,"Raikhad, Ahmedabad - IITM",24-02-2024 14:00:00,23.020509,72.579261,PM2.5,98,293,198
India,Gujarat,Ahmedabad,"SAC ISRO Bopal, Ahmedabad - IITM",24-02-2024 14:00:00,23.041137,72.456691,NH3,3,4,4
India,Gujarat,Ahmedabad,"SAC ISRO Bopal, Ahmedabad - IITM",24-02-2024 14:00:00,23.041137,72.456691,SO2,9,13,12
India,Gujarat,Ahmedabad,"SAC ISRO Satellite, Ahmedabad - IITM",24-02-2024 14:00:00,23.023389,72.515201,SO2,11,29,16
India,Gujarat,Ahmedabad,"SVPI Airport Hansol, Ahmedabad - IITM",24-02-2024 14:00:00,23.076793,72.627874,PM10,75,209,131
India,Gujarat,Ahmedabad,"SVPI Airport Hansol, Ahmedabad - IITM",24-02-2024 14:00:00,23.076793,72.627874,NO2,15,18,16
India,Gujarat,Ahmedabad,"SVPI Airport Hansol, Ahmedabad - IITM",24-02-2024 14:00:00,23.076793,72.627874,OZONE,1,30,13
India,Gujarat,Ahmedabad,"Sardar Vallabhbhai Patel Stadium, Ahmedabad - IITM",24-02-2024 14:00:00,23.043070,72.562968,OZONE,13,27,21
India,Gujarat,Ankleshwar,"GIDC, Ankleshwar - GPCB",24-02-2024 14:00:00,21.613267,73.010555,PM2.5,45,160,106
India,Gujarat,Gandhinagar,"IIPHG Lekawada, Gandhinagar - IITM",24-02-2024 14:00:00,23.243639,72.68994,PM2.5,57,127,82
India,Gujarat,Gandhinagar,"IIPHG Lekawada, Gandhinagar - IITM",24-02-2024 14:00:00,23.243639,72.68994,SO2,13,14,13
India,Gujarat,Gandhinagar,"Sector-10, Gandhinagar - GPCB",24-02-2024 14:00:00,23.221714,72.654328,PM2.5,16,64,38
India,Gujarat,Vapi,"Phase-1 GIDC, Vapi - GPCB",24-02-2024 14:00:00,20.362421,72.918013,CO,1,190,182
India,Gujarat,Vatva,"Phase-4 GIDC, Vatva - GPCB",24-02-2024 14:00:00,22.969611,72.643500,PM10,41,115,64
India,Gujarat,Vatva,"Phase-4 GIDC, Vatva - GPCB",24-02-2024 14:00:00,22.969611,72.643500,OZONE,5,108,29
India,Haryana,Bahadurgarh,"Arya Nagar, Bahadurgarh - HSPCB",24-02-2024 14:00:00,28.6701,76.9254,NH3,10,12,11
India,Haryana,Bahadurgarh,"Arya Nagar, Bahadurgarh - HSPCB",24-02-2024 14:00:00,28.6701,76.9254,SO2,10,12,11
India,Haryana,Ballabgarh,"Nathu Colony, Ballabgarh - HSPCB",24-02-2024 14:00:00,28.3419248,77.319699,PM2.5,91,362,248
India,Haryana,Ballabgarh,"Nathu Colony, Ballabgarh - HSPCB",24-02-2024 14:00:00,28.3419248,77.319699,SO2,3,30,11
India,Haryana,Charkhi Dadri,"Mini Secretariat, Charkhi Dadri - HSPCB",24-02-2024 14:00:00,28.593883,76.270653,PM2.5,71,190,101
India,Haryana,Charkhi Dadri,"Mini Secretariat, Charkhi Dadri - HSPCB",24-02-2024 14:00:00,28.593883,76.270653,PM10,71,130,92
India,Haryana,Charkhi Dadri,"Mini Secretariat, Charkhi Dadri - HSPCB",24-02-2024 14:00:00,28.593883,76.270653,CO,9,16,13
India,Haryana,Dharuhera,"Municipal Corporation Office, Dharuhera -  HSPCB",24-02-2024 14:00:00,28.206800,76.799700,OZONE,10,71,39
India,Haryana,Faridabad,"Sector 11, Faridabad - HSPCB",24-02-2024 14:00:00,28.376058,77.315741,PM2.5,37,334,171
India,Haryana,Faridabad,"Sector 30, Faridabad - HSPCB",24-02-2024 14:00:00,28.4417,77.3217,NO2,29,33,31
India,Haryana,Faridabad,"Sector- 16A, Faridabad - HSPCB",24-02-2024 14:00:00,28.4088421,77.3099081,PM2.5,34,500,214
India,Haryana,Fatehabad,"Huda Sector, Fatehabad - HSPCB",24-02-2024 14:00:00,29.503664,75.467934,SO2,4,8,7
India,Haryana,Fatehabad,"Huda Sector, Fatehabad - HSPCB",24-02-2024 14:00:00,29.503664,75.467934,OZONE,21,25,22
India,Haryana,Gurugram,"Sector-51, Gurugram - HSPCB",24-02-2024 14:00:00,28.4227,77.0667,PM10,81,350,189
India,Haryana,Gurugram,"Sector-51, Gurugram - HSPCB",24-02-2024 14:00:00,28.4227,77.0667,NH3,7,14,9
India,Haryana,Gurugram,"Sector-51, Gurugram - HSPCB",24-02-2024 14:00:00,28.4227,77.0667,CO,16,82,68
India,Haryana,Gurugram,"Teri Gram, Gurugram - HSPCB",24-02-2024 14:00:00,28.4275,77.1465,PM2.5,91,189,117
India,Haryana,Gurugram,"Teri Gram, Gurugram - HSPCB",24-02-2024 14:00:00,28.4275,77.1465,SO2,3,6,4
India,Haryana,Gurugram,"Vikas Sadan, Gurugram - HSPCB",24-02-2024 14:00:00,28.4501238,77.0263051,CO,54,138,103
India,Haryana,Hisar,"Urban Estate-II, Hisar - HSPCB",24-02-2024 14:00:00,29.140560,75.744941,PM2.5,NA,NA,NA
India,Haryana,Hisar,"Urban Estate-II, Hisar - HSPCB",24-02-2024 14:00:00,29.140560,75.744941,PM10,NA,NA,NA
India,Haryana,Hisar,"Urban Estate-II, Hisar - HSPCB",24-02-2024 14:00:00,29.140560,75.744941,OZONE,48,143,85
India,Haryana,Jind,"Police Lines, Jind - HSPCB",24-02-2024 14:00:00,29.307814,76.337619,NO2,6,17,11
India,Haryana,Jind,"Police Lines, Jind - HSPCB",24-02-2024 14:00:00,29.307814,76.337619,NH3,2,5,4
India,Haryana,Jind,"Police Lines, Jind - HSPCB",24-02-2024 14:00:00,29.307814,76.337619,SO2,3,58,12
India,Haryana,Jind,"Police Lines, Jind - HSPCB",24-02-2024 14:00:00,29.307814,76.337619,CO,2,111,47
India,Haryana,Karnal,"Sector-12, Karnal - HSPCB",24-02-2024 14:00:00,29.695300,77.002700,SO2,12,13,12
India,Haryana,Kurukshetra,"Sector-7, Kurukshetra - HSPCB",24-02-2024 14:00:00,29.966942,76.875879,PM2.5,42,86,60
India,Haryana,Mandikhera,"General Hospital, Mandikhera - HSPCB",24-02-2024 14:00:00,27.9002,76.9938,CO,8,79,33
India,Haryana,Manesar,"Sector-2 IMT, Manesar - HSPCB",24-02-2024 14:00:00,28.360699,76.936090,CO,18,60,44
India,Haryana,Manesar,"Sector-2 IMT, Manesar - HSPCB",24-02-2024 14:00:00,28.360699,76.936090,OZONE,5,68,24
India,Haryana,Narnaul,"Shastri Nagar, Narnaul - HSPCB",24-02-2024 14:00:00,28.060249,76.113115,PM2.5,6,165,88
India,Haryana,Narnaul,"Shastri Nagar, Narnaul - HSPCB",24-02-2024 14:00:00,28.060249,76.113115,NH3,5,18,11
India,Haryana,Narnaul,"Shastri Nagar, Narnaul - HSPCB",24-02-2024 14:00:00,28.060249,76.113115,SO2,10,42,14
India,Haryana,Panchkula,"Sector-6, Panchkula - HSPCB ",24-02-2024 14:00:00,30.7057778,76.8531805555555,SO2,11,12,12
India,Haryana,Rohtak,"MD University, Rohtak - HSPCB",24-02-2024 14:00:00,28.52123,76.37138,SO2,6,8,7
India,Haryana,Sonipat,"Murthal, Sonipat - HSPCB",24-02-2024 14:00:00,29.027200,77.062100,PM10,45,118,93
India,Haryana,Sonipat,"Murthal, Sonipat - HSPCB",24-02-2024 14:00:00,29.027200,77.062100,NO2,37,44,40
India,Haryana,Sonipat,"Murthal, Sonipat - HSPCB",24-02-2024 14:00:00,29.027200,77.062100,CO,8,22,18
India,Haryana,Yamuna Nagar,"Gobind Pura, Yamuna Nagar - HSPCB",24-02-2024 14:00:00,30.1480566,77.2893471,PM2.5,50,320,113
India,Himachal Pradesh,Baddi,"HIMUDA Complex Phase-1, Baddi - HPPCB",24-02-2024 14:00:00,30.943887,76.801991,NO2,9,82,28
India,Jharkhand,Dhanbad,"Kalakusuma, Dhanbad - DMC",24-02-2024 14:00:00,23.811548,86.481238,PM2.5,9,94,33
India,Jharkhand,Dhanbad,"Kalakusuma, Dhanbad - DMC",24-02-2024 14:00:00,23.811548,86.481238,NO2,13,161,61
India,Jharkhand,Dhanbad,"Kalakusuma, Dhanbad - DMC",24-02-2024 14:00:00,23.811548,86.481238,CO,128,134,131
India,Jharkhand,Dhanbad,"Sardar Patel Nagar, Dhanbad - JSPCB",24-02-2024 14:00:00,23.80569,86.44268,CO,136,197,168
India,Jharkhand,Pathardih,"Mohalbani Ghat, Pathardih - DMC",24-02-2024 14:00:00,23.669880,86.411725,PM2.5,27,122,55
India,Jharkhand,Pathardih,"Mohalbani Ghat, Pathardih - DMC",24-02-2024 14:00:00,23.669880,86.411725,PM10,67,150,95
India,Jharkhand,Pathardih,"Mohalbani Ghat, Pathardih - DMC",24-02-2024 14:00:00,23.669880,86.411725,OZONE,7,28,16
India,Karnataka,Bagalkot,"Vidayagiri, Bagalkot - KSPCB",24-02-2024 14:00:00,16.172806,75.659694,PM2.5,20,37,36
India,Karnataka,Bagalkot,"Vidayagiri, Bagalkot - KSPCB",24-02-2024 14:00:00,16.172806,75.659694,PM10,42,43,42
India,Karnataka,Bagalkot,"Vidayagiri, Bagalkot - KSPCB",24-02-2024 14:00:00,16.172806,75.659694,CO,22,45,32
India,Karnataka,Belgaum,"Ramteerth Nagar, Belgaum - KSPCB",24-02-2024 14:00:00,15.888653,74.541751,OZONE,19,19,19
India,Karnataka,Bengaluru,"Bapuji Nagar, Bengaluru - KSPCB",24-02-2024 14:00:00,12.951913,77.539784,PM10,55,160,94
India,Karnataka,Bengaluru,"City Railway Station, Bengaluru - KSPCB",24-02-2024 14:00:00,12.9756843,77.5660749,NO2,25,41,34
India,Karnataka,Bengaluru,"Hebbal, Bengaluru - KSPCB",24-02-2024 14:00:00,13.029152,77.585901,SO2,NA,NA,NA
India,Karnataka,Bengaluru,"Hombegowda Nagar, Bengaluru - KSPCB",24-02-2024 14:00:00,12.938539,77.590100,PM2.5,30,101,53
India,Karnataka,Bengaluru,"Hombegowda Nagar, Bengaluru - KSPCB",24-02-2024 14:00:00,12.938539,77.590100,NO2,36,48,42
India,Karnataka,Bengaluru,"Hombegowda Nagar, Bengaluru - KSPCB",24-02-2024 14:00:00,12.938539,77.590100,CO,13,20,16
India,Karnataka,Bengaluru,"Hombegowda Nagar, Bengaluru - KSPCB",24-02-2024 14:00:00,12.938539,77.590100,OZONE,4,5,4
India,Karnataka,Bengaluru,"Jayanagar 5th Block, Bengaluru - KSPCB",24-02-2024 14:00:00,12.920984,77.584908,PM2.5,52,169,89
India,Karnataka,Bengaluru,"Jayanagar 5th Block, Bengaluru - KSPCB",24-02-2024 14:00:00,12.920984,77.584908,NH3,2,3,2
India,Karnataka,Bengaluru,"Jayanagar 5th Block, Bengaluru - KSPCB",24-02-2024 14:00:00,12.920984,77.584908,CO,8,62,20
India,Karnataka,Bengaluru,"Kasturi Nagar, Bengaluru - KSPCB",24-02-2024 14:00:00,13.003872,77.664217,CO,20,28,26
India,Karnataka,Bengaluru,"Kasturi Nagar, Bengaluru - KSPCB",24-02-2024 14:00:00,13.003872,77.664217,OZONE,4,226,58
India,Karnataka,Bengaluru,"Peenya, Bengaluru - CPCB",24-02-2024 14:00:00,13.0270199,77.494094,PM10,36,89,61
India,Karnataka,Bengaluru,"Sanegurava Halli, Bengaluru - KSPCB",24-02-2024 14:00:00,12.990328,77.5431385,NO2,20,30,23
India,Karnataka,Bengaluru,"Sanegurava Halli, Bengaluru - KSPCB",24-02-2024 14:00:00,12.990328,77.5431385,SO2,3,3,3
India,Karnataka,Bengaluru,"Shivapura_Peenya, Bengaluru - KSPCB",24-02-2024 14:00:00,13.0246342,77.5080115,NH3,4,4,4
India,Karnataka,Bengaluru,"Shivapura_Peenya, Bengaluru - KSPCB",24-02-2024 14:00:00,13.0246342,77.5080115,CO,22,70,35
India,Karnataka,Bengaluru,"Silk Board, Bengaluru - KSPCB",24-02-2024 14:00:00,12.917348,77.622813,PM2.5,37,119,62
India,Karnataka,Bidar,"Naubad, Bidar - KSPCB",24-02-2024 14:00:00,17.930306,77.482194,SO2,NA,NA,NA
India,Karnataka,Chamarajanagar,"Urban, Chamarajanagar - KSPCB",24-02-2024 14:00:00,11.55358,76.55521,CO,22,120,22
India,Karnataka,Chikkaballapur,"Chikkaballapur Rural, Chikkaballapur - KSPCB",24-02-2024 14:00:00,13.428828,77.731418,PM10,61,140,100
India,Karnataka,Chikkamagaluru,"Kalyana Nagara, Chikkamagaluru - KSPCB",24-02-2024 14:00:00,13.328028,75.797056,PM10,26,47,36
India,Karnataka,Dharwad,"Kalabhavan, Dharwad - KSPCB",24-02-2024 14:00:00,15.459706,75.008381,PM10,57,119,88
India,Karnataka,Gadag,"Panchal Nagar, Gadag - KSPCB",24-02-2024 14:00:00,15.411456,75.638133,NO2,9,19,14
India,Karnataka,Gadag,"Panchal Nagar, Gadag - KSPCB",24-02-2024 14:00:00,15.411456,75.638133,NH3,2,3,2
India,Karnataka,Gadag,"Panchal Nagar, Gadag - KSPCB",24-02-2024 14:00:00,15.411456,75.638133,SO2,15,17,16
India,Karnataka,Haveri,"Ashwini Nagar, Haveri - KSPCB",24-02-2024 14:00:00,14.791800,75.389600,SO2,14,14,14
India,Karnataka,Hubballi,"Deshpande Nagar, Hubballi - KSPCB",24-02-2024 14:00:00,15.351773,75.140726,NO2,19,28,26
India,Karnataka,Hubballi,"Lingaraj Nagar, Hubballi - KSPCB",24-02-2024 14:00:00,15.3714823,75.1160168,PM2.5,28,52,38
India,Karnataka,Kalaburagi,"Lal Bahadur Shastri Nagar, Kalaburagi - KSPCB",24-02-2024 14:00:00,17.321993,76.822628,PM2.5,NA,NA,NA
India,Karnataka,Kalaburagi,"Lal Bahadur Shastri Nagar, Kalaburagi - KSPCB",24-02-2024 14:00:00,17.321993,76.822628,CO,38,50,43
India,Karnataka,Kalaburagi,"Mahatma Basaveswar Colony, Kalaburgi - KSPCB",24-02-2024 14:00:00,17.336318,76.847397,OZONE,6,18,11
India,Karnataka,Karwar,"KHB Colony, Karwar - KSPCB",24-02-2024 14:00:00,14.816666,74.141003,PM10,38,113,59
India,Karnataka,Kolar,"Tamaka Ind. Area, Kolar - KSPCB",24-02-2024 14:00:00,13.1276288,78.1570122,PM10,64,178,93
India,Karnataka,Koppal,"Diwator Nagar, Koppal - KSPCB",24-02-2024 14:00:00,15.347630,76.181767,PM10,24,89,41
India,Karnataka,Koppal,"Diwator Nagar, Koppal - KSPCB",24-02-2024 14:00:00,15.347630,76.181767,CO,32,48,35
India,Karnataka,Madikeri,"Stuart Hill, Madikeri - KSPCB",24-02-2024 14:00:00,12.415911,75.735050,PM2.5,21,65,39
India,Karnataka,Madikeri,"Stuart Hill, Madikeri - KSPCB",24-02-2024 14:00:00,12.415911,75.735050,SO2,4,4,4
India,Karnataka,Mysuru,"Hebbal 1st Stage, Mysuru - KSPCB",24-02-2024 14:00:00,12.21041,76.37376,NH3,1,4,2
India,Karnataka,Mysuru,"Hebbal 1st Stage, Mysuru - KSPCB",24-02-2024 14:00:00,12.21041,76.37376,CO,4,78,27
India,Karnataka,Raichur,"Haji Colony, Raichur - KSPCB",24-02-2024 14:00:00,16.208139,77.348417,SO2,63,77,70
India,Karnataka,Raichur,"Haji Colony, Raichur - KSPCB",24-02-2024 14:00:00,16.208139,77.348417,CO,92,130,101
India,Karnataka,Ramanagara,"Vijay Nagar, Ramanagara - KSPCB",24-02-2024 14:00:00,12.733409,77.298051,PM2.5,32,97,60
India,Karnataka,Ramanagara,"Vijay Nagar, Ramanagara - KSPCB",24-02-2024 14:00:00,12.733409,77.298051,NO2,4,24,9
India,Karnataka,Ramanagara,"Vijay Nagar, Ramanagara - KSPCB",24-02-2024 14:00:00,12.733409,77.298051,OZONE,28,30,29
India,Karnataka,Shivamogga,"Vinoba Nagara, Shivamogga - KSPCB",24-02-2024 14:00:00,13.940000,75.555917,NO2,10,17,13
India,Karnataka,Tumakuru,"Thimmalapura, Tumakuru - KSPCB",24-02-2024 14:00:00,13.377516,77.099072,SO2,8,16,10
India,Karnataka,Vijayapura,"Ibrahimpur, Vijayapura - KSPCB",24-02-2024 14:00:00,16.802639,75.722694,PM2.5,25,31,30
India,Karnataka,Vijayapura,"Ibrahimpur, Vijayapura - KSPCB",24-02-2024 14:00:00,16.802639,75.722694,NO2,17,19,19
India,Karnataka,Vijayapura,"Ibrahimpur, Vijayapura - KSPCB",24-02-2024 14:00:00,16.802639,75.722694,NH3,2,2,2
India,Karnataka,Vijayapura,"Ibrahimpur, Vijayapura - KSPCB",24-02-2024 14:00:00,16.802639,75.722694,OZONE,13,16,15
India,Karnataka,Yadgir,"Collector Office, Yadgir - KSPCB",24-02-2024 14:00:00,16.7602,77.1428,PM10,NA,NA,NA
India,Kerala,Eloor,"Udyogamandal, Eloor - Kerala PCB",24-02-2024 14:00:00,10.073232,76.302765,CO,7,106,51
India,Kerala,Kannur,"Thavakkara, Kannur - Kerala PCB",24-02-2024 14:00:00,11.875000,75.373200,PM10,62,74,69
India,Kerala,Kannur,"Thavakkara, Kannur - Kerala PCB",24-02-2024 14:00:00,11.875000,75.373200,OZONE,31,36,34
India,Kerala,Kochi,"Vyttila, Kochi - Kerala PCB",24-02-2024 14:00:00,9.969447,76.321186,NO2,1,4,2
India,Kerala,Kollam,"Polayathode, Kollam - Kerala PCB",24-02-2024 14:00:00,8.8787,76.6073,NO2,8,9,8
India,Kerala,Thiruvananthapuram,"Kariavattom, Thiruvananthapuram - Kerala PCB",24-02-2024 14:00:00,8.563700,76.886500,NO2,8,9,9
India,Madhya Pradesh,Bhopal,"Idgah Hills, Bhopal - MPPCB",24-02-2024 14:00:00,23.264759,77.381568,NH3,2,2,2
India,Madhya Pradesh,Bhopal,"Idgah Hills, Bhopal - MPPCB",24-02-2024 14:00:00,23.264759,77.381568,SO2,2,27,12
India,Madhya Pradesh,Bhopal,"Idgah Hills, Bhopal - MPPCB",24-02-2024 14:00:00,23.264759,77.381568,CO,24,55,28
India,Madhya Pradesh,Bhopal,"Paryavaran Parisar, Bhopal - MPPCB",24-02-2024 14:00:00,23.210494,77.425409,PM2.5,30,88,51
India,Madhya Pradesh,Bhopal,"T T Nagar, Bhopal - MPPCB",24-02-2024 14:00:00,23.233584,77.400574,SO2,19,68,43
India,Madhya Pradesh,Gwalior,"City Center, Gwalior - MPPCB",24-02-2024 14:00:00,26.203442,78.193251,SO2,4,30,18
India,Madhya Pradesh,Gwalior,"Maharaj Bada, Gwalior - MPPCB",24-02-2024 14:00:00,26.200388,78.147714,SO2,7,34,19
India,Madhya Pradesh,Gwalior,"Phool Bagh, Gwalior - Mondelez Ind. Food",24-02-2024 14:00:00,26.210536,78.171,CO,30,56,32
India,Madhya Pradesh,Indore,"Chhoti Gwaltoli, Indore - MPPCB",24-02-2024 14:00:00,22.4310,75.5213,PM2.5,39,204,78
India,Madhya Pradesh,Indore,"Chhoti Gwaltoli, Indore - MPPCB",24-02-2024 14:00:00,22.4310,75.5213,CO,40,108,47
India,Madhya Pradesh,Indore,"Maguda Nagar, Indore - IMC",24-02-2024 14:00:00,22.7524,75.8872,OZONE,36,46,39
India,Madhya Pradesh,Jabalpur,"Govindh Bhavan Colony, Jabalpur - JMC",24-02-2024 14:00:00,23.163174,79.973061,PM10,30,59,42
India,Madhya Pradesh,Jabalpur,"Govindh Bhavan Colony, Jabalpur - JMC",24-02-2024 14:00:00,23.163174,79.973061,NO2,8,31,12
India,Madhya Pradesh,Jabalpur,"Govindh Bhavan Colony, Jabalpur - JMC",24-02-2024 14:00:00,23.163174,79.973061,CO,14,24,17
India,Madhya Pradesh,Jabalpur,"Gupteshwar, Jabalpur - JMC",24-02-2024 14:00:00,23.142888,79.916147,SO2,1,57,13
India,Madhya Pradesh,Jabalpur,"Gupteshwar, Jabalpur - JMC",24-02-2024 14:00:00,23.142888,79.916147,CO,4,54,27
India,Madhya Pradesh,Jabalpur,"Gupteshwar, Jabalpur - JMC",24-02-2024 14:00:00,23.142888,79.916147,OZONE,42,106,77
India,Madhya Pradesh,Jabalpur,"Marhatal, Jabalpur - MPPCB",24-02-2024 14:00:00,23.168606,79.932247,PM10,64,123,91
India,Madhya Pradesh,Jabalpur,"Marhatal, Jabalpur - MPPCB",24-02-2024 14:00:00,23.168606,79.932247,NH3,3,4,3
India,Madhya Pradesh,Jabalpur,"Suhagi, Jabalpur - JMC",24-02-2024 14:00:00,23.218135,79.957770,PM10,17,62,34
India,Madhya Pradesh,Jabalpur,"Suhagi, Jabalpur - JMC",24-02-2024 14:00:00,23.218135,79.957770,NO2,44,48,46
India,Madhya Pradesh,Jabalpur,"Suhagi, Jabalpur - JMC",24-02-2024 14:00:00,23.218135,79.957770,NH3,5,5,5
India,Madhya Pradesh,Maihar,"Sahilara, Maihar - KJS Cements",24-02-2024 14:00:00,24.2613009,80.7231783,CO,28,39,37
India,Madhya Pradesh,Mandideep,"Sector-D Industrial Area, Mandideep - MPPCB",24-02-2024 14:00:00,23.108440,77.511428,SO2,12,119,64
India,Madhya Pradesh,Mandideep,"Sector-D Industrial Area, Mandideep - MPPCB",24-02-2024 14:00:00,23.108440,77.511428,CO,12,68,20
India,Madhya Pradesh,Pithampur,"Sector-2 Industrial Area, Pithampur - MPPCB",24-02-2024 14:00:00,22.624758,75.675238,NH3,4,7,6
India,Madhya Pradesh,Pithampur,"Sector-2 Industrial Area, Pithampur - MPPCB",24-02-2024 14:00:00,22.624758,75.675238,SO2,10,17,13
India,Madhya Pradesh,Ratlam,"Shasthri Nagar, Ratlam - IPCA Lab",24-02-2024 14:00:00,23.331731,75.045981,PM2.5,1,97,55
India,Madhya Pradesh,Ratlam,"Shasthri Nagar, Ratlam - IPCA Lab",24-02-2024 14:00:00,23.331731,75.045981,SO2,36,40,38
India,Madhya Pradesh,Sagar,"Civil Lines, Sagar - MPPCB",24-02-2024 14:00:00,23.838586,78.759431,CO,12,25,18
India,Madhya Pradesh,Satna,"Bandhavgar Colony, Satna - Birla Cement",24-02-2024 14:00:00,24.58434363,80.8549414,PM2.5,15,60,34
India,Madhya Pradesh,Satna,"Bandhavgar Colony, Satna - Birla Cement",24-02-2024 14:00:00,24.58434363,80.8549414,SO2,5,8,6
India,Madhya Pradesh,Satna,"Bandhavgar Colony, Satna - Birla Cement",24-02-2024 14:00:00,24.58434363,80.8549414,OZONE,63,91,72
India,Maharashtra,Akola,"Ramdaspeth, Akola - MPCB",24-02-2024 14:00:00,20.719516,77.000253,PM10,83,332,139
India,Maharashtra,Akola,"Ramdaspeth, Akola - MPCB",24-02-2024 14:00:00,20.719516,77.000253,SO2,5,52,13
India,Maharashtra,Amravati,"Shivneri Colony, Amravati - MPCB",24-02-2024 14:00:00,20.9402359,77.7895248,PM2.5,46,76,63
India,Maharashtra,Amravati,"Shivneri Colony, Amravati - MPCB",24-02-2024 14:00:00,20.9402359,77.7895248,PM10,92,139,118
India,Maharashtra,Amravati,"Shivneri Colony, Amravati - MPCB",24-02-2024 14:00:00,20.9402359,77.7895248,NH3,1,2,1
India,Maharashtra,Amravati,"Shri Shivaji Science College, Amaravati - MPCB",24-02-2024 14:00:00,20.939198,77.765701,NO2,8,38,17
India,Maharashtra,Amravati,"Shri Shivaji Science College, Amaravati - MPCB",24-02-2024 14:00:00,20.939198,77.765701,SO2,4,17,8
India,Maharashtra,Amravati,"Shri Shivaji Science College, Amaravati - MPCB",24-02-2024 14:00:00,20.939198,77.765701,CO,46,67,50
India,Maharashtra,Aurangabad,"Rachnakar Colony, Aurangabad - MPCB",24-02-2024 14:00:00,19.863756,75.321188,PM2.5,51,163,121
India,Maharashtra,Badlapur,"Katrap, Badlapur - MPCB",24-02-2024 14:00:00,19.16485,73.23409,NH3,3,5,4
India,Maharashtra,Badlapur,"Katrap, Badlapur - MPCB",24-02-2024 14:00:00,19.16485,73.23409,CO,13,88,48
India,Maharashtra,Badlapur,"Katrap, Badlapur - MPCB",24-02-2024 14:00:00,19.16485,73.23409,OZONE,2,93,41
India,Maharashtra,Belapur,"CBD Belapur, Belapur - MPCB",24-02-2024 14:00:00,19.0243902,73.0406721,PM2.5,64,155,102
India,Maharashtra,Belapur,"CBD Belapur, Belapur - MPCB",24-02-2024 14:00:00,19.0243902,73.0406721,CO,12,48,26
India,Maharashtra,Bhiwandi,"Gokul Nagar, Bhiwandi - MPCB",24-02-2024 14:00:00,19.309073,73.057223,PM2.5,3,249,109
India,Maharashtra,Bhiwandi,"Gokul Nagar, Bhiwandi - MPCB",24-02-2024 14:00:00,19.309073,73.057223,SO2,2,20,8
India,Maharashtra,Bhiwandi,"Gokul Nagar, Bhiwandi - MPCB",24-02-2024 14:00:00,19.309073,73.057223,CO,8,72,38
India,Maharashtra,Bhiwandi,"Gokul Nagar, Bhiwandi - MPCB",24-02-2024 14:00:00,19.309073,73.057223,OZONE,3,90,44
India,Maharashtra,Dhule,"Deopur, Dhule - MPCB",24-02-2024 14:00:00,20.918946,74.776388,NO2,4,48,16
India,Maharashtra,Dhule,"Deopur, Dhule - MPCB",24-02-2024 14:00:00,20.918946,74.776388,NH3,1,12,2
India,Maharashtra,Jalgaon,"Prabhat Colony, Jalgaon - MPCB",24-02-2024 14:00:00,21.001264,75.565602,SO2,4,9,7
India,Maharashtra,Jalgaon,"Prabhat Colony, Jalgaon - MPCB",24-02-2024 14:00:00,21.001264,75.565602,CO,7,18,9
India,Maharashtra,Jalna,"Old MIDC, Jalna - MPCB",24-02-2024 14:00:00,19.854616,75.905894,SO2,8,12,9
India,Maharashtra,Kalyan,"Khadakpada, Kalyan - MPCB",24-02-2024 14:00:00,19.25292,73.142019,CO,14,28,22
India,Maharashtra,Kalyan,"Khadakpada, Kalyan - MPCB",24-02-2024 14:00:00,19.25292,73.142019,OZONE,8,28,17
India,Maharashtra,Kolhapur,"Shivaji University, Kolhapur - MPCB",24-02-2024 14:00:00,16.6870449,74.2505872,NO2,22,67,37
India,Maharashtra,Kolhapur,"Sinchan Bhavan, Kolhapur - MPCB",24-02-2024 14:00:00,16.7143745,74.2426398,SO2,1,14,4
India,Maharashtra,Kolhapur,"Sinchan Bhavan, Kolhapur - MPCB",24-02-2024 14:00:00,16.7143745,74.2426398,OZONE,11,194,80
India,Maharashtra,Latur,"Sawe Wadi, Latur - MPCB",24-02-2024 14:00:00,18.39963,76.57452,NO2,12,126,34
India,Maharashtra,Latur,"Sawe Wadi, Latur - MPCB",24-02-2024 14:00:00,18.39963,76.57452,CO,14,116,22
India,Maharashtra,Malegaon,"Mahesh Nagar, Malegaon - MPCB",24-02-2024 14:00:00,20.555712,74.529236,OZONE,17,71,33
India,Maharashtra,Mira-Bhayandar,"Bhayandar West, Mira-Bhayandar - MPCB",24-02-2024 14:00:00,19.296481,72.840923,PM2.5,NA,NA,NA
India,Maharashtra,Mira-Bhayandar,"Bhayandar West, Mira-Bhayandar - MPCB",24-02-2024 14:00:00,19.296481,72.840923,CO,18,26,21
India,Maharashtra,Mumbai,"Borivali East, Mumbai - IITM",24-02-2024 14:00:00,19.23241,72.86895,CO,20,20,20
India,Maharashtra,Mumbai,"Byculla, Mumbai - BMC",24-02-2024 14:00:00,18.9767,72.8380,OZONE,10,127,64
India,Maharashtra,Mumbai,"Chakala-Andheri East, Mumbai - IITM",24-02-2024 14:00:00,19.11074,72.86084,PM2.5,35,78,55
India,Maharashtra,Mumbai,"Chakala-Andheri East, Mumbai - IITM",24-02-2024 14:00:00,19.11074,72.86084,NO2,89,161,122
India,Maharashtra,Mumbai,"Chembur, Mumbai - MPCB",24-02-2024 14:00:00,19.0364585,72.8954371,NH3,3,5,4
India,Maharashtra,Mumbai,"Chhatrapati Shivaji Intl. Airport (T2), Mumbai - MPCB",24-02-2024 14:00:00,19.10078,72.87462,NO2,3,63,30
India,Maharashtra,Mumbai,"Chhatrapati Shivaji Intl. Airport (T2), Mumbai - MPCB",24-02-2024 14:00:00,19.10078,72.87462,OZONE,4,25,15
India,Maharashtra,Mumbai,"Colaba, Mumbai - MPCB",24-02-2024 14:00:00,18.910000,72.820000,PM2.5,12,50,27
India,Maharashtra,Mumbai,"Colaba, Mumbai - MPCB",24-02-2024 14:00:00,18.910000,72.820000,NH3,1,1,1
India,Maharashtra,Mumbai,"Colaba, Mumbai - MPCB",24-02-2024 14:00:00,18.910000,72.820000,CO,10,15,13
India,Maharashtra,Mumbai,"Ghatkopar, Mumbai - BMC",24-02-2024 14:00:00,19.083694,72.920967,CO,6,36,21
India,Maharashtra,Mumbai,"Kandivali East, Mumbai - MPCB",24-02-2024 14:00:00,19.205800,72.868200,OZONE,30,31,30
India,Maharashtra,Mumbai,"Kandivali West, Mumbai - BMC",24-02-2024 14:00:00,19.215859,72.831718,SO2,4,21,8
India,Maharashtra,Mumbai,"Kherwadi_Bandra East, Mumbai - MPCB",24-02-2024 14:00:00,19.0632143,72.8456324,SO2,5,32,13
India,Maharashtra,Mumbai,"Kherwadi_Bandra East, Mumbai - MPCB",24-02-2024 14:00:00,19.0632143,72.8456324,OZONE,4,217,217
India,Maharashtra,Mumbai,"Kurla, Mumbai - MPCB",24-02-2024 14:00:00,19.0863,72.8888,NO2,15,38,26
India,Maharashtra,Mumbai,"Mazgaon, Mumbai - IITM",24-02-2024 14:00:00,18.96702,72.84214,CO,10,46,19
India,Maharashtra,Mumbai,"Mindspace-Malad West, Mumbai - MPCB",24-02-2024 14:00:00,19.1878657,72.8304069,OZONE,19,140,67
India,Maharashtra,Mumbai,"Mulund West, Mumbai - MPCB",24-02-2024 14:00:00,19.1750,72.9419,NO2,21,26,24
India,Maharashtra,Mumbai,"Mulund West, Mumbai - MPCB",24-02-2024 14:00:00,19.1750,72.9419,SO2,14,15,15
India,Maharashtra,Mumbai,"Mulund West, Mumbai - MPCB",24-02-2024 14:00:00,19.1750,72.9419,OZONE,7,7,7
India,Maharashtra,Mumbai,"Navy Nagar-Colaba, Mumbai - IITM",24-02-2024 14:00:00,18.897756,72.813320,OZONE,17,97,66
India,Maharashtra,Mumbai,"Powai, Mumbai - MPCB",24-02-2024 14:00:00,19.137500,72.915056,NH3,1,2,1
India,Maharashtra,Mumbai,"Sewri, Mumbai - BMC",24-02-2024 14:00:00,19.000084,72.856730,PM10,62,121,89
India,Maharashtra,Mumbai,"Sewri, Mumbai - BMC",24-02-2024 14:00:00,19.000084,72.856730,NH3,1,15,8
India,Maharashtra,Mumbai,"Sewri, Mumbai - BMC",24-02-2024 14:00:00,19.000084,72.856730,SO2,5,23,11
India,Maharashtra,Mumbai,"Siddharth Nagar-Worli, Mumbai - IITM",24-02-2024 14:00:00,19.000083,72.813993,NO2,33,88,50
India,Maharashtra,Mumbai,"Sion, Mumbai - MPCB",24-02-2024 14:00:00,19.047000,72.874600,PM2.5,NA,NA,NA
India,Maharashtra,Mumbai,"Sion, Mumbai - MPCB",24-02-2024 14:00:00,19.047000,72.874600,PM10,NA,NA,NA
India,Maharashtra,Mumbai,"Sion, Mumbai - MPCB",24-02-2024 14:00:00,19.047000,72.874600,NH3,1,1,1
India,Maharashtra,Mumbai,"Sion, Mumbai - MPCB",24-02-2024 14:00:00,19.047000,72.874600,OZONE,12,16,13
India,Maharashtra,Mumbai,"Vile Parle West, Mumbai - MPCB",24-02-2024 14:00:00,19.10861,72.83622,PM10,44,90,60
India,Maharashtra,Mumbai,"Worli, Mumbai - MPCB",24-02-2024 14:00:00,18.9936162,72.8128113,PM2.5,16,41,25
India,Maharashtra,Mumbai,"Worli, Mumbai - MPCB",24-02-2024 14:00:00,18.9936162,72.8128113,PM10,48,107,73
India,Maharashtra,Mumbai,"Worli, Mumbai - MPCB",24-02-2024 14:00:00,18.9936162,72.8128113,NO2,15,16,15
India,Maharashtra,Mumbai,"Worli, Mumbai - MPCB",24-02-2024 14:00:00,18.9936162,72.8128113,CO,28,30,30
India,Maharashtra,Nagpur,"Ambazari, Nagpur - MPCB",24-02-2024 14:00:00,21.121801,79.04952,SO2,15,90,39
India,Maharashtra,Nagpur,"Ambazari, Nagpur - MPCB",24-02-2024 14:00:00,21.121801,79.04952,CO,8,80,19
India,Maharashtra,Nagpur,"Ambazari, Nagpur - MPCB",24-02-2024 14:00:00,21.121801,79.04952,OZONE,8,137,81
India,Maharashtra,Nagpur,"Mahal, Nagpur - MPCB",24-02-2024 14:00:00,21.14472,79.107595,PM10,95,173,122
India,Maharashtra,Nagpur,"Mahal, Nagpur - MPCB",24-02-2024 14:00:00,21.14472,79.107595,NH3,3,11,6
India,Maharashtra,Nagpur,"Mahal, Nagpur - MPCB",24-02-2024 14:00:00,21.14472,79.107595,CO,24,126,50
India,Maharashtra,Nanded,"Sneh Nagar, Nanded - MPCB",24-02-2024 14:00:00,19.173852,77.296291,NO2,16,64,36
India,Maharashtra,Nashik,"Gangapur Road, Nashik - MPCB",24-02-2024 14:00:00,20.0073285,73.7762427,CO,18,18,18
India,Maharashtra,Nashik,"Hirawadi, Nashik - MPCB",24-02-2024 14:00:00,20.021503,73.813844,NH3,1,1,1
India,Maharashtra,Nashik,"Hirawadi, Nashik - MPCB",24-02-2024 14:00:00,20.021503,73.813844,SO2,1,10,4
India,Maharashtra,Nashik,"MIDC Ambad, Nashik - MPCB",24-02-2024 14:00:00,19.950220,73.731480,PM10,47,87,66
India,Maharashtra,Nashik,"MIDC Ambad, Nashik - MPCB",24-02-2024 14:00:00,19.950220,73.731480,SO2,10,31,15
India,Maharashtra,Nashik,"MIDC Ambad, Nashik - MPCB",24-02-2024 14:00:00,19.950220,73.731480,CO,14,31,21
India,Maharashtra,Nashik,"Pandav Nagari, Nashik - MPCB",24-02-2024 14:00:00,19.9591346,73.7788008,SO2,5,34,13
India,Maharashtra,Nashik,"Pandav Nagari, Nashik - MPCB",24-02-2024 14:00:00,19.9591346,73.7788008,OZONE,58,95,81
India,Maharashtra,Navi Mumbai,"Kopripada-Vashi, Navi Mumbai - MPCB",24-02-2024 14:00:00,19.090337,73.014232,NH3,2,27,10
India,Maharashtra,Navi Mumbai,"Kopripada-Vashi, Navi Mumbai - MPCB",24-02-2024 14:00:00,19.090337,73.014232,CO,2,54,27
India,Maharashtra,Navi Mumbai,"Kopripada-Vashi, Navi Mumbai - MPCB",24-02-2024 14:00:00,19.090337,73.014232,OZONE,9,94,56
India,Maharashtra,Navi Mumbai,"Mahape, Navi Mumbai - MPCB",24-02-2024 14:00:00,19.1135051,73.008978,PM10,79,165,121
India,Maharashtra,Navi Mumbai,"Nerul, Navi Mumbai - MPCB",24-02-2024 14:00:00,19.008751,73.016620,NH3,2,5,3
India,Maharashtra,Navi Mumbai,"Sector-19A Nerul, Navi Mumbai - IITM",24-02-2024 14:00:00,19.044,73.0325,PM10,88,213,139
India,Maharashtra,Navi Mumbai,"Sector-2E Kalamboli, Navi Mumbai - MPCB",24-02-2024 14:00:00,19.02579,73.10297,NO2,20,85,50
India,Maharashtra,Navi Mumbai,"Tondare-Taloja, Navi Mumbai - MPCB",24-02-2024 14:00:00,19.0630,73.1209,PM2.5,27,210,95
India,Maharashtra,Navi Mumbai,"Tondare-Taloja, Navi Mumbai - MPCB",24-02-2024 14:00:00,19.0630,73.1209,NO2,18,88,54
India,Maharashtra,Navi Mumbai,"Tondare-Taloja, Navi Mumbai - MPCB",24-02-2024 14:00:00,19.0630,73.1209,SO2,22,119,58
India,Maharashtra,Parbhani,"Masoom Colony, Parbhani - MPCB",24-02-2024 14:00:00,19.265594,76.761463,PM10,96,159,115
India,Maharashtra,Pimpri-Chinchwad,"Gavalinagar, Pimpri Chinchwad - MPCB",24-02-2024 14:00:00,18.63673,73.82487,NH3,NA,NA,NA
India,Maharashtra,Pimpri-Chinchwad,"Gavalinagar, Pimpri Chinchwad - MPCB",24-02-2024 14:00:00,18.63673,73.82487,OZONE,2,252,252
India,Maharashtra,Pimpri-Chinchwad,"Park Street Wakad, Pimpri Chinchwad - MPCB",24-02-2024 14:00:00,18.59051,73.77946,NO2,59,119,92
India,Maharashtra,Pimpri-Chinchwad,"Thergaon, Pimpri Chinchwad - MPCB",24-02-2024 14:00:00,18.616318,73.765797,PM10,NA,NA,NA
India,Maharashtra,Pune,"Karve Road, Pune - MPCB",24-02-2024 14:00:00,18.5011743,73.8165527,PM2.5,1,318,87
India,Maharashtra,Pune,"Karve Road, Pune - MPCB",24-02-2024 14:00:00,18.5011743,73.8165527,SO2,2,67,21
India,Maharashtra,Pune,"Katraj Dairy, Pune - MPCB",24-02-2024 14:00:00,18.454450,73.854155,CO,10,66,38
India,Maharashtra,Pune,"Revenue Colony-Shivajinagar, Pune - IITM",24-02-2024 14:00:00,18.530085,73.849598,SO2,73,130,104
India,Maharashtra,Pune,"Savitribai Phule Pune University, Pune - MPCB",24-02-2024 14:00:00,18.547056,73.826908,PM10,71,166,114
India,Maharashtra,Pune,"Savitribai Phule Pune University, Pune - MPCB",24-02-2024 14:00:00,18.547056,73.826908,CO,15,76,39
India,Maharashtra,Pune,"Savitribai Phule Pune University, Pune - MPCB",24-02-2024 14:00:00,18.547056,73.826908,OZONE,1,243,243
India,Maharashtra,Pune,"Transport Nagar-Nigdi, Pune - IITM",24-02-2024 14:00:00,18.664282,73.763966,PM10,37,116,78
India,Maharashtra,Sangli,"Vijay Nagar, Sangli - MPCB",24-02-2024 14:00:00, 16.5038,74.3623,PM2.5,49,228,113
India,Maharashtra,Sangli,"Vijay Nagar, Sangli - MPCB",24-02-2024 14:00:00, 16.5038,74.3623,PM10,79,156,116
India,Maharashtra,Solapur,"Dnyaneshwar Nagar, Solapur - MPCB",24-02-2024 14:00:00,17.6336264,75.9132495,PM2.5,100,301,174
India,Maharashtra,Solapur,"Dnyaneshwar Nagar, Solapur - MPCB",24-02-2024 14:00:00,17.6336264,75.9132495,SO2,3,10,6
India,Maharashtra,Solapur,"Ratandeep Housing Society, Solapur - MPCB",24-02-2024 14:00:00,17.65439,75.90649,NH3,2,10,5
India,Maharashtra,Solapur,"Ratandeep Housing Society, Solapur - MPCB",24-02-2024 14:00:00,17.65439,75.90649,OZONE,3,179,162
India,Maharashtra,Thane,"Kasarvadavali, Thane - MPCB",24-02-2024 14:00:00,19.26777,72.97182,PM10,82,117,101
India,Maharashtra,Thane,"Pimpleshwar Mandir, Thane - MPCB",24-02-2024 14:00:00,19.192056,72.9585188,CO,12,112,56
India,Maharashtra,Thane,"Upvan Fort, Thane - MPCB",24-02-2024 14:00:00,19.222279,72.957979,NO2,12,104,35
India,Maharashtra,Thane,"Upvan Fort, Thane - MPCB",24-02-2024 14:00:00,19.222279,72.957979,SO2,3,43,16
India,Maharashtra,Ulhasnagar,"Sidhi Vinayak Nagar, Ulhasnagar - MPCB",24-02-2024 14:00:00,19.235581,73.159121,PM2.5,61,116,85
India,Maharashtra,Ulhasnagar,"Sidhi Vinayak Nagar, Ulhasnagar - MPCB",24-02-2024 14:00:00,19.235581,73.159121,OZONE,5,80,46
India,Maharashtra,Virar,"Bolinj, Virar - MPCB",24-02-2024 14:00:00,19.4458210,72.7988231,PM2.5,NA,NA,NA
India,Manipur,Imphal,"DM College of Science, Imphal - Manipur PCB",24-02-2024 14:00:00,24.8207389,93.9423085,PM2.5,7,35,16
India,Manipur,Imphal,"DM College of Science, Imphal - Manipur PCB",24-02-2024 14:00:00,24.8207389,93.9423085,CO,6,6,6
India,Manipur,Imphal,"DM College of Science, Imphal - Manipur PCB",24-02-2024 14:00:00,24.8207389,93.9423085,OZONE,NA,NA,NA
India,Meghalaya,Shillong,"Lumpyngngad, Shillong - Meghalaya PCB",24-02-2024 14:00:00,25.5586,91.8985,PM10,NA,NA,NA
India,Meghalaya,Shillong,"Lumpyngngad, Shillong - Meghalaya PCB",24-02-2024 14:00:00,25.5586,91.8985,OZONE,53,106,95
India,Mizoram,Aizawl,"Sikulpuikawn, Aizawl - Mizoram PCB",24-02-2024 14:00:00,23.7176342,92.7192841,PM2.5,19,66,42
India,Odisha,Angul,"Hakimapada, Angul - OSPCB",24-02-2024 14:00:00,20.832874,85.104082,NH3,1,3,2
India,Odisha,Balasore,"Kalidaspur, Balasore - OSPCB",24-02-2024 14:00:00,21.51161,86.89088,NO2,9,45,20
India,Odisha,Balasore,"Kalidaspur, Balasore - OSPCB",24-02-2024 14:00:00,21.51161,86.89088,NH3,3,8,5
India,Odisha,Barbil,"Forest Office, Barbil - OSPCB",24-02-2024 14:00:00,22.1166054,85.3945546,NH3,4,6,5
India,Odisha,Barbil,"Forest Office, Barbil - OSPCB",24-02-2024 14:00:00,22.1166054,85.3945546,SO2,1,27,8
India,Odisha,Baripada,"Meher Colony, Baripada - OSPCB",24-02-2024 14:00:00,21.941841,86.728318,PM2.5,90,175,127
India,Odisha,Bhubaneswar,"Lingraj Mandir, Bhubaneswar - OSPCB",24-02-2024 14:00:00,20.240790,85.836784,PM10,76,143,106
India,Odisha,Bhubaneswar,"Lingraj Mandir, Bhubaneswar - OSPCB",24-02-2024 14:00:00,20.240790,85.836784,NO2,6,24,12
India,Odisha,Bhubaneswar,"Patia, Bhubaneswar - OSPCB",24-02-2024 14:00:00,20.34652,85.81630,CO,72,101,89
India,Odisha,Bhubaneswar,"Patia, Bhubaneswar - OSPCB",24-02-2024 14:00:00,20.34652,85.81630,OZONE,47,141,76
India,Odisha,Brajrajnagar,"GM Office, Brajrajnagar - OSPCB",24-02-2024 14:00:00,21.8004996,83.8396977,PM2.5,22,244,57
India,Odisha,Byasanagar,"Ferro Chrome Colony, Byasanagar - OSPCB",24-02-2024 14:00:00,20.94185,86.11510,PM10,90,135,109
India,Odisha,Cuttack,"CDA Area, Cuttack - OSPCB",24-02-2024 14:00:00,20.48891     ,85.84768     ,SO2,9,42,14
India,Odisha,Keonjhar,"Jagamohanpur, Keonjhar - OSPCB",24-02-2024 14:00:00,21.643900,85.599355,PM2.5,NA,NA,NA
India,Odisha,Keonjhar,"Jagamohanpur, Keonjhar - OSPCB",24-02-2024 14:00:00,21.643900,85.599355,PM10,NA,NA,NA
India,Odisha,Keonjhar,"Jagamohanpur, Keonjhar - OSPCB",24-02-2024 14:00:00,21.643900,85.599355,CO,NA,NA,NA
India,Odisha,Keonjhar,"Jagamohanpur, Keonjhar - OSPCB",24-02-2024 14:00:00,21.643900,85.599355,OZONE,NA,NA,NA
India,Odisha,Nayagarh,"Dabuna, Nayagarh - OSPCB",24-02-2024 14:00:00,21.847279,85.416905,SO2,1,5,2
India,Odisha,Rairangpur,"Divisional Forest Office, Rairangpur - OSPCB",24-02-2024 14:00:00,22.265816,86.174829,PM10,77,121,97
India,Odisha,Rairangpur,"Divisional Forest Office, Rairangpur - OSPCB",24-02-2024 14:00:00,22.265816,86.174829,NH3,5,5,5
India,Odisha,Rourkela,"Fertilizer Township, Rourkela - OSPCB",24-02-2024 14:00:00,22.18972222,84.86277778,PM2.5,NA,NA,NA
India,Odisha,Rourkela,"Fertilizer Township, Rourkela - OSPCB",24-02-2024 14:00:00,22.18972222,84.86277778,PM10,NA,NA,NA
India,Odisha,Rourkela,"Sector-2, Rourkela - OSPCB",24-02-2024 14:00:00,22.24500000,84.88111111,NO2,33,34,33
India,Odisha,Suakati,"OMC Colony, Suakati - OSPCB",24-02-2024 14:00:00,21.606865,85.510538,NH3,NA,NA,NA
India,Odisha,Tensa,"Barsua Iron Ore Mines, Tensa - OSPCB",24-02-2024 14:00:00,21.869985,85.167016,PM10,98,130,112
India,Puducherry,Puducherry,"Jawahar Nagar, Puducherry - PPCC",24-02-2024 14:00:00,11.9309,79.8027,PM10,35,62,48
India,Puducherry,Puducherry,"Jawahar Nagar, Puducherry - PPCC",24-02-2024 14:00:00,11.9309,79.8027,NO2,1,7,4
India,Puducherry,Puducherry,"Jawahar Nagar, Puducherry - PPCC",24-02-2024 14:00:00,11.9309,79.8027,NH3,2,3,3
India,Punjab,Amritsar,"Golden Temple, Amritsar - PPCB",24-02-2024 14:00:00,31.620000,74.876512,NH3,7,11,8
India,Punjab,Amritsar,"Golden Temple, Amritsar - PPCB",24-02-2024 14:00:00,31.620000,74.876512,OZONE,25,32,28
India,Punjab,Bathinda,"Hardev Nagar, Bathinda - PPCB",24-02-2024 14:00:00,30.233011,74.907758,SO2,2,120,56
India,Punjab,Bathinda,"Hardev Nagar, Bathinda - PPCB",24-02-2024 14:00:00,30.233011,74.907758,CO,2,84,21
India,Punjab,Jalandhar,"Civil Line, Jalandhar - PPCB",24-02-2024 14:00:00,31.321907,75.578914,PM10,38,127,101
India,Punjab,Khanna,"Kalal Majra, Khanna - PPCB",24-02-2024 14:00:00,30.736056 ,76.209694,SO2,13,88,27
India,Punjab,Khanna,"Kalal Majra, Khanna - PPCB",24-02-2024 14:00:00,30.736056 ,76.209694,CO,42,52,46
India,Punjab,Ludhiana,"Punjab Agricultural University, Ludhiana - PPCB",24-02-2024 14:00:00,30.9028,75.8086,PM2.5,21,103,61
India,Punjab,Mandi Gobindgarh,"RIMT University, Mandi Gobindgarh - PPCB",24-02-2024 14:00:00,30.649961,76.331442,NO2,27,31,31
India,Punjab,Patiala,"Model Town, Patiala - PPCB",24-02-2024 14:00:00,30.349388,76.366642,NO2,22,26,24
India,Rajasthan,Ajmer,"Civil Lines,  Ajmer - RSPCB",24-02-2024 14:00:00,26.470859,74.646594,PM2.5,33,113,59
India,Rajasthan,Ajmer,"Civil Lines,  Ajmer - RSPCB",24-02-2024 14:00:00,26.470859,74.646594,PM10,37,119,72
India,Rajasthan,Ajmer,"Civil Lines,  Ajmer - RSPCB",24-02-2024 14:00:00,26.470859,74.646594,NO2,1,36,8
India,Rajasthan,Alwar,"Moti Doongri, Alwar - RSPCB",24-02-2024 14:00:00,27.554793,76.611536,PM10,50,105,72
India,Rajasthan,Alwar,"Moti Doongri, Alwar - RSPCB",24-02-2024 14:00:00,27.554793,76.611536,NH3,5,9,6
India,Rajasthan,Alwar,"Moti Doongri, Alwar - RSPCB",24-02-2024 14:00:00,27.554793,76.611536,SO2,8,47,22
India,Rajasthan,Alwar,"Moti Doongri, Alwar - RSPCB",24-02-2024 14:00:00,27.554793,76.611536,CO,2,46,23
India,Rajasthan,Banswara,"Rati Talai, Banswara - RSPCB",24-02-2024 14:00:00,23.555190,74.440010,PM10,25,113,67
India,Rajasthan,Barmer,"Railway Colony, Barmer - RSPCB",24-02-2024 14:00:00,25.747299,71.393989,PM10,35,105,60
India,Rajasthan,Bharatpur,"Krishna Nagar, Bharatpur - RSPCB",24-02-2024 14:00:00,27.215415,77.50873,CO,NA,NA,NA
India,Rajasthan,Bhilwara,"Pratap Nagar, Bhilwara - RSPCB",24-02-2024 14:00:00,25.339605,74.618883,OZONE,3,88,47
India,Rajasthan,Bhiwadi,"RIICO Ind. Area III, Bhiwadi - RSPCB",24-02-2024 14:00:00,28.194909,76.862296,PM2.5,65,302,142
India,Rajasthan,Bhiwadi,"RIICO Ind. Area III, Bhiwadi - RSPCB",24-02-2024 14:00:00,28.194909,76.862296,PM10,105,284,174
India,Rajasthan,Bikaner,"MM Ground, Bikaner - RSPCB",24-02-2024 14:00:00,28.018792,73.292658,PM10,77,333,137
India,Rajasthan,Bundi,"New Colony, Bundi - RSPCB",24-02-2024 14:00:00,25.435774,75.644272,SO2,2,12,5
India,Rajasthan,Bundi,"New Colony, Bundi - RSPCB",24-02-2024 14:00:00,25.435774,75.644272,OZONE,34,124,81
India,Rajasthan,Chittorgarh,"Shastri Nagar, Chittorgarh - RSPCB",24-02-2024 14:00:00,24.892047,74.623527,NO2,NA,NA,NA
India,Rajasthan,Churu,"Subash Chowk, Churu - RSPCB",24-02-2024 14:00:00,28.296139,74.961696,SO2,5,22,13
India,Rajasthan,Dholpur,"Raja Ganj, Dholpur - RSPCB",24-02-2024 14:00:00,26.699557,77.898881,PM10,22,120,78
India,Rajasthan,Dholpur,"Raja Ganj, Dholpur - RSPCB",24-02-2024 14:00:00,26.699557,77.898881,NO2,6,29,16
India,Rajasthan,Dholpur,"Raja Ganj, Dholpur - RSPCB",24-02-2024 14:00:00,26.699557,77.898881,CO,12,36,28
India,Rajasthan,Dungarpur,"Bhoiwada, Dungarpur - RSPCB",24-02-2024 14:00:00,23.837789,73.714926,CO,18,112,29
India,Rajasthan,Hanumangarh,"Housing Board, Hanumangarh - RSPCB",24-02-2024 14:00:00,29.610750,74.283608,PM10,99,329,162
India,Rajasthan,Jaipur,"Adarsh Nagar, Jaipur - RSPCB",24-02-2024 14:00:00,26.902909,75.836858,PM2.5,22,138,63
India,Rajasthan,Jaipur,"Adarsh Nagar, Jaipur - RSPCB",24-02-2024 14:00:00,26.902909,75.836858,SO2,4,15,10
India,Rajasthan,Jaipur,"Police Commissionerate, Jaipur - RSPCB",24-02-2024 14:00:00,26.9164092,75.7994901,NH3,6,8,7
India,Rajasthan,Jaipur,"Police Commissionerate, Jaipur - RSPCB",24-02-2024 14:00:00,26.9164092,75.7994901,SO2,9,26,19
India,Rajasthan,Jaipur,"RIICO Sitapura, Jaipur - RSPCB",24-02-2024 14:00:00,26.786682,75.827928,PM10,55,208,125
India,Rajasthan,Jaipur,"RIICO Sitapura, Jaipur - RSPCB",24-02-2024 14:00:00,26.786682,75.827928,CO,16,112,45
India,Rajasthan,Jaipur,"Sector-2 Murlipura, Jaipur - RSPCB",24-02-2024 14:00:00,26.960669,75.771817,NH3,2,17,6
India,Rajasthan,Jaipur,"Shastri Nagar, Jaipur - RSPCB",24-02-2024 14:00:00,26.9502929,75.730943,PM10,74,146,104
India,Rajasthan,Jaipur,"Shastri Nagar, Jaipur - RSPCB",24-02-2024 14:00:00,26.9502929,75.730943,NO2,10,103,28
India,Rajasthan,Jaipur,"Shastri Nagar, Jaipur - RSPCB",24-02-2024 14:00:00,26.9502929,75.730943,OZONE,20,76,44
India,Rajasthan,Jaisalmer,"Sadar Bazar, Jaisalmer - RSPCB",24-02-2024 14:00:00,26.912329,70.909168,OZONE,2,94,48
India,Rajasthan,Jalore,"Mudtra Sili, Jalore - RSPCB",24-02-2024 14:00:00,25.344694,72.626208,OZONE,10,124,76
India,Rajasthan,Jhalawar,"Rajlaxmi Nagar, Jhalawar - RSPCB",24-02-2024 14:00:00,24.588397,76.172782,OZONE,39,95,63
India,Rajasthan,Jodhpur,"Collectorate, Jodhpur - RSPCB",24-02-2024 14:00:00,26.268249,73.0193853,SO2,2,54,19
India,Rajasthan,Jodhpur,"Digari Kalan, Jodhpur - RSPCB",24-02-2024 14:00:00,26.295810,73.082283,CO,18,80,31
India,Rajasthan,Jodhpur,"Jhalamand, Jodhpur - RSPCB",24-02-2024 14:00:00,26.215415,73.070156,SO2,5,14,8
India,Rajasthan,Jodhpur,"Jhalamand, Jodhpur - RSPCB",24-02-2024 14:00:00,26.215415,73.070156,CO,8,96,20
India,Rajasthan,Jodhpur,"Mandor, Jodhpur - RSPCB",24-02-2024 14:00:00,26.358805,73.047444,NH3,4,10,5
India,Rajasthan,Jodhpur,"Mandor, Jodhpur - RSPCB",24-02-2024 14:00:00,26.358805,73.047444,OZONE,28,117,75
India,Rajasthan,Jodhpur,"Samrat Ashok Udhyan, Jodhpur - RSPCB",24-02-2024 14:00:00,26.253384,72.976571,NH3,3,7,4
India,Rajasthan,Kota,"Dhanmandi, Kota - RSPCB",24-02-2024 14:00:00,25.164090,75.858137,NH3,NA,NA,NA
India,Rajasthan,Kota,"Dhanmandi, Kota - RSPCB",24-02-2024 14:00:00,25.164090,75.858137,CO,38,66,44
India,Rajasthan,Kota,"Shrinath Puram, Kota - RSPCB",24-02-2024 14:00:00,25.14389,75.821256,OZONE,14,80,62
India,Rajasthan,Nagaur,"Karni Colony, Nagaur - RSPCB",24-02-2024 14:00:00,27.213494,73.734444,NH3,7,13,9
India,Rajasthan,Pali,"Indira Colony Vistar, Pali - RSPCB",24-02-2024 14:00:00,25.771061, 73.340227,PM10,55,192,109
India,Rajasthan,Pratapgarh,"Pragati Nagar, Pratapgarh - RSPCB",24-02-2024 14:00:00,24.041198,74.780702,NO2,7,32,17
India,Rajasthan,Pratapgarh,"Pragati Nagar, Pratapgarh - RSPCB",24-02-2024 14:00:00,24.041198,74.780702,OZONE,57,119,88
India,Rajasthan,Sawai Madhopur,"Sahu Nagar, Sawai Madhopur - RSPCB",24-02-2024 14:00:00,26.031443,76.359327,PM2.5,19,79,39
India,Rajasthan,Sawai Madhopur,"Sahu Nagar, Sawai Madhopur - RSPCB",24-02-2024 14:00:00,26.031443,76.359327,NH3,4,37,22
India,Rajasthan,Sikar,"Radhakishan Pura, Sikar - RSPCB",24-02-2024 14:00:00,27.608912,75.153302,PM2.5,26,306,83
India,Rajasthan,Sikar,"Radhakishan Pura, Sikar - RSPCB",24-02-2024 14:00:00,27.608912,75.153302,NO2,6,30,13
India,Rajasthan,Sikar,"Radhakishan Pura, Sikar - RSPCB",24-02-2024 14:00:00,27.608912,75.153302,OZONE,58,148,98
India,Rajasthan,Sirohi,"Vedhaynath Colony, Sirohi - RSPCB",24-02-2024 14:00:00,24.885261,72.857549,PM2.5,5,302,54
India,Rajasthan,Sri Ganganagar,"Old City, Sri Ganganagar - RSPCB",24-02-2024 14:00:00,29.931624,73.864511,NO2,31,174,84
India,Rajasthan,Sri Ganganagar,"Old City, Sri Ganganagar - RSPCB",24-02-2024 14:00:00,29.931624,73.864511,NH3,6,27,13
India,Rajasthan,Udaipur,"Ashok Nagar, Udaipur - RSPCB",24-02-2024 14:00:00,24.5886166,73.6321397,CO,50,112,61
India,Rajasthan,Udaipur,"Ashok Nagar, Udaipur - RSPCB",24-02-2024 14:00:00,24.5886166,73.6321397,OZONE,6,76,46
India,TamilNadu,Chengalpattu,"Crescent University, Chengalpattu - TNPCB",24-02-2024 14:00:00,12.8777316,80.0834807,PM2.5,35,62,47
India,TamilNadu,Chennai,"Alandur Bus Depot, Chennai - CPCB",24-02-2024 14:00:00,12.9099161,80.1076538,NO2,11,86,24
India,TamilNadu,Chennai,"Alandur Bus Depot, Chennai - CPCB",24-02-2024 14:00:00,12.9099161,80.1076538,NH3,7,14,8
India,TamilNadu,Chennai,"Alandur Bus Depot, Chennai - CPCB",24-02-2024 14:00:00,12.9099161,80.1076538,OZONE,1,9,4
India,TamilNadu,Chennai,"Gandhi Nagar_Ennore, Chennai - TNPCB",24-02-2024 14:00:00,13.218341,80.32027,NO2,NA,NA,NA
India,TamilNadu,Chennai,"Kodungaiyur, Chennai - TNPCB",24-02-2024 14:00:00,13.1278,80.2642,PM10,41,93,63
India,TamilNadu,Chennai,"Manali, Chennai - CPCB",24-02-2024 14:00:00,13.164544,80.26285,PM2.5,36,63,48
India,TamilNadu,Chennai,"Royapuram, Chennai - TNPCB",24-02-2024 14:00:00,13.1036,80.2909,NH3,1,2,2
India,TamilNadu,Chennai,"Royapuram, Chennai - TNPCB",24-02-2024 14:00:00,13.1036,80.2909,SO2,1,7,3
India,TamilNadu,Chennai,"Velachery Res. Area, Chennai - CPCB",24-02-2024 14:00:00,13.0052189,80.2398125,PM2.5,51,95,75
India,TamilNadu,Chennai,"Velachery Res. Area, Chennai - CPCB",24-02-2024 14:00:00,13.0052189,80.2398125,NO2,16,49,27
India,TamilNadu,Gummidipoondi,"Anthoni Pillai Nagar, Gummidipoondi - TNPCB",24-02-2024 14:00:00,13.4127,80.1081,PM10,57,144,95
India,TamilNadu,Kanchipuram,"Kilambi, Kanchipuram - TNPCB",24-02-2024 14:00:00,12.864618,79.659968,SO2,NA,NA,NA
India,TamilNadu,Kanchipuram,"Kilambi, Kanchipuram - TNPCB",24-02-2024 14:00:00,12.864618,79.659968,OZONE,NA,NA,NA
India,TamilNadu,Ooty,"Bombay Castel, Ooty - TNPCB",24-02-2024 14:00:00,11.4068288,76.7138973,PM2.5,NA,NA,NA
India,TamilNadu,Ooty,"Bombay Castel, Ooty - TNPCB",24-02-2024 14:00:00,11.4068288,76.7138973,SO2,NA,NA,NA
India,TamilNadu,Palkalaiperur,"Bharathidasan University, Palkalaiperur - TNPCB",24-02-2024 14:00:00,10.681158,78.741746,SO2,NA,NA,NA
India,TamilNadu,Palkalaiperur,"Bharathidasan University, Palkalaiperur - TNPCB",24-02-2024 14:00:00,10.681158,78.741746,OZONE,NA,NA,NA
India,TamilNadu,Ramanathapuram,"Chalai Bazaar, Ramanathapuram - TNPCB",24-02-2024 14:00:00,9.36399,78.831977,OZONE,13,14,14
India,TamilNadu,Thoothukudi,"Meelavittan, Thoothukudi - TNPCB",24-02-2024 14:00:00,8.816428 ,78.099039,SO2,11,18,15
India,TamilNadu,Thoothukudi,"Meelavittan, Thoothukudi - TNPCB",24-02-2024 14:00:00,8.816428 ,78.099039,CO,7,38,13
India,TamilNadu,Thoothukudi,"Meelavittan, Thoothukudi - TNPCB",24-02-2024 14:00:00,8.816428 ,78.099039,OZONE,2,15,5
India,TamilNadu,Tirupur,"Kumaran College, Tirupur - TNPCB",24-02-2024 14:00:00,11.0973603,77.3228673,PM10,51,271,128
India,TamilNadu,Vellore,"Vasanthapuram, Vellore - TNPCB",24-02-2024 14:00:00,12.909494,79.131861,CO,NA,NA,NA
India,TamilNadu,Vellore,"Vasanthapuram, Vellore - TNPCB",24-02-2024 14:00:00,12.909494,79.131861,OZONE,1,2,2
India,Telangana,Hyderabad,"Bollaram Industrial Area, Hyderabad - TSPCB",24-02-2024 14:00:00,17.540891,78.358528,NH3,3,4,4
India,Telangana,Hyderabad,"Central University, Hyderabad - TSPCB",24-02-2024 14:00:00,17.460103,78.334361,PM2.5,NA,NA,NA
India,Telangana,Hyderabad,"Central University, Hyderabad - TSPCB",24-02-2024 14:00:00,17.460103,78.334361,NH3,2,11,6
India,Telangana,Hyderabad,"Kompally Municipal Office, Hyderabad - TSPCB",24-02-2024 14:00:00,17.544899,78.486949,SO2,2,11,3
India,Telangana,Hyderabad,"Nacharam_TSIIC IALA, Hyderabad - TSPCB",24-02-2024 14:00:00,17.429398,78.569354,NO2,6,11,8
India,Telangana,Hyderabad,"Nacharam_TSIIC IALA, Hyderabad - TSPCB",24-02-2024 14:00:00,17.429398,78.569354,CO,17,23,18
India,Telangana,Hyderabad,"New Malakpet, Hyderabad - TSPCB",24-02-2024 14:00:00,17.37206,78.50864,CO,27,29,28
India,Telangana,Hyderabad,"Ramachandrapuram, Hyderabad - TSPCB",24-02-2024 14:00:00,17.528544,78.286195,PM10,81,90,83
India,Telangana,Hyderabad,"Sanathnagar, Hyderabad - TSPCB",24-02-2024 14:00:00,17.4559458,78.4332152,SO2,4,8,6
India,Telangana,Hyderabad,"Somajiguda, Hyderabad - TSPCB",24-02-2024 14:00:00,17.417094,78.457437,OZONE,4,28,9
India,Telangana,Hyderabad,"Zoo Park, Hyderabad - TSPCB",24-02-2024 14:00:00,17.349694,78.451437,NH3,1,2,2
India,Telangana,Hyderabad,"Zoo Park, Hyderabad - TSPCB",24-02-2024 14:00:00,17.349694,78.451437,SO2,1,15,4
India,Telangana,Hyderabad,"Zoo Park, Hyderabad - TSPCB",24-02-2024 14:00:00,17.349694,78.451437,OZONE,17,55,23
India,Tripura,Agartala,"Bardowali, Agartala - Tripura SPCB",24-02-2024 14:00:00,23.8175497,91.2726974,OZONE,1,57,21
India,Uttar_Pradesh,Agra,"Manoharpur, Agra - UPPCB",24-02-2024 14:00:00,27.23711,78.01936,SO2,13,14,13
India,Uttar_Pradesh,Agra,"Rohta, Agra - UPPCB",24-02-2024 14:00:00,27.106972,78.000111,NH3,2,2,2
India,Uttar_Pradesh,Agra,"Sanjay Palace, Agra - UPPCB",24-02-2024 14:00:00,27.19865833,78.00598056,CO,8,62,42
India,Uttar_Pradesh,Baghpat,"Sardar Patel Inter College, Baghpat - UPPCB",24-02-2024 14:00:00,28.964949,77.278761,PM10,45,132,88
India,Uttar_Pradesh,Baghpat,"Sardar Patel Inter College, Baghpat - UPPCB",24-02-2024 14:00:00,28.964949,77.278761,NO2,25,76,50
India,Uttar_Pradesh,Baghpat,"Sardar Patel Inter College, Baghpat - UPPCB",24-02-2024 14:00:00,28.964949,77.278761,SO2,13,48,27
India,Uttar_Pradesh,Bareilly,"Civil Lines, Bareilly - UPPCB",24-02-2024 14:00:00,28.359581,79.414455,NH3,NA,NA,NA
India,Uttar_Pradesh,Bareilly,"Rajendra Nagar, Bareilly - UPPCB",24-02-2024 14:00:00,28.38910936,79.42963708,NH3,1,1,1
India,Uttar_Pradesh,Firozabad,"Nagla Bhau, Firozabad - UPPCB",24-02-2024 14:00:00,27.168897,78.376960,PM10,13,78,38
India,Uttar_Pradesh,Firozabad,"Nagla Bhau, Firozabad - UPPCB",24-02-2024 14:00:00,27.168897,78.376960,CO,13,28,25
India,Uttar_Pradesh,Firozabad,"Vibhab Nagar, Firozabad - UPPCB",24-02-2024 14:00:00,27.1594,78.3953,NH3,2,2,2
India,Uttar_Pradesh,Firozabad,"Vibhab Nagar, Firozabad - UPPCB",24-02-2024 14:00:00,27.1594,78.3953,OZONE,20,33,25
India,Uttar_Pradesh,Ghaziabad,"Indirapuram, Ghaziabad - UPPCB",24-02-2024 14:00:00,28.646233,77.358075,CO,23,74,47
India,Uttar_Pradesh,Ghaziabad,"Vasundhara, Ghaziabad - UPPCB",24-02-2024 14:00:00,28.6603346,77.3572563,NH3,5,19,9
India,Uttar_Pradesh,Gorakhpur,"Madan Mohan Malaviya University of Technology, Gorakhpur - UPPCB",24-02-2024 14:00:00,26.730136,83.433859,SO2,23,30,25
India,Uttar_Pradesh,Greater Noida,"Knowledge Park - III, Greater Noida - UPPCB",24-02-2024 14:00:00,28.47272,77.482000,SO2,13,32,20
India,Uttar_Pradesh,Hapur,"Anand Vihar, Hapur - UPPCB",24-02-2024 14:00:00,28.725645,77.749675,NO2,20,105,74
India,Uttar_Pradesh,Jhansi,"Shivaji Nagar, Jhansi - UPPCB",24-02-2024 14:00:00,25.4547,78.6039,PM2.5,NA,NA,NA
India,Uttar_Pradesh,Jhansi,"Shivaji Nagar, Jhansi - UPPCB",24-02-2024 14:00:00,25.4547,78.6039,SO2,11,12,11
India,Uttar_Pradesh,Jhansi,"Shivaji Nagar, Jhansi - UPPCB",24-02-2024 14:00:00,25.4547,78.6039,CO,12,28,14
India,Uttar_Pradesh,Kanpur,"FTI Kidwai Nagar, Kanpur - UPPCB",24-02-2024 14:00:00,26.428282,80.327067,SO2,22,24,22
India,Uttar_Pradesh,Kanpur,"NSI Kalyanpur, Kanpur - UPPCB",24-02-2024 14:00:00,26.509954,80.249612,PM10,45,189,102
India,Uttar_Pradesh,Kanpur,"Nehru Nagar, Kanpur - UPPCB",24-02-2024 14:00:00,26.4703136,80.3229863,NO2,2,86,37
India,Uttar_Pradesh,Khurja,"Kalindi Kunj, Khurja - UPPCB",24-02-2024 14:00:00,28.2348927,77.8683002,NO2,15,34,22
India,Uttar_Pradesh,Lucknow,"B R Ambedkar University, Lucknow - UPPCB",24-02-2024 14:00:00,26.766433,80.927299,PM10,49,153,94
India,Uttar_Pradesh,Lucknow,"B R Ambedkar University, Lucknow - UPPCB",24-02-2024 14:00:00,26.766433,80.927299,NO2,11,12,12
India,Uttar_Pradesh,Lucknow,"Gomti Nagar, Lucknow - UPPCB",24-02-2024 14:00:00,26.868120,81.005119,SO2,2,25,10
India,Uttar_Pradesh,Lucknow,"Kendriya Vidyalaya, Lucknow - CPCB",24-02-2024 14:00:00,26.906111,80.948222,NH3,3,20,14
India,Uttar_Pradesh,Lucknow,"Kendriya Vidyalaya, Lucknow - CPCB",24-02-2024 14:00:00,26.906111,80.948222,OZONE,8,105,48
India,Uttar_Pradesh,Lucknow,"Kukrail Picnic Spot-1, Lucknow - UPPCB",24-02-2024 14:00:00,26.90723,80.98579,PM2.5,11,84,52
India,Uttar_Pradesh,Lucknow,"Kukrail Picnic Spot-1, Lucknow - UPPCB",24-02-2024 14:00:00,26.90723,80.98579,SO2,29,35,31
India,Uttar_Pradesh,Lucknow,"Kukrail Picnic Spot-1, Lucknow - UPPCB",24-02-2024 14:00:00,26.90723,80.98579,OZONE,1,72,30
India,Uttar_Pradesh,Lucknow,"Talkatora District Industries Center, Lucknow - CPCB",24-02-2024 14:00:00,26.83399722,80.8917361,PM2.5,34,339,180
India,Uttar_Pradesh,Lucknow,"Talkatora District Industries Center, Lucknow - CPCB",24-02-2024 14:00:00,26.83399722,80.8917361,SO2,1,29,10
India,Uttar_Pradesh,Meerut,"Ganga Nagar, Meerut - UPPCB",24-02-2024 14:00:00,28.999264,77.7590354,NO2,14,70,40
India,Uttar_Pradesh,Meerut,"Ganga Nagar, Meerut - UPPCB",24-02-2024 14:00:00,28.999264,77.7590354,CO,21,52,45
India,Uttar_Pradesh,Meerut,"Jai Bhim Nagar, Meerut - UPPCB",24-02-2024 14:00:00,28.9535882,77.7622941,OZONE,1,89,39
India,Uttar_Pradesh,Meerut,"Pallavpuram Phase 2, Meerut - UPPCB",24-02-2024 14:00:00,29.063510,77.709723,CO,8,74,47
India,Uttar_Pradesh,Moradabad,"Buddhi Vihar, Moradabad - UPPCB",24-02-2024 14:00:00,28.83526,78.74460,PM10,20,187,79
India,Uttar_Pradesh,Moradabad,"Buddhi Vihar, Moradabad - UPPCB",24-02-2024 14:00:00,28.83526,78.74460,SO2,24,25,24
India,Uttar_Pradesh,Moradabad,"Buddhi Vihar, Moradabad - UPPCB",24-02-2024 14:00:00,28.83526,78.74460,OZONE,12,26,16
India,Uttar_Pradesh,Moradabad,"Eco Herbal Park, Moradabad - UPPCB",24-02-2024 14:00:00,28.840739,78.697531,OZONE,9,15,12
India,Uttar_Pradesh,Moradabad,"Employment Office, Moradabad - UPPCB",24-02-2024 14:00:00,28.88528,78.73880,PM10,39,163,100
India,Uttar_Pradesh,Moradabad,"Jigar Colony, Moradabad - UPPCB",24-02-2024 14:00:00,28.856664,78.772638,PM2.5,13,66,42
India,Uttar_Pradesh,Moradabad,"Jigar Colony, Moradabad - UPPCB",24-02-2024 14:00:00,28.856664,78.772638,SO2,19,24,21
India,Uttar_Pradesh,Moradabad,"Jigar Colony, Moradabad - UPPCB",24-02-2024 14:00:00,28.856664,78.772638,CO,14,28,25
India,Uttar_Pradesh,Moradabad,"Kashiram Nagar, Moradabad - UPPCB",24-02-2024 14:00:00,28.849399,78.742362,PM10,27,152,82
India,Uttar_Pradesh,Noida,"Sector - 125, Noida - UPPCB",24-02-2024 14:00:00,28.5447608,77.3231257,CO,2,105,68
India,Uttar_Pradesh,Noida,"Sector - 125, Noida - UPPCB",24-02-2024 14:00:00,28.5447608,77.3231257,OZONE,7,94,36
India,Uttar_Pradesh,Prayagraj,"Jhunsi, Prayagraj - UPPCB",24-02-2024 14:00:00,25.425602,81.917152,NH3,5,5,5
India,Uttar_Pradesh,Prayagraj,"Motilal Nehru NIT, Prayagraj - UPPCB",24-02-2024 14:00:00,25.494,81.863,PM2.5,16,61,32
India,Uttar_Pradesh,Prayagraj,"Motilal Nehru NIT, Prayagraj - UPPCB",24-02-2024 14:00:00,25.494,81.863,NO2,12,12,12
India,Uttar_Pradesh,Prayagraj,"Nagar Nigam, Prayagraj - UPPCB",24-02-2024 14:00:00,25.44919916 ,81.82735986 ,NO2,5,5,5
India,Uttar_Pradesh,Prayagraj,"Nagar Nigam, Prayagraj - UPPCB",24-02-2024 14:00:00,25.44919916 ,81.82735986 ,NH3,2,7,5
India,Uttar_Pradesh,Prayagraj,"Nagar Nigam, Prayagraj - UPPCB",24-02-2024 14:00:00,25.44919916 ,81.82735986 ,OZONE,10,11,11
India,Uttar_Pradesh,Varanasi,"Ardhali Bazar, Varanasi - UPPCB",24-02-2024 14:00:00,25.3505986,82.9083074,NO2,16,43,28
India,Uttar_Pradesh,Varanasi,"Ardhali Bazar, Varanasi - UPPCB",24-02-2024 14:00:00,25.3505986,82.9083074,SO2,10,28,18
India,Uttar_Pradesh,Varanasi,"Ardhali Bazar, Varanasi - UPPCB",24-02-2024 14:00:00,25.3505986,82.9083074,OZONE,20,37,23
India,Uttar_Pradesh,Varanasi,"Bhelupur, Varanasi - UPPCB",24-02-2024 14:00:00,25.301778,82.996789,PM10,17,80,40
India,Uttar_Pradesh,Varanasi,"Bhelupur, Varanasi - UPPCB",24-02-2024 14:00:00,25.301778,82.996789,OZONE,1,43,14
India,Uttar_Pradesh,Varanasi,"IESD Banaras Hindu University, Varanasi - UPPCB",24-02-2024 14:00:00,25.262326,82.995408,PM10,15,46,31
India,Uttar_Pradesh,Varanasi,"IESD Banaras Hindu University, Varanasi - UPPCB",24-02-2024 14:00:00,25.262326,82.995408,NO2,2,3,2
India,Uttar_Pradesh,Varanasi,"Maldahiya, Varanasi - UPPCB",24-02-2024 14:00:00,25.32393,82.99687,NH3,1,1,1
India,Uttar_Pradesh,Varanasi,"Maldahiya, Varanasi - UPPCB",24-02-2024 14:00:00,25.32393,82.99687,CO,3,105,23
India,Uttarakhand,Dehradun,"Doon University, Dehradun - UKPCB",24-02-2024 14:00:00,30.269444,78.044167,PM10,25,139,74
India,Uttarakhand,Dehradun,"Doon University, Dehradun - UKPCB",24-02-2024 14:00:00,30.269444,78.044167,SO2,1,13,2
India,Uttarakhand,Kashipur,"Govt. Girls Inter College, Kashipur - UKPCB",24-02-2024 14:00:00,29.2124114,78.9611753,PM10,39,108,76
India,Uttarakhand,Kashipur,"Govt. Girls Inter College, Kashipur - UKPCB",24-02-2024 14:00:00,29.2124114,78.9611753,OZONE,8,40,21
India,Uttarakhand,Rishikesh,"Shivaji Nagar, Rishikesh - UKPCB",24-02-2024 14:00:00,30.075911,78.2859547,SO2,3,5,4
India,Uttarakhand,Rishikesh,"Shivaji Nagar, Rishikesh - UKPCB",24-02-2024 14:00:00,30.075911,78.2859547,CO,14,30,21
India,Uttarakhand,Rishikesh,"Shivaji Nagar, Rishikesh - UKPCB",24-02-2024 14:00:00,30.075911,78.2859547,OZONE,11,93,46
India,West_Bengal,Asansol,"Asansol Court Area, Asansol - WBPCB",24-02-2024 14:00:00,23.685297,86.945968,NO2,24,51,33
India,West_Bengal,Durgapur,"Sidhu Kanhu Indoor Stadium, Durgapur - WBPCB",24-02-2024 14:00:00,23.5404352,87.2892225,OZONE,4,43,26
India,West_Bengal,Haldia,"Priyambada Housing Estate, Haldia - WBPCB",24-02-2024 14:00:00,22.06047,88.109737,PM2.5,19,79,53
India,West_Bengal,Haldia,"Priyambada Housing Estate, Haldia - WBPCB",24-02-2024 14:00:00,22.06047,88.109737,SO2,6,107,20
India,West_Bengal,Howrah,"Belur Math, Howrah - WBPCB",24-02-2024 14:00:00,22.629801,88.352017,PM10,55,120,94
India,West_Bengal,Howrah,"Belur Math, Howrah - WBPCB",24-02-2024 14:00:00,22.629801,88.352017,NO2,10,31,22
India,West_Bengal,Howrah,"Belur Math, Howrah - WBPCB",24-02-2024 14:00:00,22.629801,88.352017,NH3,3,5,4
India,West_Bengal,Howrah,"Belur Math, Howrah - WBPCB",24-02-2024 14:00:00,22.629801,88.352017,CO,1,47,8
India,West_Bengal,Howrah,"Ghusuri, Howrah - WBPCB",24-02-2024 14:00:00,22.611968,88.347422,NH3,7,12,9
India,West_Bengal,Howrah,"Padmapukur, Howrah - WBPCB",24-02-2024 14:00:00,22.5687319,88.2797276,PM2.5,36,92,63
India,West_Bengal,Howrah,"Padmapukur, Howrah - WBPCB",24-02-2024 14:00:00,22.5687319,88.2797276,NH3,8,49,20
India,West_Bengal,Kolkata,"Ballygunge, Kolkata - WBPCB",24-02-2024 14:00:00,22.5367507,88.3638022,PM2.5,37,157,85
India,West_Bengal,Kolkata,"Bidhannagar, Kolkata - WBPCB",24-02-2024 14:00:00,22.58157048,88.41002457,PM2.5,57,122,91
India,West_Bengal,Kolkata,"Fort William, Kolkata - WBPCB",24-02-2024 14:00:00,22.556640,88.342674,NO2,22,125,69
India,West_Bengal,Kolkata,"Jadavpur, Kolkata - WBPCB",24-02-2024 14:00:00,22.49929,88.36917,OZONE,14,56,26
India,West_Bengal,Kolkata,"Rabindra Bharati University, Kolkata - WBPCB",24-02-2024 14:00:00,22.627847,88.380669,CO,NA,NA,NA
India,West_Bengal,Kolkata,"Rabindra Sarobar, Kolkata - WBPCB",24-02-2024 14:00:00,22.51106,88.35142,SO2,10,72,22
India,West_Bengal,Kolkata,"Rabindra Sarobar, Kolkata - WBPCB",24-02-2024 14:00:00,22.51106,88.35142,CO,11,52,14
India,West_Bengal,Siliguri,"Ward-32 Bapupara, Siliguri - WBPCB",24-02-2024 14:00:00,26.6879226,88.4152495,PM2.5,NA,NA,NA
India,West_Bengal,Siliguri,"Ward-32 Bapupara, Siliguri - WBPCB",24-02-2024 14:00:00,26.6879226,88.4152495,NO2,NA,NA,NA
India,West_Bengal,Siliguri,"Ward-32 Bapupara, Siliguri - WBPCB",24-02-2024 14:00:00,26.6879226,88.4152495,NH3,NA,NA,NA
India,West_Bengal,Siliguri,"Ward-32 Bapupara, Siliguri - WBPCB",24-02-2024 14:00:00,26.6879226,88.4152495,SO2,NA,NA,NA
India,Andhra_Pradesh,Amaravati,"Secretariat, Amaravati - APPCB",24-02-2024 14:00:00,16.5150833,80.5181667,PM2.5,27,65,42
India,Andhra_Pradesh,Amaravati,"Secretariat, Amaravati - APPCB",24-02-2024 14:00:00,16.5150833,80.5181667,SO2,10,16,12
India,Andhra_Pradesh,Chittoor,"Gangineni Cheruvu, Chittoor - APPCB",24-02-2024 14:00:00,13.204880,79.097889,NO2,6,12,9
India,Andhra_Pradesh,Tirupati,"Tirumala, Tirupati - APPCB",24-02-2024 14:00:00,13.67,79.35,PM2.5,61,132,81
India,Andhra_Pradesh,Tirupati,"Tirumala, Tirupati - APPCB",24-02-2024 14:00:00,13.67,79.35,PM10,51,104,82
India,Andhra_Pradesh,Tirupati,"Tirumala, Tirupati - APPCB",24-02-2024 14:00:00,13.67,79.35,CO,42,61,46
India,Andhra_Pradesh,Tirupati,"Vaikuntapuram, Tirupati - APPCB",24-02-2024 14:00:00,13.615387,79.409230,PM2.5,19,332,77
India,Andhra_Pradesh,Tirupati,"Vaikuntapuram, Tirupati - APPCB",24-02-2024 14:00:00,13.615387,79.409230,NH3,2,3,3
India,Andhra_Pradesh,Tirupati,"Vaikuntapuram, Tirupati - APPCB",24-02-2024 14:00:00,13.615387,79.409230,CO,9,16,13
India,Andhra_Pradesh,Vijayawada,"HB Colony, Vijayawada - APPCB",24-02-2024 14:00:00,16.536107,80.594233,PM10,50,74,59
India,Andhra_Pradesh,Vijayawada,"HB Colony, Vijayawada - APPCB",24-02-2024 14:00:00,16.536107,80.594233,NO2,6,15,9
India,Andhra_Pradesh,Vijayawada,"HB Colony, Vijayawada - APPCB",24-02-2024 14:00:00,16.536107,80.594233,SO2,3,5,4
India,Andhra_Pradesh,Vijayawada,"Kanuru, Vijayawada - APPCB",24-02-2024 14:00:00,16.486692,80.699436,NH3,1,1,1
India,Andhra_Pradesh,Vijayawada,"Rajiv Nagar, Vijayawada - APPCB",24-02-2024 14:00:00,16.554731,80.649110,PM10,35,150,87
India,Andhra_Pradesh,Vijayawada,"Rajiv Nagar, Vijayawada - APPCB",24-02-2024 14:00:00,16.554731,80.649110,NO2,8,38,18
India,Andhra_Pradesh,Vijayawada,"Rajiv Nagar, Vijayawada - APPCB",24-02-2024 14:00:00,16.554731,80.649110,SO2,9,23,15
India,Andhra_Pradesh,Visakhapatnam,"GVM Corporation, Visakhapatnam - APPCB",24-02-2024 14:00:00,17.72,83.3,PM2.5,45,93,60
India,Andhra_Pradesh,Visakhapatnam,"GVM Corporation, Visakhapatnam - APPCB",24-02-2024 14:00:00,17.72,83.3,OZONE,9,78,11
India,Arunachal_Pradesh,Naharlagun,"Naharlagun, Naharlagun - APSPCB",24-02-2024 14:00:00,27.103358,93.679645,NO2,2,3,3
India,Arunachal_Pradesh,Naharlagun,"Naharlagun, Naharlagun - APSPCB",24-02-2024 14:00:00,27.103358,93.679645,SO2,3,4,4
India,Assam,Byrnihat,"Central Academy for SFS, Byrnihat - PCBA",24-02-2024 14:00:00,26.071318,91.87488,PM10,54,500,223
India,Assam,Byrnihat,"Central Academy for SFS, Byrnihat - PCBA",24-02-2024 14:00:00,26.071318,91.87488,CO,1,76,61
India,Assam,Guwahati,"IITG, Guwahati - PCBA",24-02-2024 14:00:00,26.2028636,91.70046436,CO,9,20,11
India,Assam,Guwahati,"LGBI Airport, Guwahati - PCBA",24-02-2024 14:00:00,26.10887,91.589544,PM2.5,NA,NA,NA
India,Assam,Guwahati,"LGBI Airport, Guwahati - PCBA",24-02-2024 14:00:00,26.10887,91.589544,OZONE,5,63,51
India,Assam,Guwahati,"Pan Bazaar, Guwahati - PCBA",24-02-2024 14:00:00,26.187500,91.744194,PM2.5,67,322,136
India,Assam,Guwahati,"Pan Bazaar, Guwahati - PCBA",24-02-2024 14:00:00,26.187500,91.744194,PM10,84,309,144
India,Assam,Guwahati,"Pan Bazaar, Guwahati - PCBA",24-02-2024 14:00:00,26.187500,91.744194,CO,20,110,31
India,Assam,Guwahati,"Railway Colony, Guwahati - PCBA",24-02-2024 14:00:00,26.181742,91.78063,NO2,3,3,3
India,Assam,Guwahati,"Railway Colony, Guwahati - PCBA",24-02-2024 14:00:00,26.181742,91.78063,CO,18,112,34
India,Assam,Nagaon,"Christianpatty, Nagaon - PCBA",24-02-2024 14:00:00,26.349082,92.68449,NO2,10,86,24
India,Assam,Nagaon,"Christianpatty, Nagaon - PCBA",24-02-2024 14:00:00,26.349082,92.68449,CO,2,112,30
India,Assam,Silchar,"Tarapur, Silchar - PCBA",24-02-2024 14:00:00,24.82827,92.79525,PM10,48,53,49
India,Assam,Silchar,"Tarapur, Silchar - PCBA",24-02-2024 14:00:00,24.82827,92.79525,NO2,16,22,20
India,Bihar,Araria,"Kharahiya Basti, Araria - BSPCB",24-02-2024 14:00:00,26.146529,87.454184,PM10,115,229,162
India,Bihar,Arrah,"New DM Office, Arrah - BSPCB",24-02-2024 14:00:00,25.5626095,84.663264,NH3,5,7,5
India,Bihar,Arrah,"New DM Office, Arrah - BSPCB",24-02-2024 14:00:00,25.5626095,84.663264,CO,6,19,11
India,Bihar,Arrah,"New DM Office, Arrah - BSPCB",24-02-2024 14:00:00,25.5626095,84.663264,OZONE,12,28,17
India,Bihar,Aurangabad,"Gurdeo Nagar, Aurangabad - BSPCB",24-02-2024 14:00:00,24.75746,84.366208,PM2.5,55,223,91
India,Bihar,Bihar Sharif,"D M Colony, Bihar Sharif - BSPCB",24-02-2024 14:00:00,25.204762,85.514960,PM2.5,22,95,61
India,Bihar,Buxar,"Charitra Van, Buxar - BSPCB (Formerly known as Central Jail)",24-02-2024 14:00:00,25.567520,83.966379,SO2,NA,NA,NA
India,Bihar,Gaya,"Collectorate, Gaya - BSPCB",24-02-2024 14:00:00,24.7955,84.9994,CO,29,102,36
India,Bihar,Gaya,"Kareemganj, Gaya - BSPCB",24-02-2024 14:00:00,24.792403,84.992416,SO2,5,10,7
India,Bihar,Gaya,"SFTI Kusdihra, Gaya - BSPCB",24-02-2024 14:00:00,24.762518,84.982348,PM10,57,88,71
India,Bihar,Gaya,"SFTI Kusdihra, Gaya - BSPCB",24-02-2024 14:00:00,24.762518,84.982348,SO2,7,9,8
India,Bihar,Hajipur,"Industrial Area, Hajipur - BSPCB",24-02-2024 14:00:00,25.697189,85.245900,NO2,36,61,47
India,Bihar,Hajipur,"Industrial Area, Hajipur - BSPCB",24-02-2024 14:00:00,25.697189,85.245900,CO,20,55,45
India,Bihar,Hajipur,"Industrial Area, Hajipur - BSPCB",24-02-2024 14:00:00,25.697189,85.245900,OZONE,1,12,6
India,Bihar,Kishanganj,"SDM Office_Khagra, Kishanganj - BSPCB",24-02-2024 14:00:00,26.0881305,87.93840336,PM2.5,25,302,78
India,Bihar,Kishanganj,"SDM Office_Khagra, Kishanganj - BSPCB",24-02-2024 14:00:00,26.0881305,87.93840336,OZONE,19,53,20
India,Bihar,Motihari,"Gandak Colony, Motihari - BSPCB",24-02-2024 14:00:00,26.63086,84.90051,PM2.5,38,190,103
India,Bihar,Muzaffarpur,"Buddha Colony, Muzaffarpur - BSPCB",24-02-2024 14:00:00,26.11442,85.39813,PM10,133,205,160
India,Bihar,Muzaffarpur,"MIT-Daudpur Kothi, Muzaffarpur - BSPCB",24-02-2024 14:00:00,26.1403345,85.3650192,PM2.5,43,157,87
India,Bihar,Muzaffarpur,"MIT-Daudpur Kothi, Muzaffarpur - BSPCB",24-02-2024 14:00:00,26.1403345,85.3650192,SO2,16,18,17
India,Bihar,Muzaffarpur,"Muzaffarpur Collectorate, Muzaffarpur - BSPCB",24-02-2024 14:00:00,26.1209,85.3647,SO2,4,13,6
India,Bihar,Patna,"DRM Office Danapur, Patna - BSPCB",24-02-2024 14:00:00,25.586562,85.043586,PM10,136,199,160
India,Bihar,Patna,"DRM Office Danapur, Patna - BSPCB",24-02-2024 14:00:00,25.586562,85.043586,SO2,6,9,7
India,Bihar,Patna,"DRM Office Danapur, Patna - BSPCB",24-02-2024 14:00:00,25.586562,85.043586,OZONE,2,67,30
India,Bihar,Patna,"Govt. High School Shikarpur, Patna - BSPCB",24-02-2024 14:00:00,25.592539,85.227158,CO,26,51,40
India,Bihar,Patna,"IGSC Planetarium Complex, Patna - BSPCB",24-02-2024 14:00:00,25.610369,85.132568,PM2.5,42,123,77
India,Bihar,Patna,"IGSC Planetarium Complex, Patna - BSPCB",24-02-2024 14:00:00,25.610369,85.132568,NO2,10,12,12
India,Bihar,Patna,"Muradpur, Patna - BSPCB",24-02-2024 14:00:00,25.619651,85.147382,PM10,158,334,212
India,Bihar,Patna,"Rajbansi Nagar, Patna - BSPCB",24-02-2024 14:00:00,25.599486,85.113666,PM2.5,57,133,98
India,Bihar,Patna,"Rajbansi Nagar, Patna - BSPCB",24-02-2024 14:00:00,25.599486,85.113666,PM10,102,149,126
India,Bihar,Patna,"Rajbansi Nagar, Patna - BSPCB",24-02-2024 14:00:00,25.599486,85.113666,OZONE,1,55,21
India,Bihar,Patna,"Samanpura, Patna - BSPCB",24-02-2024 14:00:00,25.596727,85.085624,CO,42,111,82
India,Bihar,Rajgir,"Dangi Tola, Rajgir - BSPCB",24-02-2024 14:00:00,25.03280,85.41948,PM2.5,33,197,77
India,Bihar,Rajgir,"Dangi Tola, Rajgir - BSPCB",24-02-2024 14:00:00,25.03280,85.41948,NO2,1,1,1
India,Bihar,Rajgir,"Dangi Tola, Rajgir - BSPCB",24-02-2024 14:00:00,25.03280,85.41948,NH3,1,2,1
India,Bihar,Saharsa,"Police Line, Saharsa - BSPCB",24-02-2024 14:00:00,25.892357,86.590325,NH3,9,9,9
India,Bihar,Samastipur,"DM Office_Kasipur, Samastipur - BSPCB",24-02-2024 14:00:00,25.859655,85.77944,PM2.5,48,293,108
India,Bihar,Samastipur,"DM Office_Kasipur, Samastipur - BSPCB",24-02-2024 14:00:00,25.859655,85.77944,NH3,1,3,3
India,Bihar,Samastipur,"DM Office_Kasipur, Samastipur - BSPCB",24-02-2024 14:00:00,25.859655,85.77944,CO,5,36,28
India,Bihar,Sasaram,"Dada Peer, Sasaram - BSPCB",24-02-2024 14:00:00,24.952822,84.002396,OZONE,4,75,35
India,Bihar,Siwan,"Chitragupta Nagar, Siwan - BSPCB",24-02-2024 14:00:00,26.2271665,84.3570427,PM10,88,262,146
India,Bihar,Siwan,"Chitragupta Nagar, Siwan - BSPCB",24-02-2024 14:00:00,26.2271665,84.3570427,NO2,13,66,26
India,Bihar,Siwan,"Chitragupta Nagar, Siwan - BSPCB",24-02-2024 14:00:00,26.2271665,84.3570427,NH3,1,8,3
India,Chandigarh,Chandigarh,"Sector 22, Chandigarh - CPCC",24-02-2024 14:00:00,30.735567,76.775714,PM2.5,18,177,88
India,Chandigarh,Chandigarh,"Sector 22, Chandigarh - CPCC",24-02-2024 14:00:00,30.735567,76.775714,SO2,4,40,15
India,Chandigarh,Chandigarh,"Sector-53, Chandigarh - CPCC",24-02-2024 14:00:00,30.719859,76.738637,NH3,3,6,4
India,Chhattisgarh,Bilaspur,"Mangala, Bilaspur - NTPC",24-02-2024 14:00:00,22.08815,82.13737,NO2,13,18,14
India,Chhattisgarh,Chhal,"Nawapara SECL Colony, Chhal - CECB",24-02-2024 14:00:00,22.118125,83.140608,CO,22,51,35
India,Chhattisgarh,Chhal,"Nawapara SECL Colony, Chhal - CECB",24-02-2024 14:00:00,22.118125,83.140608,OZONE,4,62,34
India,Chhattisgarh,Korba,"Rampur, Korba - CECB",24-02-2024 14:00:00,22.368195,82.746431,PM2.5,18,28,22
India,Chhattisgarh,Korba,"Rampur, Korba - CECB",24-02-2024 14:00:00,22.368195,82.746431,OZONE,2,132,28
India,Chhattisgarh,Korba,"Urja Nagar, Korba - CECB",24-02-2024 14:00:00,22.348441,82.549611,PM10,32,106,58
India,Chhattisgarh,Korba,"Urja Nagar, Korba - CECB",24-02-2024 14:00:00,22.348441,82.549611,SO2,2,43,7
India,Chhattisgarh,Milupara,"Govt. Higher Secondary School, Milupara - CECB",24-02-2024 14:00:00,22.1910172,83.5197009,NH3,NA,NA,NA
India,Chhattisgarh,Milupara,"Govt. Higher Secondary School, Milupara - CECB",24-02-2024 14:00:00,22.1910172,83.5197009,CO,5,24,13
India,Chhattisgarh,Raipur,"AIIMS, Raipur - CECB",24-02-2024 14:00:00,21.258815,81.578979,PM2.5,24,112,63
India,Chhattisgarh,Raipur,"AIIMS, Raipur - CECB",24-02-2024 14:00:00,21.258815,81.578979,NO2,33,52,46
India,Chhattisgarh,Raipur,"AIIMS, Raipur - CECB",24-02-2024 14:00:00,21.258815,81.578979,NH3,4,4,4
India,Chhattisgarh,Raipur,"AIIMS, Raipur - CECB",24-02-2024 14:00:00,21.258815,81.578979,CO,16,60,34
India,Chhattisgarh,Raipur,"Bhatagaon New ISBT, Raipur - CECB",24-02-2024 14:00:00,21.219665,81.630094,NH3,1,2,1
India,Chhattisgarh,Raipur,"Bhatagaon New ISBT, Raipur - CECB",24-02-2024 14:00:00,21.219665,81.630094,OZONE,3,6,4
India,Chhattisgarh,Raipur,"Krishak Nagar, Raipur - CECB",24-02-2024 14:00:00,21.237755,81.705301,PM10,NA,NA,NA
India,Chhattisgarh,Raipur,"Krishak Nagar, Raipur - CECB",24-02-2024 14:00:00,21.237755,81.705301,NH3,NA,NA,NA
India,Chhattisgarh,Raipur,"Krishak Nagar, Raipur - CECB",24-02-2024 14:00:00,21.237755,81.705301,SO2,NA,NA,NA
India,Chhattisgarh,Raipur,"Siltara Phase-II, Raipur - CECB",24-02-2024 14:00:00,21.371751,81.664929,NH3,NA,NA,NA
India,Chhattisgarh,Tumidih,"OP Jindal Industrial Park, Tumidih - CECB",24-02-2024 14:00:00,22.06631475,83.33820077,NO2,5,46,15
India,Chhattisgarh,Tumidih,"OP Jindal Industrial Park, Tumidih - CECB",24-02-2024 14:00:00,22.06631475,83.33820077,SO2,5,7,5
India,Delhi,Delhi,"Anand Vihar, Delhi - DPCC",24-02-2024 14:00:00,28.647622,77.3158090,SO2,28,61,39
India,Delhi,Delhi,"Ashok Vihar, Delhi - DPCC",24-02-2024 14:00:00,28.695381,77.181665,NH3,1,5,3
India,Delhi,Delhi,"Bawana, Delhi - DPCC",24-02-2024 14:00:00,28.776200,77.051074,PM10,82,332,187
India,Delhi,Delhi,"Burari Crossing, Delhi - IMD",24-02-2024 14:00:00,28.7256504,77.2011573,PM10,81,404,206
India,Delhi,Delhi,"CRRI Mathura Road, Delhi - IMD",24-02-2024 14:00:00,28.5512005,77.2735737,PM2.5,29,307,167
India,Delhi,Delhi,"Chandni Chowk, Delhi - IITM",24-02-2024 14:00:00,28.656756,77.227234,NH3,7,8,8
India,Delhi,Delhi,"Chandni Chowk, Delhi - IITM",24-02-2024 14:00:00,28.656756,77.227234,OZONE,19,30,29
India,Delhi,Delhi,"DTU, Delhi - CPCB",24-02-2024 14:00:00,28.7500499,77.1112615,NH3,11,24,15
India,Delhi,Delhi,"DTU, Delhi - CPCB",24-02-2024 14:00:00,28.7500499,77.1112615,CO,10,45,35
India,Delhi,Delhi,"Dr. Karni Singh Shooting Range, Delhi - DPCC",24-02-2024 14:00:00,28.498571,77.264840,NH3,4,7,5
India,Delhi,Delhi,"Dr. Karni Singh Shooting Range, Delhi - DPCC",24-02-2024 14:00:00,28.498571,77.264840,CO,20,102,55
India,Delhi,Delhi,"Dr. Karni Singh Shooting Range, Delhi - DPCC",24-02-2024 14:00:00,28.498571,77.264840,OZONE,1,172,172
India,Delhi,Delhi,"Dwarka-Sector 8, Delhi - DPCC ",24-02-2024 14:00:00,28.5710274,77.0719006,PM2.5,49,315,163
India,Delhi,Delhi,"Dwarka-Sector 8, Delhi - DPCC ",24-02-2024 14:00:00,28.5710274,77.0719006,CO,14,101,58
India,Delhi,Delhi,"IGI Airport (T3), Delhi - IMD",24-02-2024 14:00:00,28.5627763,77.1180053,NO2,34,112,72
India,Delhi,Delhi,"IGI Airport (T3), Delhi - IMD",24-02-2024 14:00:00,28.5627763,77.1180053,CO,2,103,49
India,Delhi,Delhi,"IHBAS, Dilshad Garden, Delhi - CPCB",24-02-2024 14:00:00,28.6811736,77.3025234,NO2,15,43,32
India,Delhi,Delhi,"ITO, Delhi - CPCB",24-02-2024 14:00:00,28.628624,77.241060,PM2.5,40,292,172
India,Delhi,Delhi,"ITO, Delhi - CPCB",24-02-2024 14:00:00,28.628624,77.241060,NO2,23,198,110
India,Delhi,Delhi,"ITO, Delhi - CPCB",24-02-2024 14:00:00,28.628624,77.241060,OZONE,11,78,32
India,Delhi,Delhi,"Jahangirpuri, Delhi - DPCC",24-02-2024 14:00:00,28.732820,77.170633,NO2,28,108,82
India,Delhi,Delhi,"Jahangirpuri, Delhi - DPCC",24-02-2024 14:00:00,28.732820,77.170633,CO,42,107,85
India,Delhi,Delhi,"Jahangirpuri, Delhi - DPCC",24-02-2024 14:00:00,28.732820,77.170633,OZONE,3,65,21
India,Delhi,Delhi,"Jawaharlal Nehru Stadium, Delhi - DPCC",24-02-2024 14:00:00,28.580280,77.233829,PM10,69,183,130
India,Delhi,Delhi,"Jawaharlal Nehru Stadium, Delhi - DPCC",24-02-2024 14:00:00,28.580280,77.233829,NH3,4,8,6
India,Delhi,Delhi,"Jawaharlal Nehru Stadium, Delhi - DPCC",24-02-2024 14:00:00,28.580280,77.233829,SO2,1,32,16
India,Delhi,Delhi,"Lodhi Road, Delhi - IMD",24-02-2024 14:00:00,28.5918245,77.2273074,NO2,5,21,12
India,Delhi,Delhi,"Lodhi Road, Delhi - IMD",24-02-2024 14:00:00,28.5918245,77.2273074,OZONE,2,84,23
India,Delhi,Delhi,"Major Dhyan Chand National Stadium, Delhi - DPCC",24-02-2024 14:00:00,28.611281,77.237738,PM2.5,45,209,128
India,Delhi,Delhi,"Major Dhyan Chand National Stadium, Delhi - DPCC",24-02-2024 14:00:00,28.611281,77.237738,CO,74,116,101
India,Delhi,Delhi,"Major Dhyan Chand National Stadium, Delhi - DPCC",24-02-2024 14:00:00,28.611281,77.237738,OZONE,2,178,178
India,Delhi,Delhi,"Mandir Marg, Delhi - DPCC",24-02-2024 14:00:00,28.636429,77.201067,PM10,57,157,102
India,Delhi,Delhi,"Mundka, Delhi - DPCC",24-02-2024 14:00:00,28.684678,77.076574,NO2,22,111,63
India,Delhi,Delhi,"NSIT Dwarka, Delhi - CPCB",24-02-2024 14:00:00,28.60909,77.0325413,PM10,107,288,180
India,Delhi,Delhi,"NSIT Dwarka, Delhi - CPCB",24-02-2024 14:00:00,28.60909,77.0325413,NH3,5,8,7
India,Delhi,Delhi,"Najafgarh, Delhi - DPCC",24-02-2024 14:00:00,28.570173,76.933762,NH3,1,1,1
India,Delhi,Delhi,"Najafgarh, Delhi - DPCC",24-02-2024 14:00:00,28.570173,76.933762,SO2,12,16,15
India,Delhi,Delhi,"Narela, Delhi - DPCC",24-02-2024 14:00:00,28.822836,77.101981,PM10,69,406,165
India,Delhi,Delhi,"Nehru Nagar, Delhi - DPCC",24-02-2024 14:00:00,28.567890,77.250515,PM10,75,280,151
India,Delhi,Delhi,"Nehru Nagar, Delhi - DPCC",24-02-2024 14:00:00,28.567890,77.250515,NO2,14,40,23
India,Delhi,Delhi,"Nehru Nagar, Delhi - DPCC",24-02-2024 14:00:00,28.567890,77.250515,SO2,7,17,10
India,Delhi,Delhi,"North Campus, DU, Delhi - IMD",24-02-2024 14:00:00,28.6573814,77.1585447,CO,4,58,21
India,Delhi,Delhi,"Okhla Phase-2, Delhi - DPCC",24-02-2024 14:00:00,28.530785,77.271255,OZONE,8,107,49
India,Delhi,Delhi,"Patparganj, Delhi - DPCC",24-02-2024 14:00:00,28.623763,77.287209,PM2.5,37,227,105
India,Delhi,Delhi,"Patparganj, Delhi - DPCC",24-02-2024 14:00:00,28.623763,77.287209,NO2,33,78,57
India,Delhi,Delhi,"Patparganj, Delhi - DPCC",24-02-2024 14:00:00,28.623763,77.287209,SO2,7,11,9
India,Delhi,Delhi,"Punjabi Bagh, Delhi - DPCC",24-02-2024 14:00:00,28.674045,77.131023,NO2,16,55,42
India,Delhi,Delhi,"Punjabi Bagh, Delhi - DPCC",24-02-2024 14:00:00,28.674045,77.131023,OZONE,7,56,16
India,Delhi,Delhi,"Pusa, Delhi - DPCC",24-02-2024 14:00:00,28.639652,77.146275,SO2,9,29,18
India,Delhi,Delhi,"Pusa, Delhi - DPCC",24-02-2024 14:00:00,28.639652,77.146275,OZONE,13,93,40
India,Delhi,Delhi,"R K Puram, Delhi - DPCC",24-02-2024 14:00:00,28.563262,77.186937,PM10,97,226,152
India,Delhi,Delhi,"R K Puram, Delhi - DPCC",24-02-2024 14:00:00,28.563262,77.186937,NH3,1,1,1
India,Delhi,Delhi,"R K Puram, Delhi - DPCC",24-02-2024 14:00:00,28.563262,77.186937,OZONE,10,164,164
India,Delhi,Delhi,"Rohini, Delhi - DPCC",24-02-2024 14:00:00,28.732528,77.119920,NH3,6,10,8
India,Delhi,Delhi,"Sirifort, Delhi - CPCB",24-02-2024 14:00:00,28.5504249,77.2159377,NO2,120,210,177
India,Delhi,Delhi,"Sirifort, Delhi - CPCB",24-02-2024 14:00:00,28.5504249,77.2159377,CO,10,88,58
India,Delhi,Delhi,"Sirifort, Delhi - CPCB",24-02-2024 14:00:00,28.5504249,77.2159377,OZONE,15,34,19
India,Delhi,Delhi,"Sonia Vihar, Delhi - DPCC",24-02-2024 14:00:00,28.710508,77.249485,OZONE,3,152,58
India,Delhi,Delhi,"Sri Aurobindo Marg, Delhi - DPCC",24-02-2024 14:00:00,28.531346,77.190156,NH3,5,9,7
India,Delhi,Delhi,"Sri Aurobindo Marg, Delhi - DPCC",24-02-2024 14:00:00,28.531346,77.190156,OZONE,1,36,10
India,Gujarat,Ahmedabad,"Gyaspur, Ahmedabad - IITM",24-02-2024 14:00:00,22.977134,72.553024,PM2.5,26,91,43
India,Gujarat,Ahmedabad,"Gyaspur, Ahmedabad - IITM",24-02-2024 14:00:00,22.977134,72.553024,PM10,30,101,48
India,Gujarat,Ahmedabad,"Gyaspur, Ahmedabad - IITM",24-02-2024 14:00:00,22.977134,72.553024,OZONE,3,49,13
India,Gujarat,Ahmedabad,"Rakhial, Ahmedabad - IITM",24-02-2024 14:00:00,23.016834,72.625775,PM10,84,161,117
India,Gujarat,Ahmedabad,"Rakhial, Ahmedabad - IITM",24-02-2024 14:00:00,23.016834,72.625775,NH3,1,13,7
India,Gujarat,Ahmedabad,"Rakhial, Ahmedabad - IITM",24-02-2024 14:00:00,23.016834,72.625775,CO,14,68,22
India,Gujarat,Ahmedabad,"SAC ISRO Bopal, Ahmedabad - IITM",24-02-2024 14:00:00,23.041137,72.456691,PM2.5,91,305,176
India,Gujarat,Ahmedabad,"SAC ISRO Satellite, Ahmedabad - IITM",24-02-2024 14:00:00,23.023389,72.515201,PM2.5,108,140,127
India,Gujarat,Ahmedabad,"SAC ISRO Satellite, Ahmedabad - IITM",24-02-2024 14:00:00,23.023389,72.515201,PM10,98,110,101
India,Gujarat,Ahmedabad,"SAC ISRO Satellite, Ahmedabad - IITM",24-02-2024 14:00:00,23.023389,72.515201,NO2,17,17,17
India,Gujarat,Ahmedabad,"Sardar Vallabhbhai Patel Stadium, Ahmedabad - IITM",24-02-2024 14:00:00,23.043070,72.562968,CO,8,90,15
India,Gujarat,Ankleshwar,"GIDC, Ankleshwar - GPCB",24-02-2024 14:00:00,21.613267,73.010555,NH3,7,7,7
India,Gujarat,Ankleshwar,"GIDC, Ankleshwar - GPCB",24-02-2024 14:00:00,21.613267,73.010555,SO2,7,120,44
India,Gujarat,Ankleshwar,"GIDC, Ankleshwar - GPCB",24-02-2024 14:00:00,21.613267,73.010555,CO,13,90,64
India,Gujarat,Gandhinagar,"IIPHG Lekawada, Gandhinagar - IITM",24-02-2024 14:00:00,23.243639,72.68994,OZONE,20,143,78
India,Gujarat,Gandhinagar,"Sector-10, Gandhinagar - GPCB",24-02-2024 14:00:00,23.221714,72.654328,PM10,50,154,84
India,Gujarat,Gandhinagar,"Sector-10, Gandhinagar - GPCB",24-02-2024 14:00:00,23.221714,72.654328,CO,30,121,50
India,Gujarat,Vapi,"Phase-1 GIDC, Vapi - GPCB",24-02-2024 14:00:00,20.362421,72.918013,PM2.5,64,347,199
India,Gujarat,Vatva,"Phase-4 GIDC, Vatva - GPCB",24-02-2024 14:00:00,22.969611,72.643500,SO2,17,18,17
India,Gujarat,Vatva,"Phase-4 GIDC, Vatva - GPCB",24-02-2024 14:00:00,22.969611,72.643500,CO,48,50,49
India,Haryana,Ambala,"Patti Mehar, Ambala - HSPCB",24-02-2024 14:00:00,30.379589,76.778328,NH3,7,7,7
India,Haryana,Bahadurgarh,"Arya Nagar, Bahadurgarh - HSPCB",24-02-2024 14:00:00,28.6701,76.9254,CO,34,59,49
India,Haryana,Bhiwani,"H.B. Colony, Bhiwani - HSPCB",24-02-2024 14:00:00,28.806223,76.141105,NO2,3,11,9
India,Haryana,Bhiwani,"H.B. Colony, Bhiwani - HSPCB",24-02-2024 14:00:00,28.806223,76.141105,NH3,5,6,6
India,Haryana,Bhiwani,"H.B. Colony, Bhiwani - HSPCB",24-02-2024 14:00:00,28.806223,76.141105,OZONE,5,34,8
India,Haryana,Charkhi Dadri,"Mini Secretariat, Charkhi Dadri - HSPCB",24-02-2024 14:00:00,28.593883,76.270653,OZONE,14,18,15
India,Haryana,Dharuhera,"Municipal Corporation Office, Dharuhera -  HSPCB",24-02-2024 14:00:00,28.206800,76.799700,PM2.5,30,301,139
India,Haryana,Dharuhera,"Municipal Corporation Office, Dharuhera -  HSPCB",24-02-2024 14:00:00,28.206800,76.799700,NO2,45,112,72
India,Haryana,Dharuhera,"Municipal Corporation Office, Dharuhera -  HSPCB",24-02-2024 14:00:00,28.206800,76.799700,NH3,9,27,19
India,Haryana,Faridabad,"New Industrial Town, Faridabad - HSPCB",24-02-2024 14:00:00,28.39072,77.30059,PM10,111,466,255
India,Haryana,Faridabad,"New Industrial Town, Faridabad - HSPCB",24-02-2024 14:00:00,28.39072,77.30059,NO2,10,24,17
India,Haryana,Faridabad,"Sector 11, Faridabad - HSPCB",24-02-2024 14:00:00,28.376058,77.315741,PM10,77,425,196
India,Haryana,Faridabad,"Sector 30, Faridabad - HSPCB",24-02-2024 14:00:00,28.4417,77.3217,PM10,107,125,117
India,Haryana,Fatehabad,"Huda Sector, Fatehabad - HSPCB",24-02-2024 14:00:00,29.503664,75.467934,PM10,61,124,80
India,Haryana,Fatehabad,"Huda Sector, Fatehabad - HSPCB",24-02-2024 14:00:00,29.503664,75.467934,NH3,10,11,10
India,Haryana,Gurugram,"Teri Gram, Gurugram - HSPCB",24-02-2024 14:00:00,28.4275,77.1465,NH3,20,26,23
India,Haryana,Gurugram,"Vikas Sadan, Gurugram - HSPCB",24-02-2024 14:00:00,28.4501238,77.0263051,PM2.5,18,215,66
India,Haryana,Gurugram,"Vikas Sadan, Gurugram - HSPCB",24-02-2024 14:00:00,28.4501238,77.0263051,NO2,5,25,14
India,Haryana,Jind,"Police Lines, Jind - HSPCB",24-02-2024 14:00:00,29.307814,76.337619,PM2.5,30,133,68
India,Haryana,Jind,"Police Lines, Jind - HSPCB",24-02-2024 14:00:00,29.307814,76.337619,PM10,60,133,93
India,Haryana,Jind,"Police Lines, Jind - HSPCB",24-02-2024 14:00:00,29.307814,76.337619,OZONE,6,14,10
India,Haryana,Kaithal,"Rishi Nagar, Kaithal - HSPCB",24-02-2024 14:00:00,29.8006,76.4155,PM10,59,118,90
India,Haryana,Kaithal,"Rishi Nagar, Kaithal - HSPCB",24-02-2024 14:00:00,29.8006,76.4155,NO2,24,26,25
India,Haryana,Kaithal,"Rishi Nagar, Kaithal - HSPCB",24-02-2024 14:00:00,29.8006,76.4155,NH3,8,8,8
India,Haryana,Karnal,"Sector-12, Karnal - HSPCB",24-02-2024 14:00:00,29.695300,77.002700,NO2,7,12,10
India,Haryana,Kurukshetra,"Sector-7, Kurukshetra - HSPCB",24-02-2024 14:00:00,29.966942,76.875879,NH3,5,5,5
India,Haryana,Kurukshetra,"Sector-7, Kurukshetra - HSPCB",24-02-2024 14:00:00,29.966942,76.875879,OZONE,16,82,37
India,Haryana,Mandikhera,"General Hospital, Mandikhera - HSPCB",24-02-2024 14:00:00,27.9002,76.9938,PM2.5,15,74,51
India,Haryana,Mandikhera,"General Hospital, Mandikhera - HSPCB",24-02-2024 14:00:00,27.9002,76.9938,PM10,43,168,96
India,Haryana,Mandikhera,"General Hospital, Mandikhera - HSPCB",24-02-2024 14:00:00,27.9002,76.9938,NH3,17,21,19
India,Haryana,Manesar,"Sector-2 IMT, Manesar - HSPCB",24-02-2024 14:00:00,28.360699,76.936090,PM10,46,167,99
India,Haryana,Manesar,"Sector-2 IMT, Manesar - HSPCB",24-02-2024 14:00:00,28.360699,76.936090,SO2,2,5,3
India,Haryana,Narnaul,"Shastri Nagar, Narnaul - HSPCB",24-02-2024 14:00:00,28.060249,76.113115,NO2,16,58,35
India,Haryana,Palwal,"Shyam Nagar, Palwal - HSPCB",24-02-2024 14:00:00,28.1485564,77.3320667,NH3,8,9,9
India,Haryana,Panchkula,"Sector-6, Panchkula - HSPCB ",24-02-2024 14:00:00,30.7057778,76.8531805555555,PM2.5,6,56,24
India,Haryana,Panchkula,"Sector-6, Panchkula - HSPCB ",24-02-2024 14:00:00,30.7057778,76.8531805555555,NO2,28,30,29
India,Haryana,Rohtak,"MD University, Rohtak - HSPCB",24-02-2024 14:00:00,28.52123,76.37138,PM2.5,10,357,97
India,Haryana,Rohtak,"MD University, Rohtak - HSPCB",24-02-2024 14:00:00,28.52123,76.37138,OZONE,42,53,49
India,Haryana,Sirsa,"F-Block, Sirsa - HSPCB",24-02-2024 14:00:00,29.536400,75.015800,SO2,1,10,5
India,Haryana,Sirsa,"F-Block, Sirsa - HSPCB",24-02-2024 14:00:00,29.536400,75.015800,CO,38,48,46
India,Haryana,Sirsa,"F-Block, Sirsa - HSPCB",24-02-2024 14:00:00,29.536400,75.015800,OZONE,31,85,56
India,Haryana,Sonipat,"Murthal, Sonipat - HSPCB",24-02-2024 14:00:00,29.027200,77.062100,NH3,7,10,9
India,Himachal Pradesh,Baddi,"HIMUDA Complex Phase-1, Baddi - HPPCB",24-02-2024 14:00:00,30.943887,76.801991,PM2.5,17,362,85
India,Jharkhand,Pathardih,"Mohalbani Ghat, Pathardih - DMC",24-02-2024 14:00:00,23.669880,86.411725,SO2,18,21,19
India,Karnataka,Belgaum,"Ramteerth Nagar, Belgaum - KSPCB",24-02-2024 14:00:00,15.888653,74.541751,PM10,44,132,63
India,Karnataka,Belgaum,"Ramteerth Nagar, Belgaum - KSPCB",24-02-2024 14:00:00,15.888653,74.541751,CO,32,53,40
India,Karnataka,Bengaluru,"City Railway Station, Bengaluru - KSPCB",24-02-2024 14:00:00,12.9756843,77.5660749,SO2,13,13,13
India,Karnataka,Bengaluru,"City Railway Station, Bengaluru - KSPCB",24-02-2024 14:00:00,12.9756843,77.5660749,CO,51,104,69
India,Karnataka,Bengaluru,"Hebbal, Bengaluru - KSPCB",24-02-2024 14:00:00,13.029152,77.585901,PM2.5,NA,NA,NA
India,Karnataka,Bengaluru,"Hebbal, Bengaluru - KSPCB",24-02-2024 14:00:00,13.029152,77.585901,NO2,NA,NA,NA
India,Karnataka,Bengaluru,"Jayanagar 5th Block, Bengaluru - KSPCB",24-02-2024 14:00:00,12.920984,77.584908,SO2,10,28,18
India,Karnataka,Bengaluru,"Jigani, Bengaluru - KSPCB",24-02-2024 14:00:00,12.7816279,77.6299145,SO2,16,16,16
India,Karnataka,Bengaluru,"Jigani, Bengaluru - KSPCB",24-02-2024 14:00:00,12.7816279,77.6299145,CO,42,171,68
India,Karnataka,Bengaluru,"Jigani, Bengaluru - KSPCB",24-02-2024 14:00:00,12.7816279,77.6299145,OZONE,17,84,40
India,Karnataka,Bengaluru,"RVCE-Mailasandra, Bengaluru - KSPCB",24-02-2024 14:00:00,12.921418,77.502466,PM10,78,377,158
India,Karnataka,Bengaluru,"Sanegurava Halli, Bengaluru - KSPCB",24-02-2024 14:00:00,12.990328,77.5431385,PM10,36,81,47
India,Karnataka,Bengaluru,"Silk Board, Bengaluru - KSPCB",24-02-2024 14:00:00,12.917348,77.622813,NO2,NA,NA,NA
India,Karnataka,Bengaluru,"Silk Board, Bengaluru - KSPCB",24-02-2024 14:00:00,12.917348,77.622813,SO2,4,11,8
India,Karnataka,Bengaluru,"Silk Board, Bengaluru - KSPCB",24-02-2024 14:00:00,12.917348,77.622813,CO,28,104,43
India,Karnataka,Bengaluru,"Silk Board, Bengaluru - KSPCB",24-02-2024 14:00:00,12.917348,77.622813,OZONE,19,47,32
India,Karnataka,Bidar,"Naubad, Bidar - KSPCB",24-02-2024 14:00:00,17.930306,77.482194,PM10,NA,NA,NA
India,Karnataka,Bidar,"Naubad, Bidar - KSPCB",24-02-2024 14:00:00,17.930306,77.482194,CO,NA,NA,NA
India,Karnataka,Chamarajanagar,"Urban, Chamarajanagar - KSPCB",24-02-2024 14:00:00,11.55358,76.55521,SO2,4,7,4
India,Karnataka,Chikkaballapur,"Chikkaballapur Rural, Chikkaballapur - KSPCB",24-02-2024 14:00:00,13.428828,77.731418,CO,20,24,20
India,Karnataka,Chikkamagaluru,"Kalyana Nagara, Chikkamagaluru - KSPCB",24-02-2024 14:00:00,13.328028,75.797056,NO2,16,29,27
India,Karnataka,Davanagere,"Devaraj Urs Badavane, Davanagere - KSPCB",24-02-2024 14:00:00,14.475800,75.905200,PM2.5,25,96,46
India,Karnataka,Davanagere,"Devaraj Urs Badavane, Davanagere - KSPCB",24-02-2024 14:00:00,14.475800,75.905200,NO2,10,15,12
India,Karnataka,Davanagere,"Devaraj Urs Badavane, Davanagere - KSPCB",24-02-2024 14:00:00,14.475800,75.905200,NH3,1,1,1
India,Karnataka,Davanagere,"Devaraj Urs Badavane, Davanagere - KSPCB",24-02-2024 14:00:00,14.475800,75.905200,CO,16,23,17
India,Karnataka,Dharwad,"Kalabhavan, Dharwad - KSPCB",24-02-2024 14:00:00,15.459706,75.008381,CO,37,112,75
India,Karnataka,Gadag,"Panchal Nagar, Gadag - KSPCB",24-02-2024 14:00:00,15.411456,75.638133,PM2.5,35,104,50
India,Karnataka,Haveri,"Ashwini Nagar, Haveri - KSPCB",24-02-2024 14:00:00,14.791800,75.389600,PM10,92,93,93
India,Karnataka,Haveri,"Ashwini Nagar, Haveri - KSPCB",24-02-2024 14:00:00,14.791800,75.389600,CO,34,34,34
India,Karnataka,Hubballi,"Deshpande Nagar, Hubballi - KSPCB",24-02-2024 14:00:00,15.351773,75.140726,PM10,72,162,99
India,Karnataka,Hubballi,"Deshpande Nagar, Hubballi - KSPCB",24-02-2024 14:00:00,15.351773,75.140726,OZONE,1,54,27
India,Karnataka,Hubballi,"Lingaraj Nagar, Hubballi - KSPCB",24-02-2024 14:00:00,15.3714823,75.1160168,NH3,2,2,2
India,Karnataka,Hubballi,"Lingaraj Nagar, Hubballi - KSPCB",24-02-2024 14:00:00,15.3714823,75.1160168,OZONE,12,50,26
India,Karnataka,Kalaburagi,"Lal Bahadur Shastri Nagar, Kalaburagi - KSPCB",24-02-2024 14:00:00,17.321993,76.822628,NH3,2,2,2
India,Karnataka,Kalaburagi,"Lal Bahadur Shastri Nagar, Kalaburagi - KSPCB",24-02-2024 14:00:00,17.321993,76.822628,OZONE,7,86,47
