country,state,city,station,last_update,latitude,longitude,pollutant_id,pollutant_min,pollutant_max,pollutant_avg
India,Andhra_Pradesh,Amaravati,"Secretariat, Amaravati - APPCB",04-06-2024 01:00:00,16.5150833,80.5181667,SO2,12,18,14
India,Andhra_Pradesh,Anantapur,"Gulzarpet, Anantapur - APPCB",04-06-2024 01:00:00,14.675886,77.593027,PM10,25,73,49
India,Andhra_Pradesh,Chittoor,"Gangineni Cheruvu, Chittoor - APPCB",04-06-2024 01:00:00,13.204880,79.097889,PM10,NA,NA,NA
India,Andhra_Pradesh,Chittoor,"Gangineni Cheruvu, Chittoor - APPCB",04-06-2024 01:00:00,13.204880,79.097889,SO2,NA,NA,NA
India,Andhra_Pradesh,Chittoor,"Gangineni Cheruvu, Chittoor - APPCB",04-06-2024 01:00:00,13.204880,79.097889,CO,26,45,37
India,Andhra_Pradesh,Kadapa,"Yerramukkapalli, Kadapa - APPCB",04-06-2024 01:00:00,14.465052,78.824187,NO2,12,13,13
India,Andhra_Pradesh,Tirupati,"Vaikuntapuram, Tirupati - APPCB",04-06-2024 01:00:00,13.615387,79.409230,PM2.5,2,335,49
India,Andhra_Pradesh,Tirupati,"Vaikuntapuram, Tirupati - APPCB",04-06-2024 01:00:00,13.615387,79.409230,PM10,2,204,31
India,Andhra_Pradesh,Tirupati,"Vaikuntapuram, Tirupati - APPCB",04-06-2024 01:00:00,13.615387,79.409230,NH3,2,3,3
India,Andhra_Pradesh,Vijayawada,"HB Colony, Vijayawada - APPCB",04-06-2024 01:00:00,16.536107,80.594233,SO2,6,7,6
India,Andhra_Pradesh,Vijayawada,"Rajiv Gandhi Park, Vijayawada - APPCB",04-06-2024 01:00:00,16.509717,80.612222,PM2.5,42,60,51
India,Andhra_Pradesh,Vijayawada,"Rajiv Gandhi Park, Vijayawada - APPCB",04-06-2024 01:00:00,16.509717,80.612222,OZONE,22,54,39
India,Andhra_Pradesh,Visakhapatnam,"GVM Corporation, Visakhapatnam - APPCB",04-06-2024 01:00:00,17.72,83.3,NH3,NA,NA,NA
India,Arunachal_Pradesh,Naharlagun,"Naharlagun, Naharlagun - APSPCB",04-06-2024 01:00:00,27.103358,93.679645,PM2.5,NA,NA,NA
India,Arunachal_Pradesh,Naharlagun,"Naharlagun, Naharlagun - APSPCB",04-06-2024 01:00:00,27.103358,93.679645,PM10,NA,NA,NA
India,Arunachal_Pradesh,Naharlagun,"Naharlagun, Naharlagun - APSPCB",04-06-2024 01:00:00,27.103358,93.679645,OZONE,NA,NA,NA
India,Assam,Guwahati,"IITG, Guwahati - PCBA",04-06-2024 01:00:00,26.2028636,91.70046436,NH3,5,5,5
India,Assam,Guwahati,"IITG, Guwahati - PCBA",04-06-2024 01:00:00,26.2028636,91.70046436,SO2,12,13,13
India,Assam,Guwahati,"LGBI Airport, Guwahati - PCBA",04-06-2024 01:00:00,26.10887,91.589544,NO2,NA,NA,NA
India,Assam,Guwahati,"LGBI Airport, Guwahati - PCBA",04-06-2024 01:00:00,26.10887,91.589544,CO,46,50,50
India,Assam,Guwahati,"Pan Bazaar, Guwahati - PCBA",04-06-2024 01:00:00,26.187500,91.744194,OZONE,16,18,17
India,Assam,Guwahati,"Railway Colony, Guwahati - PCBA",04-06-2024 01:00:00,26.181742,91.78063,CO,20,35,27
India,Assam,Nagaon,"Christianpatty, Nagaon - PCBA",04-06-2024 01:00:00,26.349082,92.68449,PM2.5,28,297,144
India,Assam,Nagaon,"Christianpatty, Nagaon - PCBA",04-06-2024 01:00:00,26.349082,92.68449,NO2,1,20,5
India,Assam,Nagaon,"Christianpatty, Nagaon - PCBA",04-06-2024 01:00:00,26.349082,92.68449,NH3,1,39,6
India,Assam,Nagaon,"Christianpatty, Nagaon - PCBA",04-06-2024 01:00:00,26.349082,92.68449,CO,38,90,71
India,Assam,Nalbari,"Bata Chowk, Nalbari - PCBA",04-06-2024 01:00:00,26.446912,91.439057,NO2,10,16,12
India,Assam,Nalbari,"Bata Chowk, Nalbari - PCBA",04-06-2024 01:00:00,26.446912,91.439057,SO2,4,9,8
India,Assam,Sivasagar,"Girls College, Sivasagar - PCBA",04-06-2024 01:00:00,26.987634,94.636574,OZONE,1,26,2
India,Bihar,Araria,"Kharahiya Basti, Araria - BSPCB",04-06-2024 01:00:00,26.146529,87.454184,NO2,6,26,8
India,Bihar,Araria,"Kharahiya Basti, Araria - BSPCB",04-06-2024 01:00:00,26.146529,87.454184,SO2,10,18,15
India,Bihar,Arrah,"New DM Office, Arrah - BSPCB",04-06-2024 01:00:00,25.5626095,84.663264,NO2,8,14,11
India,Bihar,Aurangabad,"Gurdeo Nagar, Aurangabad - BSPCB",04-06-2024 01:00:00,24.75746,84.366208,NO2,3,14,7
India,Bihar,Aurangabad,"Gurdeo Nagar, Aurangabad - BSPCB",04-06-2024 01:00:00,24.75746,84.366208,CO,11,29,21
India,Bihar,Bettiah,"Kamalnath Nagar, Bettiah - BSPCB",04-06-2024 01:00:00,26.80365,84.51954,SO2,13,23,19
India,Bihar,Bhagalpur,"Mayaganj, Bhagalpur - BSPCB",04-06-2024 01:00:00,25.265194,87.012947,PM10,52,137,98
India,Bihar,Bhagalpur,"Mayaganj, Bhagalpur - BSPCB",04-06-2024 01:00:00,25.265194,87.012947,SO2,11,12,12
India,Bihar,Bhagalpur,"Mayaganj, Bhagalpur - BSPCB",04-06-2024 01:00:00,25.265194,87.012947,OZONE,7,40,27
India,Bihar,Bihar Sharif,"D M Colony, Bihar Sharif - BSPCB",04-06-2024 01:00:00,25.204762,85.514960,PM2.5,23,88,55
India,Bihar,Bihar Sharif,"D M Colony, Bihar Sharif - BSPCB",04-06-2024 01:00:00,25.204762,85.514960,NH3,3,5,4
India,Bihar,Buxar,"Charitra Van, Buxar - BSPCB (Formerly known as Central Jail)",04-06-2024 01:00:00,25.567520,83.966379,PM2.5,NA,NA,NA
India,Bihar,Buxar,"Charitra Van, Buxar - BSPCB (Formerly known as Central Jail)",04-06-2024 01:00:00,25.567520,83.966379,PM10,NA,NA,NA
India,Bihar,Buxar,"Charitra Van, Buxar - BSPCB (Formerly known as Central Jail)",04-06-2024 01:00:00,25.567520,83.966379,NO2,NA,NA,NA
India,Bihar,Buxar,"Charitra Van, Buxar - BSPCB (Formerly known as Central Jail)",04-06-2024 01:00:00,25.567520,83.966379,NH3,NA,NA,NA
India,Bihar,Buxar,"Charitra Van, Buxar - BSPCB (Formerly known as Central Jail)",04-06-2024 01:00:00,25.567520,83.966379,SO2,NA,NA,NA
India,Bihar,Chhapra,"Darshan Nagar, Chhapra - BSPCB",04-06-2024 01:00:00,25.7808257,84.7446768,NO2,11,19,16
India,Bihar,Gaya,"SFTI Kusdihra, Gaya - BSPCB",04-06-2024 01:00:00,24.762518,84.982348,NO2,3,55,19
India,Bihar,Gaya,"SFTI Kusdihra, Gaya - BSPCB",04-06-2024 01:00:00,24.762518,84.982348,NH3,1,11,6
India,Bihar,Gaya,"SFTI Kusdihra, Gaya - BSPCB",04-06-2024 01:00:00,24.762518,84.982348,CO,6,44,29
India,Bihar,Hajipur,"Industrial Area, Hajipur - BSPCB",04-06-2024 01:00:00,25.697189,85.245900,CO,28,50,40
India,Bihar,Katihar,"Mirchaibari, Katihar - BSPCB",04-06-2024 01:00:00,25.560083,87.553265,NO2,3,4,4
India,Bihar,Katihar,"Mirchaibari, Katihar - BSPCB",04-06-2024 01:00:00,25.560083,87.553265,NH3,1,4,1
India,Bihar,Katihar,"Mirchaibari, Katihar - BSPCB",04-06-2024 01:00:00,25.560083,87.553265,SO2,6,15,10
India,Bihar,Katihar,"Mirchaibari, Katihar - BSPCB",04-06-2024 01:00:00,25.560083,87.553265,OZONE,2,10,5
India,Bihar,Kishanganj,"SDM Office_Khagra, Kishanganj - BSPCB",04-06-2024 01:00:00,26.0881305,87.93840336,NO2,30,64,46
India,Bihar,Motihari,"Gandak Colony, Motihari - BSPCB",04-06-2024 01:00:00,26.63086,84.90051,PM10,51,147,83
India,Bihar,Motihari,"Gandak Colony, Motihari - BSPCB",04-06-2024 01:00:00,26.63086,84.90051,NO2,21,38,29
India,Bihar,Munger,"Town Hall, Munger - BSPCB",04-06-2024 01:00:00,25.376776,86.471523,SO2,13,36,27
India,Bihar,Munger,"Town Hall, Munger - BSPCB",04-06-2024 01:00:00,25.376776,86.471523,CO,42,102,85
India,Bihar,Muzaffarpur,"Buddha Colony, Muzaffarpur - BSPCB",04-06-2024 01:00:00,26.11442,85.39813,NO2,12,29,18
India,Bihar,Muzaffarpur,"MIT-Daudpur Kothi, Muzaffarpur - BSPCB",04-06-2024 01:00:00,26.1403345,85.3650192,PM2.5,50,328,151
India,Bihar,Muzaffarpur,"Muzaffarpur Collectorate, Muzaffarpur - BSPCB",04-06-2024 01:00:00,26.1209,85.3647,OZONE,22,78,51
India,Bihar,Patna,"DRM Office Danapur, Patna - BSPCB",04-06-2024 01:00:00,25.586562,85.043586,NO2,13,44,22
India,Bihar,Patna,"DRM Office Danapur, Patna - BSPCB",04-06-2024 01:00:00,25.586562,85.043586,CO,22,55,38
India,Bihar,Patna,"Govt. High School Shikarpur, Patna - BSPCB",04-06-2024 01:00:00,25.592539,85.227158,OZONE,1,59,14
India,Bihar,Patna,"IGSC Planetarium Complex, Patna - BSPCB",04-06-2024 01:00:00,25.610369,85.132568,PM2.5,55,245,127
India,Bihar,Patna,"Muradpur, Patna - BSPCB",04-06-2024 01:00:00,25.619651,85.147382,NO2,13,139,43
India,Bihar,Patna,"Muradpur, Patna - BSPCB",04-06-2024 01:00:00,25.619651,85.147382,NH3,3,17,10
India,Bihar,Patna,"Rajbansi Nagar, Patna - BSPCB",04-06-2024 01:00:00,25.599486,85.113666,PM10,76,161,117
India,Bihar,Patna,"Rajbansi Nagar, Patna - BSPCB",04-06-2024 01:00:00,25.599486,85.113666,NH3,2,4,2
India,Bihar,Patna,"Samanpura, Patna - BSPCB",04-06-2024 01:00:00,25.596727,85.085624,NH3,9,19,13
India,Bihar,Rajgir,"Dangi Tola, Rajgir - BSPCB",04-06-2024 01:00:00,25.03280,85.41948,SO2,1,11,4
India,Bihar,Rajgir,"Dangi Tola, Rajgir - BSPCB",04-06-2024 01:00:00,25.03280,85.41948,OZONE,30,59,33
India,Bihar,Saharsa,"Police Line, Saharsa - BSPCB",04-06-2024 01:00:00,25.892357,86.590325,PM10,36,137,88
India,Bihar,Saharsa,"Police Line, Saharsa - BSPCB",04-06-2024 01:00:00,25.892357,86.590325,NH3,9,9,9
India,Bihar,Saharsa,"Police Line, Saharsa - BSPCB",04-06-2024 01:00:00,25.892357,86.590325,CO,54,54,54
India,Bihar,Samastipur,"DM Office_Kasipur, Samastipur - BSPCB",04-06-2024 01:00:00,25.859655,85.77944,NH3,NA,NA,NA
India,Bihar,Sasaram,"Dada Peer, Sasaram - BSPCB",04-06-2024 01:00:00,24.952822,84.002396,NO2,13,76,32
India,Bihar,Siwan,"Chitragupta Nagar, Siwan - BSPCB",04-06-2024 01:00:00,26.2271665,84.3570427,PM2.5,43,197,100
India,Chandigarh,Chandigarh,"Sector 22, Chandigarh - CPCC",04-06-2024 01:00:00,30.735567,76.775714,NO2,19,63,38
India,Chandigarh,Chandigarh,"Sector 22, Chandigarh - CPCC",04-06-2024 01:00:00,30.735567,76.775714,SO2,5,109,27
India,Chandigarh,Chandigarh,"Sector-25, Chandigarh - CPCC",04-06-2024 01:00:00,30.751462,76.762879,PM2.5,135,313,252
India,Chandigarh,Chandigarh,"Sector-53, Chandigarh - CPCC",04-06-2024 01:00:00,30.719859,76.738637,PM2.5,58,263,145
India,Chandigarh,Chandigarh,"Sector-53, Chandigarh - CPCC",04-06-2024 01:00:00,30.719859,76.738637,PM10,117,300,182
India,Chandigarh,Chandigarh,"Sector-53, Chandigarh - CPCC",04-06-2024 01:00:00,30.719859,76.738637,NO2,8,53,21
India,Chandigarh,Chandigarh,"Sector-53, Chandigarh - CPCC",04-06-2024 01:00:00,30.719859,76.738637,NH3,6,10,8
India,Chandigarh,Chandigarh,"Sector-53, Chandigarh - CPCC",04-06-2024 01:00:00,30.719859,76.738637,OZONE,8,68,56
India,Chhattisgarh,Bhilai,"32Bungalows, Bhilai - CECB",04-06-2024 01:00:00,21.194815,81.314770,NH3,6,7,7
India,Chhattisgarh,Bhilai,"32Bungalows, Bhilai - CECB",04-06-2024 01:00:00,21.194815,81.314770,SO2,7,18,10
India,Chhattisgarh,Bhilai,"32Bungalows, Bhilai - CECB",04-06-2024 01:00:00,21.194815,81.314770,CO,14,34,21
India,Chhattisgarh,Bhilai,"Hathkhoj, Bhilai - CECB",04-06-2024 01:00:00,21.224231,81.408350,PM10,30,119,67
India,Chhattisgarh,Chhal,"Nawapara SECL Colony, Chhal - CECB",04-06-2024 01:00:00,22.118125,83.140608,PM10,NA,NA,NA
India,Chhattisgarh,Kunjemura,"OP Jindal School, Kunjemura - CECB",04-06-2024 01:00:00,22.126650,83.483212,PM10,27,105,63
India,Chhattisgarh,Kunjemura,"OP Jindal School, Kunjemura - CECB",04-06-2024 01:00:00,22.126650,83.483212,CO,28,61,39
India,Chhattisgarh,Raipur,"AIIMS, Raipur - CECB",04-06-2024 01:00:00,21.258815,81.578979,CO,19,28,24
India,Chhattisgarh,Raipur,"Siltara Phase-II, Raipur - CECB",04-06-2024 01:00:00,21.371751,81.664929,CO,6,50,28
India,Chhattisgarh,Tumidih,"OP Jindal Industrial Park, Tumidih - CECB",04-06-2024 01:00:00,22.06631475,83.33820077,PM2.5,NA,NA,NA
India,Chhattisgarh,Tumidih,"OP Jindal Industrial Park, Tumidih - CECB",04-06-2024 01:00:00,22.06631475,83.33820077,NH3,NA,NA,NA
India,Chhattisgarh,Tumidih,"OP Jindal Industrial Park, Tumidih - CECB",04-06-2024 01:00:00,22.06631475,83.33820077,SO2,NA,NA,NA
India,Chhattisgarh,Tumidih,"OP Jindal Industrial Park, Tumidih - CECB",04-06-2024 01:00:00,22.06631475,83.33820077,CO,18,61,33
India,Delhi,Delhi,"Alipur, Delhi - DPCC",04-06-2024 01:00:00,28.815329,77.153010,NO2,5,76,17
India,Delhi,Delhi,"Alipur, Delhi - DPCC",04-06-2024 01:00:00,28.815329,77.153010,OZONE,6,233,118
India,Delhi,Delhi,"Anand Vihar, Delhi - DPCC",04-06-2024 01:00:00,28.647622,77.3158090,PM10,171,500,264
India,Delhi,Delhi,"Anand Vihar, Delhi - DPCC",04-06-2024 01:00:00,28.647622,77.3158090,NO2,42,151,87
India,Delhi,Delhi,"Anand Vihar, Delhi - DPCC",04-06-2024 01:00:00,28.647622,77.3158090,NH3,4,8,6
India,Delhi,Delhi,"Ashok Vihar, Delhi - DPCC",04-06-2024 01:00:00,28.695381,77.181665,CO,12,113,61
India,Delhi,Delhi,"Ashok Vihar, Delhi - DPCC",04-06-2024 01:00:00,28.695381,77.181665,OZONE,6,138,61
India,Delhi,Delhi,"Aya Nagar, Delhi - IMD",04-06-2024 01:00:00,28.4706914,77.1099364,PM2.5,20,231,72
India,Delhi,Delhi,"Aya Nagar, Delhi - IMD",04-06-2024 01:00:00,28.4706914,77.1099364,OZONE,3,54,25
India,Delhi,Delhi,"Bawana, Delhi - DPCC",04-06-2024 01:00:00,28.776200,77.051074,PM2.5,55,325,168
India,Delhi,Delhi,"Bawana, Delhi - DPCC",04-06-2024 01:00:00,28.776200,77.051074,SO2,10,113,36
India,Delhi,Delhi,"Bawana, Delhi - DPCC",04-06-2024 01:00:00,28.776200,77.051074,OZONE,10,129,64
India,Delhi,Delhi,"Burari Crossing, Delhi - IMD",04-06-2024 01:00:00,28.7256504,77.2011573,OZONE,13,182,182
India,Delhi,Delhi,"CRRI Mathura Road, Delhi - IMD",04-06-2024 01:00:00,28.5512005,77.2735737,PM2.5,23,216,90
India,Delhi,Delhi,"CRRI Mathura Road, Delhi - IMD",04-06-2024 01:00:00,28.5512005,77.2735737,OZONE,4,61,24
India,Delhi,Delhi,"Chandni Chowk, Delhi - IITM",04-06-2024 01:00:00,28.656756,77.227234,SO2,NA,NA,NA
India,Delhi,Delhi,"Chandni Chowk, Delhi - IITM",04-06-2024 01:00:00,28.656756,77.227234,CO,52,100,78
India,Delhi,Delhi,"DTU, Delhi - CPCB",04-06-2024 01:00:00,28.7500499,77.1112615,PM2.5,76,360,152
India,Delhi,Delhi,"Dr. Karni Singh Shooting Range, Delhi - DPCC",04-06-2024 01:00:00,28.498571,77.264840,PM10,91,416,157
India,Delhi,Delhi,"Dr. Karni Singh Shooting Range, Delhi - DPCC",04-06-2024 01:00:00,28.498571,77.264840,SO2,14,22,17
India,Delhi,Delhi,"Dwarka-Sector 8, Delhi - DPCC ",04-06-2024 01:00:00,28.5710274,77.0719006,NH3,5,10,8
India,Delhi,Delhi,"Dwarka-Sector 8, Delhi - DPCC ",04-06-2024 01:00:00,28.5710274,77.0719006,OZONE,6,129,50
India,Delhi,Delhi,"IHBAS, Dilshad Garden, Delhi - CPCB",04-06-2024 01:00:00,28.6811736,77.3025234,SO2,13,24,17
India,Delhi,Delhi,"ITO, Delhi - CPCB",04-06-2024 01:00:00,28.628624,77.241060,NH3,6,7,7
India,Delhi,Delhi,"Jahangirpuri, Delhi - DPCC",04-06-2024 01:00:00,28.732820,77.170633,NH3,NA,NA,NA
India,Delhi,Delhi,"Jahangirpuri, Delhi - DPCC",04-06-2024 01:00:00,28.732820,77.170633,CO,40,126,83
India,Delhi,Delhi,"Jahangirpuri, Delhi - DPCC",04-06-2024 01:00:00,28.732820,77.170633,OZONE,4,142,67
India,Delhi,Delhi,"Jawaharlal Nehru Stadium, Delhi - DPCC",04-06-2024 01:00:00,28.580280,77.233829,PM10,75,312,147
India,Delhi,Delhi,"Lodhi Road, Delhi - IMD",04-06-2024 01:00:00,28.5918245,77.2273074,PM10,76,257,131
India,Delhi,Delhi,"Lodhi Road, Delhi - IMD",04-06-2024 01:00:00,28.5918245,77.2273074,CO,24,63,39
India,Delhi,Delhi,"Major Dhyan Chand National Stadium, Delhi - DPCC",04-06-2024 01:00:00,28.611281,77.237738,NO2,13,135,49
India,Delhi,Delhi,"NSIT Dwarka, Delhi - CPCB",04-06-2024 01:00:00,28.60909,77.0325413,OZONE,11,63,32
India,Delhi,Delhi,"Najafgarh, Delhi - DPCC",04-06-2024 01:00:00,28.570173,76.933762,PM10,83,219,133
India,Delhi,Delhi,"Najafgarh, Delhi - DPCC",04-06-2024 01:00:00,28.570173,76.933762,CO,38,63,48
India,Delhi,Delhi,"Narela, Delhi - DPCC",04-06-2024 01:00:00,28.822836,77.101981,PM2.5,65,304,103
India,Delhi,Delhi,"Narela, Delhi - DPCC",04-06-2024 01:00:00,28.822836,77.101981,SO2,7,44,20
India,Delhi,Delhi,"Nehru Nagar, Delhi - DPCC",04-06-2024 01:00:00,28.567890,77.250515,NO2,4,73,25
India,Delhi,Delhi,"New Moti Bagh, Delhi - MHUA",04-06-2024 01:00:00,28.57834,77.18400,CO,40,125,89
India,Delhi,Delhi,"North Campus, DU, Delhi - IMD",04-06-2024 01:00:00,28.6573814,77.1585447,CO,34,125,70
India,Delhi,Delhi,"Okhla Phase-2, Delhi - DPCC",04-06-2024 01:00:00,28.530785,77.271255,PM10,94,407,175
India,Delhi,Delhi,"Punjabi Bagh, Delhi - DPCC",04-06-2024 01:00:00,28.674045,77.131023,PM2.5,45,243,118
India,Delhi,Delhi,"Punjabi Bagh, Delhi - DPCC",04-06-2024 01:00:00,28.674045,77.131023,PM10,109,462,177
India,Delhi,Delhi,"Punjabi Bagh, Delhi - DPCC",04-06-2024 01:00:00,28.674045,77.131023,SO2,8,53,33
India,Delhi,Delhi,"Pusa, Delhi - IMD",04-06-2024 01:00:00,28.636110,77.173332,PM10,70,392,166
India,Delhi,Delhi,"R K Puram, Delhi - DPCC",04-06-2024 01:00:00,28.563262,77.186937,NO2,17,159,61
India,Delhi,Delhi,"R K Puram, Delhi - DPCC",04-06-2024 01:00:00,28.563262,77.186937,NH3,4,7,5
India,Delhi,Delhi,"Shadipur, Delhi - CPCB",04-06-2024 01:00:00,28.6514781,77.1473105,NH3,6,10,7
India,Delhi,Delhi,"Shadipur, Delhi - CPCB",04-06-2024 01:00:00,28.6514781,77.1473105,CO,20,122,64
India,Delhi,Delhi,"Sirifort, Delhi - CPCB",04-06-2024 01:00:00,28.5504249,77.2159377,SO2,41,46,43
India,Delhi,Delhi,"Sonia Vihar, Delhi - DPCC",04-06-2024 01:00:00,28.710508,77.249485,SO2,10,24,17
India,Delhi,Delhi,"Sonia Vihar, Delhi - DPCC",04-06-2024 01:00:00,28.710508,77.249485,OZONE,11,150,62
India,Delhi,Delhi,"Sri Aurobindo Marg, Delhi - DPCC",04-06-2024 01:00:00,28.531346,77.190156,PM2.5,42,95,63
India,Delhi,Delhi,"Sri Aurobindo Marg, Delhi - DPCC",04-06-2024 01:00:00,28.531346,77.190156,NO2,5,75,26
India,Delhi,Delhi,"Vivek Vihar, Delhi - DPCC",04-06-2024 01:00:00,28.672342,77.315260,CO,56,123,88
India,Delhi,Delhi,"Vivek Vihar, Delhi - DPCC",04-06-2024 01:00:00,28.672342,77.315260,OZONE,1,125,47
India,Gujarat,Ahmedabad,"Chandkheda, Ahmedabad - IITM",04-06-2024 01:00:00,23.107969,72.574648,PM10,72,128,92
India,Gujarat,Ahmedabad,"Chandkheda, Ahmedabad - IITM",04-06-2024 01:00:00,23.107969,72.574648,SO2,12,22,18
India,Gujarat,Ahmedabad,"Chandkheda, Ahmedabad - IITM",04-06-2024 01:00:00,23.107969,72.574648,OZONE,4,70,12
India,Gujarat,Ahmedabad,"Gyaspur, Ahmedabad - IITM",04-06-2024 01:00:00,22.977134,72.553024,PM2.5,69,369,194
India,Gujarat,Ahmedabad,"Gyaspur, Ahmedabad - IITM",04-06-2024 01:00:00,22.977134,72.553024,PM10,82,351,154
India,Gujarat,Ahmedabad,"Gyaspur, Ahmedabad - IITM",04-06-2024 01:00:00,22.977134,72.553024,CO,28,80,73
India,Gujarat,Ahmedabad,"Raikhad, Ahmedabad - IITM",04-06-2024 01:00:00,23.020509,72.579261,NO2,60,61,60
India,Gujarat,Ahmedabad,"Raikhad, Ahmedabad - IITM",04-06-2024 01:00:00,23.020509,72.579261,NH3,3,3,3
India,Gujarat,Ahmedabad,"SVPI Airport Hansol, Ahmedabad - IITM",04-06-2024 01:00:00,23.076793,72.627874,OZONE,31,73,48
India,Gujarat,Ankleshwar,"GIDC, Ankleshwar - GPCB",04-06-2024 01:00:00,21.613267,73.010555,PM10,46,89,69
India,Gujarat,Gandhinagar,"Sector-10, Gandhinagar - GPCB",04-06-2024 01:00:00,23.221714,72.654328,PM2.5,36,70,50
India,Gujarat,Gandhinagar,"Sector-10, Gandhinagar - GPCB",04-06-2024 01:00:00,23.221714,72.654328,CO,11,19,16
India,Gujarat,Surat,"Science Center, Surat - SMC",04-06-2024 01:00:00,21.170046,72.795405,CO,50,74,70
India,Gujarat,Vatva,"Phase-4 GIDC, Vatva - GPCB",04-06-2024 01:00:00,22.969611,72.643500,PM2.5,33,54,46
India,Haryana,Ambala,"Patti Mehar, Ambala - HSPCB",04-06-2024 01:00:00,30.379589,76.778328,PM2.5,68,138,103
India,Haryana,Ambala,"Patti Mehar, Ambala - HSPCB",04-06-2024 01:00:00,30.379589,76.778328,OZONE,34,55,45
India,Haryana,Bahadurgarh,"Arya Nagar, Bahadurgarh - HSPCB",04-06-2024 01:00:00,28.6701,76.9254,PM10,104,318,139
India,Haryana,Bahadurgarh,"Arya Nagar, Bahadurgarh - HSPCB",04-06-2024 01:00:00,28.6701,76.9254,SO2,12,77,30
India,Haryana,Ballabgarh,"Nathu Colony, Ballabgarh - HSPCB",04-06-2024 01:00:00,28.3419248,77.319699,PM2.5,61,366,140
India,Haryana,Ballabgarh,"Nathu Colony, Ballabgarh - HSPCB",04-06-2024 01:00:00,28.3419248,77.319699,OZONE,8,56,19
India,Haryana,Bhiwani,"H.B. Colony, Bhiwani - HSPCB",04-06-2024 01:00:00,28.806223,76.141105,CO,45,96,57
India,Haryana,Charkhi Dadri,"Mini Secretariat, Charkhi Dadri - HSPCB",04-06-2024 01:00:00,28.593883,76.270653,PM2.5,84,276,140
India,Haryana,Dharuhera,"Municipal Corporation Office, Dharuhera -  HSPCB",04-06-2024 01:00:00,28.206800,76.799700,NO2,44,111,76
India,Haryana,Dharuhera,"Municipal Corporation Office, Dharuhera -  HSPCB",04-06-2024 01:00:00,28.206800,76.799700,OZONE,8,47,17
India,Haryana,Faridabad,"New Industrial Town, Faridabad - HSPCB",04-06-2024 01:00:00,28.39072,77.30059,PM2.5,99,418,208
India,Haryana,Faridabad,"New Industrial Town, Faridabad - HSPCB",04-06-2024 01:00:00,28.39072,77.30059,NO2,NA,NA,NA
India,Haryana,Faridabad,"New Industrial Town, Faridabad - HSPCB",04-06-2024 01:00:00,28.39072,77.30059,SO2,1,17,12
India,Haryana,Faridabad,"New Industrial Town, Faridabad - HSPCB",04-06-2024 01:00:00,28.39072,77.30059,OZONE,4,149,38
India,Haryana,Faridabad,"Sector 11, Faridabad - HSPCB",04-06-2024 01:00:00,28.376058,77.315741,NH3,6,6,6
India,Haryana,Faridabad,"Sector 30, Faridabad - HSPCB",04-06-2024 01:00:00,28.4417,77.3217,OZONE,18,65,42
India,Haryana,Faridabad,"Sector- 16A, Faridabad - HSPCB",04-06-2024 01:00:00,28.4088421,77.3099081,CO,58,116,91
India,Haryana,Fatehabad,"Huda Sector, Fatehabad - HSPCB",04-06-2024 01:00:00,29.503664,75.467934,PM2.5,25,115,66
India,Haryana,Gurugram,"Sector-51, Gurugram - HSPCB",04-06-2024 01:00:00,28.4227,77.0667,PM10,118,453,171
India,Haryana,Gurugram,"Sector-51, Gurugram - HSPCB",04-06-2024 01:00:00,28.4227,77.0667,NH3,6,14,9
India,Haryana,Gurugram,"Vikas Sadan, Gurugram - HSPCB",04-06-2024 01:00:00,28.4501238,77.0263051,CO,54,148,109
India,Haryana,Hisar,"Urban Estate-II, Hisar - HSPCB",04-06-2024 01:00:00,29.140560,75.744941,NH3,3,5,4
India,Haryana,Jind,"Police Lines, Jind - HSPCB",04-06-2024 01:00:00,29.307814,76.337619,CO,8,94,24
India,Haryana,Jind,"Police Lines, Jind - HSPCB",04-06-2024 01:00:00,29.307814,76.337619,OZONE,18,33,23
India,Haryana,Kaithal,"Rishi Nagar, Kaithal - HSPCB",04-06-2024 01:00:00,29.8006,76.4155,PM2.5,45,107,76
India,Haryana,Kaithal,"Rishi Nagar, Kaithal - HSPCB",04-06-2024 01:00:00,29.8006,76.4155,NO2,24,26,25
India,Haryana,Kaithal,"Rishi Nagar, Kaithal - HSPCB",04-06-2024 01:00:00,29.8006,76.4155,CO,3,48,21
India,Haryana,Karnal,"Sector-12, Karnal - HSPCB",04-06-2024 01:00:00,29.695300,77.002700,NO2,7,12,10
India,Haryana,Karnal,"Sector-12, Karnal - HSPCB",04-06-2024 01:00:00,29.695300,77.002700,CO,7,52,27
India,Haryana,Kurukshetra,"Sector-7, Kurukshetra - HSPCB",04-06-2024 01:00:00,29.966942,76.875879,PM2.5,139,303,227
India,Haryana,Mandikhera,"General Hospital, Mandikhera - HSPCB",04-06-2024 01:00:00,27.9002,76.9938,CO,21,34,26
India,Haryana,Manesar,"Sector-2 IMT, Manesar - HSPCB",04-06-2024 01:00:00,28.360699,76.936090,NH3,3,5,4
India,Haryana,Manesar,"Sector-2 IMT, Manesar - HSPCB",04-06-2024 01:00:00,28.360699,76.936090,SO2,NA,NA,NA
India,Haryana,Manesar,"Sector-2 IMT, Manesar - HSPCB",04-06-2024 01:00:00,28.360699,76.936090,OZONE,3,94,39
India,Haryana,Narnaul,"Shastri Nagar, Narnaul - HSPCB",04-06-2024 01:00:00,28.060249,76.113115,CO,14,102,43
India,Haryana,Palwal,"Shyam Nagar, Palwal - HSPCB",04-06-2024 01:00:00,28.1485564,77.3320667,PM10,54,102,83
India,Haryana,Panchkula,"Sector-6, Panchkula - HSPCB ",04-06-2024 01:00:00,30.7057778,76.8531805555555,NO2,10,11,10
India,Haryana,Rohtak,"MD University, Rohtak - HSPCB",04-06-2024 01:00:00,28.52123,76.37138,CO,22,98,48
India,Haryana,Sirsa,"F-Block, Sirsa - HSPCB",04-06-2024 01:00:00,29.536400,75.015800,NO2,9,11,10
India,Haryana,Sonipat,"Murthal, Sonipat - HSPCB",04-06-2024 01:00:00,29.027200,77.062100,PM10,NA,NA,NA
India,Haryana,Sonipat,"Murthal, Sonipat - HSPCB",04-06-2024 01:00:00,29.027200,77.062100,OZONE,16,36,23
India,Haryana,Yamuna Nagar,"Gobind Pura, Yamuna Nagar - HSPCB",04-06-2024 01:00:00,30.1480566,77.2893471,OZONE,42,67,50
India,Jammu_and_Kashmir,Srinagar,"Rajbagh, Srinagar - JKSPCB",04-06-2024 01:00:00,34.066206,74.819820,PM10,NA,NA,NA
India,Jammu_and_Kashmir,Srinagar,"Rajbagh, Srinagar - JKSPCB",04-06-2024 01:00:00,34.066206,74.819820,CO,NA,NA,NA
India,Jharkhand,Dhanbad,"Kalakusuma, Dhanbad - DMC",04-06-2024 01:00:00,23.811548,86.481238,PM2.5,NA,NA,NA
India,Jharkhand,Dhanbad,"Kalakusuma, Dhanbad - DMC",04-06-2024 01:00:00,23.811548,86.481238,CO,130,135,131
India,Jharkhand,Dhanbad,"Sardar Patel Nagar, Dhanbad - JSPCB",04-06-2024 01:00:00,23.80569,86.44268,SO2,NA,NA,NA
India,Jharkhand,Dhanbad,"Sardar Patel Nagar, Dhanbad - JSPCB",04-06-2024 01:00:00,23.80569,86.44268,OZONE,NA,NA,NA
India,Jharkhand,Pathardih,"Mohalbani Ghat, Pathardih - DMC",04-06-2024 01:00:00,23.669880,86.411725,PM2.5,NA,NA,NA
India,Jharkhand,Pathardih,"Mohalbani Ghat, Pathardih - DMC",04-06-2024 01:00:00,23.669880,86.411725,CO,NA,NA,NA
India,Karnataka,Bagalkot,"Vidayagiri, Bagalkot - KSPCB",04-06-2024 01:00:00,16.172806,75.659694,SO2,NA,NA,NA
India,Karnataka,Bagalkot,"Vidayagiri, Bagalkot - KSPCB",04-06-2024 01:00:00,16.172806,75.659694,CO,18,52,34
India,Karnataka,Bengaluru,"Bapuji Nagar, Bengaluru - KSPCB",04-06-2024 01:00:00,12.951913,77.539784,PM2.5,7,137,42
India,Karnataka,Bengaluru,"Bapuji Nagar, Bengaluru - KSPCB",04-06-2024 01:00:00,12.951913,77.539784,NO2,15,16,15
India,Karnataka,Bengaluru,"Bapuji Nagar, Bengaluru - KSPCB",04-06-2024 01:00:00,12.951913,77.539784,NH3,1,1,1
India,Karnataka,Bengaluru,"Bapuji Nagar, Bengaluru - KSPCB",04-06-2024 01:00:00,12.951913,77.539784,CO,10,66,24
India,Karnataka,Bengaluru,"Hebbal, Bengaluru - KSPCB",04-06-2024 01:00:00,13.029152,77.585901,PM2.5,2,49,17
India,Karnataka,Bengaluru,"Hombegowda Nagar, Bengaluru - KSPCB",04-06-2024 01:00:00,12.938539,77.590100,CO,12,34,20
India,Karnataka,Bengaluru,"Kasturi Nagar, Bengaluru - KSPCB",04-06-2024 01:00:00,13.003872,77.664217,PM2.5,8,51,25
India,Karnataka,Bengaluru,"Peenya, Bengaluru - CPCB",04-06-2024 01:00:00,13.0270199,77.494094,NH3,3,4,3
India,Karnataka,Bengaluru,"RVCE-Mailasandra, Bengaluru - KSPCB",04-06-2024 01:00:00,12.921418,77.502466,PM2.5,6,67,30
India,Karnataka,Bengaluru,"RVCE-Mailasandra, Bengaluru - KSPCB",04-06-2024 01:00:00,12.921418,77.502466,CO,28,50,34
India,Karnataka,Bengaluru,"RVCE-Mailasandra, Bengaluru - KSPCB",04-06-2024 01:00:00,12.921418,77.502466,OZONE,39,39,39
India,Karnataka,Bengaluru,"Sanegurava Halli, Bengaluru - KSPCB",04-06-2024 01:00:00,12.990328,77.5431385,PM10,34,58,41
India,Karnataka,Bengaluru,"Shivapura_Peenya, Bengaluru - KSPCB",04-06-2024 01:00:00,13.0246342,77.5080115,PM2.5,18,79,36
India,Karnataka,Bengaluru,"Shivapura_Peenya, Bengaluru - KSPCB",04-06-2024 01:00:00,13.0246342,77.5080115,SO2,2,5,3
India,Karnataka,Bengaluru,"Silk Board, Bengaluru - KSPCB",04-06-2024 01:00:00,12.917348,77.622813,SO2,NA,NA,NA
India,Karnataka,Bengaluru,"Silk Board, Bengaluru - KSPCB",04-06-2024 01:00:00,12.917348,77.622813,CO,9,20,11
India,Karnataka,Chamarajanagar,"Urban, Chamarajanagar - KSPCB",04-06-2024 01:00:00,11.55358,76.55521,PM2.5,21,46,36
India,Karnataka,Chikkaballapur,"Chikkaballapur Rural, Chikkaballapur - KSPCB",04-06-2024 01:00:00,13.428828,77.731418,PM10,8,62,24
India,Karnataka,Chikkamagaluru,"Kalyana Nagara, Chikkamagaluru - KSPCB",04-06-2024 01:00:00,13.328028,75.797056,PM10,30,220,52
India,Karnataka,Chikkamagaluru,"Kalyana Nagara, Chikkamagaluru - KSPCB",04-06-2024 01:00:00,13.328028,75.797056,SO2,2,14,5
India,Karnataka,Davanagere,"Devaraj Urs Badavane, Davanagere - KSPCB",04-06-2024 01:00:00,14.475800,75.905200,NO2,9,13,12
India,Karnataka,Davanagere,"Devaraj Urs Badavane, Davanagere - KSPCB",04-06-2024 01:00:00,14.475800,75.905200,OZONE,16,20,19
India,Karnataka,Dharwad,"Kalabhavan, Dharwad - KSPCB",04-06-2024 01:00:00,15.459706,75.008381,PM2.5,32,82,52
India,Karnataka,Gadag,"Panchal Nagar, Gadag - KSPCB",04-06-2024 01:00:00,15.411456,75.638133,NO2,4,22,12
India,Karnataka,Gadag,"Panchal Nagar, Gadag - KSPCB",04-06-2024 01:00:00,15.411456,75.638133,OZONE,4,12,5
India,Karnataka,Hassan,"B.Katihalli, Hassan - KSPCB",04-06-2024 01:00:00,13.008556,76.125258,PM2.5,NA,NA,NA
India,Karnataka,Hassan,"B.Katihalli, Hassan - KSPCB",04-06-2024 01:00:00,13.008556,76.125258,PM10,NA,NA,NA
India,Karnataka,Hassan,"B.Katihalli, Hassan - KSPCB",04-06-2024 01:00:00,13.008556,76.125258,NO2,NA,NA,NA
India,Karnataka,Hassan,"B.Katihalli, Hassan - KSPCB",04-06-2024 01:00:00,13.008556,76.125258,CO,2,24,23
India,Karnataka,Haveri,"Ashwini Nagar, Haveri - KSPCB",04-06-2024 01:00:00,14.791800,75.389600,NH3,2,4,3
India,Karnataka,Haveri,"Ashwini Nagar, Haveri - KSPCB",04-06-2024 01:00:00,14.791800,75.389600,CO,37,39,38
India,Karnataka,Hubballi,"Lingaraj Nagar, Hubballi - KSPCB",04-06-2024 01:00:00,15.3714823,75.1160168,PM2.5,33,82,50
India,Karnataka,Hubballi,"Lingaraj Nagar, Hubballi - KSPCB",04-06-2024 01:00:00,15.3714823,75.1160168,CO,2,24,13
India,Karnataka,Kalaburagi,"Mahatma Basaveswar Colony, Kalaburgi - KSPCB",04-06-2024 01:00:00,17.336318,76.847397,CO,16,31,26
India,Karnataka,Kolar,"Tamaka Ind. Area, Kolar - KSPCB",04-06-2024 01:00:00,13.1276288,78.1570122,PM10,17,116,43
India,Karnataka,Koppal,"Diwator Nagar, Koppal - KSPCB",04-06-2024 01:00:00,15.347630,76.181767,NH3,NA,NA,NA
India,Karnataka,Koppal,"Diwator Nagar, Koppal - KSPCB",04-06-2024 01:00:00,15.347630,76.181767,CO,6,7,7
India,Karnataka,Madikeri,"Stuart Hill, Madikeri - KSPCB",04-06-2024 01:00:00,12.415911,75.735050,NO2,1,20,4
India,Karnataka,Mysuru,"Hebbal 1st Stage, Mysuru - KSPCB",04-06-2024 01:00:00,12.21041,76.37376,PM2.5,8,49,22
India,Karnataka,Mysuru,"Hebbal 1st Stage, Mysuru - KSPCB",04-06-2024 01:00:00,12.21041,76.37376,PM10,20,64,38
India,Karnataka,Mysuru,"Hebbal 1st Stage, Mysuru - KSPCB",04-06-2024 01:00:00,12.21041,76.37376,NH3,1,3,2
India,Karnataka,Raichur,"Haji Colony, Raichur - KSPCB",04-06-2024 01:00:00,16.208139,77.348417,PM2.5,NA,NA,NA
India,Karnataka,Raichur,"Haji Colony, Raichur - KSPCB",04-06-2024 01:00:00,16.208139,77.348417,NO2,NA,NA,NA
India,Karnataka,Raichur,"Haji Colony, Raichur - KSPCB",04-06-2024 01:00:00,16.208139,77.348417,CO,94,113,107
India,Karnataka,Raichur,"Haji Colony, Raichur - KSPCB",04-06-2024 01:00:00,16.208139,77.348417,OZONE,3,5,4
India,Karnataka,Ramanagara,"Vijay Nagar, Ramanagara - KSPCB",04-06-2024 01:00:00,12.733409,77.298051,NO2,NA,NA,NA
India,Karnataka,Ramanagara,"Vijay Nagar, Ramanagara - KSPCB",04-06-2024 01:00:00,12.733409,77.298051,SO2,NA,NA,NA
India,Karnataka,Ramanagara,"Vijay Nagar, Ramanagara - KSPCB",04-06-2024 01:00:00,12.733409,77.298051,CO,8,117,28
India,Karnataka,Ramanagara,"Vijay Nagar, Ramanagara - KSPCB",04-06-2024 01:00:00,12.733409,77.298051,OZONE,18,36,29
India,Karnataka,Shivamogga,"Vinoba Nagara, Shivamogga - KSPCB",04-06-2024 01:00:00,13.940000,75.555917,PM2.5,28,53,43
India,Karnataka,Shivamogga,"Vinoba Nagara, Shivamogga - KSPCB",04-06-2024 01:00:00,13.940000,75.555917,PM10,40,74,62
India,Karnataka,Shivamogga,"Vinoba Nagara, Shivamogga - KSPCB",04-06-2024 01:00:00,13.940000,75.555917,SO2,2,11,6
India,Karnataka,Shivamogga,"Vinoba Nagara, Shivamogga - KSPCB",04-06-2024 01:00:00,13.940000,75.555917,OZONE,8,53,33
India,Karnataka,Tumakuru,"Thimmalapura, Tumakuru - KSPCB",04-06-2024 01:00:00,13.377516,77.099072,PM10,20,245,98
India,Karnataka,Yadgir,"Collector Office, Yadgir - KSPCB",04-06-2024 01:00:00,16.7602,77.1428,CO,16,46,27
India,Kerala,Kannur,"Thavakkara, Kannur - Kerala PCB",04-06-2024 01:00:00,11.875000,75.373200,CO,60,74,66
India,Kerala,Kollam,"Polayathode, Kollam - Kerala PCB",04-06-2024 01:00:00,8.8787,76.6073,PM2.5,43,128,78
India,Kerala,Kollam,"Polayathode, Kollam - Kerala PCB",04-06-2024 01:00:00,8.8787,76.6073,CO,15,16,16
India,Kerala,Thiruvananthapuram,"Kariavattom, Thiruvananthapuram - Kerala PCB",04-06-2024 01:00:00,8.563700,76.886500,PM2.5,41,48,45
India,Kerala,Thrissur,"Corporation Ground, Thrissur - Kerala PCB",04-06-2024 01:00:00,10.532400,76.215900,PM2.5,44,51,48
India,Kerala,Thrissur,"Corporation Ground, Thrissur - Kerala PCB",04-06-2024 01:00:00,10.532400,76.215900,PM10,60,69,65
India,Madhya Pradesh,Bhopal,"Idgah Hills, Bhopal - MPPCB",04-06-2024 01:00:00,23.264759,77.381568,CO,8,43,27
India,Madhya Pradesh,Bhopal,"T T Nagar, Bhopal - MPPCB",04-06-2024 01:00:00,23.233584,77.400574,NO2,17,48,23
India,Madhya Pradesh,Dewas,"Bhopal Chauraha, Dewas - MPPCB",04-06-2024 01:00:00,22.9682591,76.064118,NO2,11,14,13
India,Madhya Pradesh,Dewas,"Bhopal Chauraha, Dewas - MPPCB",04-06-2024 01:00:00,22.9682591,76.064118,OZONE,12,46,28
India,Madhya Pradesh,Gwalior,"City Center, Gwalior - MPPCB",04-06-2024 01:00:00,26.203442,78.193251,CO,22,103,60
India,Madhya Pradesh,Gwalior,"City Center, Gwalior - MPPCB",04-06-2024 01:00:00,26.203442,78.193251,OZONE,61,100,74
India,Madhya Pradesh,Gwalior,"Deen Dayal Nagar, Gwalior - MPPCB",04-06-2024 01:00:00,26.259242,78.216432,PM2.5,26,169,70
India,Madhya Pradesh,Gwalior,"Maharaj Bada, Gwalior - MPPCB",04-06-2024 01:00:00,26.200388,78.147714,NO2,12,98,33
India,Madhya Pradesh,Gwalior,"Maharaj Bada, Gwalior - MPPCB",04-06-2024 01:00:00,26.200388,78.147714,SO2,2,28,12
India,Madhya Pradesh,Indore,"Chhoti Gwaltoli, Indore - MPPCB",04-06-2024 01:00:00,22.4310,75.5213,PM10,NA,NA,NA
India,Madhya Pradesh,Indore,"Chhoti Gwaltoli, Indore - MPPCB",04-06-2024 01:00:00,22.4310,75.5213,NO2,NA,NA,NA
India,Madhya Pradesh,Indore,"Maguda Nagar, Indore - IMC",04-06-2024 01:00:00,22.7524,75.8872,PM2.5,30,116,55
India,Madhya Pradesh,Indore,"Maguda Nagar, Indore - IMC",04-06-2024 01:00:00,22.7524,75.8872,NH3,1,2,2
India,Madhya Pradesh,Indore,"Maguda Nagar, Indore - IMC",04-06-2024 01:00:00,22.7524,75.8872,SO2,30,34,33
India,Madhya Pradesh,Indore,"Regional Park, Indore - IMC",04-06-2024 01:00:00,22.6780,75.8559,SO2,55,58,57
India,Madhya Pradesh,Jabalpur,"Gupteshwar, Jabalpur - JMC",04-06-2024 01:00:00,23.142888,79.916147,NO2,6,24,13
India,Madhya Pradesh,Jabalpur,"Gupteshwar, Jabalpur - JMC",04-06-2024 01:00:00,23.142888,79.916147,SO2,5,47,12
India,Madhya Pradesh,Jabalpur,"Suhagi, Jabalpur - JMC",04-06-2024 01:00:00,23.218135,79.957770,PM2.5,27,80,53
India,Madhya Pradesh,Jabalpur,"Suhagi, Jabalpur - JMC",04-06-2024 01:00:00,23.218135,79.957770,NO2,39,44,41
India,Madhya Pradesh,Katni,"Gole Bazar, Katni - MPPCB",04-06-2024 01:00:00,23.50016,80.23284,PM2.5,31,62,42
India,Madhya Pradesh,Maihar,"Sahilara, Maihar - KJS Cements",04-06-2024 01:00:00,24.2613009,80.7231783,SO2,13,15,14
India,Madhya Pradesh,Mandideep,"Sector-D Industrial Area, Mandideep - MPPCB",04-06-2024 01:00:00,23.108440,77.511428,PM10,56,162,110
India,Madhya Pradesh,Mandideep,"Sector-D Industrial Area, Mandideep - MPPCB",04-06-2024 01:00:00,23.108440,77.511428,OZONE,20,42,27
India,Madhya Pradesh,Pithampur,"Sector-2 Industrial Area, Pithampur - MPPCB",04-06-2024 01:00:00,22.624758,75.675238,OZONE,16,47,30
India,Madhya Pradesh,Ratlam,"Shasthri Nagar, Ratlam - IPCA Lab",04-06-2024 01:00:00,23.331731,75.045981,PM10,75,147,122
India,Madhya Pradesh,Sagar,"Civil Lines, Sagar - MPPCB",04-06-2024 01:00:00,23.838586,78.759431,PM10,32,78,61
India,Madhya Pradesh,Sagar,"Deen Dayal Nagar, Sagar - MPPCB",04-06-2024 01:00:00,23.8640158,78.80289321,NO2,19,25,24
India,Maharashtra,Ahmednagar,"Tarakpur, Ahmednagar - MPCB",04-06-2024 01:00:00,19.10122,74.73339,PM10,73,123,107
India,Maharashtra,Akola,"Ramdaspeth, Akola - MPCB",04-06-2024 01:00:00,20.719516,77.000253,PM2.5,17,80,49
India,Maharashtra,Akola,"Ramdaspeth, Akola - MPCB",04-06-2024 01:00:00,20.719516,77.000253,PM10,54,113,75
India,Maharashtra,Akola,"Ramdaspeth, Akola - MPCB",04-06-2024 01:00:00,20.719516,77.000253,NH3,2,7,4
India,Maharashtra,Amravati,"Shivneri Colony, Amravati - MPCB",04-06-2024 01:00:00,20.9402359,77.7895248,CO,14,36,25
India,Maharashtra,Amravati,"Shivneri Colony, Amravati - MPCB",04-06-2024 01:00:00,20.9402359,77.7895248,OZONE,21,73,46
India,Maharashtra,Amravati,"Shri Shivaji Science College, Amaravati - MPCB",04-06-2024 01:00:00,20.939198,77.765701,CO,16,28,20
India,Maharashtra,Aurangabad,"MIDC Chilkalthana, Aurangabad - MPCB",04-06-2024 01:00:00,19.875620,75.387310,OZONE,31,105,75
India,Maharashtra,Aurangabad,"More Chowk Waluj, Aurangabad - MPCB",04-06-2024 01:00:00,19.8389439,75.244448,SO2,3,11,6
India,Maharashtra,Aurangabad,"Rachnakar Colony, Aurangabad - MPCB",04-06-2024 01:00:00,19.863756,75.321188,NH3,2,3,2
India,Maharashtra,Badlapur,"Katrap, Badlapur - MPCB",04-06-2024 01:00:00,19.16485,73.23409,SO2,7,28,13
India,Maharashtra,Badlapur,"Katrap, Badlapur - MPCB",04-06-2024 01:00:00,19.16485,73.23409,OZONE,14,93,34
India,Maharashtra,Bhiwandi,"Gokul Nagar, Bhiwandi - MPCB",04-06-2024 01:00:00,19.309073,73.057223,NO2,6,49,23
India,Maharashtra,Bhiwandi,"Gokul Nagar, Bhiwandi - MPCB",04-06-2024 01:00:00,19.309073,73.057223,NH3,2,5,3
India,Maharashtra,Boisar,"Khaira, Boisar - MPCB",04-06-2024 01:00:00,19.786089,72.757971,NO2,8,45,26
India,Maharashtra,Boisar,"Khaira, Boisar - MPCB",04-06-2024 01:00:00,19.786089,72.757971,NH3,3,13,7
India,Maharashtra,Boisar,"Khaira, Boisar - MPCB",04-06-2024 01:00:00,19.786089,72.757971,CO,16,44,28
India,Maharashtra,Boisar,"Khaira, Boisar - MPCB",04-06-2024 01:00:00,19.786089,72.757971,OZONE,1,64,48
India,Maharashtra,Chandrapur,"Chauhan Colony, Chandrapur - MPCB",04-06-2024 01:00:00,19.962900,79.298714,NH3,2,8,4
India,Maharashtra,Chandrapur,"MIDC Khutala, Chandrapur - MPCB",04-06-2024 01:00:00,19.9775302,79.2337086,NH3,4,13,8
India,Maharashtra,Jalgaon,"Prabhat Colony, Jalgaon - MPCB",04-06-2024 01:00:00,21.001264,75.565602,SO2,2,8,6
India,Maharashtra,Jalna,"Old MIDC, Jalna - MPCB",04-06-2024 01:00:00,19.854616,75.905894,CO,18,27,23
India,Maharashtra,Kolhapur,"Shivaji University, Kolhapur - MPCB",04-06-2024 01:00:00,16.6870449,74.2505872,SO2,2,10,4
India,Maharashtra,Kolhapur,"Shivaji University, Kolhapur - MPCB",04-06-2024 01:00:00,16.6870449,74.2505872,CO,46,68,56
India,Maharashtra,Kolhapur,"Sinchan Bhavan, Kolhapur - MPCB",04-06-2024 01:00:00,16.7143745,74.2426398,PM10,33,70,50
India,Maharashtra,Kolhapur,"Sinchan Bhavan, Kolhapur - MPCB",04-06-2024 01:00:00,16.7143745,74.2426398,NO2,5,32,12
India,Maharashtra,Latur,"Sawe Wadi, Latur - MPCB",04-06-2024 01:00:00,18.39963,76.57452,NH3,16,17,17
India,Maharashtra,Latur,"Sawe Wadi, Latur - MPCB",04-06-2024 01:00:00,18.39963,76.57452,CO,6,70,43
India,Maharashtra,Mahad,"Kamble Tarf Birwadi, Mahad - MPCB",04-06-2024 01:00:00,18.1023399,73.4783687,PM2.5,NA,NA,NA
India,Maharashtra,Malegaon,"Mahesh Nagar, Malegaon - MPCB",04-06-2024 01:00:00,20.555712,74.529236,PM2.5,42,110,70
India,Maharashtra,Malegaon,"Mahesh Nagar, Malegaon - MPCB",04-06-2024 01:00:00,20.555712,74.529236,NH3,5,9,6
India,Maharashtra,Malegaon,"Mahesh Nagar, Malegaon - MPCB",04-06-2024 01:00:00,20.555712,74.529236,SO2,5,12,8
India,Maharashtra,Mumbai,"Bandra Kurla Complex, Mumbai - MPCB",04-06-2024 01:00:00,19.065931,72.862131,SO2,1,4,3
India,Maharashtra,Mumbai,"Borivali East, Mumbai - MPCB",04-06-2024 01:00:00,19.2243333,72.8658113,SO2,11,24,15
India,Maharashtra,Mumbai,"Chembur, Mumbai - MPCB",04-06-2024 01:00:00,19.0364585,72.8954371,SO2,1,9,1
India,Maharashtra,Mumbai,"Colaba, Mumbai - MPCB",04-06-2024 01:00:00,18.910000,72.820000,PM10,54,123,78
India,Maharashtra,Mumbai,"Colaba, Mumbai - MPCB",04-06-2024 01:00:00,18.910000,72.820000,NH3,1,1,1
India,Maharashtra,Mumbai,"Ghatkopar, Mumbai - BMC",04-06-2024 01:00:00,19.083694,72.920967,PM2.5,6,16,10
India,Maharashtra,Mumbai,"Ghatkopar, Mumbai - BMC",04-06-2024 01:00:00,19.083694,72.920967,NH3,1,18,10
India,Maharashtra,Mumbai,"Kandivali East, Mumbai - MPCB",04-06-2024 01:00:00,19.205800,72.868200,NO2,14,81,28
India,Maharashtra,Mumbai,"Kandivali East, Mumbai - MPCB",04-06-2024 01:00:00,19.205800,72.868200,SO2,8,8,8
India,Maharashtra,Mumbai,"Kandivali East, Mumbai - MPCB",04-06-2024 01:00:00,19.205800,72.868200,OZONE,21,31,30
India,Maharashtra,Mumbai,"Kandivali West, Mumbai - BMC",04-06-2024 01:00:00,19.215859,72.831718,PM2.5,10,28,19
India,Maharashtra,Mumbai,"Khindipada-Bhandup West, Mumbai - IITM",04-06-2024 01:00:00,19.1653323,72.922099,PM2.5,21,64,41
India,Maharashtra,Mumbai,"Kurla, Mumbai - MPCB",04-06-2024 01:00:00,19.0863,72.8888,PM10,89,102,95
India,Maharashtra,Mumbai,"Kurla, Mumbai - MPCB",04-06-2024 01:00:00,19.0863,72.8888,NO2,13,14,13
India,Maharashtra,Mumbai,"Kurla, Mumbai - MPCB",04-06-2024 01:00:00,19.0863,72.8888,NH3,1,2,2
India,Maharashtra,Mumbai,"Mindspace-Malad West, Mumbai - MPCB",04-06-2024 01:00:00,19.1878657,72.8304069,PM2.5,24,56,42
India,Maharashtra,Mumbai,"Mindspace-Malad West, Mumbai - MPCB",04-06-2024 01:00:00,19.1878657,72.8304069,PM10,33,72,52
India,Maharashtra,Mumbai,"Mindspace-Malad West, Mumbai - MPCB",04-06-2024 01:00:00,19.1878657,72.8304069,SO2,4,6,5
India,Maharashtra,Mumbai,"Mulund West, Mumbai - MPCB",04-06-2024 01:00:00,19.1750,72.9419,PM10,43,500,117
India,Maharashtra,Mumbai,"Mulund West, Mumbai - MPCB",04-06-2024 01:00:00,19.1750,72.9419,SO2,12,13,12
India,Maharashtra,Mumbai,"Navy Nagar-Colaba, Mumbai - IITM",04-06-2024 01:00:00,18.897756,72.813320,PM10,37,87,60
India,Maharashtra,Mumbai,"Sion, Mumbai - MPCB",04-06-2024 01:00:00,19.047000,72.874600,PM10,48,102,76
India,Maharashtra,Mumbai,"Vasai West, Mumbai - MPCB",04-06-2024 01:00:00,19.383200,72.820400,PM10,60,106,84
India,Maharashtra,Mumbai,"Vasai West, Mumbai - MPCB",04-06-2024 01:00:00,19.383200,72.820400,NO2,25,29,27
India,Maharashtra,Mumbai,"Vile Parle West, Mumbai - MPCB",04-06-2024 01:00:00,19.10861,72.83622,PM2.5,6,28,16
India,Maharashtra,Mumbai,"Vile Parle West, Mumbai - MPCB",04-06-2024 01:00:00,19.10861,72.83622,SO2,13,14,14
India,Maharashtra,Mumbai,"Worli, Mumbai - MPCB",04-06-2024 01:00:00,18.9936162,72.8128113,CO,24,25,25
India,Maharashtra,Nagpur,"Mahal, Nagpur - MPCB",04-06-2024 01:00:00,21.14472,79.107595,NH3,3,6,5
India,Maharashtra,Nagpur,"Opp GPO Civil Lines, Nagpur - MPCB",04-06-2024 01:00:00,21.152875,79.0517531,PM10,36,117,62
India,Maharashtra,Nagpur,"Opp GPO Civil Lines, Nagpur - MPCB",04-06-2024 01:00:00,21.152875,79.0517531,CO,8,121,44
India,Maharashtra,Nanded,"Sneh Nagar, Nanded - MPCB",04-06-2024 01:00:00,19.173852,77.296291,PM10,NA,NA,NA
India,Maharashtra,Nanded,"Sneh Nagar, Nanded - MPCB",04-06-2024 01:00:00,19.173852,77.296291,CO,2,56,28
India,Maharashtra,Nashik,"Gangapur Road, Nashik - MPCB",04-06-2024 01:00:00,20.0073285,73.7762427,PM2.5,46,120,75
India,Maharashtra,Nashik,"Gangapur Road, Nashik - MPCB",04-06-2024 01:00:00,20.0073285,73.7762427,NH3,1,2,1
India,Maharashtra,Nashik,"Gangapur Road, Nashik - MPCB",04-06-2024 01:00:00,20.0073285,73.7762427,SO2,3,13,7
India,Maharashtra,Nashik,"Hirawadi, Nashik - MPCB",04-06-2024 01:00:00,20.021503,73.813844,SO2,10,27,20
India,Maharashtra,Nashik,"Hirawadi, Nashik - MPCB",04-06-2024 01:00:00,20.021503,73.813844,CO,11,26,18
India,Maharashtra,Nashik,"MIDC Ambad, Nashik - MPCB",04-06-2024 01:00:00,19.950220,73.731480,OZONE,18,84,42
India,Maharashtra,Navi Mumbai,"Kopripada-Vashi, Navi Mumbai - MPCB",04-06-2024 01:00:00,19.090337,73.014232,NH3,3,7,4
India,Maharashtra,Navi Mumbai,"Nerul, Navi Mumbai - MPCB",04-06-2024 01:00:00,19.008751,73.016620,CO,10,14,13
India,Maharashtra,Navi Mumbai,"Sanpada, Navi Mumbai - MPCB",04-06-2024 01:00:00,19.0575752,73.0151367,SO2,1,3,2
India,Maharashtra,Navi Mumbai,"Sanpada, Navi Mumbai - MPCB",04-06-2024 01:00:00,19.0575752,73.0151367,OZONE,27,121,60
India,Maharashtra,Navi Mumbai,"Sector-19A Nerul, Navi Mumbai - IITM",04-06-2024 01:00:00,19.044,73.0325,NO2,9,40,22
India,Maharashtra,Navi Mumbai,"Sector-19A Nerul, Navi Mumbai - IITM",04-06-2024 01:00:00,19.044,73.0325,CO,2,123,12
India,Maharashtra,Navi Mumbai,"Sector-2E Kalamboli, Navi Mumbai - MPCB",04-06-2024 01:00:00,19.02579,73.10297,NO2,12,33,21
India,Maharashtra,Navi Mumbai,"Sector-2E Kalamboli, Navi Mumbai - MPCB",04-06-2024 01:00:00,19.02579,73.10297,SO2,4,17,7
India,Maharashtra,Navi Mumbai,"Tondare-Taloja, Navi Mumbai - MPCB",04-06-2024 01:00:00,19.0630,73.1209,SO2,1,50,6
India,Maharashtra,Parbhani,"Masoom Colony, Parbhani - MPCB",04-06-2024 01:00:00,19.265594,76.761463,NO2,13,47,20
India,Maharashtra,Parbhani,"Masoom Colony, Parbhani - MPCB",04-06-2024 01:00:00,19.265594,76.761463,NH3,1,8,5
India,Maharashtra,Parbhani,"Masoom Colony, Parbhani - MPCB",04-06-2024 01:00:00,19.265594,76.761463,CO,22,45,31
India,Maharashtra,Pune,"Alandi, Pune - IITM",04-06-2024 01:00:00,18.675076,73.892743,NO2,12,31,20
India,Maharashtra,Pune,"Alandi, Pune - IITM",04-06-2024 01:00:00,18.675076,73.892743,OZONE,9,136,48
India,Maharashtra,Pune,"Karve Road, Pune - MPCB",04-06-2024 01:00:00,18.5011743,73.8165527,PM2.5,4,66,34
India,Maharashtra,Pune,"Revenue Colony-Shivajinagar, Pune - IITM",04-06-2024 01:00:00,18.530085,73.849598,PM2.5,50,88,66
India,Maharashtra,Pune,"Revenue Colony-Shivajinagar, Pune - IITM",04-06-2024 01:00:00,18.530085,73.849598,PM10,44,81,60
India,Maharashtra,Pune,"Savitribai Phule Pune University, Pune - MPCB",04-06-2024 01:00:00,18.547056,73.826908,CO,12,20,16
India,Maharashtra,Pune,"Transport Nagar-Nigdi, Pune - IITM",04-06-2024 01:00:00,18.664282,73.763966,CO,NA,NA,NA
India,Maharashtra,Sangli,"Vijay Nagar, Sangli - MPCB",04-06-2024 01:00:00, 16.5038,74.3623,OZONE,13,73,40
India,Maharashtra,Solapur,"Dnyaneshwar Nagar, Solapur - MPCB",04-06-2024 01:00:00,17.6336264,75.9132495,NH3,2,22,16
India,Maharashtra,Solapur,"Dnyaneshwar Nagar, Solapur - MPCB",04-06-2024 01:00:00,17.6336264,75.9132495,SO2,1,2,1
India,Maharashtra,Solapur,"Dnyaneshwar Nagar, Solapur - MPCB",04-06-2024 01:00:00,17.6336264,75.9132495,CO,10,24,13
India,Maharashtra,Thane,"Pimpleshwar Mandir, Thane - MPCB",04-06-2024 01:00:00,19.192056,72.9585188,CO,1,78,43
India,Maharashtra,Thane,"Upvan Fort, Thane - MPCB",04-06-2024 01:00:00,19.222279,72.957979,CO,10,38,21
India,Maharashtra,Ulhasnagar,"Sidhi Vinayak Nagar, Ulhasnagar - MPCB",04-06-2024 01:00:00,19.235581,73.159121,NO2,14,29,20
India,Maharashtra,Virar,"Bolinj, Virar - MPCB",04-06-2024 01:00:00,19.4458210,72.7988231,PM2.5,29,74,45
India,Maharashtra,Virar,"Bolinj, Virar - MPCB",04-06-2024 01:00:00,19.4458210,72.7988231,OZONE,17,55,47
India,Manipur,Imphal,"Manipur University, Imphal - Manipur PCB",04-06-2024 01:00:00,24.7524239,93.9286218,NH3,NA,NA,NA
India,Meghalaya,Shillong,"Lumpyngngad, Shillong - Meghalaya PCB",04-06-2024 01:00:00,25.5586,91.8985,OZONE,NA,NA,NA
India,Mizoram,Aizawl,"Sikulpuikawn, Aizawl - Mizoram PCB",04-06-2024 01:00:00,23.7176342,92.7192841,PM10,10,86,45
India,Nagaland,Kohima,"PWD Juction, Kohima - NPCB",04-06-2024 01:00:00,25.6635413,94.0989878,NO2,2,6,3
India,Nagaland,Kohima,"PWD Juction, Kohima - NPCB",04-06-2024 01:00:00,25.6635413,94.0989878,NH3,1,1,1
India,Odisha,Angul,"Hakimapada, Angul - OSPCB",04-06-2024 01:00:00,20.832874,85.104082,NH3,1,1,1
India,Odisha,Balasore,"Kalidaspur, Balasore - OSPCB",04-06-2024 01:00:00,21.51161,86.89088,SO2,15,20,16
India,Odisha,Barbil,"Forest Office, Barbil - OSPCB",04-06-2024 01:00:00,22.1166054,85.3945546,NO2,6,11,8
India,Odisha,Barbil,"Forest Office, Barbil - OSPCB",04-06-2024 01:00:00,22.1166054,85.3945546,SO2,4,14,9
India,Odisha,Barbil,"Forest Office, Barbil - OSPCB",04-06-2024 01:00:00,22.1166054,85.3945546,CO,14,52,39
India,Odisha,Bhubaneswar,"Lingraj Mandir, Bhubaneswar - OSPCB",04-06-2024 01:00:00,20.240790,85.836784,OZONE,47,80,51
India,Odisha,Bhubaneswar,"Patia, Bhubaneswar - OSPCB",04-06-2024 01:00:00,20.34652,85.81630,PM10,11,49,28
India,Odisha,Bhubaneswar,"Patia, Bhubaneswar - OSPCB",04-06-2024 01:00:00,20.34652,85.81630,NO2,9,43,14
India,Odisha,Bileipada,"Tata Township, Bileipada - OSPCB",04-06-2024 01:00:00,22.06156703,85.47409613,NO2,5,8,6
India,Odisha,Byasanagar,"Ferro Chrome Colony, Byasanagar - OSPCB",04-06-2024 01:00:00,20.94185,86.11510,NO2,7,28,12
India,Odisha,Byasanagar,"Ferro Chrome Colony, Byasanagar - OSPCB",04-06-2024 01:00:00,20.94185,86.11510,NH3,1,4,2
India,Odisha,Byasanagar,"Ferro Chrome Colony, Byasanagar - OSPCB",04-06-2024 01:00:00,20.94185,86.11510,SO2,4,82,23
India,Odisha,Cuttack,"CDA Area, Cuttack - OSPCB",04-06-2024 01:00:00,20.48891     ,85.84768     ,NO2,8,25,14
India,Odisha,Cuttack,"CDA Area, Cuttack - OSPCB",04-06-2024 01:00:00,20.48891     ,85.84768     ,CO,13,50,20
India,Odisha,Keonjhar,"Jagamohanpur, Keonjhar - OSPCB",04-06-2024 01:00:00,21.643900,85.599355,NH3,3,4,3
India,Odisha,Rairangpur,"Divisional Forest Office, Rairangpur - OSPCB",04-06-2024 01:00:00,22.265816,86.174829,SO2,13,19,15
India,Odisha,Rourkela,"Fertilizer Township, Rourkela - OSPCB",04-06-2024 01:00:00,22.18972222,84.86277778,PM10,NA,NA,NA
India,Odisha,Rourkela,"Sector-2, Rourkela - OSPCB",04-06-2024 01:00:00,22.24500000,84.88111111,CO,16,70,28
India,Odisha,Talcher,"Talcher Coalfields,Talcher - OSPCB",04-06-2024 01:00:00,20.9360711,85.1707021,PM2.5,16,104,57
India,Odisha,Tensa,"Barsua Iron Ore Mines, Tensa - OSPCB",04-06-2024 01:00:00,21.869985,85.167016,NO2,1,15,6
India,Puducherry,Puducherry,"Jawahar Nagar, Puducherry - PPCC",04-06-2024 01:00:00,11.9309,79.8027,NO2,NA,NA,NA
India,Puducherry,Puducherry,"Jawahar Nagar, Puducherry - PPCC",04-06-2024 01:00:00,11.9309,79.8027,SO2,NA,NA,NA
India,Punjab,Amritsar,"Golden Temple, Amritsar - PPCB",04-06-2024 01:00:00,31.620000,74.876512,PM10,113,154,133
India,Punjab,Amritsar,"Golden Temple, Amritsar - PPCB",04-06-2024 01:00:00,31.620000,74.876512,NO2,9,147,47
India,Punjab,Jalandhar,"Civil Line, Jalandhar - PPCB",04-06-2024 01:00:00,31.321907,75.578914,PM2.5,43,192,126
India,Punjab,Jalandhar,"Civil Line, Jalandhar - PPCB",04-06-2024 01:00:00,31.321907,75.578914,CO,1,46,25
India,Punjab,Khanna,"Kalal Majra, Khanna - PPCB",04-06-2024 01:00:00,30.736056 ,76.209694,OZONE,6,54,37
India,Punjab,Mandi Gobindgarh,"RIMT University, Mandi Gobindgarh - PPCB",04-06-2024 01:00:00,30.649961,76.331442,NH3,6,6,6
India,Punjab,Mandi Gobindgarh,"RIMT University, Mandi Gobindgarh - PPCB",04-06-2024 01:00:00,30.649961,76.331442,SO2,NA,NA,NA
India,Punjab,Patiala,"Model Town, Patiala - PPCB",04-06-2024 01:00:00,30.349388,76.366642,SO2,4,25,9
India,Punjab,Rupnagar,"Ratanpura, Rupnagar - Ambuja Cements",04-06-2024 01:00:00,31.0325454,76.5623046,PM10,94,239,154
India,Rajasthan,Ajmer,"Civil Lines,  Ajmer - RSPCB",04-06-2024 01:00:00,26.470859,74.646594,OZONE,3,89,52
India,Rajasthan,Banswara,"Rati Talai, Banswara - RSPCB",04-06-2024 01:00:00,23.555190,74.440010,NO2,8,20,13
India,Rajasthan,Baran,"Bamboliya, Baran - RSPCB",04-06-2024 01:00:00,25.106006,76.469948,NO2,5,68,12
India,Rajasthan,Baran,"Bamboliya, Baran - RSPCB",04-06-2024 01:00:00,25.106006,76.469948,SO2,2,6,4
India,Rajasthan,Baran,"Bamboliya, Baran - RSPCB",04-06-2024 01:00:00,25.106006,76.469948,CO,16,41,23
India,Rajasthan,Baran,"Bamboliya, Baran - RSPCB",04-06-2024 01:00:00,25.106006,76.469948,OZONE,12,88,63
India,Rajasthan,Bharatpur,"Krishna Nagar, Bharatpur - RSPCB",04-06-2024 01:00:00,27.215415,77.50873,NO2,8,138,37
India,Rajasthan,Bharatpur,"Krishna Nagar, Bharatpur - RSPCB",04-06-2024 01:00:00,27.215415,77.50873,OZONE,17,156,84
India,Rajasthan,Bhilwara,"Pratap Nagar, Bhilwara - RSPCB",04-06-2024 01:00:00,25.339605,74.618883,NO2,8,31,15
India,Rajasthan,Bhiwadi,"RIICO Ind. Area III, Bhiwadi - RSPCB",04-06-2024 01:00:00,28.194909,76.862296,SO2,11,38,25
India,Rajasthan,Bhiwadi,"RIICO Ind. Area III, Bhiwadi - RSPCB",04-06-2024 01:00:00,28.194909,76.862296,CO,52,118,74
India,Rajasthan,Bikaner,"MM Ground, Bikaner - RSPCB",04-06-2024 01:00:00,28.018792,73.292658,NH3,7,9,7
India,Rajasthan,Bundi,"New Colony, Bundi - RSPCB",04-06-2024 01:00:00,25.435774,75.644272,CO,12,89,36
India,Rajasthan,Chittorgarh,"Shastri Nagar, Chittorgarh - RSPCB",04-06-2024 01:00:00,24.892047,74.623527,PM2.5,35,207,82
India,Rajasthan,Chittorgarh,"Shastri Nagar, Chittorgarh - RSPCB",04-06-2024 01:00:00,24.892047,74.623527,CO,4,52,24
India,Rajasthan,Churu,"Subash Chowk, Churu - RSPCB",04-06-2024 01:00:00,28.296139,74.961696,CO,14,46,17
India,Rajasthan,Dausa,"Khatikan Mohalla, Dausa - RSPCB",04-06-2024 01:00:00,26.895552,76.334753,PM2.5,33,396,82
India,Rajasthan,Dausa,"Khatikan Mohalla, Dausa - RSPCB",04-06-2024 01:00:00,26.895552,76.334753,PM10,71,207,146
India,Rajasthan,Dausa,"Khatikan Mohalla, Dausa - RSPCB",04-06-2024 01:00:00,26.895552,76.334753,CO,36,100,64
India,Rajasthan,Hanumangarh,"Housing Board, Hanumangarh - RSPCB",04-06-2024 01:00:00,29.610750,74.283608,PM2.5,35,140,81
India,Rajasthan,Jaipur,"Adarsh Nagar, Jaipur - RSPCB",04-06-2024 01:00:00,26.902909,75.836858,PM2.5,61,150,92
India,Rajasthan,Jaipur,"Police Commissionerate, Jaipur - RSPCB",04-06-2024 01:00:00,26.9164092,75.7994901,PM2.5,49,212,126
India,Rajasthan,Jaipur,"Police Commissionerate, Jaipur - RSPCB",04-06-2024 01:00:00,26.9164092,75.7994901,NH3,5,9,7
India,Rajasthan,Jaipur,"RIICO Sitapura, Jaipur - RSPCB",04-06-2024 01:00:00,26.786682,75.827928,OZONE,25,155,74
India,Rajasthan,Jaipur,"Sector-2 Murlipura, Jaipur - RSPCB",04-06-2024 01:00:00,26.960669,75.771817,PM10,54,133,98
India,Rajasthan,Jalore,"Mudtra Sili, Jalore - RSPCB",04-06-2024 01:00:00,25.344694,72.626208,PM10,86,195,130
India,Rajasthan,Jalore,"Mudtra Sili, Jalore - RSPCB",04-06-2024 01:00:00,25.344694,72.626208,SO2,3,13,7
India,Rajasthan,Jalore,"Mudtra Sili, Jalore - RSPCB",04-06-2024 01:00:00,25.344694,72.626208,CO,6,17,13
India,Rajasthan,Jhalawar,"Rajlaxmi Nagar, Jhalawar - RSPCB",04-06-2024 01:00:00,24.588397,76.172782,NO2,18,27,23
India,Rajasthan,Jhalawar,"Rajlaxmi Nagar, Jhalawar - RSPCB",04-06-2024 01:00:00,24.588397,76.172782,NH3,2,2,2
India,Rajasthan,Jodhpur,"Collectorate, Jodhpur - RSPCB",04-06-2024 01:00:00,26.268249,73.0193853,PM10,72,207,142
India,Rajasthan,Jodhpur,"Collectorate, Jodhpur - RSPCB",04-06-2024 01:00:00,26.268249,73.0193853,NO2,5,26,17
India,Rajasthan,Jodhpur,"Digari Kalan, Jodhpur - RSPCB",04-06-2024 01:00:00,26.295810,73.082283,NO2,3,33,13
India,Rajasthan,Jodhpur,"Digari Kalan, Jodhpur - RSPCB",04-06-2024 01:00:00,26.295810,73.082283,NH3,1,2,2
India,Rajasthan,Jodhpur,"Mandor, Jodhpur - RSPCB",04-06-2024 01:00:00,26.358805,73.047444,PM10,45,163,107
India,Rajasthan,Jodhpur,"Samrat Ashok Udhyan, Jodhpur - RSPCB",04-06-2024 01:00:00,26.253384,72.976571,NH3,2,12,4
India,Rajasthan,Jodhpur,"Samrat Ashok Udhyan, Jodhpur - RSPCB",04-06-2024 01:00:00,26.253384,72.976571,SO2,3,6,4
India,Rajasthan,Karauli,"Satyawati Vihar, Karauli - RSPCB",04-06-2024 01:00:00,26.506177,77.025989,OZONE,54,182,138
India,Rajasthan,Kota,"Nayapura, Kota - RSPCB",04-06-2024 01:00:00,25.196024,75.855668,NH3,2,8,3
India,Rajasthan,Nagaur,"Karni Colony, Nagaur - RSPCB",04-06-2024 01:00:00,27.213494,73.734444,CO,4,68,48
India,Rajasthan,Rajsamand,"Dhoinda, Rajsamand - RSPCB",04-06-2024 01:00:00,25.036360,73.883502,NH3,1,3,1
India,Rajasthan,Rajsamand,"Dhoinda, Rajsamand - RSPCB",04-06-2024 01:00:00,25.036360,73.883502,SO2,2,8,5
India,Rajasthan,Sawai Madhopur,"Sahu Nagar, Sawai Madhopur - RSPCB",04-06-2024 01:00:00,26.031443,76.359327,PM10,39,194,123
India,Rajasthan,Sawai Madhopur,"Sahu Nagar, Sawai Madhopur - RSPCB",04-06-2024 01:00:00,26.031443,76.359327,NO2,15,22,18
India,Rajasthan,Sawai Madhopur,"Sahu Nagar, Sawai Madhopur - RSPCB",04-06-2024 01:00:00,26.031443,76.359327,CO,3,57,48
India,Rajasthan,Sawai Madhopur,"Sahu Nagar, Sawai Madhopur - RSPCB",04-06-2024 01:00:00,26.031443,76.359327,OZONE,46,111,74
India,Rajasthan,Sikar,"Radhakishan Pura, Sikar - RSPCB",04-06-2024 01:00:00,27.608912,75.153302,NH3,6,12,9
India,Rajasthan,Sirohi,"Vedhaynath Colony, Sirohi - RSPCB",04-06-2024 01:00:00,24.885261,72.857549,OZONE,22,66,50
India,Rajasthan,Sri Ganganagar,"Old City, Sri Ganganagar - RSPCB",04-06-2024 01:00:00,29.931624,73.864511,NO2,8,100,25
India,Rajasthan,Sri Ganganagar,"Old City, Sri Ganganagar - RSPCB",04-06-2024 01:00:00,29.931624,73.864511,NH3,15,45,11
India,Rajasthan,Tonk,"Shastri Nagar, Tonk - RSPCB",04-06-2024 01:00:00,26.159933,75.780517,PM10,NA,NA,NA
India,Rajasthan,Tonk,"Shastri Nagar, Tonk - RSPCB",04-06-2024 01:00:00,26.159933,75.780517,CO,2,80,32
India,Rajasthan,Udaipur,"Ashok Nagar, Udaipur - RSPCB",04-06-2024 01:00:00,24.5886166,73.6321397,CO,1,107,46
India,TamilNadu,Ariyalur,"Keelapalur, Ariyalur - TNPCB",04-06-2024 01:00:00,11.06825,79.07033,PM2.5,10,42,28
India,TamilNadu,Ariyalur,"Keelapalur, Ariyalur - TNPCB",04-06-2024 01:00:00,11.06825,79.07033,PM10,18,80,29
India,TamilNadu,Chennai,"Alandur Bus Depot, Chennai - CPCB",04-06-2024 01:00:00,12.9099161,80.1076538,NH3,7,10,8
India,TamilNadu,Chennai,"Alandur Bus Depot, Chennai - CPCB",04-06-2024 01:00:00,12.9099161,80.1076538,OZONE,1,13,8
India,TamilNadu,Chennai,"Kodungaiyur, Chennai - TNPCB",04-06-2024 01:00:00,13.1278,80.2642,SO2,NA,NA,NA
India,TamilNadu,Chennai,"Kodungaiyur, Chennai - TNPCB",04-06-2024 01:00:00,13.1278,80.2642,OZONE,45,74,60
India,TamilNadu,Chennai,"Manali, Chennai - CPCB",04-06-2024 01:00:00,13.164544,80.26285,NO2,NA,NA,NA
India,TamilNadu,Chennai,"Manali, Chennai - CPCB",04-06-2024 01:00:00,13.164544,80.26285,CO,85,111,101
India,TamilNadu,Chennai,"Manali, Chennai - CPCB",04-06-2024 01:00:00,13.164544,80.26285,OZONE,6,22,9
India,TamilNadu,Chennai,"Royapuram, Chennai - TNPCB",04-06-2024 01:00:00,13.1036,80.2909,PM10,10,56,36
India,TamilNadu,Cuddalore,"Kudikadu, Cuddalore - TNPCB",04-06-2024 01:00:00,11.6829898,79.7532099,PM10,12,122,51
India,TamilNadu,Ooty,"Bombay Castel, Ooty - TNPCB",04-06-2024 01:00:00,11.4068288,76.7138973,PM10,NA,NA,NA
India,TamilNadu,Ooty,"Bombay Castel, Ooty - TNPCB",04-06-2024 01:00:00,11.4068288,76.7138973,SO2,14,16,15
India,TamilNadu,Salem,"Sona College of Technology, Salem - TNPCB",04-06-2024 01:00:00,11.679111,78.125052,SO2,NA,NA,NA
India,TamilNadu,Salem,"Sona College of Technology, Salem - TNPCB",04-06-2024 01:00:00,11.679111,78.125052,OZONE,2,3,3
India,TamilNadu,Thoothukudi,"Meelavittan, Thoothukudi - TNPCB",04-06-2024 01:00:00,8.816428 ,78.099039,SO2,NA,NA,NA
India,TamilNadu,Thoothukudi,"Meelavittan, Thoothukudi - TNPCB",04-06-2024 01:00:00,8.816428 ,78.099039,OZONE,1,12,8
India,TamilNadu,Vellore,"Vasanthapuram, Vellore - TNPCB",04-06-2024 01:00:00,12.909494,79.131861,PM10,NA,NA,NA
India,Telangana,Hyderabad,"Bollaram Industrial Area, Hyderabad - TSPCB",04-06-2024 01:00:00,17.540891,78.358528,PM2.5,16,53,30
India,Telangana,Hyderabad,"Bollaram Industrial Area, Hyderabad - TSPCB",04-06-2024 01:00:00,17.540891,78.358528,CO,2,100,13
India,Telangana,Hyderabad,"Central University, Hyderabad - TSPCB",04-06-2024 01:00:00,17.460103,78.334361,PM2.5,10,40,19
India,Telangana,Hyderabad,"Central University, Hyderabad - TSPCB",04-06-2024 01:00:00,17.460103,78.334361,NH3,3,6,4
India,Telangana,Hyderabad,"Central University, Hyderabad - TSPCB",04-06-2024 01:00:00,17.460103,78.334361,OZONE,3,4,3
India,Telangana,Hyderabad,"Kokapet, Hyderabad - TSPCB",04-06-2024 01:00:00,17.393559,78.339194,SO2,10,11,10
India,Telangana,Hyderabad,"Kompally Municipal Office, Hyderabad - TSPCB",04-06-2024 01:00:00,17.544899,78.486949,SO2,NA,NA,NA
India,Telangana,Hyderabad,"Nacharam_TSIIC IALA, Hyderabad - TSPCB",04-06-2024 01:00:00,17.429398,78.569354,PM2.5,37,57,51
India,Telangana,Hyderabad,"New Malakpet, Hyderabad - TSPCB",04-06-2024 01:00:00,17.37206,78.50864,PM2.5,27,52,36
India,Telangana,Hyderabad,"New Malakpet, Hyderabad - TSPCB",04-06-2024 01:00:00,17.37206,78.50864,NO2,12,13,12
India,Telangana,Hyderabad,"Ramachandrapuram, Hyderabad - TSPCB",04-06-2024 01:00:00,17.528544,78.286195,CO,38,40,39
India,Telangana,Hyderabad,"Somajiguda, Hyderabad - TSPCB",04-06-2024 01:00:00,17.417094,78.457437,SO2,NA,NA,NA
India,Telangana,Hyderabad,"Somajiguda, Hyderabad - TSPCB",04-06-2024 01:00:00,17.417094,78.457437,OZONE,NA,NA,NA
India,Telangana,Hyderabad,"Zoo Park, Hyderabad - TSPCB",04-06-2024 01:00:00,17.349694,78.451437,PM10,NA,NA,NA
India,Telangana,Hyderabad,"Zoo Park, Hyderabad - TSPCB",04-06-2024 01:00:00,17.349694,78.451437,CO,15,53,32
India,Uttar_Pradesh,Agra,"Manoharpur, Agra - UPPCB",04-06-2024 01:00:00,27.23711,78.01936,NH3,2,4,3
India,Uttar_Pradesh,Agra,"Manoharpur, Agra - UPPCB",04-06-2024 01:00:00,27.23711,78.01936,CO,6,17,11
India,Uttar_Pradesh,Agra,"Sanjay Palace, Agra - UPPCB",04-06-2024 01:00:00,27.19865833,78.00598056,PM2.5,10,71,42
India,Uttar_Pradesh,Agra,"Sanjay Palace, Agra - UPPCB",04-06-2024 01:00:00,27.19865833,78.00598056,SO2,2,10,7
India,Uttar_Pradesh,Agra,"Sector-3B Avas Vikas Colony, Agra - UPPCB",04-06-2024 01:00:00,27.19412,77.96237,NH3,6,29,14
India,Uttar_Pradesh,Agra,"Shahjahan Garden, Agra - UPPCB",04-06-2024 01:00:00,27.169338,78.03582,PM2.5,26,72,45
India,Uttar_Pradesh,Agra,"Shahjahan Garden, Agra - UPPCB",04-06-2024 01:00:00,27.169338,78.03582,CO,13,57,31
India,Uttar_Pradesh,Agra,"Shastripuram, Agra - UPPCB",04-06-2024 01:00:00,27.19862,77.92066,PM10,NA,NA,NA
India,Uttar_Pradesh,Bareilly,"Rajendra Nagar, Bareilly - UPPCB",04-06-2024 01:00:00,28.38910936,79.42963708,NO2,2,37,4
India,Uttar_Pradesh,Bulandshahr,"Yamunapuram, Bulandshahr - UPPCB",04-06-2024 01:00:00,28.406963,77.849831,PM2.5,43,361,128
India,Uttar_Pradesh,Bulandshahr,"Yamunapuram, Bulandshahr - UPPCB",04-06-2024 01:00:00,28.406963,77.849831,SO2,9,49,24
India,Uttar_Pradesh,Bulandshahr,"Yamunapuram, Bulandshahr - UPPCB",04-06-2024 01:00:00,28.406963,77.849831,CO,23,79,41
India,Uttar_Pradesh,Firozabad,"Nagla Bhau, Firozabad - UPPCB",04-06-2024 01:00:00,27.168897,78.376960,SO2,17,24,18
India,Uttar_Pradesh,Firozabad,"Vibhab Nagar, Firozabad - UPPCB",04-06-2024 01:00:00,27.1594,78.3953,PM10,NA,NA,NA
India,Uttar_Pradesh,Firozabad,"Vibhab Nagar, Firozabad - UPPCB",04-06-2024 01:00:00,27.1594,78.3953,NH3,1,2,2
India,Uttar_Pradesh,Firozabad,"Vibhab Nagar, Firozabad - UPPCB",04-06-2024 01:00:00,27.1594,78.3953,SO2,5,84,15
India,Uttar_Pradesh,Ghaziabad,"Indirapuram, Ghaziabad - UPPCB",04-06-2024 01:00:00,28.646233,77.358075,SO2,8,19,14
India,Uttar_Pradesh,Ghaziabad,"Indirapuram, Ghaziabad - UPPCB",04-06-2024 01:00:00,28.646233,77.358075,OZONE,2,112,42
India,Uttar_Pradesh,Ghaziabad,"Loni, Ghaziabad - UPPCB",04-06-2024 01:00:00,28.757294,77.278792,PM10,88,433,174
India,Uttar_Pradesh,Ghaziabad,"Loni, Ghaziabad - UPPCB",04-06-2024 01:00:00,28.757294,77.278792,NH3,1,7,2
India,Uttar_Pradesh,Ghaziabad,"Sanjay Nagar, Ghaziabad - UPPCB",04-06-2024 01:00:00,28.685382,77.453839,CO,5,119,73
India,Uttar_Pradesh,Ghaziabad,"Vasundhara, Ghaziabad - UPPCB",04-06-2024 01:00:00,28.6603346,77.3572563,NO2,18,98,43
India,Uttar_Pradesh,Gorakhpur,"Madan Mohan Malaviya University of Technology, Gorakhpur - UPPCB",04-06-2024 01:00:00,26.730136,83.433859,NO2,11,11,11
India,Uttar_Pradesh,Greater Noida,"Knowledge Park - III, Greater Noida - UPPCB",04-06-2024 01:00:00,28.47272,77.482000,NO2,24,144,58
India,Uttar_Pradesh,Hapur,"Anand Vihar, Hapur - UPPCB",04-06-2024 01:00:00,28.725645,77.749675,NO2,14,62,28
India,Uttar_Pradesh,Jhansi,"Shivaji Nagar, Jhansi - UPPCB",04-06-2024 01:00:00,25.4547,78.6039,PM2.5,8,196,76
India,Uttar_Pradesh,Kanpur,"FTI Kidwai Nagar, Kanpur - UPPCB",04-06-2024 01:00:00,26.428282,80.327067,NO2,21,22,22
India,Uttar_Pradesh,Kanpur,"FTI Kidwai Nagar, Kanpur - UPPCB",04-06-2024 01:00:00,26.428282,80.327067,SO2,13,13,13
India,Uttar_Pradesh,Kanpur,"Nehru Nagar, Kanpur - UPPCB",04-06-2024 01:00:00,26.4703136,80.3229863,SO2,7,13,11
India,Uttar_Pradesh,Khurja,"Kalindi Kunj, Khurja - UPPCB",04-06-2024 01:00:00,28.2348927,77.8683002,CO,24,44,41
India,Uttar_Pradesh,Lucknow,"B R Ambedkar University, Lucknow - UPPCB",04-06-2024 01:00:00,26.766433,80.927299,NO2,11,12,11
India,Uttar_Pradesh,Lucknow,"B R Ambedkar University, Lucknow - UPPCB",04-06-2024 01:00:00,26.766433,80.927299,OZONE,9,53,28
India,Uttar_Pradesh,Lucknow,"Gomti Nagar, Lucknow - UPPCB",04-06-2024 01:00:00,26.868120,81.005119,PM10,64,138,92
India,Uttar_Pradesh,Lucknow,"Gomti Nagar, Lucknow - UPPCB",04-06-2024 01:00:00,26.868120,81.005119,SO2,8,13,11
India,Uttar_Pradesh,Lucknow,"Kendriya Vidyalaya, Lucknow - CPCB",04-06-2024 01:00:00,26.906111,80.948222,PM10,109,138,120
India,Uttar_Pradesh,Lucknow,"Kendriya Vidyalaya, Lucknow - CPCB",04-06-2024 01:00:00,26.906111,80.948222,OZONE,9,126,55
India,Uttar_Pradesh,Lucknow,"Lalbagh, Lucknow - CPCB",04-06-2024 01:00:00,26.8458805,80.9365541,SO2,1,17,8
India,Uttar_Pradesh,Meerut,"Ganga Nagar, Meerut - UPPCB",04-06-2024 01:00:00,28.999264,77.7590354,PM2.5,30,101,50
India,Uttar_Pradesh,Meerut,"Ganga Nagar, Meerut - UPPCB",04-06-2024 01:00:00,28.999264,77.7590354,NO2,10,70,25
India,Uttar_Pradesh,Meerut,"Jai Bhim Nagar, Meerut - UPPCB",04-06-2024 01:00:00,28.9535882,77.7622941,PM2.5,54,157,85
India,Uttar_Pradesh,Meerut,"Jai Bhim Nagar, Meerut - UPPCB",04-06-2024 01:00:00,28.9535882,77.7622941,PM10,129,424,239
India,Uttar_Pradesh,Meerut,"Jai Bhim Nagar, Meerut - UPPCB",04-06-2024 01:00:00,28.9535882,77.7622941,NO2,13,55,24
India,Uttar_Pradesh,Meerut,"Jai Bhim Nagar, Meerut - UPPCB",04-06-2024 01:00:00,28.9535882,77.7622941,SO2,6,11,9
India,Uttar_Pradesh,Meerut,"Pallavpuram Phase 2, Meerut - UPPCB",04-06-2024 01:00:00,29.063510,77.709723,PM10,107,309,167
India,Uttar_Pradesh,Meerut,"Pallavpuram Phase 2, Meerut - UPPCB",04-06-2024 01:00:00,29.063510,77.709723,NO2,14,96,28
India,Uttar_Pradesh,Meerut,"Pallavpuram Phase 2, Meerut - UPPCB",04-06-2024 01:00:00,29.063510,77.709723,NH3,5,11,6
India,Uttar_Pradesh,Moradabad,"Buddhi Vihar, Moradabad - UPPCB",04-06-2024 01:00:00,28.83526,78.74460,PM2.5,21,153,70
India,Uttar_Pradesh,Moradabad,"Eco Herbal Park, Moradabad - UPPCB",04-06-2024 01:00:00,28.840739,78.697531,PM10,73,260,127
India,Uttar_Pradesh,Moradabad,"Eco Herbal Park, Moradabad - UPPCB",04-06-2024 01:00:00,28.840739,78.697531,CO,6,57,20
India,Uttar_Pradesh,Moradabad,"Employment Office, Moradabad - UPPCB",04-06-2024 01:00:00,28.88528,78.73880,PM10,74,304,135
India,Uttar_Pradesh,Moradabad,"Jigar Colony, Moradabad - UPPCB",04-06-2024 01:00:00,28.856664,78.772638,PM2.5,25,81,57
India,Uttar_Pradesh,Moradabad,"Kashiram Nagar, Moradabad - UPPCB",04-06-2024 01:00:00,28.849399,78.742362,PM2.5,34,162,87
India,Uttar_Pradesh,Moradabad,"Transport Nagar, Moradabad - UPPCB",04-06-2024 01:00:00,28.802625,78.753728,CO,20,44,41
India,Uttar_Pradesh,Muzaffarnagar,"New Mandi, Muzaffarnagar - UPPCB",04-06-2024 01:00:00,29.4723508,77.7194031,SO2,15,54,35
India,Uttar_Pradesh,Noida,"Sector - 125, Noida - UPPCB",04-06-2024 01:00:00,28.5447608,77.3231257,PM10,105,159,127
India,Uttar_Pradesh,Noida,"Sector - 125, Noida - UPPCB",04-06-2024 01:00:00,28.5447608,77.3231257,OZONE,10,133,74
India,Uttar_Pradesh,Noida,"Sector - 62, Noida - IMD",04-06-2024 01:00:00,28.6245479,77.3577104,NO2,8,32,12
India,Uttar_Pradesh,Noida,"Sector - 62, Noida - IMD",04-06-2024 01:00:00,28.6245479,77.3577104,CO,14,50,29
India,Uttar_Pradesh,Noida,"Sector - 62, Noida - IMD",04-06-2024 01:00:00,28.6245479,77.3577104,OZONE,5,58,26
India,Uttar_Pradesh,Noida,"Sector-1, Noida - UPPCB",04-06-2024 01:00:00,28.5898,77.3101,CO,24,112,66
India,Uttar_Pradesh,Prayagraj,"Jhunsi, Prayagraj - UPPCB",04-06-2024 01:00:00,25.425602,81.917152,PM10,34,368,91
India,Uttar_Pradesh,Prayagraj,"Jhunsi, Prayagraj - UPPCB",04-06-2024 01:00:00,25.425602,81.917152,SO2,30,31,30
India,Uttar_Pradesh,Prayagraj,"Jhunsi, Prayagraj - UPPCB",04-06-2024 01:00:00,25.425602,81.917152,CO,4,77,45
India,Uttar_Pradesh,Prayagraj,"Motilal Nehru NIT, Prayagraj - UPPCB",04-06-2024 01:00:00,25.494,81.863,PM10,16,96,58
India,Uttar_Pradesh,Prayagraj,"Motilal Nehru NIT, Prayagraj - UPPCB",04-06-2024 01:00:00,25.494,81.863,NH3,6,7,6
India,Uttar_Pradesh,Prayagraj,"Motilal Nehru NIT, Prayagraj - UPPCB",04-06-2024 01:00:00,25.494,81.863,CO,22,66,53
India,Uttar_Pradesh,Prayagraj,"Nagar Nigam, Prayagraj - UPPCB",04-06-2024 01:00:00,25.44919916 ,81.82735986 ,SO2,4,120,59
India,Uttar_Pradesh,Varanasi,"Ardhali Bazar, Varanasi - UPPCB",04-06-2024 01:00:00,25.3505986,82.9083074,PM2.5,19,59,32
India,Uttar_Pradesh,Varanasi,"Bhelupur, Varanasi - UPPCB",04-06-2024 01:00:00,25.301778,82.996789,PM2.5,5,16,8
India,Uttar_Pradesh,Varanasi,"Bhelupur, Varanasi - UPPCB",04-06-2024 01:00:00,25.301778,82.996789,PM10,17,79,32
India,Uttar_Pradesh,Varanasi,"Bhelupur, Varanasi - UPPCB",04-06-2024 01:00:00,25.301778,82.996789,NH3,1,2,1
India,Uttar_Pradesh,Varanasi,"IESD Banaras Hindu University, Varanasi - UPPCB",04-06-2024 01:00:00,25.262326,82.995408,PM10,13,49,25
India,Uttar_Pradesh,Varanasi,"IESD Banaras Hindu University, Varanasi - UPPCB",04-06-2024 01:00:00,25.262326,82.995408,NH3,1,2,2
India,Uttar_Pradesh,Vrindavan,"Omex Eternity, Vrindavan - UPPCB",04-06-2024 01:00:00,27.5714090,77.6557570,CO,24,50,36
India,Uttarakhand,Dehradun,"Doon University, Dehradun - UKPCB",04-06-2024 01:00:00,30.269444,78.044167,PM2.5,56,148,91
India,Uttarakhand,Dehradun,"Doon University, Dehradun - UKPCB",04-06-2024 01:00:00,30.269444,78.044167,CO,18,25,21
India,Uttarakhand,Dehradun,"Doon University, Dehradun - UKPCB",04-06-2024 01:00:00,30.269444,78.044167,OZONE,44,179,138
India,Uttarakhand,Kashipur,"Govt. Girls Inter College, Kashipur - UKPCB",04-06-2024 01:00:00,29.2124114,78.9611753,PM2.5,3,120,62
India,Uttarakhand,Kashipur,"Govt. Girls Inter College, Kashipur - UKPCB",04-06-2024 01:00:00,29.2124114,78.9611753,PM10,72,177,127
India,Uttarakhand,Kashipur,"Govt. Girls Inter College, Kashipur - UKPCB",04-06-2024 01:00:00,29.2124114,78.9611753,NH3,1,4,3
India,Uttarakhand,Rishikesh,"Shivaji Nagar, Rishikesh - UKPCB",04-06-2024 01:00:00,30.075911,78.2859547,NO2,NA,NA,NA
India,West_Bengal,Asansol,"Asansol Court Area, Asansol - WBPCB",04-06-2024 01:00:00,23.685297,86.945968,PM10,57,130,97
India,West_Bengal,Barrackpore,"SVSPA Campus, Barrackpore - WBPCB",04-06-2024 01:00:00,22.7605581,88.3617589,PM10,32,88,55
India,West_Bengal,Barrackpore,"SVSPA Campus, Barrackpore - WBPCB",04-06-2024 01:00:00,22.7605581,88.3617589,CO,17,30,26
India,West_Bengal,Barrackpore,"SVSPA Campus, Barrackpore - WBPCB",04-06-2024 01:00:00,22.7605581,88.3617589,OZONE,11,64,37
India,West_Bengal,Durgapur,"PCBL Residential Complex, Durgapur - WBPCB",04-06-2024 01:00:00,23.5087640,87.3544400,PM10,58,177,102
India,West_Bengal,Durgapur,"PCBL Residential Complex, Durgapur - WBPCB",04-06-2024 01:00:00,23.5087640,87.3544400,NO2,12,49,24
India,West_Bengal,Durgapur,"PCBL Residential Complex, Durgapur - WBPCB",04-06-2024 01:00:00,23.5087640,87.3544400,OZONE,20,88,45
India,West_Bengal,Durgapur,"Sidhu Kanhu Indoor Stadium, Durgapur - WBPCB",04-06-2024 01:00:00,23.5404352,87.2892225,NH3,4,5,5
India,West_Bengal,Durgapur,"Sidhu Kanhu Indoor Stadium, Durgapur - WBPCB",04-06-2024 01:00:00,23.5404352,87.2892225,CO,18,82,29
India,West_Bengal,Haldia,"Priyambada Housing Estate, Haldia - WBPCB",04-06-2024 01:00:00,22.06047,88.109737,PM2.5,11,32,17
India,West_Bengal,Haldia,"Priyambada Housing Estate, Haldia - WBPCB",04-06-2024 01:00:00,22.06047,88.109737,CO,28,32,29
India,West_Bengal,Howrah,"Belur Math, Howrah - WBPCB",04-06-2024 01:00:00,22.629801,88.352017,NO2,5,17,11
India,West_Bengal,Howrah,"Belur Math, Howrah - WBPCB",04-06-2024 01:00:00,22.629801,88.352017,SO2,3,8,6
India,West_Bengal,Howrah,"Ghusuri, Howrah - WBPCB",04-06-2024 01:00:00,22.611968,88.347422,CO,14,17,15
India,West_Bengal,Howrah,"Padmapukur, Howrah - WBPCB",04-06-2024 01:00:00,22.5687319,88.2797276,PM2.5,27,78,50
India,West_Bengal,Howrah,"Padmapukur, Howrah - WBPCB",04-06-2024 01:00:00,22.5687319,88.2797276,CO,2,101,25
India,West_Bengal,Kolkata,"Ballygunge, Kolkata - WBPCB",04-06-2024 01:00:00,22.5367507,88.3638022,PM2.5,19,44,31
India,West_Bengal,Kolkata,"Bidhannagar, Kolkata - WBPCB",04-06-2024 01:00:00,22.58157048,88.41002457,PM10,34,82,52
India,West_Bengal,Kolkata,"Fort William, Kolkata - WBPCB",04-06-2024 01:00:00,22.556640,88.342674,NO2,10,27,19
India,West_Bengal,Kolkata,"Fort William, Kolkata - WBPCB",04-06-2024 01:00:00,22.556640,88.342674,NH3,1,1,1
India,West_Bengal,Kolkata,"Jadavpur, Kolkata - WBPCB",04-06-2024 01:00:00,22.49929,88.36917,PM2.5,39,65,50
India,West_Bengal,Kolkata,"Jadavpur, Kolkata - WBPCB",04-06-2024 01:00:00,22.49929,88.36917,OZONE,18,77,43
India,West_Bengal,Kolkata,"Rabindra Bharati University, Kolkata - WBPCB",04-06-2024 01:00:00,22.627847,88.380669,NH3,12,17,15
India,West_Bengal,Kolkata,"Rabindra Sarobar, Kolkata - WBPCB",04-06-2024 01:00:00,22.51106,88.35142,PM2.5,17,34,25
India,West_Bengal,Kolkata,"Victoria, Kolkata - WBPCB",04-06-2024 01:00:00,22.5448082,88.3403691,PM10,32,61,48
India,Andhra_Pradesh,Anantapur,"Gulzarpet, Anantapur - APPCB",04-06-2024 01:00:00,14.675886,77.593027,PM2.5,21,48,31
India,Andhra_Pradesh,Anantapur,"Gulzarpet, Anantapur - APPCB",04-06-2024 01:00:00,14.675886,77.593027,NO2,12,13,12
India,Andhra_Pradesh,Anantapur,"Gulzarpet, Anantapur - APPCB",04-06-2024 01:00:00,14.675886,77.593027,NH3,4,4,4
India,Andhra_Pradesh,Anantapur,"Gulzarpet, Anantapur - APPCB",04-06-2024 01:00:00,14.675886,77.593027,SO2,1,8,3
India,Andhra_Pradesh,Kadapa,"Yerramukkapalli, Kadapa - APPCB",04-06-2024 01:00:00,14.465052,78.824187,SO2,1,3,2
India,Andhra_Pradesh,Rajamahendravaram,"Anand Kala Kshetram, Rajamahendravaram - APPCB",04-06-2024 01:00:00,16.9872867,81.7363176,NH3,5,24,9
India,Andhra_Pradesh,Tirupati,"Tirumala, Tirupati - APPCB",04-06-2024 01:00:00,13.67,79.35,NH3,1,1,1
India,Andhra_Pradesh,Vijayawada,"HB Colony, Vijayawada - APPCB",04-06-2024 01:00:00,16.536107,80.594233,PM2.5,43,61,53
India,Andhra_Pradesh,Vijayawada,"HB Colony, Vijayawada - APPCB",04-06-2024 01:00:00,16.536107,80.594233,CO,32,36,32
India,Andhra_Pradesh,Vijayawada,"Kanuru, Vijayawada - APPCB",04-06-2024 01:00:00,16.486692,80.699436,CO,36,36,36
India,Andhra_Pradesh,Vijayawada,"Rajiv Gandhi Park, Vijayawada - APPCB",04-06-2024 01:00:00,16.509717,80.612222,SO2,5,7,6
India,Andhra_Pradesh,Vijayawada,"Rajiv Nagar, Vijayawada - APPCB",04-06-2024 01:00:00,16.554731,80.649110,NO2,10,10,10
India,Andhra_Pradesh,Vijayawada,"Rajiv Nagar, Vijayawada - APPCB",04-06-2024 01:00:00,16.554731,80.649110,SO2,14,27,19
India,Andhra_Pradesh,Visakhapatnam,"GVM Corporation, Visakhapatnam - APPCB",04-06-2024 01:00:00,17.72,83.3,PM2.5,NA,NA,NA
India,Andhra_Pradesh,Visakhapatnam,"GVM Corporation, Visakhapatnam - APPCB",04-06-2024 01:00:00,17.72,83.3,NO2,NA,NA,NA
India,Arunachal_Pradesh,Naharlagun,"Naharlagun, Naharlagun - APSPCB",04-06-2024 01:00:00,27.103358,93.679645,NO2,NA,NA,NA
India,Arunachal_Pradesh,Naharlagun,"Naharlagun, Naharlagun - APSPCB",04-06-2024 01:00:00,27.103358,93.679645,CO,NA,NA,NA
India,Assam,Byrnihat,"Central Academy for SFS, Byrnihat - PCBA",04-06-2024 01:00:00,26.071318,91.87488,NH3,14,16,15
India,Assam,Byrnihat,"Central Academy for SFS, Byrnihat - PCBA",04-06-2024 01:00:00,26.071318,91.87488,CO,2,44,13
India,Assam,Guwahati,"IITG, Guwahati - PCBA",04-06-2024 01:00:00,26.2028636,91.70046436,PM2.5,3,33,18
India,Assam,Guwahati,"LGBI Airport, Guwahati - PCBA",04-06-2024 01:00:00,26.10887,91.589544,PM10,NA,NA,NA
India,Assam,Nagaon,"Christianpatty, Nagaon - PCBA",04-06-2024 01:00:00,26.349082,92.68449,PM10,38,158,96
India,Assam,Nagaon,"Christianpatty, Nagaon - PCBA",04-06-2024 01:00:00,26.349082,92.68449,SO2,1,26,11
India,Assam,Nalbari,"Bata Chowk, Nalbari - PCBA",04-06-2024 01:00:00,26.446912,91.439057,PM10,9,52,21
India,Assam,Nalbari,"Bata Chowk, Nalbari - PCBA",04-06-2024 01:00:00,26.446912,91.439057,OZONE,15,85,21
India,Assam,Sivasagar,"Girls College, Sivasagar - PCBA",04-06-2024 01:00:00,26.987634,94.636574,NH3,1,2,2
India,Bihar,Araria,"Kharahiya Basti, Araria - BSPCB",04-06-2024 01:00:00,26.146529,87.454184,PM10,26,117,54
India,Bihar,Araria,"Kharahiya Basti, Araria - BSPCB",04-06-2024 01:00:00,26.146529,87.454184,OZONE,1,11,8
India,Bihar,Arrah,"New DM Office, Arrah - BSPCB",04-06-2024 01:00:00,25.5626095,84.663264,SO2,2,29,9
India,Bihar,Arrah,"New DM Office, Arrah - BSPCB",04-06-2024 01:00:00,25.5626095,84.663264,CO,12,24,18
India,Bihar,Aurangabad,"Gurdeo Nagar, Aurangabad - BSPCB",04-06-2024 01:00:00,24.75746,84.366208,NH3,1,16,11
India,Bihar,Bettiah,"Kamalnath Nagar, Bettiah - BSPCB",04-06-2024 01:00:00,26.80365,84.51954,OZONE,2,18,8
India,Bihar,Bhagalpur,"DM Office_Kachari Chowk, Bhagalpur - BSPCB",04-06-2024 01:00:00,25.251013,86.989001,PM10,63,140,109
India,Bihar,Bhagalpur,"DM Office_Kachari Chowk, Bhagalpur - BSPCB",04-06-2024 01:00:00,25.251013,86.989001,NH3,2,8,5
India,Bihar,Bhagalpur,"Mayaganj, Bhagalpur - BSPCB",04-06-2024 01:00:00,25.265194,87.012947,PM2.5,60,257,143
India,Bihar,Bhagalpur,"Mayaganj, Bhagalpur - BSPCB",04-06-2024 01:00:00,25.265194,87.012947,NO2,2,11,6
India,Bihar,Bihar Sharif,"D M Colony, Bihar Sharif - BSPCB",04-06-2024 01:00:00,25.204762,85.514960,SO2,11,18,15
India,Bihar,Bihar Sharif,"D M Colony, Bihar Sharif - BSPCB",04-06-2024 01:00:00,25.204762,85.514960,OZONE,6,46,31
India,Bihar,Chhapra,"Darshan Nagar, Chhapra - BSPCB",04-06-2024 01:00:00,25.7808257,84.7446768,PM10,31,396,88
India,Bihar,Chhapra,"Darshan Nagar, Chhapra - BSPCB",04-06-2024 01:00:00,25.7808257,84.7446768,NH3,5,8,7
India,Bihar,Chhapra,"Darshan Nagar, Chhapra - BSPCB",04-06-2024 01:00:00,25.7808257,84.7446768,SO2,13,22,18
India,Bihar,Gaya,"Collectorate, Gaya - BSPCB",04-06-2024 01:00:00,24.7955,84.9994,NO2,3,5,4
India,Bihar,Gaya,"Collectorate, Gaya - BSPCB",04-06-2024 01:00:00,24.7955,84.9994,SO2,5,22,11
India,Bihar,Gaya,"Kareemganj, Gaya - BSPCB",04-06-2024 01:00:00,24.792403,84.992416,PM10,23,99,64
India,Bihar,Gaya,"SFTI Kusdihra, Gaya - BSPCB",04-06-2024 01:00:00,24.762518,84.982348,PM2.5,31,202,107
India,Bihar,Gaya,"SFTI Kusdihra, Gaya - BSPCB",04-06-2024 01:00:00,24.762518,84.982348,SO2,6,10,8
India,Bihar,Hajipur,"Industrial Area, Hajipur - BSPCB",04-06-2024 01:00:00,25.697189,85.245900,PM2.5,70,287,143
India,Bihar,Hajipur,"Industrial Area, Hajipur - BSPCB",04-06-2024 01:00:00,25.697189,85.245900,NO2,11,36,23
India,Bihar,Katihar,"Mirchaibari, Katihar - BSPCB",04-06-2024 01:00:00,25.560083,87.553265,PM2.5,32,67,48
India,Bihar,Katihar,"Mirchaibari, Katihar - BSPCB",04-06-2024 01:00:00,25.560083,87.553265,PM10,NA,NA,NA
India,Bihar,Kishanganj,"SDM Office_Khagra, Kishanganj - BSPCB",04-06-2024 01:00:00,26.0881305,87.93840336,PM2.5,NA,NA,NA
India,Bihar,Manguraha,"Forest Rest House, Manguraha - BSPCB",04-06-2024 01:00:00,27.308328,84.531742,PM10,20,75,43
India,Bihar,Motihari,"Gandak Colony, Motihari - BSPCB",04-06-2024 01:00:00,26.63086,84.90051,OZONE,15,74,50
India,Bihar,Munger,"Town Hall, Munger - BSPCB",04-06-2024 01:00:00,25.376776,86.471523,NO2,5,6,5
India,Bihar,Munger,"Town Hall, Munger - BSPCB",04-06-2024 01:00:00,25.376776,86.471523,OZONE,26,35,29
India,Bihar,Muzaffarpur,"Buddha Colony, Muzaffarpur - BSPCB",04-06-2024 01:00:00,26.11442,85.39813,PM10,60,138,97
India,Bihar,Muzaffarpur,"Buddha Colony, Muzaffarpur - BSPCB",04-06-2024 01:00:00,26.11442,85.39813,SO2,2,10,4
India,Bihar,Muzaffarpur,"MIT-Daudpur Kothi, Muzaffarpur - BSPCB",04-06-2024 01:00:00,26.1403345,85.3650192,SO2,5,9,7
India,Bihar,Muzaffarpur,"Muzaffarpur Collectorate, Muzaffarpur - BSPCB",04-06-2024 01:00:00,26.1209,85.3647,PM2.5,35,364,133
India,Bihar,Muzaffarpur,"Muzaffarpur Collectorate, Muzaffarpur - BSPCB",04-06-2024 01:00:00,26.1209,85.3647,SO2,6,17,9
India,Bihar,Patna,"DRM Office Danapur, Patna - BSPCB",04-06-2024 01:00:00,25.586562,85.043586,PM10,66,173,111
India,Bihar,Patna,"DRM Office Danapur, Patna - BSPCB",04-06-2024 01:00:00,25.586562,85.043586,SO2,1,5,2
India,Bihar,Patna,"DRM Office Danapur, Patna - BSPCB",04-06-2024 01:00:00,25.586562,85.043586,OZONE,15,60,29
India,Bihar,Patna,"Govt. High School Shikarpur, Patna - BSPCB",04-06-2024 01:00:00,25.592539,85.227158,PM2.5,28,200,88
India,Bihar,Patna,"Govt. High School Shikarpur, Patna - BSPCB",04-06-2024 01:00:00,25.592539,85.227158,SO2,7,12,9
India,Bihar,Patna,"IGSC Planetarium Complex, Patna - BSPCB",04-06-2024 01:00:00,25.610369,85.132568,OZONE,37,123,61
India,Bihar,Patna,"Muradpur, Patna - BSPCB",04-06-2024 01:00:00,25.619651,85.147382,PM2.5,80,444,271
India,Bihar,Patna,"Muradpur, Patna - BSPCB",04-06-2024 01:00:00,25.619651,85.147382,CO,38,109,80
India,Bihar,Patna,"Rajbansi Nagar, Patna - BSPCB",04-06-2024 01:00:00,25.599486,85.113666,CO,26,56,40
India,Bihar,Patna,"Rajbansi Nagar, Patna - BSPCB",04-06-2024 01:00:00,25.599486,85.113666,OZONE,10,77,56
India,Bihar,Patna,"Samanpura, Patna - BSPCB",04-06-2024 01:00:00,25.596727,85.085624,CO,40,70,58
India,Bihar,Patna,"Samanpura, Patna - BSPCB",04-06-2024 01:00:00,25.596727,85.085624,OZONE,33,156,95
India,Bihar,Rajgir,"Dangi Tola, Rajgir - BSPCB",04-06-2024 01:00:00,25.03280,85.41948,NH3,1,2,2
India,Bihar,Saharsa,"Police Line, Saharsa - BSPCB",04-06-2024 01:00:00,25.892357,86.590325,PM2.5,NA,NA,NA
India,Bihar,Saharsa,"Police Line, Saharsa - BSPCB",04-06-2024 01:00:00,25.892357,86.590325,SO2,16,16,16
India,Bihar,Samastipur,"DM Office_Kasipur, Samastipur - BSPCB",04-06-2024 01:00:00,25.859655,85.77944,PM2.5,NA,NA,NA
India,Bihar,Samastipur,"DM Office_Kasipur, Samastipur - BSPCB",04-06-2024 01:00:00,25.859655,85.77944,PM10,NA,NA,NA
India,Bihar,Sasaram,"Dada Peer, Sasaram - BSPCB",04-06-2024 01:00:00,24.952822,84.002396,PM10,22,86,42
India,Bihar,Sasaram,"Dada Peer, Sasaram - BSPCB",04-06-2024 01:00:00,24.952822,84.002396,NH3,8,23,12
India,Bihar,Siwan,"Chitragupta Nagar, Siwan - BSPCB",04-06-2024 01:00:00,26.2271665,84.3570427,CO,86,150,130
India,Chandigarh,Chandigarh,"Sector 22, Chandigarh - CPCC",04-06-2024 01:00:00,30.735567,76.775714,PM2.5,42,267,122
India,Chandigarh,Chandigarh,"Sector 22, Chandigarh - CPCC",04-06-2024 01:00:00,30.735567,76.775714,NH3,7,28,12
India,Chandigarh,Chandigarh,"Sector 22, Chandigarh - CPCC",04-06-2024 01:00:00,30.735567,76.775714,CO,31,50,36
India,Chandigarh,Chandigarh,"Sector-25, Chandigarh - CPCC",04-06-2024 01:00:00,30.751462,76.762879,NH3,8,18,12
India,Chandigarh,Chandigarh,"Sector-25, Chandigarh - CPCC",04-06-2024 01:00:00,30.751462,76.762879,SO2,6,39,16
India,Chandigarh,Chandigarh,"Sector-25, Chandigarh - CPCC",04-06-2024 01:00:00,30.751462,76.762879,OZONE,5,128,34
India,Chhattisgarh,Bhilai,"Civic Center, Bhilai - Bhilai Steel Plant",04-06-2024 01:00:00,21.185571,81.343175,SO2,9,12,10
India,Chhattisgarh,Bhilai,"Hathkhoj, Bhilai - CECB",04-06-2024 01:00:00,21.224231,81.408350,NO2,5,28,12
India,Chhattisgarh,Bhilai,"Hathkhoj, Bhilai - CECB",04-06-2024 01:00:00,21.224231,81.408350,NH3,9,9,9
India,Chhattisgarh,Bhilai,"Hathkhoj, Bhilai - CECB",04-06-2024 01:00:00,21.224231,81.408350,SO2,11,17,13
India,Chhattisgarh,Bilaspur,"Mangala, Bilaspur - NTPC",04-06-2024 01:00:00,22.08815,82.13737,PM2.5,25,48,35
India,Chhattisgarh,Bilaspur,"Mangala, Bilaspur - NTPC",04-06-2024 01:00:00,22.08815,82.13737,NO2,12,16,14
India,Chhattisgarh,Chhal,"Nawapara SECL Colony, Chhal - CECB",04-06-2024 01:00:00,22.118125,83.140608,NO2,NA,NA,NA
India,Chhattisgarh,Chhal,"Nawapara SECL Colony, Chhal - CECB",04-06-2024 01:00:00,22.118125,83.140608,SO2,NA,NA,NA
India,Chhattisgarh,Korba,"Urja Nagar, Korba - CECB",04-06-2024 01:00:00,22.348441,82.549611,PM10,15,462,155
India,Chhattisgarh,Korba,"Urja Nagar, Korba - CECB",04-06-2024 01:00:00,22.348441,82.549611,SO2,7,13,10
India,Chhattisgarh,Korba,"Urja Nagar, Korba - CECB",04-06-2024 01:00:00,22.348441,82.549611,CO,13,56,30
India,Chhattisgarh,Raipur,"Bhatagaon New ISBT, Raipur - CECB",04-06-2024 01:00:00,21.219665,81.630094,NO2,1,4,2
India,Chhattisgarh,Raipur,"Bhatagaon New ISBT, Raipur - CECB",04-06-2024 01:00:00,21.219665,81.630094,SO2,1,4,2
India,Chhattisgarh,Raipur,"Siltara Phase-II, Raipur - CECB",04-06-2024 01:00:00,21.371751,81.664929,PM10,24,167,79
India,Chhattisgarh,Tumidih,"OP Jindal Industrial Park, Tumidih - CECB",04-06-2024 01:00:00,22.06631475,83.33820077,PM10,NA,NA,NA
India,Chhattisgarh,Tumidih,"OP Jindal Industrial Park, Tumidih - CECB",04-06-2024 01:00:00,22.06631475,83.33820077,NO2,NA,NA,NA
India,Chhattisgarh,Tumidih,"OP Jindal Industrial Park, Tumidih - CECB",04-06-2024 01:00:00,22.06631475,83.33820077,OZONE,15,94,46
India,Delhi,Delhi,"Alipur, Delhi - DPCC",04-06-2024 01:00:00,28.815329,77.153010,PM2.5,28,127,66
India,Delhi,Delhi,"Alipur, Delhi - DPCC",04-06-2024 01:00:00,28.815329,77.153010,PM10,108,474,172
India,Delhi,Delhi,"Alipur, Delhi - DPCC",04-06-2024 01:00:00,28.815329,77.153010,CO,39,82,61
India,Delhi,Delhi,"Ashok Vihar, Delhi - DPCC",04-06-2024 01:00:00,28.695381,77.181665,NO2,11,144,44
India,Delhi,Delhi,"Aya Nagar, Delhi - IMD",04-06-2024 01:00:00,28.4706914,77.1099364,NO2,10,22,15
India,Delhi,Delhi,"Bawana, Delhi - DPCC",04-06-2024 01:00:00,28.776200,77.051074,CO,28,74,48
India,Delhi,Delhi,"Burari Crossing, Delhi - IMD",04-06-2024 01:00:00,28.7256504,77.2011573,PM2.5,47,307,134
India,Delhi,Delhi,"Burari Crossing, Delhi - IMD",04-06-2024 01:00:00,28.7256504,77.2011573,PM10,114,445,194
India,Delhi,Delhi,"CRRI Mathura Road, Delhi - IMD",04-06-2024 01:00:00,28.5512005,77.2735737,PM10,80,404,165
India,Delhi,Delhi,"Dr. Karni Singh Shooting Range, Delhi - DPCC",04-06-2024 01:00:00,28.498571,77.264840,PM2.5,53,178,93
India,Delhi,Delhi,"Dr. Karni Singh Shooting Range, Delhi - DPCC",04-06-2024 01:00:00,28.498571,77.264840,NH3,6,7,6
India,Delhi,Delhi,"Dwarka-Sector 8, Delhi - DPCC ",04-06-2024 01:00:00,28.5710274,77.0719006,SO2,10,53,19
India,Delhi,Delhi,"IGI Airport (T3), Delhi - IMD",04-06-2024 01:00:00,28.5627763,77.1180053,NO2,14,61,31
India,Delhi,Delhi,"IHBAS, Dilshad Garden, Delhi - CPCB",04-06-2024 01:00:00,28.6811736,77.3025234,NH3,2,10,6
India,Delhi,Delhi,"ITO, Delhi - CPCB",04-06-2024 01:00:00,28.628624,77.241060,CO,24,117,70
India,Delhi,Delhi,"ITO, Delhi - CPCB",04-06-2024 01:00:00,28.628624,77.241060,OZONE,2,60,22
India,Delhi,Delhi,"Jahangirpuri, Delhi - DPCC",04-06-2024 01:00:00,28.732820,77.170633,PM2.5,NA,NA,NA
India,Delhi,Delhi,"Jawaharlal Nehru Stadium, Delhi - DPCC",04-06-2024 01:00:00,28.580280,77.233829,SO2,11,46,20
India,Delhi,Delhi,"Lodhi Road, Delhi - IITM",04-06-2024 01:00:00,28.588333,77.221667,PM10,NA,NA,NA
India,Delhi,Delhi,"Lodhi Road, Delhi - IITM",04-06-2024 01:00:00,28.588333,77.221667,NO2,2,108,27
India,Delhi,Delhi,"Major Dhyan Chand National Stadium, Delhi - DPCC",04-06-2024 01:00:00,28.611281,77.237738,PM10,70,388,137
India,Delhi,Delhi,"Mandir Marg, Delhi - DPCC",04-06-2024 01:00:00,28.636429,77.201067,PM2.5,12,280,83
India,Delhi,Delhi,"Mandir Marg, Delhi - DPCC",04-06-2024 01:00:00,28.636429,77.201067,PM10,17,196,124
India,Delhi,Delhi,"Mandir Marg, Delhi - DPCC",04-06-2024 01:00:00,28.636429,77.201067,NH3,3,5,4
India,Delhi,Delhi,"NSIT Dwarka, Delhi - CPCB",04-06-2024 01:00:00,28.60909,77.0325413,NO2,47,84,59
India,Delhi,Delhi,"NSIT Dwarka, Delhi - CPCB",04-06-2024 01:00:00,28.60909,77.0325413,CO,35,60,50
India,Delhi,Delhi,"Narela, Delhi - DPCC",04-06-2024 01:00:00,28.822836,77.101981,PM10,111,500,182
India,Delhi,Delhi,"Narela, Delhi - DPCC",04-06-2024 01:00:00,28.822836,77.101981,OZONE,10,126,65
India,Delhi,Delhi,"Nehru Nagar, Delhi - DPCC",04-06-2024 01:00:00,28.567890,77.250515,CO,32,121,82
India,Delhi,Delhi,"Nehru Nagar, Delhi - DPCC",04-06-2024 01:00:00,28.567890,77.250515,OZONE,1,267,84
India,Delhi,Delhi,"North Campus, DU, Delhi - IMD",04-06-2024 01:00:00,28.6573814,77.1585447,NO2,9,51,18
India,Delhi,Delhi,"Okhla Phase-2, Delhi - DPCC",04-06-2024 01:00:00,28.530785,77.271255,NH3,9,16,13
India,Delhi,Delhi,"Pusa, Delhi - DPCC",04-06-2024 01:00:00,28.639652,77.146275,CO,20,111,57
India,Delhi,Delhi,"Pusa, Delhi - DPCC",04-06-2024 01:00:00,28.639652,77.146275,OZONE,6,88,35
India,Delhi,Delhi,"Pusa, Delhi - IMD",04-06-2024 01:00:00,28.636110,77.173332,NO2,12,47,21
India,Delhi,Delhi,"Pusa, Delhi - IMD",04-06-2024 01:00:00,28.636110,77.173332,CO,66,107,86
India,Delhi,Delhi,"R K Puram, Delhi - DPCC",04-06-2024 01:00:00,28.563262,77.186937,PM10,89,400,165
India,Delhi,Delhi,"Rohini, Delhi - DPCC",04-06-2024 01:00:00,28.732528,77.119920,NH3,2,4,4
India,Delhi,Delhi,"Shadipur, Delhi - CPCB",04-06-2024 01:00:00,28.6514781,77.1473105,SO2,3,90,30
India,Delhi,Delhi,"Sirifort, Delhi - CPCB",04-06-2024 01:00:00,28.5504249,77.2159377,OZONE,6,60,20
India,Delhi,Delhi,"Sonia Vihar, Delhi - DPCC",04-06-2024 01:00:00,28.710508,77.249485,PM10,94,433,160
India,Delhi,Delhi,"Sri Aurobindo Marg, Delhi - DPCC",04-06-2024 01:00:00,28.531346,77.190156,NH3,7,18,9
India,Delhi,Delhi,"Sri Aurobindo Marg, Delhi - DPCC",04-06-2024 01:00:00,28.531346,77.190156,SO2,9,22,15
India,Delhi,Delhi,"Vivek Vihar, Delhi - DPCC",04-06-2024 01:00:00,28.672342,77.315260,PM2.5,42,206,82
India,Delhi,Delhi,"Vivek Vihar, Delhi - DPCC",04-06-2024 01:00:00,28.672342,77.315260,NO2,8,129,37
India,Delhi,Delhi,"Vivek Vihar, Delhi - DPCC",04-06-2024 01:00:00,28.672342,77.315260,NH3,16,17,17
India,Delhi,Delhi,"Wazirpur, Delhi - DPCC",04-06-2024 01:00:00,28.699793,77.165453,PM10,97,454,182
India,Delhi,Delhi,"Wazirpur, Delhi - DPCC",04-06-2024 01:00:00,28.699793,77.165453,NO2,26,85,44
India,Delhi,Delhi,"Wazirpur, Delhi - DPCC",04-06-2024 01:00:00,28.699793,77.165453,OZONE,1,45,20
India,Gujarat,Ahmedabad,"Maninagar, Ahmedabad - GPCB",04-06-2024 01:00:00,23.002657,72.591912,NO2,32,51,40
India,Gujarat,Ahmedabad,"Raikhad, Ahmedabad - IITM",04-06-2024 01:00:00,23.020509,72.579261,SO2,19,24,21
India,Gujarat,Ahmedabad,"Raikhad, Ahmedabad - IITM",04-06-2024 01:00:00,23.020509,72.579261,CO,36,50,45
India,Gujarat,Ahmedabad,"SVPI Airport Hansol, Ahmedabad - IITM",04-06-2024 01:00:00,23.076793,72.627874,PM10,85,122,108
India,Gujarat,Ahmedabad,"SVPI Airport Hansol, Ahmedabad - IITM",04-06-2024 01:00:00,23.076793,72.627874,SO2,3,8,5
India,Gujarat,Ankleshwar,"GIDC, Ankleshwar - GPCB",04-06-2024 01:00:00,21.613267,73.010555,PM2.5,29,101,48
India,Gujarat,Gandhinagar,"Sector-10, Gandhinagar - GPCB",04-06-2024 01:00:00,23.221714,72.654328,PM10,44,105,81
India,Gujarat,Surat,"Science Center, Surat - SMC",04-06-2024 01:00:00,21.170046,72.795405,PM2.5,NA,NA,NA
India,Gujarat,Vapi,"Phase-1 GIDC, Vapi - GPCB",04-06-2024 01:00:00,20.362421,72.918013,PM2.5,NA,NA,NA
India,Gujarat,Vatva,"Phase-4 GIDC, Vatva - GPCB",04-06-2024 01:00:00,22.969611,72.643500,NH3,14,22,18
India,Gujarat,Vatva,"Phase-4 GIDC, Vatva - GPCB",04-06-2024 01:00:00,22.969611,72.643500,SO2,24,43,34
India,Gujarat,Vatva,"Phase-4 GIDC, Vatva - GPCB",04-06-2024 01:00:00,22.969611,72.643500,CO,34,36,35
India,Haryana,Ambala,"Patti Mehar, Ambala - HSPCB",04-06-2024 01:00:00,30.379589,76.778328,NH3,5,12,8
India,Haryana,Bahadurgarh,"Arya Nagar, Bahadurgarh - HSPCB",04-06-2024 01:00:00,28.6701,76.9254,NH3,8,10,9
India,Haryana,Bahadurgarh,"Arya Nagar, Bahadurgarh - HSPCB",04-06-2024 01:00:00,28.6701,76.9254,CO,87,102,100
India,Haryana,Ballabgarh,"Nathu Colony, Ballabgarh - HSPCB",04-06-2024 01:00:00,28.3419248,77.319699,PM10,105,412,174
India,Haryana,Charkhi Dadri,"Mini Secretariat, Charkhi Dadri - HSPCB",04-06-2024 01:00:00,28.593883,76.270653,CO,26,103,47
India,Haryana,Charkhi Dadri,"Mini Secretariat, Charkhi Dadri - HSPCB",04-06-2024 01:00:00,28.593883,76.270653,OZONE,13,18,15
India,Haryana,Dharuhera,"Municipal Corporation Office, Dharuhera -  HSPCB",04-06-2024 01:00:00,28.206800,76.799700,PM10,13,131,88
India,Haryana,Dharuhera,"Municipal Corporation Office, Dharuhera -  HSPCB",04-06-2024 01:00:00,28.206800,76.799700,SO2,NA,NA,NA
India,Haryana,Faridabad,"New Industrial Town, Faridabad - HSPCB",04-06-2024 01:00:00,28.39072,77.30059,NH3,NA,NA,NA
India,Haryana,Faridabad,"Sector 11, Faridabad - HSPCB",04-06-2024 01:00:00,28.376058,77.315741,NO2,30,34,31
India,Haryana,Faridabad,"Sector 11, Faridabad - HSPCB",04-06-2024 01:00:00,28.376058,77.315741,OZONE,6,26,13
India,Haryana,Faridabad,"Sector 30, Faridabad - HSPCB",04-06-2024 01:00:00,28.4417,77.3217,NH3,4,4,4
India,Haryana,Fatehabad,"Huda Sector, Fatehabad - HSPCB",04-06-2024 01:00:00,29.503664,75.467934,PM10,59,202,114
India,Haryana,Fatehabad,"Huda Sector, Fatehabad - HSPCB",04-06-2024 01:00:00,29.503664,75.467934,SO2,1,18,7
India,Haryana,Gurugram,"NISE Gwal Pahari, Gurugram - IMD",04-06-2024 01:00:00,28.422681,77.148944,PM2.5,37,212,90
India,Haryana,Gurugram,"Sector-51, Gurugram - HSPCB",04-06-2024 01:00:00,28.4227,77.0667,NO2,13,29,23
India,Haryana,Gurugram,"Teri Gram, Gurugram - HSPCB",04-06-2024 01:00:00,28.4275,77.1465,SO2,4,12,6
India,Haryana,Hisar,"Urban Estate-II, Hisar - HSPCB",04-06-2024 01:00:00,29.140560,75.744941,PM10,54,139,100
India,Haryana,Jind,"Police Lines, Jind - HSPCB",04-06-2024 01:00:00,29.307814,76.337619,SO2,3,90,14
India,Haryana,Karnal,"Sector-12, Karnal - HSPCB",04-06-2024 01:00:00,29.695300,77.002700,PM10,111,173,140
India,Haryana,Mandikhera,"General Hospital, Mandikhera - HSPCB",04-06-2024 01:00:00,27.9002,76.9938,PM2.5,18,51,31
India,Haryana,Mandikhera,"General Hospital, Mandikhera - HSPCB",04-06-2024 01:00:00,27.9002,76.9938,SO2,30,37,34
India,Haryana,Mandikhera,"General Hospital, Mandikhera - HSPCB",04-06-2024 01:00:00,27.9002,76.9938,OZONE,22,31,27
India,Haryana,Narnaul,"Shastri Nagar, Narnaul - HSPCB",04-06-2024 01:00:00,28.060249,76.113115,NH3,5,28,16
India,Haryana,Palwal,"Shyam Nagar, Palwal - HSPCB",04-06-2024 01:00:00,28.1485564,77.3320667,NO2,23,24,24
India,Haryana,Panchkula,"Sector-6, Panchkula - HSPCB ",04-06-2024 01:00:00,30.7057778,76.8531805555555,PM2.5,300,327,312
India,Haryana,Panchkula,"Sector-6, Panchkula - HSPCB ",04-06-2024 01:00:00,30.7057778,76.8531805555555,CO,14,34,19
India,Haryana,Panchkula,"Sector-6, Panchkula - HSPCB ",04-06-2024 01:00:00,30.7057778,76.8531805555555,OZONE,37,53,40
India,Haryana,Panipat,"Sector-18, Panipat - HSPCB",04-06-2024 01:00:00,29.432304,76.972765,NO2,31,32,31
India,Haryana,Panipat,"Sector-18, Panipat - HSPCB",04-06-2024 01:00:00,29.432304,76.972765,NH3,2,3,2
India,Haryana,Panipat,"Sector-18, Panipat - HSPCB",04-06-2024 01:00:00,29.432304,76.972765,OZONE,30,31,30
India,Haryana,Sirsa,"F-Block, Sirsa - HSPCB",04-06-2024 01:00:00,29.536400,75.015800,OZONE,25,63,42
India,Haryana,Sonipat,"Murthal, Sonipat - HSPCB",04-06-2024 01:00:00,29.027200,77.062100,NO2,37,44,40
India,Haryana,Sonipat,"Murthal, Sonipat - HSPCB",04-06-2024 01:00:00,29.027200,77.062100,SO2,12,29,20
India,Haryana,Sonipat,"Murthal, Sonipat - HSPCB",04-06-2024 01:00:00,29.027200,77.062100,CO,24,28,25
India,Haryana,Yamuna Nagar,"Gobind Pura, Yamuna Nagar - HSPCB",04-06-2024 01:00:00,30.1480566,77.2893471,CO,4,104,47
India,Himachal Pradesh,Baddi,"HIMUDA Complex Phase-1, Baddi - HPPCB",04-06-2024 01:00:00,30.943887,76.801991,PM2.5,30,332,159
India,Jammu_and_Kashmir,Srinagar,"Rajbagh, Srinagar - JKSPCB",04-06-2024 01:00:00,34.066206,74.819820,PM2.5,NA,NA,NA
India,Jharkhand,Dhanbad,"Kalakusuma, Dhanbad - DMC",04-06-2024 01:00:00,23.811548,86.481238,OZONE,37,37,37
India,Jharkhand,Dhanbad,"Sardar Patel Nagar, Dhanbad - JSPCB",04-06-2024 01:00:00,23.80569,86.44268,CO,NA,NA,NA
India,Jharkhand,Pathardih,"Mohalbani Ghat, Pathardih - DMC",04-06-2024 01:00:00,23.669880,86.411725,PM10,NA,NA,NA
India,Karnataka,Bagalkot,"Vidayagiri, Bagalkot - KSPCB",04-06-2024 01:00:00,16.172806,75.659694,NO2,NA,NA,NA
India,Karnataka,Bengaluru,"Bapuji Nagar, Bengaluru - KSPCB",04-06-2024 01:00:00,12.951913,77.539784,SO2,4,7,6
India,Karnataka,Bengaluru,"Bapuji Nagar, Bengaluru - KSPCB",04-06-2024 01:00:00,12.951913,77.539784,OZONE,22,30,27
India,Karnataka,Bengaluru,"Hombegowda Nagar, Bengaluru - KSPCB",04-06-2024 01:00:00,12.938539,77.590100,OZONE,15,52,34
India,Karnataka,Bengaluru,"Jigani, Bengaluru - KSPCB",04-06-2024 01:00:00,12.7816279,77.6299145,PM2.5,NA,NA,NA
India,Karnataka,Bengaluru,"Jigani, Bengaluru - KSPCB",04-06-2024 01:00:00,12.7816279,77.6299145,PM10,NA,NA,NA
India,Karnataka,Bengaluru,"Jigani, Bengaluru - KSPCB",04-06-2024 01:00:00,12.7816279,77.6299145,NH3,4,5,5
India,Karnataka,Bengaluru,"Kasturi Nagar, Bengaluru - KSPCB",04-06-2024 01:00:00,13.003872,77.664217,NO2,16,17,16
India,Karnataka,Bengaluru,"Kasturi Nagar, Bengaluru - KSPCB",04-06-2024 01:00:00,13.003872,77.664217,NH3,3,4,4
India,Karnataka,Bengaluru,"Peenya, Bengaluru - CPCB",04-06-2024 01:00:00,13.0270199,77.494094,PM2.5,34,43,38
India,Karnataka,Bengaluru,"Peenya, Bengaluru - CPCB",04-06-2024 01:00:00,13.0270199,77.494094,CO,77,88,81
India,Karnataka,Bengaluru,"Sanegurava Halli, Bengaluru - KSPCB",04-06-2024 01:00:00,12.990328,77.5431385,NO2,21,33,24
India,Karnataka,Bengaluru,"Sanegurava Halli, Bengaluru - KSPCB",04-06-2024 01:00:00,12.990328,77.5431385,SO2,2,3,3
India,Karnataka,Bengaluru,"Sanegurava Halli, Bengaluru - KSPCB",04-06-2024 01:00:00,12.990328,77.5431385,CO,8,156,15
India,Karnataka,Bengaluru,"Shivapura_Peenya, Bengaluru - KSPCB",04-06-2024 01:00:00,13.0246342,77.5080115,NO2,15,16,15
India,Karnataka,Bengaluru,"Shivapura_Peenya, Bengaluru - KSPCB",04-06-2024 01:00:00,13.0246342,77.5080115,CO,18,32,23
India,Karnataka,Bengaluru,"Silk Board, Bengaluru - KSPCB",04-06-2024 01:00:00,12.917348,77.622813,PM10,NA,NA,NA
India,Karnataka,Bengaluru,"Silk Board, Bengaluru - KSPCB",04-06-2024 01:00:00,12.917348,77.622813,NO2,NA,NA,NA
India,Karnataka,Bengaluru,"Silk Board, Bengaluru - KSPCB",04-06-2024 01:00:00,12.917348,77.622813,NH3,NA,NA,NA
India,Karnataka,Bidar,"Naubad, Bidar - KSPCB",04-06-2024 01:00:00,17.930306,77.482194,NH3,NA,NA,NA
India,Karnataka,Bidar,"Naubad, Bidar - KSPCB",04-06-2024 01:00:00,17.930306,77.482194,OZONE,12,33,24
India,Karnataka,Chamarajanagar,"Urban, Chamarajanagar - KSPCB",04-06-2024 01:00:00,11.55358,76.55521,OZONE,14,36,35
India,Karnataka,Chikkaballapur,"Chikkaballapur Rural, Chikkaballapur - KSPCB",04-06-2024 01:00:00,13.428828,77.731418,PM2.5,10,47,26
India,Karnataka,Chikkaballapur,"Chikkaballapur Rural, Chikkaballapur - KSPCB",04-06-2024 01:00:00,13.428828,77.731418,CO,13,26,21
India,Karnataka,Chikkamagaluru,"Kalyana Nagara, Chikkamagaluru - KSPCB",04-06-2024 01:00:00,13.328028,75.797056,PM2.5,9,47,26
India,Karnataka,Chikkamagaluru,"Kalyana Nagara, Chikkamagaluru - KSPCB",04-06-2024 01:00:00,13.328028,75.797056,OZONE,11,32,16
India,Karnataka,Davanagere,"Devaraj Urs Badavane, Davanagere - KSPCB",04-06-2024 01:00:00,14.475800,75.905200,SO2,1,113,10
India,Karnataka,Dharwad,"Kalabhavan, Dharwad - KSPCB",04-06-2024 01:00:00,15.459706,75.008381,PM10,45,109,72
India,Karnataka,Dharwad,"Kalabhavan, Dharwad - KSPCB",04-06-2024 01:00:00,15.459706,75.008381,NO2,2,16,8
India,Karnataka,Gadag,"Panchal Nagar, Gadag - KSPCB",04-06-2024 01:00:00,15.411456,75.638133,PM10,NA,NA,NA
India,Karnataka,Gadag,"Panchal Nagar, Gadag - KSPCB",04-06-2024 01:00:00,15.411456,75.638133,SO2,11,22,15
India,Karnataka,Hassan,"B.Katihalli, Hassan - KSPCB",04-06-2024 01:00:00,13.008556,76.125258,NH3,NA,NA,NA
India,Karnataka,Hubballi,"Lingaraj Nagar, Hubballi - KSPCB",04-06-2024 01:00:00,15.3714823,75.1160168,NH3,2,4,3
India,Karnataka,Kalaburagi,"Mahatma Basaveswar Colony, Kalaburgi - KSPCB",04-06-2024 01:00:00,17.336318,76.847397,PM10,15,49,28
India,Karnataka,Kolar,"Tamaka Ind. Area, Kolar - KSPCB",04-06-2024 01:00:00,13.1276288,78.1570122,CO,9,20,13
India,Karnataka,Madikeri,"Stuart Hill, Madikeri - KSPCB",04-06-2024 01:00:00,12.415911,75.735050,PM10,18,42,33
India,Karnataka,Madikeri,"Stuart Hill, Madikeri - KSPCB",04-06-2024 01:00:00,12.415911,75.735050,NH3,NA,NA,NA
India,Karnataka,Mangalore,"Kadri, Mangalore - KSPCB",04-06-2024 01:00:00,12.889250,74.853000,NO2,5,6,6
India,Karnataka,Mangalore,"Kadri, Mangalore - KSPCB",04-06-2024 01:00:00,12.889250,74.853000,NH3,2,2,2
India,Karnataka,Raichur,"Haji Colony, Raichur - KSPCB",04-06-2024 01:00:00,16.208139,77.348417,NH3,NA,NA,NA
India,Karnataka,Raichur,"Haji Colony, Raichur - KSPCB",04-06-2024 01:00:00,16.208139,77.348417,SO2,NA,NA,NA
India,Karnataka,Ramanagara,"Vijay Nagar, Ramanagara - KSPCB",04-06-2024 01:00:00,12.733409,77.298051,PM2.5,5,35,19
India,Karnataka,Shivamogga,"Vinoba Nagara, Shivamogga - KSPCB",04-06-2024 01:00:00,13.940000,75.555917,CO,6,42,17
India,Karnataka,Tumakuru,"Thimmalapura, Tumakuru - KSPCB",04-06-2024 01:00:00,13.377516,77.099072,PM2.5,17,41,27
India,Karnataka,Udupi,"Brahmagiri, Udupi - KSPCB",04-06-2024 01:00:00,13.34194444,74.74694444,PM10,6,67,33
India,Karnataka,Udupi,"Brahmagiri, Udupi - KSPCB",04-06-2024 01:00:00,13.34194444,74.74694444,SO2,16,18,17
India,Karnataka,Udupi,"Brahmagiri, Udupi - KSPCB",04-06-2024 01:00:00,13.34194444,74.74694444,OZONE,23,23,23
India,Karnataka,Vijayapura,"Ibrahimpur, Vijayapura - KSPCB",04-06-2024 01:00:00,16.802639,75.722694,PM2.5,NA,NA,NA
India,Karnataka,Yadgir,"Collector Office, Yadgir - KSPCB",04-06-2024 01:00:00,16.7602,77.1428,PM2.5,3,25,11
India,Kerala,Kannur,"Thavakkara, Kannur - Kerala PCB",04-06-2024 01:00:00,11.875000,75.373200,SO2,NA,NA,NA
India,Kerala,Kollam,"Polayathode, Kollam - Kerala PCB",04-06-2024 01:00:00,8.8787,76.6073,PM10,48,91,68
India,Kerala,Thiruvananthapuram,"Kariavattom, Thiruvananthapuram - Kerala PCB",04-06-2024 01:00:00,8.563700,76.886500,OZONE,36,36,36
India,Kerala,Thiruvananthapuram,"Plammoodu, Thiruvananthapuram - Kerala PCB",04-06-2024 01:00:00,8.5149093,76.9435879,PM2.5,5,33,18
India,Kerala,Thiruvananthapuram,"Plammoodu, Thiruvananthapuram - Kerala PCB",04-06-2024 01:00:00,8.5149093,76.9435879,NH3,1,1,1
India,Kerala,Thiruvananthapuram,"Plammoodu, Thiruvananthapuram - Kerala PCB",04-06-2024 01:00:00,8.5149093,76.9435879,SO2,7,15,10
India,Kerala,Thiruvananthapuram,"Plammoodu, Thiruvananthapuram - Kerala PCB",04-06-2024 01:00:00,8.5149093,76.9435879,CO,14,30,24
India,Kerala,Thiruvananthapuram,"Plammoodu, Thiruvananthapuram - Kerala PCB",04-06-2024 01:00:00,8.5149093,76.9435879,OZONE,5,60,13
India,Kerala,Thrissur,"Corporation Ground, Thrissur - Kerala PCB",04-06-2024 01:00:00,10.532400,76.215900,CO,14,124,38
India,Madhya Pradesh,Bhopal,"T T Nagar, Bhopal - MPPCB",04-06-2024 01:00:00,23.233584,77.400574,SO2,10,17,14
India,Madhya Pradesh,Bhopal,"T T Nagar, Bhopal - MPPCB",04-06-2024 01:00:00,23.233584,77.400574,OZONE,44,71,60
India,Madhya Pradesh,Dewas,"Bhopal Chauraha, Dewas - MPPCB",04-06-2024 01:00:00,22.9682591,76.064118,PM2.5,25,62,35
India,Madhya Pradesh,Dewas,"Bhopal Chauraha, Dewas - MPPCB",04-06-2024 01:00:00,22.9682591,76.064118,CO,26,40,34
