country,state,city,station,last_update,latitude,longitude,pollutant_id,pollutant_min,pollutant_max,pollutant_avg
India,Andhra_Pradesh,Amaravati,"Secretariat, Amaravati - APPCB",04-07-2024 19:00:00,16.5150833,80.5181667,NH3,NA,NA,NA
India,Andhra_Pradesh,Amaravati,"Secretariat, Amaravati - APPCB",04-07-2024 19:00:00,16.5150833,80.5181667,SO2,NA,NA,NA
India,Andhra_Pradesh,Anantapur,"Gulzarpet, Anantapur - APPCB",04-07-2024 19:00:00,14.675886,77.593027,NH3,4,4,4
India,Andhra_Pradesh,Anantapur,"Gulzarpet, Anantapur - APPCB",04-07-2024 19:00:00,14.675886,77.593027,OZONE,2,19,12
India,Andhra_Pradesh,Chittoor,"Gangineni Cheruvu, Chittoor - APPCB",04-07-2024 19:00:00,13.204880,79.097889,PM10,26,93,52
India,Andhra_Pradesh,Kadapa,"Yerramukkapalli, Kadapa - APPCB",04-07-2024 19:00:00,14.465052,78.824187,NO2,NA,NA,NA
India,Andhra_Pradesh,Kadapa,"Yerramukkapalli, Kadapa - APPCB",04-07-2024 19:00:00,14.465052,78.824187,NH3,NA,NA,NA
India,Andhra_Pradesh,Kadapa,"Yerramukkapalli, Kadapa - APPCB",04-07-2024 19:00:00,14.465052,78.824187,CO,34,40,37
India,Andhra_Pradesh,Tirupati,"Tirumala, Tirupati - APPCB",04-07-2024 19:00:00,13.67,79.35,NO2,NA,NA,NA
India,Andhra_Pradesh,Tirupati,"Tirumala, Tirupati - APPCB",04-07-2024 19:00:00,13.67,79.35,SO2,NA,NA,NA
India,Andhra_Pradesh,Vijayawada,"Kanuru, Vijayawada - APPCB",04-07-2024 19:00:00,16.486692,80.699436,PM10,50,72,58
India,Andhra_Pradesh,Vijayawada,"Rajiv Gandhi Park, Vijayawada - APPCB",04-07-2024 19:00:00,16.509717,80.612222,CO,39,42,40
India,Andhra_Pradesh,Visakhapatnam,"GVM Corporation, Visakhapatnam - APPCB",04-07-2024 19:00:00,17.72,83.3,SO2,5,14,10
India,Assam,Byrnihat,"Central Academy for SFS, Byrnihat - PCBA",04-07-2024 19:00:00,26.071318,91.87488,OZONE,19,134,25
India,Assam,Guwahati,"IITG, Guwahati - PCBA",04-07-2024 19:00:00,26.2028636,91.70046436,PM10,13,148,51
India,Assam,Guwahati,"LGBI Airport, Guwahati - PCBA",04-07-2024 19:00:00,26.10887,91.589544,NO2,3,50,15
India,Assam,Guwahati,"LGBI Airport, Guwahati - PCBA",04-07-2024 19:00:00,26.10887,91.589544,CO,26,52,38
India,Assam,Guwahati,"Pan Bazaar, Guwahati - PCBA",04-07-2024 19:00:00,26.187500,91.744194,NO2,NA,NA,NA
India,Assam,Nagaon,"Christianpatty, Nagaon - PCBA",04-07-2024 19:00:00,26.349082,92.68449,PM10,15,28,18
India,Assam,Nalbari,"Bata Chowk, Nalbari - PCBA",04-07-2024 19:00:00,26.446912,91.439057,NH3,1,2,1
India,Assam,Nalbari,"Bata Chowk, Nalbari - PCBA",04-07-2024 19:00:00,26.446912,91.439057,SO2,3,7,6
India,Assam,Silchar,"Tarapur, Silchar - PCBA",04-07-2024 19:00:00,24.82827,92.79525,PM10,45,59,50
India,Assam,Sivasagar,"Girls College, Sivasagar - PCBA",04-07-2024 19:00:00,26.987634,94.636574,NH3,1,1,1
India,Assam,Sivasagar,"Girls College, Sivasagar - PCBA",04-07-2024 19:00:00,26.987634,94.636574,CO,4,10,6
India,Bihar,Arrah,"New DM Office, Arrah - BSPCB",04-07-2024 19:00:00,25.5626095,84.663264,CO,10,28,19
India,Bihar,Arrah,"New DM Office, Arrah - BSPCB",04-07-2024 19:00:00,25.5626095,84.663264,OZONE,8,35,11
India,Bihar,Aurangabad,"Gurdeo Nagar, Aurangabad - BSPCB",04-07-2024 19:00:00,24.75746,84.366208,SO2,18,26,22
India,Bihar,Bhagalpur,"DM Office_Kachari Chowk, Bhagalpur - BSPCB",04-07-2024 19:00:00,25.251013,86.989001,PM2.5,30,500,177
India,Bihar,Bhagalpur,"Mayaganj, Bhagalpur - BSPCB",04-07-2024 19:00:00,25.265194,87.012947,OZONE,5,10,8
India,Bihar,Buxar,"Charitra Van, Buxar - BSPCB (Formerly known as Central Jail)",04-07-2024 19:00:00,25.567520,83.966379,PM2.5,NA,NA,NA
India,Bihar,Chhapra,"Darshan Nagar, Chhapra - BSPCB",04-07-2024 19:00:00,25.7808257,84.7446768,SO2,18,76,47
India,Bihar,Chhapra,"Darshan Nagar, Chhapra - BSPCB",04-07-2024 19:00:00,25.7808257,84.7446768,OZONE,1,18,2
India,Bihar,Gaya,"Kareemganj, Gaya - BSPCB",04-07-2024 19:00:00,24.792403,84.992416,NH3,1,6,2
India,Bihar,Gaya,"SFTI Kusdihra, Gaya - BSPCB",04-07-2024 19:00:00,24.762518,84.982348,PM2.5,17,53,32
India,Bihar,Gaya,"SFTI Kusdihra, Gaya - BSPCB",04-07-2024 19:00:00,24.762518,84.982348,PM10,32,45,38
India,Bihar,Hajipur,"Industrial Area, Hajipur - BSPCB",04-07-2024 19:00:00,25.697189,85.245900,NO2,6,17,8
India,Bihar,Katihar,"Mirchaibari, Katihar - BSPCB",04-07-2024 19:00:00,25.560083,87.553265,SO2,7,14,12
India,Bihar,Katihar,"Mirchaibari, Katihar - BSPCB",04-07-2024 19:00:00,25.560083,87.553265,CO,18,39,28
India,Bihar,Kishanganj,"SDM Office_Khagra, Kishanganj - BSPCB",04-07-2024 19:00:00,26.0881305,87.93840336,PM10,12,148,27
India,Bihar,Kishanganj,"SDM Office_Khagra, Kishanganj - BSPCB",04-07-2024 19:00:00,26.0881305,87.93840336,CO,7,10,8
India,Bihar,Motihari,"Gandak Colony, Motihari - BSPCB",04-07-2024 19:00:00,26.63086,84.90051,NH3,1,3,2
India,Bihar,Muzaffarpur,"Muzaffarpur Collectorate, Muzaffarpur - BSPCB",04-07-2024 19:00:00,26.1209,85.3647,OZONE,6,25,17
India,Bihar,Patna,"DRM Office Danapur, Patna - BSPCB",04-07-2024 19:00:00,25.586562,85.043586,PM10,35,64,45
India,Bihar,Patna,"DRM Office Danapur, Patna - BSPCB",04-07-2024 19:00:00,25.586562,85.043586,NO2,12,23,17
India,Bihar,Patna,"DRM Office Danapur, Patna - BSPCB",04-07-2024 19:00:00,25.586562,85.043586,SO2,1,5,2
India,Bihar,Patna,"Govt. High School Shikarpur, Patna - BSPCB",04-07-2024 19:00:00,25.592539,85.227158,PM2.5,34,70,46
India,Bihar,Patna,"Muradpur, Patna - BSPCB",04-07-2024 19:00:00,25.619651,85.147382,NO2,NA,NA,NA
India,Bihar,Patna,"Samanpura, Patna - BSPCB",04-07-2024 19:00:00,25.596727,85.085624,PM2.5,32,63,47
India,Bihar,Patna,"Samanpura, Patna - BSPCB",04-07-2024 19:00:00,25.596727,85.085624,PM10,29,76,47
India,Bihar,Purnia,"Mariam Nagar, Purnia - BSPCB",04-07-2024 19:00:00,25.366336,87.117468,NH3,1,1,1
India,Bihar,Purnia,"Mariam Nagar, Purnia - BSPCB",04-07-2024 19:00:00,25.366336,87.117468,OZONE,5,18,8
India,Bihar,Saharsa,"Police Line, Saharsa - BSPCB",04-07-2024 19:00:00,25.892357,86.590325,PM2.5,5,23,13
India,Bihar,Sasaram,"Dada Peer, Sasaram - BSPCB",04-07-2024 19:00:00,24.952822,84.002396,PM10,NA,NA,NA
India,Bihar,Sasaram,"Dada Peer, Sasaram - BSPCB",04-07-2024 19:00:00,24.952822,84.002396,OZONE,2,34,8
India,Bihar,Siwan,"Chitragupta Nagar, Siwan - BSPCB",04-07-2024 19:00:00,26.2271665,84.3570427,NO2,15,50,33
India,Chandigarh,Chandigarh,"Sector 22, Chandigarh - CPCC",04-07-2024 19:00:00,30.735567,76.775714,PM2.5,8,45,21
India,Chandigarh,Chandigarh,"Sector-53, Chandigarh - CPCC",04-07-2024 19:00:00,30.719859,76.738637,NO2,5,41,19
India,Chandigarh,Chandigarh,"Sector-53, Chandigarh - CPCC",04-07-2024 19:00:00,30.719859,76.738637,OZONE,11,48,35
India,Chhattisgarh,Bhilai,"32Bungalows, Bhilai - CECB",04-07-2024 19:00:00,21.194815,81.314770,NO2,7,11,8
India,Chhattisgarh,Bhilai,"32Bungalows, Bhilai - CECB",04-07-2024 19:00:00,21.194815,81.314770,NH3,8,8,8
India,Chhattisgarh,Bhilai,"32Bungalows, Bhilai - CECB",04-07-2024 19:00:00,21.194815,81.314770,OZONE,8,10,9
India,Chhattisgarh,Bilaspur,"Mangala, Bilaspur - NTPC",04-07-2024 19:00:00,22.08815,82.13737,PM2.5,NA,NA,NA
India,Chhattisgarh,Bilaspur,"Mangala, Bilaspur - NTPC",04-07-2024 19:00:00,22.08815,82.13737,SO2,15,19,17
India,Chhattisgarh,Chhal,"Nawapara SECL Colony, Chhal - CECB",04-07-2024 19:00:00,22.118125,83.140608,NO2,NA,NA,NA
India,Chhattisgarh,Chhal,"Nawapara SECL Colony, Chhal - CECB",04-07-2024 19:00:00,22.118125,83.140608,SO2,NA,NA,NA
India,Chhattisgarh,Chhal,"Nawapara SECL Colony, Chhal - CECB",04-07-2024 19:00:00,22.118125,83.140608,OZONE,16,37,27
India,Chhattisgarh,Korba,"Rampur, Korba - CECB",04-07-2024 19:00:00,22.368195,82.746431,SO2,NA,NA,NA
India,Chhattisgarh,Korba,"Urja Nagar, Korba - CECB",04-07-2024 19:00:00,22.348441,82.549611,PM2.5,NA,NA,NA
India,Chhattisgarh,Korba,"Urja Nagar, Korba - CECB",04-07-2024 19:00:00,22.348441,82.549611,PM10,NA,NA,NA
India,Chhattisgarh,Kunjemura,"OP Jindal School, Kunjemura - CECB",04-07-2024 19:00:00,22.126650,83.483212,NO2,12,38,20
India,Chhattisgarh,Raipur,"AIIMS, Raipur - CECB",04-07-2024 19:00:00,21.258815,81.578979,PM10,12,45,27
India,Chhattisgarh,Raipur,"Bhatagaon New ISBT, Raipur - CECB",04-07-2024 19:00:00,21.219665,81.630094,PM2.5,NA,NA,NA
India,Chhattisgarh,Raipur,"Krishak Nagar, Raipur - CECB",04-07-2024 19:00:00,21.237755,81.705301,PM10,6,24,14
India,Chhattisgarh,Raipur,"Krishak Nagar, Raipur - CECB",04-07-2024 19:00:00,21.237755,81.705301,NO2,5,5,5
India,Chhattisgarh,Raipur,"Krishak Nagar, Raipur - CECB",04-07-2024 19:00:00,21.237755,81.705301,NH3,1,1,1
India,Chhattisgarh,Raipur,"Siltara Phase-II, Raipur - CECB",04-07-2024 19:00:00,21.371751,81.664929,SO2,2,17,11
India,Chhattisgarh,Raipur,"Siltara Phase-II, Raipur - CECB",04-07-2024 19:00:00,21.371751,81.664929,OZONE,3,7,4
India,Chhattisgarh,Tumidih,"OP Jindal Industrial Park, Tumidih - CECB",04-07-2024 19:00:00,22.06631475,83.33820077,PM10,NA,NA,NA
India,Chhattisgarh,Tumidih,"OP Jindal Industrial Park, Tumidih - CECB",04-07-2024 19:00:00,22.06631475,83.33820077,SO2,NA,NA,NA
India,Chhattisgarh,Tumidih,"OP Jindal Industrial Park, Tumidih - CECB",04-07-2024 19:00:00,22.06631475,83.33820077,CO,14,20,17
India,Delhi,Delhi,"Alipur, Delhi - DPCC",04-07-2024 19:00:00,28.815329,77.153010,NO2,18,54,26
India,Delhi,Delhi,"Alipur, Delhi - DPCC",04-07-2024 19:00:00,28.815329,77.153010,SO2,10,14,12
India,Delhi,Delhi,"Alipur, Delhi - DPCC",04-07-2024 19:00:00,28.815329,77.153010,OZONE,7,42,31
India,Delhi,Delhi,"Anand Vihar, Delhi - DPCC",04-07-2024 19:00:00,28.647622,77.3158090,PM2.5,NA,NA,NA
India,Delhi,Delhi,"Anand Vihar, Delhi - DPCC",04-07-2024 19:00:00,28.647622,77.3158090,NO2,NA,NA,NA
India,Delhi,Delhi,"Anand Vihar, Delhi - DPCC",04-07-2024 19:00:00,28.647622,77.3158090,NH3,NA,NA,NA
India,Delhi,Delhi,"Anand Vihar, Delhi - DPCC",04-07-2024 19:00:00,28.647622,77.3158090,SO2,NA,NA,NA
India,Delhi,Delhi,"Anand Vihar, Delhi - DPCC",04-07-2024 19:00:00,28.647622,77.3158090,OZONE,71,84,80
India,Delhi,Delhi,"Ashok Vihar, Delhi - DPCC",04-07-2024 19:00:00,28.695381,77.181665,NO2,26,84,43
India,Delhi,Delhi,"Ashok Vihar, Delhi - DPCC",04-07-2024 19:00:00,28.695381,77.181665,NH3,6,10,9
India,Delhi,Delhi,"Ashok Vihar, Delhi - DPCC",04-07-2024 19:00:00,28.695381,77.181665,SO2,5,30,14
India,Delhi,Delhi,"Ashok Vihar, Delhi - DPCC",04-07-2024 19:00:00,28.695381,77.181665,OZONE,12,42,27
India,Delhi,Delhi,"Aya Nagar, Delhi - IMD",04-07-2024 19:00:00,28.4706914,77.1099364,OZONE,14,39,20
India,Delhi,Delhi,"Bawana, Delhi - DPCC",04-07-2024 19:00:00,28.776200,77.051074,SO2,5,20,7
India,Delhi,Delhi,"Bawana, Delhi - DPCC",04-07-2024 19:00:00,28.776200,77.051074,CO,36,62,42
India,Delhi,Delhi,"Bawana, Delhi - DPCC",04-07-2024 19:00:00,28.776200,77.051074,OZONE,7,80,22
India,Delhi,Delhi,"Burari Crossing, Delhi - IMD",04-07-2024 19:00:00,28.7256504,77.2011573,NO2,10,17,16
India,Delhi,Delhi,"Burari Crossing, Delhi - IMD",04-07-2024 19:00:00,28.7256504,77.2011573,CO,55,60,56
India,Delhi,Delhi,"Chandni Chowk, Delhi - IITM",04-07-2024 19:00:00,28.656756,77.227234,NO2,NA,NA,NA
India,Delhi,Delhi,"Dr. Karni Singh Shooting Range, Delhi - DPCC",04-07-2024 19:00:00,28.498571,77.264840,SO2,5,9,7
India,Delhi,Delhi,"Dr. Karni Singh Shooting Range, Delhi - DPCC",04-07-2024 19:00:00,28.498571,77.264840,CO,39,66,42
India,Delhi,Delhi,"IHBAS, Dilshad Garden, Delhi - CPCB",04-07-2024 19:00:00,28.6811736,77.3025234,NO2,29,53,36
India,Delhi,Delhi,"IHBAS, Dilshad Garden, Delhi - CPCB",04-07-2024 19:00:00,28.6811736,77.3025234,CO,12,76,47
India,Delhi,Delhi,"ITO, Delhi - CPCB",04-07-2024 19:00:00,28.628624,77.241060,PM10,19,66,42
India,Delhi,Delhi,"ITO, Delhi - CPCB",04-07-2024 19:00:00,28.628624,77.241060,NH3,2,5,4
India,Delhi,Delhi,"ITO, Delhi - CPCB",04-07-2024 19:00:00,28.628624,77.241060,SO2,12,29,20
India,Delhi,Delhi,"Jahangirpuri, Delhi - DPCC",04-07-2024 19:00:00,28.732820,77.170633,PM2.5,18,110,58
India,Delhi,Delhi,"Jahangirpuri, Delhi - DPCC",04-07-2024 19:00:00,28.732820,77.170633,OZONE,2,27,14
India,Delhi,Delhi,"Major Dhyan Chand National Stadium, Delhi - DPCC",04-07-2024 19:00:00,28.611281,77.237738,CO,30,59,42
India,Delhi,Delhi,"Mundka, Delhi - DPCC",04-07-2024 19:00:00,28.684678,77.076574,NH3,5,64,21
India,Delhi,Delhi,"Mundka, Delhi - DPCC",04-07-2024 19:00:00,28.684678,77.076574,CO,30,65,49
India,Delhi,Delhi,"NSIT Dwarka, Delhi - CPCB",04-07-2024 19:00:00,28.60909,77.0325413,PM2.5,28,102,58
India,Delhi,Delhi,"NSIT Dwarka, Delhi - CPCB",04-07-2024 19:00:00,28.60909,77.0325413,NO2,21,34,28
India,Delhi,Delhi,"NSIT Dwarka, Delhi - CPCB",04-07-2024 19:00:00,28.60909,77.0325413,NH3,21,26,23
India,Delhi,Delhi,"Najafgarh, Delhi - DPCC",04-07-2024 19:00:00,28.570173,76.933762,PM2.5,8,73,31
India,Delhi,Delhi,"Narela, Delhi - DPCC",04-07-2024 19:00:00,28.822836,77.101981,PM10,38,97,62
India,Delhi,Delhi,"Narela, Delhi - DPCC",04-07-2024 19:00:00,28.822836,77.101981,NO2,18,32,25
India,Delhi,Delhi,"North Campus, DU, Delhi - IMD",04-07-2024 19:00:00,28.6573814,77.1585447,CO,33,50,41
India,Delhi,Delhi,"Patparganj, Delhi - DPCC",04-07-2024 19:00:00,28.623763,77.287209,NH3,5,14,9
India,Delhi,Delhi,"Pusa, Delhi - DPCC",04-07-2024 19:00:00,28.639652,77.146275,CO,6,50,24
India,Delhi,Delhi,"R K Puram, Delhi - DPCC",04-07-2024 19:00:00,28.563262,77.186937,PM10,29,94,60
India,Delhi,Delhi,"R K Puram, Delhi - DPCC",04-07-2024 19:00:00,28.563262,77.186937,CO,20,103,31
India,Delhi,Delhi,"Rohini, Delhi - DPCC",04-07-2024 19:00:00,28.732528,77.119920,PM2.5,18,120,53
India,Delhi,Delhi,"Shadipur, Delhi - CPCB",04-07-2024 19:00:00,28.6514781,77.1473105,PM2.5,20,50,34
India,Delhi,Delhi,"Sirifort, Delhi - CPCB",04-07-2024 19:00:00,28.5504249,77.2159377,PM2.5,25,94,47
India,Delhi,Delhi,"Sirifort, Delhi - CPCB",04-07-2024 19:00:00,28.5504249,77.2159377,SO2,42,57,50
India,Delhi,Delhi,"Sirifort, Delhi - CPCB",04-07-2024 19:00:00,28.5504249,77.2159377,CO,30,64,46
India,Delhi,Delhi,"Vivek Vihar, Delhi - DPCC",04-07-2024 19:00:00,28.672342,77.315260,NH3,17,17,17
India,Delhi,Delhi,"Vivek Vihar, Delhi - DPCC",04-07-2024 19:00:00,28.672342,77.315260,OZONE,3,17,11
India,Delhi,Delhi,"Wazirpur, Delhi - DPCC",04-07-2024 19:00:00,28.699793,77.165453,PM2.5,30,110,63
India,Delhi,Delhi,"Wazirpur, Delhi - DPCC",04-07-2024 19:00:00,28.699793,77.165453,NH3,1,45,10
India,Gujarat,Ahmedabad,"Gyaspur, Ahmedabad - IITM",04-07-2024 19:00:00,22.977134,72.553024,PM2.5,16,50,33
India,Gujarat,Ahmedabad,"Gyaspur, Ahmedabad - IITM",04-07-2024 19:00:00,22.977134,72.553024,PM10,19,52,35
India,Gujarat,Ahmedabad,"Raikhad, Ahmedabad - IITM",04-07-2024 19:00:00,23.020509,72.579261,CO,10,40,22
India,Gujarat,Ahmedabad,"SVPI Airport Hansol, Ahmedabad - IITM",04-07-2024 19:00:00,23.076793,72.627874,PM2.5,21,105,53
India,Gujarat,Ahmedabad,"SVPI Airport Hansol, Ahmedabad - IITM",04-07-2024 19:00:00,23.076793,72.627874,SO2,8,29,23
India,Gujarat,Ahmedabad,"Sardar Vallabhbhai Patel Stadium, Ahmedabad - IITM",04-07-2024 19:00:00,23.043070,72.562968,PM2.5,45,146,67
India,Gujarat,Ankleshwar,"GIDC, Ankleshwar - GPCB",04-07-2024 19:00:00,21.613267,73.010555,NO2,14,29,18
India,Gujarat,Ankleshwar,"GIDC, Ankleshwar - GPCB",04-07-2024 19:00:00,21.613267,73.010555,CO,60,71,63
India,Gujarat,Gandhinagar,"GIFT City, Gandhinagar - IITM",04-07-2024 19:00:00,23.163798,72.677768,NO2,28,42,32
India,Gujarat,Gandhinagar,"GIFT City, Gandhinagar - IITM",04-07-2024 19:00:00,23.163798,72.677768,NH3,5,7,6
India,Gujarat,Gandhinagar,"GIFT City, Gandhinagar - IITM",04-07-2024 19:00:00,23.163798,72.677768,OZONE,9,19,17
India,Gujarat,Gandhinagar,"Sector-10, Gandhinagar - GPCB",04-07-2024 19:00:00,23.221714,72.654328,NH3,3,3,3
India,Gujarat,Gandhinagar,"Sector-10, Gandhinagar - GPCB",04-07-2024 19:00:00,23.221714,72.654328,CO,20,20,20
India,Gujarat,Surat,"Science Center, Surat - SMC",04-07-2024 19:00:00,21.170046,72.795405,CO,48,72,55
India,Gujarat,Vapi,"Phase-1 GIDC, Vapi - GPCB",04-07-2024 19:00:00,20.362421,72.918013,PM2.5,11,30,19
India,Gujarat,Vapi,"Phase-1 GIDC, Vapi - GPCB",04-07-2024 19:00:00,20.362421,72.918013,NH3,8,19,10
India,Gujarat,Vapi,"Phase-1 GIDC, Vapi - GPCB",04-07-2024 19:00:00,20.362421,72.918013,SO2,46,49,47
India,Gujarat,Vatva,"Phase-4 GIDC, Vatva - GPCB",04-07-2024 19:00:00,22.969611,72.643500,OZONE,30,48,38
India,Haryana,Ambala,"Patti Mehar, Ambala - HSPCB",04-07-2024 19:00:00,30.379589,76.778328,CO,29,62,46
India,Haryana,Ambala,"Patti Mehar, Ambala - HSPCB",04-07-2024 19:00:00,30.379589,76.778328,OZONE,40,58,48
India,Haryana,Bahadurgarh,"Arya Nagar, Bahadurgarh - HSPCB",04-07-2024 19:00:00,28.6701,76.9254,PM10,20,68,41
India,Haryana,Bahadurgarh,"Arya Nagar, Bahadurgarh - HSPCB",04-07-2024 19:00:00,28.6701,76.9254,NO2,20,25,23
India,Haryana,Bahadurgarh,"Arya Nagar, Bahadurgarh - HSPCB",04-07-2024 19:00:00,28.6701,76.9254,CO,46,101,50
India,Haryana,Bahadurgarh,"Arya Nagar, Bahadurgarh - HSPCB",04-07-2024 19:00:00,28.6701,76.9254,OZONE,34,43,38
India,Haryana,Ballabgarh,"Nathu Colony, Ballabgarh - HSPCB",04-07-2024 19:00:00,28.3419248,77.319699,SO2,1,112,16
India,Haryana,Charkhi Dadri,"Mini Secretariat, Charkhi Dadri - HSPCB",04-07-2024 19:00:00,28.593883,76.270653,NH3,6,8,7
India,Haryana,Dharuhera,"Municipal Corporation Office, Dharuhera -  HSPCB",04-07-2024 19:00:00,28.206800,76.799700,PM10,NA,NA,NA
India,Haryana,Dharuhera,"Municipal Corporation Office, Dharuhera -  HSPCB",04-07-2024 19:00:00,28.206800,76.799700,SO2,NA,NA,NA
India,Haryana,Faridabad,"New Industrial Town, Faridabad - HSPCB",04-07-2024 19:00:00,28.39072,77.30059,OZONE,9,23,15
India,Haryana,Faridabad,"Sector 11, Faridabad - HSPCB",04-07-2024 19:00:00,28.376058,77.315741,OZONE,2,12,4
India,Haryana,Faridabad,"Sector 30, Faridabad - HSPCB",04-07-2024 19:00:00,28.4417,77.3217,OZONE,57,62,60
India,Haryana,Fatehabad,"Huda Sector, Fatehabad - HSPCB",04-07-2024 19:00:00,29.503664,75.467934,SO2,2,21,12
India,Haryana,Gurugram,"Sector-51, Gurugram - HSPCB",04-07-2024 19:00:00,28.4227,77.0667,SO2,2,3,3
India,Haryana,Gurugram,"Sector-51, Gurugram - HSPCB",04-07-2024 19:00:00,28.4227,77.0667,CO,30,38,35
India,Haryana,Gurugram,"Teri Gram, Gurugram - HSPCB",04-07-2024 19:00:00,28.4275,77.1465,NH3,22,56,36
India,Haryana,Gurugram,"Teri Gram, Gurugram - HSPCB",04-07-2024 19:00:00,28.4275,77.1465,OZONE,11,83,38
India,Haryana,Hisar,"Urban Estate-II, Hisar - HSPCB",04-07-2024 19:00:00,29.140560,75.744941,PM2.5,40,94,55
India,Haryana,Jind,"Police Lines, Jind - HSPCB",04-07-2024 19:00:00,29.307814,76.337619,PM2.5,21,37,28
India,Haryana,Jind,"Police Lines, Jind - HSPCB",04-07-2024 19:00:00,29.307814,76.337619,NO2,6,15,11
India,Haryana,Jind,"Police Lines, Jind - HSPCB",04-07-2024 19:00:00,29.307814,76.337619,SO2,1,6,2
India,Haryana,Karnal,"Sector-12, Karnal - HSPCB",04-07-2024 19:00:00,29.695300,77.002700,NH3,10,13,11
India,Haryana,Karnal,"Sector-12, Karnal - HSPCB",04-07-2024 19:00:00,29.695300,77.002700,SO2,12,13,12
India,Haryana,Mandikhera,"General Hospital, Mandikhera - HSPCB",04-07-2024 19:00:00,27.9002,76.9938,NO2,19,25,22
India,Haryana,Mandikhera,"General Hospital, Mandikhera - HSPCB",04-07-2024 19:00:00,27.9002,76.9938,NH3,16,19,18
India,Haryana,Manesar,"Sector-2 IMT, Manesar - HSPCB",04-07-2024 19:00:00,28.360699,76.936090,NO2,13,28,19
India,Haryana,Manesar,"Sector-2 IMT, Manesar - HSPCB",04-07-2024 19:00:00,28.360699,76.936090,CO,3,196,29
India,Haryana,Manesar,"Sector-2 IMT, Manesar - HSPCB",04-07-2024 19:00:00,28.360699,76.936090,OZONE,6,82,27
India,Haryana,Palwal,"Shyam Nagar, Palwal - HSPCB",04-07-2024 19:00:00,28.1485564,77.3320667,NH3,8,9,9
India,Haryana,Panchkula,"Sector-6, Panchkula - HSPCB ",04-07-2024 19:00:00,30.7057778,76.8531805555555,OZONE,27,36,33
India,Haryana,Panipat,"Sector-18, Panipat - HSPCB",04-07-2024 19:00:00,29.432304,76.972765,NO2,31,32,31
India,Haryana,Sonipat,"Murthal, Sonipat - HSPCB",04-07-2024 19:00:00,29.027200,77.062100,OZONE,17,36,33
India,Haryana,Yamuna Nagar,"Gobind Pura, Yamuna Nagar - HSPCB",04-07-2024 19:00:00,30.1480566,77.2893471,PM10,22,45,37
India,Himachal Pradesh,Baddi,"HIMUDA Complex Phase-1, Baddi - HPPCB",04-07-2024 19:00:00,30.943887,76.801991,CO,17,26,21
India,Jammu_and_Kashmir,Srinagar,"Rajbagh, Srinagar - JKSPCB",04-07-2024 19:00:00,34.066206,74.819820,PM10,54,78,66
India,Jharkhand,Dhanbad,"Kalakusuma, Dhanbad - DMC",04-07-2024 19:00:00,23.811548,86.481238,SO2,NA,NA,NA
India,Jharkhand,Dhanbad,"Sardar Patel Nagar, Dhanbad - JSPCB",04-07-2024 19:00:00,23.80569,86.44268,PM10,NA,NA,NA
India,Jharkhand,Pathardih,"Mohalbani Ghat, Pathardih - DMC",04-07-2024 19:00:00,23.669880,86.411725,PM2.5,NA,NA,NA
India,Jharkhand,Pathardih,"Mohalbani Ghat, Pathardih - DMC",04-07-2024 19:00:00,23.669880,86.411725,NO2,NA,NA,NA
India,Karnataka,Bagalkot,"Vidayagiri, Bagalkot - KSPCB",04-07-2024 19:00:00,16.172806,75.659694,CO,22,46,33
India,Karnataka,Belgaum,"Ramteerth Nagar, Belgaum - KSPCB",04-07-2024 19:00:00,15.888653,74.541751,PM10,17,51,31
India,Karnataka,Belgaum,"Ramteerth Nagar, Belgaum - KSPCB",04-07-2024 19:00:00,15.888653,74.541751,SO2,9,10,9
India,Karnataka,Bengaluru,"City Railway Station, Bengaluru - KSPCB",04-07-2024 19:00:00,12.9756843,77.5660749,CO,51,81,66
India,Karnataka,Bengaluru,"Hebbal, Bengaluru - KSPCB",04-07-2024 19:00:00,13.029152,77.585901,SO2,18,27,23
India,Karnataka,Bengaluru,"Hombegowda Nagar, Bengaluru - KSPCB",04-07-2024 19:00:00,12.938539,77.590100,CO,11,28,17
India,Karnataka,Bengaluru,"Jigani, Bengaluru - KSPCB",04-07-2024 19:00:00,12.7816279,77.6299145,PM2.5,NA,NA,NA
India,Karnataka,Bengaluru,"Jigani, Bengaluru - KSPCB",04-07-2024 19:00:00,12.7816279,77.6299145,CO,27,42,37
India,Karnataka,Bengaluru,"Kasturi Nagar, Bengaluru - KSPCB",04-07-2024 19:00:00,13.003872,77.664217,NH3,3,4,4
India,Karnataka,Bengaluru,"Kasturi Nagar, Bengaluru - KSPCB",04-07-2024 19:00:00,13.003872,77.664217,CO,24,25,25
India,Karnataka,Bengaluru,"Kasturi Nagar, Bengaluru - KSPCB",04-07-2024 19:00:00,13.003872,77.664217,OZONE,39,39,39
India,Karnataka,Bengaluru,"RVCE-Mailasandra, Bengaluru - KSPCB",04-07-2024 19:00:00,12.921418,77.502466,NO2,17,17,17
India,Karnataka,Bengaluru,"RVCE-Mailasandra, Bengaluru - KSPCB",04-07-2024 19:00:00,12.921418,77.502466,OZONE,39,39,39
India,Karnataka,Bengaluru,"Silk Board, Bengaluru - KSPCB",04-07-2024 19:00:00,12.917348,77.622813,CO,5,47,27
India,Karnataka,Bidar,"Naubad, Bidar - KSPCB",04-07-2024 19:00:00,17.930306,77.482194,PM10,35,128,64
India,Karnataka,Chikkaballapur,"Chikkaballapur Rural, Chikkaballapur - KSPCB",04-07-2024 19:00:00,13.428828,77.731418,OZONE,3,20,17
India,Karnataka,Davanagere,"Devaraj Urs Badavane, Davanagere - KSPCB",04-07-2024 19:00:00,14.475800,75.905200,SO2,2,7,5
India,Karnataka,Gadag,"Panchal Nagar, Gadag - KSPCB",04-07-2024 19:00:00,15.411456,75.638133,PM2.5,2,22,10
India,Karnataka,Gadag,"Panchal Nagar, Gadag - KSPCB",04-07-2024 19:00:00,15.411456,75.638133,CO,44,48,47
India,Karnataka,Hassan,"B.Katihalli, Hassan - KSPCB",04-07-2024 19:00:00,13.008556,76.125258,PM10,NA,NA,NA
India,Karnataka,Hassan,"B.Katihalli, Hassan - KSPCB",04-07-2024 19:00:00,13.008556,76.125258,NH3,NA,NA,NA
India,Karnataka,Hassan,"B.Katihalli, Hassan - KSPCB",04-07-2024 19:00:00,13.008556,76.125258,CO,18,24,20
India,Karnataka,Haveri,"Ashwini Nagar, Haveri - KSPCB",04-07-2024 19:00:00,14.791800,75.389600,PM10,NA,NA,NA
India,Karnataka,Hubballi,"Lingaraj Nagar, Hubballi - KSPCB",04-07-2024 19:00:00,15.3714823,75.1160168,NO2,6,11,10
India,Karnataka,Kalaburagi,"Lal Bahadur Shastri Nagar, Kalaburagi - KSPCB",04-07-2024 19:00:00,17.321993,76.822628,PM10,17,74,36
India,Karnataka,Kalaburagi,"Lal Bahadur Shastri Nagar, Kalaburagi - KSPCB",04-07-2024 19:00:00,17.321993,76.822628,CO,32,33,32
India,Karnataka,Kalaburagi,"Mahatma Basaveswar Colony, Kalaburgi - KSPCB",04-07-2024 19:00:00,17.336318,76.847397,PM2.5,9,44,23
India,Karnataka,Kalaburagi,"Mahatma Basaveswar Colony, Kalaburgi - KSPCB",04-07-2024 19:00:00,17.336318,76.847397,SO2,3,5,4
India,Karnataka,Karwar,"KHB Colony, Karwar - KSPCB",04-07-2024 19:00:00,14.816666,74.141003,OZONE,21,22,22
India,Karnataka,Kolar,"Tamaka Ind. Area, Kolar - KSPCB",04-07-2024 19:00:00,13.1276288,78.1570122,CO,5,6,5
India,Karnataka,Koppal,"Diwator Nagar, Koppal - KSPCB",04-07-2024 19:00:00,15.347630,76.181767,NO2,32,134,53
India,Karnataka,Koppal,"Diwator Nagar, Koppal - KSPCB",04-07-2024 19:00:00,15.347630,76.181767,NH3,4,10,7
India,Karnataka,Mangalore,"Kadri, Mangalore - KSPCB",04-07-2024 19:00:00,12.889250,74.853000,NH3,2,2,2
India,Karnataka,Mangalore,"Kadri, Mangalore - KSPCB",04-07-2024 19:00:00,12.889250,74.853000,CO,12,20,18
India,Karnataka,Ramanagara,"Vijay Nagar, Ramanagara - KSPCB",04-07-2024 19:00:00,12.733409,77.298051,PM2.5,5,18,11
India,Karnataka,Shivamogga,"Vinoba Nagara, Shivamogga - KSPCB",04-07-2024 19:00:00,13.940000,75.555917,PM10,28,75,41
India,Karnataka,Shivamogga,"Vinoba Nagara, Shivamogga - KSPCB",04-07-2024 19:00:00,13.940000,75.555917,NO2,12,31,20
India,Karnataka,Shivamogga,"Vinoba Nagara, Shivamogga - KSPCB",04-07-2024 19:00:00,13.940000,75.555917,SO2,3,10,6
India,Karnataka,Tumakuru,"Thimmalapura, Tumakuru - KSPCB",04-07-2024 19:00:00,13.377516,77.099072,NH3,2,3,2
India,Karnataka,Udupi,"Brahmagiri, Udupi - KSPCB",04-07-2024 19:00:00,13.34194444,74.74694444,NH3,2,3,2
India,Karnataka,Udupi,"Brahmagiri, Udupi - KSPCB",04-07-2024 19:00:00,13.34194444,74.74694444,OZONE,23,24,23
India,Karnataka,Yadgir,"Collector Office, Yadgir - KSPCB",04-07-2024 19:00:00,16.7602,77.1428,SO2,9,27,18
India,Kerala,Kollam,"Polayathode, Kollam - Kerala PCB",04-07-2024 19:00:00,8.8787,76.6073,PM10,NA,NA,NA
India,Kerala,Kollam,"Polayathode, Kollam - Kerala PCB",04-07-2024 19:00:00,8.8787,76.6073,SO2,NA,NA,NA
India,Kerala,Thiruvananthapuram,"Kariavattom, Thiruvananthapuram - Kerala PCB",04-07-2024 19:00:00,8.563700,76.886500,PM10,50,58,55
India,Madhya Pradesh,Bhopal,"Paryavaran Parisar, Bhopal - MPPCB",04-07-2024 19:00:00,23.210494,77.425409,PM2.5,10,38,25
India,Madhya Pradesh,Bhopal,"Paryavaran Parisar, Bhopal - MPPCB",04-07-2024 19:00:00,23.210494,77.425409,NO2,8,19,11
India,Madhya Pradesh,Bhopal,"T T Nagar, Bhopal - MPPCB",04-07-2024 19:00:00,23.233584,77.400574,NO2,10,26,14
India,Madhya Pradesh,Bhopal,"T T Nagar, Bhopal - MPPCB",04-07-2024 19:00:00,23.233584,77.400574,OZONE,1,31,16
India,Madhya Pradesh,Dewas,"Bhopal Chauraha, Dewas - MPPCB",04-07-2024 19:00:00,22.9682591,76.064118,NH3,3,3,3
India,Madhya Pradesh,Dewas,"Bhopal Chauraha, Dewas - MPPCB",04-07-2024 19:00:00,22.9682591,76.064118,CO,13,48,30
India,Madhya Pradesh,Gwalior,"City Center, Gwalior - MPPCB",04-07-2024 19:00:00,26.203442,78.193251,PM2.5,12,38,21
India,Madhya Pradesh,Gwalior,"City Center, Gwalior - MPPCB",04-07-2024 19:00:00,26.203442,78.193251,PM10,16,44,27
India,Madhya Pradesh,Gwalior,"City Center, Gwalior - MPPCB",04-07-2024 19:00:00,26.203442,78.193251,SO2,27,77,39
India,Madhya Pradesh,Gwalior,"City Center, Gwalior - MPPCB",04-07-2024 19:00:00,26.203442,78.193251,OZONE,35,105,48
India,Madhya Pradesh,Gwalior,"Maharaj Bada, Gwalior - MPPCB",04-07-2024 19:00:00,26.200388,78.147714,SO2,2,14,6
India,Madhya Pradesh,Gwalior,"Maharaj Bada, Gwalior - MPPCB",04-07-2024 19:00:00,26.200388,78.147714,OZONE,41,68,57
India,Madhya Pradesh,Gwalior,"Phool Bagh, Gwalior - Mondelez Ind. Food",04-07-2024 19:00:00,26.210536,78.171,PM10,NA,NA,NA
India,Madhya Pradesh,Gwalior,"Phool Bagh, Gwalior - Mondelez Ind. Food",04-07-2024 19:00:00,26.210536,78.171,CO,56,63,60
India,Madhya Pradesh,Indore,"Chhoti Gwaltoli, Indore - MPPCB",04-07-2024 19:00:00,22.4310,75.5213,NO2,33,53,41
India,Madhya Pradesh,Indore,"Chhoti Gwaltoli, Indore - MPPCB",04-07-2024 19:00:00,22.4310,75.5213,SO2,10,12,11
India,Madhya Pradesh,Indore,"Chhoti Gwaltoli, Indore - MPPCB",04-07-2024 19:00:00,22.4310,75.5213,CO,38,129,88
India,Madhya Pradesh,Indore,"Chhoti Gwaltoli, Indore - MPPCB",04-07-2024 19:00:00,22.4310,75.5213,OZONE,21,36,32
India,Madhya Pradesh,Indore,"Maguda Nagar, Indore - IMC",04-07-2024 19:00:00,22.7524,75.8872,NO2,NA,NA,NA
India,Madhya Pradesh,Indore,"Regional Park, Indore - IMC",04-07-2024 19:00:00,22.6780,75.8559,PM10,13,34,24
India,Madhya Pradesh,Jabalpur,"Govindh Bhavan Colony, Jabalpur - JMC",04-07-2024 19:00:00,23.163174,79.973061,PM10,16,50,32
India,Madhya Pradesh,Jabalpur,"Govindh Bhavan Colony, Jabalpur - JMC",04-07-2024 19:00:00,23.163174,79.973061,SO2,1,5,3
India,Madhya Pradesh,Jabalpur,"Marhatal, Jabalpur - MPPCB",04-07-2024 19:00:00,23.168606,79.932247,PM2.5,7,38,20
India,Madhya Pradesh,Jabalpur,"Suhagi, Jabalpur - JMC",04-07-2024 19:00:00,23.218135,79.957770,NH3,14,17,16
India,Madhya Pradesh,Jabalpur,"Suhagi, Jabalpur - JMC",04-07-2024 19:00:00,23.218135,79.957770,CO,40,58,46
India,Madhya Pradesh,Katni,"Gole Bazar, Katni - MPPCB",04-07-2024 19:00:00,23.50016,80.23284,PM10,27,64,47
India,Madhya Pradesh,Maihar,"Sahilara, Maihar - KJS Cements",04-07-2024 19:00:00,24.2613009,80.7231783,PM2.5,NA,NA,NA
India,Madhya Pradesh,Mandideep,"Sector-D Industrial Area, Mandideep - MPPCB",04-07-2024 19:00:00,23.108440,77.511428,PM10,20,76,42
India,Madhya Pradesh,Mandideep,"Sector-D Industrial Area, Mandideep - MPPCB",04-07-2024 19:00:00,23.108440,77.511428,CO,16,36,21
India,Madhya Pradesh,Pithampur,"Sector-2 Industrial Area, Pithampur - MPPCB",04-07-2024 19:00:00,22.624758,75.675238,PM10,44,84,68
India,Madhya Pradesh,Sagar,"Civil Lines, Sagar - MPPCB",04-07-2024 19:00:00,23.838586,78.759431,NH3,6,7,6
India,Madhya Pradesh,Sagar,"Deen Dayal Nagar, Sagar - MPPCB",04-07-2024 19:00:00,23.8640158,78.80289321,NO2,23,25,24
India,Madhya Pradesh,Sagar,"Deen Dayal Nagar, Sagar - MPPCB",04-07-2024 19:00:00,23.8640158,78.80289321,SO2,9,15,12
India,Madhya Pradesh,Singrauli,"Suryakiran Bhawan NCL, Singrauli - MPPCB",04-07-2024 19:00:00,24.108970,82.645580,PM10,NA,NA,NA
India,Madhya Pradesh,Singrauli,"Suryakiran Bhawan NCL, Singrauli - MPPCB",04-07-2024 19:00:00,24.108970,82.645580,SO2,NA,NA,NA
India,Madhya Pradesh,Singrauli,"Suryakiran Bhawan NCL, Singrauli - MPPCB",04-07-2024 19:00:00,24.108970,82.645580,OZONE,28,98,43
India,Madhya Pradesh,Ujjain,"Mahakaleshwar Temple, Ujjain - MPPCB",04-07-2024 19:00:00,23.182719 ,75.768218 ,SO2,NA,NA,NA
India,Maharashtra,Ahmednagar,"Tarakpur, Ahmednagar - MPCB",04-07-2024 19:00:00,19.10122,74.73339,OZONE,8,38,30
India,Maharashtra,Akola,"Ramdaspeth, Akola - MPCB",04-07-2024 19:00:00,20.719516,77.000253,NH3,2,8,6
India,Maharashtra,Akola,"Ramdaspeth, Akola - MPCB",04-07-2024 19:00:00,20.719516,77.000253,SO2,6,13,9
India,Maharashtra,Amravati,"Shivneri Colony, Amravati - MPCB",04-07-2024 19:00:00,20.9402359,77.7895248,PM10,33,97,56
India,Maharashtra,Amravati,"Shivneri Colony, Amravati - MPCB",04-07-2024 19:00:00,20.9402359,77.7895248,NO2,5,21,11
India,Maharashtra,Amravati,"Shivneri Colony, Amravati - MPCB",04-07-2024 19:00:00,20.9402359,77.7895248,SO2,1,4,2
India,Maharashtra,Amravati,"Shri Shivaji Science College, Amaravati - MPCB",04-07-2024 19:00:00,20.939198,77.765701,PM10,35,78,54
India,Maharashtra,Amravati,"Shri Shivaji Science College, Amaravati - MPCB",04-07-2024 19:00:00,20.939198,77.765701,NO2,4,34,10
India,Maharashtra,Amravati,"Shri Shivaji Science College, Amaravati - MPCB",04-07-2024 19:00:00,20.939198,77.765701,SO2,5,6,5
India,Maharashtra,Amravati,"Shri Shivaji Science College, Amaravati - MPCB",04-07-2024 19:00:00,20.939198,77.765701,CO,15,48,24
India,Maharashtra,Badlapur,"Katrap, Badlapur - MPCB",04-07-2024 19:00:00,19.16485,73.23409,NH3,2,4,3
India,Maharashtra,Badlapur,"Katrap, Badlapur - MPCB",04-07-2024 19:00:00,19.16485,73.23409,CO,16,30,22
India,Maharashtra,Bhiwandi,"Gokul Nagar, Bhiwandi - MPCB",04-07-2024 19:00:00,19.309073,73.057223,PM2.5,31,56,41
India,Maharashtra,Bhiwandi,"Gokul Nagar, Bhiwandi - MPCB",04-07-2024 19:00:00,19.309073,73.057223,NH3,2,4,3
India,Maharashtra,Bhiwandi,"Gokul Nagar, Bhiwandi - MPCB",04-07-2024 19:00:00,19.309073,73.057223,CO,8,34,14
India,Maharashtra,Boisar,"Khaira, Boisar - MPCB",04-07-2024 19:00:00,19.786089,72.757971,PM10,51,64,57
India,Maharashtra,Boisar,"Khaira, Boisar - MPCB",04-07-2024 19:00:00,19.786089,72.757971,OZONE,20,302,100
India,Maharashtra,Chandrapur,"Chauhan Colony, Chandrapur - MPCB",04-07-2024 19:00:00,19.962900,79.298714,PM2.5,18,72,37
India,Maharashtra,Jalna,"Old MIDC, Jalna - MPCB",04-07-2024 19:00:00,19.854616,75.905894,NO2,23,28,25
India,Maharashtra,Kalyan,"Khadakpada, Kalyan - MPCB",04-07-2024 19:00:00,19.25292,73.142019,CO,12,18,17
India,Maharashtra,Kolhapur,"Shivaji University, Kolhapur - MPCB",04-07-2024 19:00:00,16.6870449,74.2505872,NH3,2,4,3
India,Maharashtra,Kolhapur,"Sinchan Bhavan, Kolhapur - MPCB",04-07-2024 19:00:00,16.7143745,74.2426398,NH3,7,8,7
India,Maharashtra,Latur,"Sawe Wadi, Latur - MPCB",04-07-2024 19:00:00,18.39963,76.57452,PM10,27,54,40
India,Maharashtra,Mahad,"Kamble Tarf Birwadi, Mahad - MPCB",04-07-2024 19:00:00,18.1023399,73.4783687,PM10,32,49,40
India,Maharashtra,Mahad,"Kamble Tarf Birwadi, Mahad - MPCB",04-07-2024 19:00:00,18.1023399,73.4783687,NH3,4,5,4
India,Maharashtra,Mahad,"Kamble Tarf Birwadi, Mahad - MPCB",04-07-2024 19:00:00,18.1023399,73.4783687,CO,11,23,18
India,Maharashtra,Mira-Bhayandar,"Bhayandar West, Mira-Bhayandar - MPCB",04-07-2024 19:00:00,19.296481,72.840923,OZONE,15,21,19
India,Maharashtra,Mumbai,"Bandra Kurla Complex, Mumbai - MPCB",04-07-2024 19:00:00,19.065931,72.862131,PM10,55,134,87
India,Maharashtra,Mumbai,"Bandra Kurla Complex, Mumbai - MPCB",04-07-2024 19:00:00,19.065931,72.862131,SO2,2,4,3
India,Maharashtra,Mumbai,"Borivali East, Mumbai - IITM",04-07-2024 19:00:00,19.23241,72.86895,NH3,6,7,7
India,Maharashtra,Mumbai,"Borivali East, Mumbai - MPCB",04-07-2024 19:00:00,19.2243333,72.8658113,SO2,9,13,11
India,Maharashtra,Mumbai,"Byculla, Mumbai - BMC",04-07-2024 19:00:00,18.9767,72.8380,PM2.5,9,26,14
India,Maharashtra,Mumbai,"Chakala-Andheri East, Mumbai - IITM",04-07-2024 19:00:00,19.11074,72.86084,CO,2,16,8
India,Maharashtra,Mumbai,"Chhatrapati Shivaji Intl. Airport (T2), Mumbai - MPCB",04-07-2024 19:00:00,19.10078,72.87462,PM2.5,20,43,29
India,Maharashtra,Mumbai,"Chhatrapati Shivaji Intl. Airport (T2), Mumbai - MPCB",04-07-2024 19:00:00,19.10078,72.87462,PM10,39,79,54
India,Maharashtra,Mumbai,"Colaba, Mumbai - MPCB",04-07-2024 19:00:00,18.910000,72.820000,CO,12,13,12
India,Maharashtra,Mumbai,"Deonar, Mumbai - IITM",04-07-2024 19:00:00,19.04946,72.9230,PM10,43,65,54
India,Maharashtra,Mumbai,"Deonar, Mumbai - IITM",04-07-2024 19:00:00,19.04946,72.9230,NH3,3,5,4
India,Maharashtra,Mumbai,"Kandivali West, Mumbai - BMC",04-07-2024 19:00:00,19.215859,72.831718,NO2,21,60,37
India,Maharashtra,Mumbai,"Kherwadi_Bandra East, Mumbai - MPCB",04-07-2024 19:00:00,19.0632143,72.8456324,PM10,40,63,50
India,Maharashtra,Mumbai,"Khindipada-Bhandup West, Mumbai - IITM",04-07-2024 19:00:00,19.1653323,72.922099,SO2,1,4,2
India,Maharashtra,Mumbai,"Kurla, Mumbai - MPCB",04-07-2024 19:00:00,19.0863,72.8888,NO2,10,11,10
India,Maharashtra,Mumbai,"Kurla, Mumbai - MPCB",04-07-2024 19:00:00,19.0863,72.8888,OZONE,28,29,28
India,Maharashtra,Mumbai,"Malad West, Mumbai - IITM",04-07-2024 19:00:00,19.19709,72.82204,NO2,9,20,15
India,Maharashtra,Mumbai,"Malad West, Mumbai - IITM",04-07-2024 19:00:00,19.19709,72.82204,NH3,1,3,1
India,Maharashtra,Mumbai,"Malad West, Mumbai - IITM",04-07-2024 19:00:00,19.19709,72.82204,OZONE,5,13,10
India,Maharashtra,Mumbai,"Mazgaon, Mumbai - IITM",04-07-2024 19:00:00,18.96702,72.84214,CO,2,29,11
India,Maharashtra,Mumbai,"Mindspace-Malad West, Mumbai - MPCB",04-07-2024 19:00:00,19.1878657,72.8304069,PM2.5,15,38,26
India,Maharashtra,Mumbai,"Mindspace-Malad West, Mumbai - MPCB",04-07-2024 19:00:00,19.1878657,72.8304069,PM10,40,56,46
India,Maharashtra,Mumbai,"Mulund West, Mumbai - MPCB",04-07-2024 19:00:00,19.1750,72.9419,NO2,18,19,19
India,Maharashtra,Mumbai,"Mulund West, Mumbai - MPCB",04-07-2024 19:00:00,19.1750,72.9419,NH3,10,10,10
India,Maharashtra,Mumbai,"Mulund West, Mumbai - MPCB",04-07-2024 19:00:00,19.1750,72.9419,SO2,18,18,18
India,Maharashtra,Mumbai,"Navy Nagar-Colaba, Mumbai - IITM",04-07-2024 19:00:00,18.897756,72.813320,SO2,NA,NA,NA
India,Maharashtra,Mumbai,"Powai, Mumbai - MPCB",04-07-2024 19:00:00,19.137500,72.915056,PM2.5,11,27,19
India,Maharashtra,Mumbai,"Powai, Mumbai - MPCB",04-07-2024 19:00:00,19.137500,72.915056,NO2,14,21,17
India,Maharashtra,Mumbai,"Sewri, Mumbai - BMC",04-07-2024 19:00:00,19.000084,72.856730,OZONE,10,50,16
India,Maharashtra,Mumbai,"Shivaji Nagar, Mumbai - BMC",04-07-2024 19:00:00,19.060498,72.923356,NO2,14,157,39
India,Maharashtra,Mumbai,"Shivaji Nagar, Mumbai - BMC",04-07-2024 19:00:00,19.060498,72.923356,NH3,1,4,2
India,Maharashtra,Mumbai,"Sion, Mumbai - MPCB",04-07-2024 19:00:00,19.047000,72.874600,CO,26,34,31
India,Maharashtra,Mumbai,"Vasai West, Mumbai - MPCB",04-07-2024 19:00:00,19.383200,72.820400,NO2,25,28,27
India,Maharashtra,Nagpur,"Ambazari, Nagpur - MPCB",04-07-2024 19:00:00,21.121801,79.04952,PM2.5,44,73,54
India,Maharashtra,Nagpur,"Ambazari, Nagpur - MPCB",04-07-2024 19:00:00,21.121801,79.04952,NO2,1,32,15
India,Maharashtra,Nagpur,"Opp GPO Civil Lines, Nagpur - MPCB",04-07-2024 19:00:00,21.152875,79.0517531,NH3,3,3,3
India,Maharashtra,Nagpur,"Ram Nagar, Nagpur - MPCB",04-07-2024 19:00:00,21.143383,79.048912,NH3,1,4,2
India,Maharashtra,Nanded,"Sneh Nagar, Nanded - MPCB",04-07-2024 19:00:00,19.173852,77.296291,NO2,NA,NA,NA
India,Maharashtra,Nanded,"Sneh Nagar, Nanded - MPCB",04-07-2024 19:00:00,19.173852,77.296291,SO2,NA,NA,NA
India,Maharashtra,Nashik,"Gangapur Road, Nashik - MPCB",04-07-2024 19:00:00,20.0073285,73.7762427,PM2.5,28,65,46
India,Maharashtra,Nashik,"Hirawadi, Nashik - MPCB",04-07-2024 19:00:00,20.021503,73.813844,CO,1,12,4
India,Maharashtra,Navi Mumbai,"Kopripada-Vashi, Navi Mumbai - MPCB",04-07-2024 19:00:00,19.090337,73.014232,PM2.5,6,45,17
India,Maharashtra,Navi Mumbai,"Nerul, Navi Mumbai - MPCB",04-07-2024 19:00:00,19.008751,73.016620,PM2.5,17,30,23
India,Maharashtra,Navi Mumbai,"Nerul, Navi Mumbai - MPCB",04-07-2024 19:00:00,19.008751,73.016620,PM10,39,63,50
India,Maharashtra,Navi Mumbai,"Nerul, Navi Mumbai - MPCB",04-07-2024 19:00:00,19.008751,73.016620,NO2,20,23,22
India,Maharashtra,Navi Mumbai,"Nerul, Navi Mumbai - MPCB",04-07-2024 19:00:00,19.008751,73.016620,NH3,3,4,3
India,Maharashtra,Navi Mumbai,"Nerul, Navi Mumbai - MPCB",04-07-2024 19:00:00,19.008751,73.016620,OZONE,19,22,20
India,Maharashtra,Navi Mumbai,"Sanpada, Navi Mumbai - MPCB",04-07-2024 19:00:00,19.0575752,73.0151367,NH3,4,5,4
India,Maharashtra,Navi Mumbai,"Sector-19A Nerul, Navi Mumbai - IITM",04-07-2024 19:00:00,19.044,73.0325,NH3,13,18,16
India,Maharashtra,Navi Mumbai,"Sector-2E Kalamboli, Navi Mumbai - MPCB",04-07-2024 19:00:00,19.02579,73.10297,NO2,NA,NA,NA
India,Maharashtra,Navi Mumbai,"Tondare-Taloja, Navi Mumbai - MPCB",04-07-2024 19:00:00,19.0630,73.1209,NH3,NA,NA,NA
India,Maharashtra,Navi Mumbai,"Tondare-Taloja, Navi Mumbai - MPCB",04-07-2024 19:00:00,19.0630,73.1209,SO2,1,3,2
India,Maharashtra,Pimpri-Chinchwad,"Gavalinagar, Pimpri Chinchwad - MPCB",04-07-2024 19:00:00,18.63673,73.82487,CO,6,109,22
India,Maharashtra,Pimpri-Chinchwad,"Park Street Wakad, Pimpri Chinchwad - MPCB",04-07-2024 19:00:00,18.59051,73.77946,SO2,1,5,1
India,Maharashtra,Pimpri-Chinchwad,"Park Street Wakad, Pimpri Chinchwad - MPCB",04-07-2024 19:00:00,18.59051,73.77946,OZONE,4,11,9
India,Maharashtra,Pune,"Alandi, Pune - IITM",04-07-2024 19:00:00,18.675076,73.892743,PM2.5,11,31,19
India,Maharashtra,Pune,"Alandi, Pune - IITM",04-07-2024 19:00:00,18.675076,73.892743,OZONE,9,34,27
India,Maharashtra,Pune,"Karve Road, Pune - MPCB",04-07-2024 19:00:00,18.5011743,73.8165527,PM10,NA,NA,NA
India,Maharashtra,Pune,"Katraj Dairy, Pune - MPCB",04-07-2024 19:00:00,18.454450,73.854155,NO2,NA,NA,NA
India,Maharashtra,Pune,"Mhada Colony, Pune - IITM",04-07-2024 19:00:00,18.573040,73.927715,NO2,26,58,40
India,Maharashtra,Pune,"Mhada Colony, Pune - IITM",04-07-2024 19:00:00,18.573040,73.927715,CO,50,95,70
India,Maharashtra,Pune,"Savitribai Phule Pune University, Pune - MPCB",04-07-2024 19:00:00,18.547056,73.826908,CO,8,18,13
India,Maharashtra,Pune,"Savitribai Phule Pune University, Pune - MPCB",04-07-2024 19:00:00,18.547056,73.826908,OZONE,2,26,20
India,Maharashtra,Pune,"Transport Nagar-Nigdi, Pune - IITM",04-07-2024 19:00:00,18.664282,73.763966,NO2,15,20,18
India,Maharashtra,Pune,"Transport Nagar-Nigdi, Pune - IITM",04-07-2024 19:00:00,18.664282,73.763966,CO,5,66,46
India,Maharashtra,Sangli,"Vijay Nagar, Sangli - MPCB",04-07-2024 19:00:00, 16.5038,74.3623,PM2.5,10,23,15
India,Maharashtra,Sangli,"Vijay Nagar, Sangli - MPCB",04-07-2024 19:00:00, 16.5038,74.3623,SO2,1,7,4
India,Maharashtra,Sangli,"Vijay Nagar, Sangli - MPCB",04-07-2024 19:00:00, 16.5038,74.3623,OZONE,7,29,26
India,Maharashtra,Solapur,"Dnyaneshwar Nagar, Solapur - MPCB",04-07-2024 19:00:00,17.6336264,75.9132495,PM10,30,77,55
India,Maharashtra,Solapur,"Ratandeep Housing Society, Solapur - MPCB",04-07-2024 19:00:00,17.65439,75.90649,PM2.5,18,35,27
India,Maharashtra,Solapur,"Ratandeep Housing Society, Solapur - MPCB",04-07-2024 19:00:00,17.65439,75.90649,OZONE,11,29,24
India,Maharashtra,Thane,"Pimpleshwar Mandir, Thane - MPCB",04-07-2024 19:00:00,19.192056,72.9585188,NH3,1,4,1
India,Maharashtra,Thane,"Pimpleshwar Mandir, Thane - MPCB",04-07-2024 19:00:00,19.192056,72.9585188,SO2,1,6,3
India,Maharashtra,Ulhasnagar,"Sidhi Vinayak Nagar, Ulhasnagar - MPCB",04-07-2024 19:00:00,19.235581,73.159121,PM2.5,20,56,33
India,Maharashtra,Ulhasnagar,"Sidhi Vinayak Nagar, Ulhasnagar - MPCB",04-07-2024 19:00:00,19.235581,73.159121,PM10,54,81,66
India,Maharashtra,Ulhasnagar,"Sidhi Vinayak Nagar, Ulhasnagar - MPCB",04-07-2024 19:00:00,19.235581,73.159121,NO2,2,51,25
India,Maharashtra,Ulhasnagar,"Sidhi Vinayak Nagar, Ulhasnagar - MPCB",04-07-2024 19:00:00,19.235581,73.159121,NH3,1,4,2
India,Maharashtra,Ulhasnagar,"Sidhi Vinayak Nagar, Ulhasnagar - MPCB",04-07-2024 19:00:00,19.235581,73.159121,SO2,8,25,12
India,Maharashtra,Ulhasnagar,"Sidhi Vinayak Nagar, Ulhasnagar - MPCB",04-07-2024 19:00:00,19.235581,73.159121,CO,12,33,23
India,Maharashtra,Ulhasnagar,"Sidhi Vinayak Nagar, Ulhasnagar - MPCB",04-07-2024 19:00:00,19.235581,73.159121,OZONE,6,34,26
India,Maharashtra,Virar,"Bolinj, Virar - MPCB",04-07-2024 19:00:00,19.4458210,72.7988231,NO2,4,19,11
India,Maharashtra,Virar,"Bolinj, Virar - MPCB",04-07-2024 19:00:00,19.4458210,72.7988231,CO,6,57,35
India,Maharashtra,Virar,"Bolinj, Virar - MPCB",04-07-2024 19:00:00,19.4458210,72.7988231,OZONE,34,45,40
India,Manipur,Imphal,"Manipur University, Imphal - Manipur PCB",04-07-2024 19:00:00,24.7524239,93.9286218,NO2,NA,NA,NA
India,Manipur,Imphal,"Manipur University, Imphal - Manipur PCB",04-07-2024 19:00:00,24.7524239,93.9286218,SO2,NA,NA,NA
India,Mizoram,Aizawl,"Sikulpuikawn, Aizawl - Mizoram PCB",04-07-2024 19:00:00,23.7176342,92.7192841,SO2,2,3,3
India,Mizoram,Aizawl,"Sikulpuikawn, Aizawl - Mizoram PCB",04-07-2024 19:00:00,23.7176342,92.7192841,CO,6,12,12
India,Nagaland,Kohima,"PWD Juction, Kohima - NPCB",04-07-2024 19:00:00,25.6635413,94.0989878,PM10,3,42,22
India,Nagaland,Kohima,"PWD Juction, Kohima - NPCB",04-07-2024 19:00:00,25.6635413,94.0989878,SO2,38,40,39
India,Nagaland,Kohima,"PWD Juction, Kohima - NPCB",04-07-2024 19:00:00,25.6635413,94.0989878,OZONE,2,10,5
India,Odisha,Barbil,"Forest Office, Barbil - OSPCB",04-07-2024 19:00:00,22.1166054,85.3945546,CO,18,39,26
India,Odisha,Baripada,"Meher Colony, Baripada - OSPCB",04-07-2024 19:00:00,21.941841,86.728318,PM10,29,73,47
India,Odisha,Baripada,"Meher Colony, Baripada - OSPCB",04-07-2024 19:00:00,21.941841,86.728318,NO2,33,42,38
India,Odisha,Baripada,"Meher Colony, Baripada - OSPCB",04-07-2024 19:00:00,21.941841,86.728318,SO2,8,10,9
India,Odisha,Baripada,"Meher Colony, Baripada - OSPCB",04-07-2024 19:00:00,21.941841,86.728318,CO,32,64,51
India,Odisha,Bhubaneswar,"Lingraj Mandir, Bhubaneswar - OSPCB",04-07-2024 19:00:00,20.240790,85.836784,CO,4,157,38
India,Odisha,Bhubaneswar,"Patia, Bhubaneswar - OSPCB",04-07-2024 19:00:00,20.34652,85.81630,PM10,43,98,76
India,Odisha,Bhubaneswar,"Patia, Bhubaneswar - OSPCB",04-07-2024 19:00:00,20.34652,85.81630,NO2,8,33,16
India,Odisha,Bhubaneswar,"Patia, Bhubaneswar - OSPCB",04-07-2024 19:00:00,20.34652,85.81630,OZONE,7,55,40
India,Odisha,Bileipada,"Tata Township, Bileipada - OSPCB",04-07-2024 19:00:00,22.06156703,85.47409613,PM10,NA,NA,NA
India,Odisha,Byasanagar,"Ferro Chrome Colony, Byasanagar - OSPCB",04-07-2024 19:00:00,20.94185,86.11510,PM2.5,17,57,35
India,Odisha,Byasanagar,"Ferro Chrome Colony, Byasanagar - OSPCB",04-07-2024 19:00:00,20.94185,86.11510,PM10,18,95,47
India,Odisha,Cuttack,"CDA Area, Cuttack - OSPCB",04-07-2024 19:00:00,20.48891     ,85.84768     ,NO2,10,46,23
India,Odisha,Cuttack,"CDA Area, Cuttack - OSPCB",04-07-2024 19:00:00,20.48891     ,85.84768     ,NH3,1,2,1
India,Odisha,Cuttack,"CDA Area, Cuttack - OSPCB",04-07-2024 19:00:00,20.48891     ,85.84768     ,SO2,1,3,1
India,Odisha,Nayagarh,"Dabuna, Nayagarh - OSPCB",04-07-2024 19:00:00,21.847279,85.416905,PM10,26,41,33
India,Odisha,Nayagarh,"Dabuna, Nayagarh - OSPCB",04-07-2024 19:00:00,21.847279,85.416905,NO2,5,13,8
India,Odisha,Nayagarh,"Dabuna, Nayagarh - OSPCB",04-07-2024 19:00:00,21.847279,85.416905,SO2,1,3,2
India,Odisha,Rairangpur,"Divisional Forest Office, Rairangpur - OSPCB",04-07-2024 19:00:00,22.265816,86.174829,NH3,3,3,3
India,Odisha,Rairangpur,"Divisional Forest Office, Rairangpur - OSPCB",04-07-2024 19:00:00,22.265816,86.174829,CO,11,24,16
India,Odisha,Rourkela,"Fertilizer Township, Rourkela - OSPCB",04-07-2024 19:00:00,22.18972222,84.86277778,CO,14,26,19
India,Odisha,Rourkela,"Raghunathpali, Rourkela - OSPCB",04-07-2024 19:00:00,22.220833,84.809444,SO2,1,1,1
India,Odisha,Rourkela,"Raghunathpali, Rourkela - OSPCB",04-07-2024 19:00:00,22.220833,84.809444,CO,16,38,24
India,Odisha,Rourkela,"Sector-2, Rourkela - OSPCB",04-07-2024 19:00:00,22.24500000,84.88111111,PM2.5,23,178,73
India,Odisha,Suakati,"OMC Colony, Suakati - OSPCB",04-07-2024 19:00:00,21.606865,85.510538,NO2,9,12,11
India,Odisha,Suakati,"OMC Colony, Suakati - OSPCB",04-07-2024 19:00:00,21.606865,85.510538,NH3,4,5,5
India,Odisha,Suakati,"OMC Colony, Suakati - OSPCB",04-07-2024 19:00:00,21.606865,85.510538,SO2,6,9,7
India,Odisha,Suakati,"OMC Colony, Suakati - OSPCB",04-07-2024 19:00:00,21.606865,85.510538,OZONE,30,45,34
India,Odisha,Talcher,"Talcher Coalfields,Talcher - OSPCB",04-07-2024 19:00:00,20.9360711,85.1707021,CO,22,103,54
India,Odisha,Tensa,"Barsua Iron Ore Mines, Tensa - OSPCB",04-07-2024 19:00:00,21.869985,85.167016,NH3,NA,NA,NA
India,Puducherry,Puducherry,"Jawahar Nagar, Puducherry - PPCC",04-07-2024 19:00:00,11.9309,79.8027,OZONE,17,92,66
India,Punjab,Bathinda,"Hardev Nagar, Bathinda - PPCB",04-07-2024 19:00:00,30.233011,74.907758,PM2.5,1,500,68
India,Punjab,Bathinda,"Hardev Nagar, Bathinda - PPCB",04-07-2024 19:00:00,30.233011,74.907758,NO2,30,36,33
India,Punjab,Jalandhar,"Civil Line, Jalandhar - PPCB",04-07-2024 19:00:00,31.321907,75.578914,PM2.5,27,92,54
India,Punjab,Khanna,"Kalal Majra, Khanna - PPCB",04-07-2024 19:00:00,30.736056 ,76.209694,PM2.5,15,122,32
India,Punjab,Khanna,"Kalal Majra, Khanna - PPCB",04-07-2024 19:00:00,30.736056 ,76.209694,NO2,29,29,29
India,Punjab,Ludhiana,"Punjab Agricultural University, Ludhiana - PPCB",04-07-2024 19:00:00,30.9028,75.8086,NO2,23,26,24
India,Punjab,Ludhiana,"Punjab Agricultural University, Ludhiana - PPCB",04-07-2024 19:00:00,30.9028,75.8086,NH3,5,8,7
India,Punjab,Patiala,"Model Town, Patiala - PPCB",04-07-2024 19:00:00,30.349388,76.366642,NO2,18,26,21
India,Punjab,Patiala,"Model Town, Patiala - PPCB",04-07-2024 19:00:00,30.349388,76.366642,SO2,3,21,11
India,Punjab,Rupnagar,"Ratanpura, Rupnagar - Ambuja Cements",04-07-2024 19:00:00,31.0325454,76.5623046,NO2,9,46,27
India,Rajasthan,Ajmer,"Civil Lines,  Ajmer - RSPCB",04-07-2024 19:00:00,26.470859,74.646594,PM10,23,92,55
India,Rajasthan,Ajmer,"Civil Lines,  Ajmer - RSPCB",04-07-2024 19:00:00,26.470859,74.646594,NH3,6,6,6
India,Rajasthan,Alwar,"Moti Doongri, Alwar - RSPCB",04-07-2024 19:00:00,27.554793,76.611536,CO,18,44,35
India,Rajasthan,Banswara,"Rati Talai, Banswara - RSPCB",04-07-2024 19:00:00,23.555190,74.440010,PM2.5,NA,NA,NA
India,Rajasthan,Baran,"Bamboliya, Baran - RSPCB",04-07-2024 19:00:00,25.106006,76.469948,NO2,7,14,9
India,Rajasthan,Bharatpur,"Krishna Nagar, Bharatpur - RSPCB",04-07-2024 19:00:00,27.215415,77.50873,NO2,2,15,8
India,Rajasthan,Bharatpur,"Krishna Nagar, Bharatpur - RSPCB",04-07-2024 19:00:00,27.215415,77.50873,CO,24,54,34
India,Rajasthan,Bharatpur,"Krishna Nagar, Bharatpur - RSPCB",04-07-2024 19:00:00,27.215415,77.50873,OZONE,12,47,38
India,Rajasthan,Bhilwara,"Pratap Nagar, Bhilwara - RSPCB",04-07-2024 19:00:00,25.339605,74.618883,CO,5,35,21
India,Rajasthan,Bhilwara,"Pratap Nagar, Bhilwara - RSPCB",04-07-2024 19:00:00,25.339605,74.618883,OZONE,12,35,20
India,Rajasthan,Bhiwadi,"RIICO Ind. Area III, Bhiwadi - RSPCB",04-07-2024 19:00:00,28.194909,76.862296,PM2.5,20,155,73
India,Rajasthan,Bhiwadi,"Vasundhara Nagar_UIT, Bhiwadi - RSPCB",04-07-2024 19:00:00,28.207266,76.829265,PM2.5,19,97,48
India,Rajasthan,Bhiwadi,"Vasundhara Nagar_UIT, Bhiwadi - RSPCB",04-07-2024 19:00:00,28.207266,76.829265,NH3,NA,NA,NA
India,Rajasthan,Bhiwadi,"Vasundhara Nagar_UIT, Bhiwadi - RSPCB",04-07-2024 19:00:00,28.207266,76.829265,SO2,1,8,3
India,Rajasthan,Bundi,"New Colony, Bundi - RSPCB",04-07-2024 19:00:00,25.435774,75.644272,PM10,9,89,62
India,Rajasthan,Chittorgarh,"Shastri Nagar, Chittorgarh - RSPCB",04-07-2024 19:00:00,24.892047,74.623527,PM10,46,128,84
India,Rajasthan,Churu,"Subash Chowk, Churu - RSPCB",04-07-2024 19:00:00,28.296139,74.961696,OZONE,13,46,29
India,Rajasthan,Dholpur,"Raja Ganj, Dholpur - RSPCB",04-07-2024 19:00:00,26.699557,77.898881,PM10,NA,NA,NA
India,Rajasthan,Dholpur,"Raja Ganj, Dholpur - RSPCB",04-07-2024 19:00:00,26.699557,77.898881,NH3,4,7,5
India,Rajasthan,Dungarpur,"Bhoiwada, Dungarpur - RSPCB",04-07-2024 19:00:00,23.837789,73.714926,PM10,12,151,93
India,Rajasthan,Jaipur,"Mansarovar Sector-12, Jaipur - RSPCB",04-07-2024 19:00:00,26.843698,75.766894,NO2,NA,NA,NA
India,Rajasthan,Jaipur,"Police Commissionerate, Jaipur - RSPCB",04-07-2024 19:00:00,26.9164092,75.7994901,CO,22,74,54
India,Rajasthan,Jaipur,"RIICO Sitapura, Jaipur - RSPCB",04-07-2024 19:00:00,26.786682,75.827928,CO,32,86,41
India,Rajasthan,Jaipur,"Sector-2 Murlipura, Jaipur - RSPCB",04-07-2024 19:00:00,26.960669,75.771817,OZONE,13,46,31
India,Rajasthan,Jaipur,"Shastri Nagar, Jaipur - RSPCB",04-07-2024 19:00:00,26.9502929,75.730943,OZONE,20,47,29
India,Rajasthan,Jaisalmer,"Sadar Bazar, Jaisalmer - RSPCB",04-07-2024 19:00:00,26.912329,70.909168,SO2,4,5,4
India,Rajasthan,Jalore,"Mudtra Sili, Jalore - RSPCB",04-07-2024 19:00:00,25.344694,72.626208,OZONE,32,62,54
India,Rajasthan,Jhunjhunu,"Indra Nagar, Jhunjhunu - RSPCB",04-07-2024 19:00:00,28.108988,75.386577,NO2,11,37,18
India,Rajasthan,Jodhpur,"Collectorate, Jodhpur - RSPCB",04-07-2024 19:00:00,26.268249,73.0193853,NO2,1,18,8
India,Rajasthan,Jodhpur,"Collectorate, Jodhpur - RSPCB",04-07-2024 19:00:00,26.268249,73.0193853,SO2,1,10,4
India,Rajasthan,Jodhpur,"Collectorate, Jodhpur - RSPCB",04-07-2024 19:00:00,26.268249,73.0193853,OZONE,19,21,20
India,Rajasthan,Jodhpur,"Digari Kalan, Jodhpur - RSPCB",04-07-2024 19:00:00,26.295810,73.082283,OZONE,24,63,47
India,Rajasthan,Jodhpur,"Jhalamand, Jodhpur - RSPCB",04-07-2024 19:00:00,26.215415,73.070156,PM2.5,28,64,45
India,Rajasthan,Jodhpur,"Jhalamand, Jodhpur - RSPCB",04-07-2024 19:00:00,26.215415,73.070156,PM10,66,142,94
India,Rajasthan,Jodhpur,"Mandor, Jodhpur - RSPCB",04-07-2024 19:00:00,26.358805,73.047444,SO2,2,4,3
India,Rajasthan,Jodhpur,"Samrat Ashok Udhyan, Jodhpur - RSPCB",04-07-2024 19:00:00,26.253384,72.976571,SO2,3,6,4
India,Rajasthan,Jodhpur,"Samrat Ashok Udhyan, Jodhpur - RSPCB",04-07-2024 19:00:00,26.253384,72.976571,CO,1,62,7
India,Rajasthan,Karauli,"Satyawati Vihar, Karauli - RSPCB",04-07-2024 19:00:00,26.506177,77.025989,NH3,4,9,5
India,Rajasthan,Kota,"Dhanmandi, Kota - RSPCB",04-07-2024 19:00:00,25.164090,75.858137,PM2.5,12,48,30
India,Rajasthan,Kota,"Nayapura, Kota - RSPCB",04-07-2024 19:00:00,25.196024,75.855668,NH3,3,5,3
India,Rajasthan,Kota,"Shrinath Puram, Kota - RSPCB",04-07-2024 19:00:00,25.14389,75.821256,PM10,42,464,134
India,Rajasthan,Pali,"Indira Colony Vistar, Pali - RSPCB",04-07-2024 19:00:00,25.771061, 73.340227,PM2.5,49,125,82
India,Rajasthan,Pratapgarh,"Pragati Nagar, Pratapgarh - RSPCB",04-07-2024 19:00:00,24.041198,74.780702,NH3,3,4,3
India,Rajasthan,Pratapgarh,"Pragati Nagar, Pratapgarh - RSPCB",04-07-2024 19:00:00,24.041198,74.780702,OZONE,20,56,39
India,Rajasthan,Rajsamand,"Dhoinda, Rajsamand - RSPCB",04-07-2024 19:00:00,25.036360,73.883502,SO2,6,9,7
India,Rajasthan,Rajsamand,"Dhoinda, Rajsamand - RSPCB",04-07-2024 19:00:00,25.036360,73.883502,CO,26,70,48
India,Rajasthan,Sawai Madhopur,"Sahu Nagar, Sawai Madhopur - RSPCB",04-07-2024 19:00:00,26.031443,76.359327,PM2.5,8,36,15
India,Rajasthan,Sikar,"Radhakishan Pura, Sikar - RSPCB",04-07-2024 19:00:00,27.608912,75.153302,CO,2,56,42
India,Rajasthan,Sirohi,"Vedhaynath Colony, Sirohi - RSPCB",04-07-2024 19:00:00,24.885261,72.857549,CO,1,28,6
India,Rajasthan,Sri Ganganagar,"Old City, Sri Ganganagar - RSPCB",04-07-2024 19:00:00,29.931624,73.864511,OZONE,5,39,23
India,Rajasthan,Udaipur,"Ashok Nagar, Udaipur - RSPCB",04-07-2024 19:00:00,24.5886166,73.6321397,PM10,19,123,71
India,TamilNadu,Ariyalur,"Keelapalur, Ariyalur - TNPCB",04-07-2024 19:00:00,11.06825,79.07033,SO2,35,37,36
India,TamilNadu,Chennai,"Arumbakkam, Chennai - TNPCB",04-07-2024 19:00:00,13.0664,80.2112 ,PM10,12,102,41
India,TamilNadu,Chennai,"Manali, Chennai - CPCB",04-07-2024 19:00:00,13.164544,80.26285,CO,89,103,96
India,TamilNadu,Chennai,"Perungudi, Chennai - TNPCB",04-07-2024 19:00:00,12.9533,80.2357,NH3,2,4,3
India,TamilNadu,Chennai,"Perungudi, Chennai - TNPCB",04-07-2024 19:00:00,12.9533,80.2357,CO,30,36,32
India,TamilNadu,Chennai,"Royapuram, Chennai - TNPCB",04-07-2024 19:00:00,13.1036,80.2909,SO2,2,33,7
India,TamilNadu,Coimbatore,"PSG College of Arts and Science, Coimbatore - TNPCB",04-07-2024 19:00:00,11.0328,77.0349,PM2.5,17,40,28
India,TamilNadu,Gummidipoondi,"Anthoni Pillai Nagar, Gummidipoondi - TNPCB",04-07-2024 19:00:00,13.4127,80.1081,NO2,2,24,16
India,TamilNadu,Ooty,"Bombay Castel, Ooty - TNPCB",04-07-2024 19:00:00,11.4068288,76.7138973,OZONE,5,6,5
India,TamilNadu,Ramanathapuram,"Chalai Bazaar, Ramanathapuram - TNPCB",04-07-2024 19:00:00,9.36399,78.831977,NH3,NA,NA,NA
India,TamilNadu,Ramanathapuram,"Chalai Bazaar, Ramanathapuram - TNPCB",04-07-2024 19:00:00,9.36399,78.831977,OZONE,13,14,14
India,TamilNadu,Thoothukudi,"Meelavittan, Thoothukudi - TNPCB",04-07-2024 19:00:00,8.816428 ,78.099039,NO2,17,34,23
India,TamilNadu,Tirupur,"Kumaran College, Tirupur - TNPCB",04-07-2024 19:00:00,11.0973603,77.3228673,OZONE,7,7,7
India,TamilNadu,Vellore,"Vasanthapuram, Vellore - TNPCB",04-07-2024 19:00:00,12.909494,79.131861,NO2,NA,NA,NA
India,TamilNadu,Virudhunagar,"Collectorate Office, Virudhunagar - TNPCB",04-07-2024 19:00:00,9.559382,77.948828,SO2,19,24,21
India,Telangana,Hyderabad,"Bollaram Industrial Area, Hyderabad - TSPCB",04-07-2024 19:00:00,17.540891,78.358528,CO,2,102,51
India,Telangana,Hyderabad,"ECIL Kapra, Hyderabad - TSPCB",04-07-2024 19:00:00,17.470431,78.566959,NO2,NA,NA,NA
India,Telangana,Hyderabad,"ECIL Kapra, Hyderabad - TSPCB",04-07-2024 19:00:00,17.470431,78.566959,NH3,NA,NA,NA
India,Telangana,Hyderabad,"ICRISAT Patancheru, Hyderabad - TSPCB",04-07-2024 19:00:00,17.518400,78.278777,CO,14,26,19
India,Telangana,Hyderabad,"IDA Pashamylaram, Hyderabad - TSPCB",04-07-2024 19:00:00,17.5316895,78.218939,PM2.5,16,79,29
India,Telangana,Hyderabad,"IDA Pashamylaram, Hyderabad - TSPCB",04-07-2024 19:00:00,17.5316895,78.218939,NH3,2,5,3
India,Telangana,Hyderabad,"IDA Pashamylaram, Hyderabad - TSPCB",04-07-2024 19:00:00,17.5316895,78.218939,CO,22,49,36
India,Telangana,Hyderabad,"IITH Kandi, Hyderabad - TSPCB",04-07-2024 19:00:00,17.585705,78.126199,NH3,NA,NA,NA
India,Telangana,Hyderabad,"Kokapet, Hyderabad - TSPCB",04-07-2024 19:00:00,17.393559,78.339194,PM10,NA,NA,NA
India,Telangana,Hyderabad,"Kokapet, Hyderabad - TSPCB",04-07-2024 19:00:00,17.393559,78.339194,NO2,NA,NA,NA
India,Telangana,Hyderabad,"Kompally Municipal Office, Hyderabad - TSPCB",04-07-2024 19:00:00,17.544899,78.486949,PM10,NA,NA,NA
India,Telangana,Hyderabad,"Kompally Municipal Office, Hyderabad - TSPCB",04-07-2024 19:00:00,17.544899,78.486949,NO2,NA,NA,NA
India,Telangana,Hyderabad,"Nacharam_TSIIC IALA, Hyderabad - TSPCB",04-07-2024 19:00:00,17.429398,78.569354,NO2,12,17,15
India,Telangana,Hyderabad,"Nacharam_TSIIC IALA, Hyderabad - TSPCB",04-07-2024 19:00:00,17.429398,78.569354,SO2,11,20,14
India,Telangana,Hyderabad,"Nacharam_TSIIC IALA, Hyderabad - TSPCB",04-07-2024 19:00:00,17.429398,78.569354,OZONE,31,57,32
India,Telangana,Hyderabad,"New Malakpet, Hyderabad - TSPCB",04-07-2024 19:00:00,17.37206,78.50864,PM10,56,81,70
India,Telangana,Hyderabad,"New Malakpet, Hyderabad - TSPCB",04-07-2024 19:00:00,17.37206,78.50864,CO,6,32,21
India,Telangana,Hyderabad,"Ramachandrapuram, Hyderabad - TSPCB",04-07-2024 19:00:00,17.528544,78.286195,NH3,4,5,4
India,Telangana,Hyderabad,"Sanathnagar, Hyderabad - TSPCB",04-07-2024 19:00:00,17.4559458,78.4332152,SO2,4,56,15
India,Telangana,Hyderabad,"Zoo Park, Hyderabad - TSPCB",04-07-2024 19:00:00,17.349694,78.451437,PM10,6,24,12
India,Telangana,Hyderabad,"Zoo Park, Hyderabad - TSPCB",04-07-2024 19:00:00,17.349694,78.451437,NO2,6,13,12
India,Tripura,Agartala,"Bardowali, Agartala - Tripura SPCB",04-07-2024 19:00:00,23.8175497,91.2726974,NO2,4,8,6
India,Uttar_Pradesh,Agra,"Rohta, Agra - UPPCB",04-07-2024 19:00:00,27.106972,78.000111,OZONE,22,23,22
India,Uttar_Pradesh,Agra,"Shahjahan Garden, Agra - UPPCB",04-07-2024 19:00:00,27.169338,78.03582,NO2,18,19,18
India,Uttar_Pradesh,Agra,"Shastripuram, Agra - UPPCB",04-07-2024 19:00:00,27.19862,77.92066,SO2,16,17,17
India,Uttar_Pradesh,Agra,"Shastripuram, Agra - UPPCB",04-07-2024 19:00:00,27.19862,77.92066,CO,10,14,11
India,Uttar_Pradesh,Baghpat,"Sardar Patel Inter College, Baghpat - UPPCB",04-07-2024 19:00:00,28.964949,77.278761,SO2,11,36,24
India,Uttar_Pradesh,Bareilly,"Rajendra Nagar, Bareilly - UPPCB",04-07-2024 19:00:00,28.38910936,79.42963708,PM10,5,13,9
India,Uttar_Pradesh,Bareilly,"Rajendra Nagar, Bareilly - UPPCB",04-07-2024 19:00:00,28.38910936,79.42963708,NH3,1,2,1
India,Uttar_Pradesh,Bulandshahr,"Yamunapuram, Bulandshahr - UPPCB",04-07-2024 19:00:00,28.406963,77.849831,OZONE,4,36,17
India,Uttar_Pradesh,Firozabad,"Nagla Bhau, Firozabad - UPPCB",04-07-2024 19:00:00,27.168897,78.376960,NO2,17,17,17
India,Uttar_Pradesh,Firozabad,"Nagla Bhau, Firozabad - UPPCB",04-07-2024 19:00:00,27.168897,78.376960,CO,24,35,28
India,Uttar_Pradesh,Firozabad,"Vibhab Nagar, Firozabad - UPPCB",04-07-2024 19:00:00,27.1594,78.3953,NO2,12,14,14
India,Uttar_Pradesh,Ghaziabad,"Indirapuram, Ghaziabad - UPPCB",04-07-2024 19:00:00,28.646233,77.358075,PM10,32,82,52
India,Uttar_Pradesh,Ghaziabad,"Indirapuram, Ghaziabad - UPPCB",04-07-2024 19:00:00,28.646233,77.358075,CO,22,36,28
India,Uttar_Pradesh,Ghaziabad,"Loni, Ghaziabad - UPPCB",04-07-2024 19:00:00,28.757294,77.278792,NH3,1,4,2
India,Uttar_Pradesh,Ghaziabad,"Vasundhara, Ghaziabad - UPPCB",04-07-2024 19:00:00,28.6603346,77.3572563,SO2,1,16,5
India,Uttar_Pradesh,Ghaziabad,"Vasundhara, Ghaziabad - UPPCB",04-07-2024 19:00:00,28.6603346,77.3572563,CO,2,72,29
India,Uttar_Pradesh,Gorakhpur,"Madan Mohan Malaviya University of Technology, Gorakhpur - UPPCB",04-07-2024 19:00:00,26.730136,83.433859,PM10,35,72,55
India,Uttar_Pradesh,Gorakhpur,"Madan Mohan Malaviya University of Technology, Gorakhpur - UPPCB",04-07-2024 19:00:00,26.730136,83.433859,SO2,21,22,22
India,Uttar_Pradesh,Greater Noida,"Knowledge Park - III, Greater Noida - UPPCB",04-07-2024 19:00:00,28.47272,77.482000,PM10,12,50,26
India,Uttar_Pradesh,Greater Noida,"Knowledge Park - III, Greater Noida - UPPCB",04-07-2024 19:00:00,28.47272,77.482000,NH3,8,13,10
India,Uttar_Pradesh,Greater Noida,"Knowledge Park - V, Greater Noida - UPPCB",04-07-2024 19:00:00,28.557054,77.453663,NH3,4,7,5
India,Uttar_Pradesh,Hapur,"Anand Vihar, Hapur - UPPCB",04-07-2024 19:00:00,28.725645,77.749675,CO,52,68,57
India,Uttar_Pradesh,Jhansi,"Shivaji Nagar, Jhansi - UPPCB",04-07-2024 19:00:00,25.4547,78.6039,PM2.5,5,71,35
India,Uttar_Pradesh,Kanpur,"NSI Kalyanpur, Kanpur - UPPCB",04-07-2024 19:00:00,26.509954,80.249612,NO2,20,21,21
India,Uttar_Pradesh,Kanpur,"NSI Kalyanpur, Kanpur - UPPCB",04-07-2024 19:00:00,26.509954,80.249612,NH3,1,1,1
India,Uttar_Pradesh,Kanpur,"NSI Kalyanpur, Kanpur - UPPCB",04-07-2024 19:00:00,26.509954,80.249612,OZONE,3,74,21
India,Uttar_Pradesh,Kanpur,"Nehru Nagar, Kanpur - UPPCB",04-07-2024 19:00:00,26.4703136,80.3229863,PM2.5,2,54,30
India,Uttar_Pradesh,Khurja,"Kalindi Kunj, Khurja - UPPCB",04-07-2024 19:00:00,28.2348927,77.8683002,PM10,36,140,85
India,Uttar_Pradesh,Lucknow,"B R Ambedkar University, Lucknow - UPPCB",04-07-2024 19:00:00,26.766433,80.927299,NO2,11,12,11
India,Uttar_Pradesh,Lucknow,"Gomti Nagar, Lucknow - UPPCB",04-07-2024 19:00:00,26.868120,81.005119,PM2.5,5,43,26
India,Uttar_Pradesh,Lucknow,"Kendriya Vidyalaya, Lucknow - CPCB",04-07-2024 19:00:00,26.906111,80.948222,SO2,6,12,8
India,Uttar_Pradesh,Lucknow,"Kukrail Picnic Spot-1, Lucknow - UPPCB",04-07-2024 19:00:00,26.90723,80.98579,NO2,19,19,19
India,Uttar_Pradesh,Lucknow,"Kukrail Picnic Spot-1, Lucknow - UPPCB",04-07-2024 19:00:00,26.90723,80.98579,OZONE,3,20,16
India,Uttar_Pradesh,Lucknow,"Lalbagh, Lucknow - CPCB",04-07-2024 19:00:00,26.8458805,80.9365541,NO2,1,15,9
India,Uttar_Pradesh,Lucknow,"Lalbagh, Lucknow - CPCB",04-07-2024 19:00:00,26.8458805,80.9365541,CO,4,103,70
India,Uttar_Pradesh,Meerut,"Ganga Nagar, Meerut - UPPCB",04-07-2024 19:00:00,28.999264,77.7590354,PM2.5,NA,NA,NA
India,Uttar_Pradesh,Meerut,"Jai Bhim Nagar, Meerut - UPPCB",04-07-2024 19:00:00,28.9535882,77.7622941,NO2,15,24,20
India,Uttar_Pradesh,Meerut,"Jai Bhim Nagar, Meerut - UPPCB",04-07-2024 19:00:00,28.9535882,77.7622941,NH3,6,12,9
India,Uttar_Pradesh,Meerut,"Jai Bhim Nagar, Meerut - UPPCB",04-07-2024 19:00:00,28.9535882,77.7622941,CO,32,55,40
India,Uttar_Pradesh,Meerut,"Jai Bhim Nagar, Meerut - UPPCB",04-07-2024 19:00:00,28.9535882,77.7622941,OZONE,28,72,57
India,Uttar_Pradesh,Meerut,"Pallavpuram Phase 2, Meerut - UPPCB",04-07-2024 19:00:00,29.063510,77.709723,PM10,10,85,28
India,Uttar_Pradesh,Meerut,"Pallavpuram Phase 2, Meerut - UPPCB",04-07-2024 19:00:00,29.063510,77.709723,NH3,9,22,14
India,Uttar_Pradesh,Moradabad,"Buddhi Vihar, Moradabad - UPPCB",04-07-2024 19:00:00,28.83526,78.74460,NH3,3,3,3
India,Uttar_Pradesh,Moradabad,"Buddhi Vihar, Moradabad - UPPCB",04-07-2024 19:00:00,28.83526,78.74460,OZONE,5,11,8
India,Uttar_Pradesh,Moradabad,"Eco Herbal Park, Moradabad - UPPCB",04-07-2024 19:00:00,28.840739,78.697531,NO2,10,108,40
India,Uttar_Pradesh,Moradabad,"Eco Herbal Park, Moradabad - UPPCB",04-07-2024 19:00:00,28.840739,78.697531,NH3,NA,NA,NA
India,Uttar_Pradesh,Moradabad,"Eco Herbal Park, Moradabad - UPPCB",04-07-2024 19:00:00,28.840739,78.697531,OZONE,1,39,30
India,Uttar_Pradesh,Moradabad,"Employment Office, Moradabad - UPPCB",04-07-2024 19:00:00,28.88528,78.73880,PM2.5,17,34,26
India,Uttar_Pradesh,Moradabad,"Employment Office, Moradabad - UPPCB",04-07-2024 19:00:00,28.88528,78.73880,NO2,22,22,22
India,Uttar_Pradesh,Moradabad,"Employment Office, Moradabad - UPPCB",04-07-2024 19:00:00,28.88528,78.73880,NH3,4,4,4
India,Uttar_Pradesh,Moradabad,"Employment Office, Moradabad - UPPCB",04-07-2024 19:00:00,28.88528,78.73880,CO,15,26,20
India,Uttar_Pradesh,Moradabad,"Jigar Colony, Moradabad - UPPCB",04-07-2024 19:00:00,28.856664,78.772638,PM2.5,15,45,29
India,Uttar_Pradesh,Moradabad,"Jigar Colony, Moradabad - UPPCB",04-07-2024 19:00:00,28.856664,78.772638,CO,24,49,29
India,Uttar_Pradesh,Moradabad,"Kashiram Nagar, Moradabad - UPPCB",04-07-2024 19:00:00,28.849399,78.742362,PM2.5,20,80,35
India,Uttar_Pradesh,Moradabad,"Kashiram Nagar, Moradabad - UPPCB",04-07-2024 19:00:00,28.849399,78.742362,NH3,4,4,4
India,Uttar_Pradesh,Moradabad,"Kashiram Nagar, Moradabad - UPPCB",04-07-2024 19:00:00,28.849399,78.742362,CO,22,30,25
India,Uttar_Pradesh,Moradabad,"Transport Nagar, Moradabad - UPPCB",04-07-2024 19:00:00,28.802625,78.753728,PM10,NA,NA,NA
India,Uttar_Pradesh,Moradabad,"Transport Nagar, Moradabad - UPPCB",04-07-2024 19:00:00,28.802625,78.753728,NO2,NA,NA,NA
India,Uttar_Pradesh,Muzaffarnagar,"New Mandi, Muzaffarnagar - UPPCB",04-07-2024 19:00:00,29.4723508,77.7194031,NO2,NA,NA,NA
India,Uttar_Pradesh,Muzaffarnagar,"New Mandi, Muzaffarnagar - UPPCB",04-07-2024 19:00:00,29.4723508,77.7194031,CO,7,42,14
India,Uttar_Pradesh,Noida,"Sector - 62, Noida - IMD",04-07-2024 19:00:00,28.6245479,77.3577104,PM10,12,69,42
India,Uttar_Pradesh,Noida,"Sector - 62, Noida - IMD",04-07-2024 19:00:00,28.6245479,77.3577104,OZONE,42,59,51
India,Uttar_Pradesh,Noida,"Sector-116, Noida - UPPCB",04-07-2024 19:00:00,28.569230,77.393848,NH3,9,14,12
India,Uttar_Pradesh,Noida,"Sector-116, Noida - UPPCB",04-07-2024 19:00:00,28.569230,77.393848,SO2,4,12,8
India,Uttar_Pradesh,Prayagraj,"Jhunsi, Prayagraj - UPPCB",04-07-2024 19:00:00,25.425602,81.917152,NO2,5,6,6
India,Uttar_Pradesh,Prayagraj,"Nagar Nigam, Prayagraj - UPPCB",04-07-2024 19:00:00,25.44919916 ,81.82735986 ,NH3,3,4,4
India,Uttar_Pradesh,Varanasi,"Ardhali Bazar, Varanasi - UPPCB",04-07-2024 19:00:00,25.3505986,82.9083074,SO2,29,34,31
India,Uttar_Pradesh,Varanasi,"Bhelupur, Varanasi - UPPCB",04-07-2024 19:00:00,25.301778,82.996789,NH3,1,1,1
India,Uttar_Pradesh,Varanasi,"Maldahiya, Varanasi - UPPCB",04-07-2024 19:00:00,25.32393,82.99687,PM2.5,9,27,18
India,Uttar_Pradesh,Varanasi,"Maldahiya, Varanasi - UPPCB",04-07-2024 19:00:00,25.32393,82.99687,CO,6,56,25
India,Uttarakhand,Dehradun,"Doon University, Dehradun - UKPCB",04-07-2024 19:00:00,30.269444,78.044167,PM10,4,51,22
India,Uttarakhand,Dehradun,"Doon University, Dehradun - UKPCB",04-07-2024 19:00:00,30.269444,78.044167,CO,25,38,28
India,Uttarakhand,Kashipur,"Govt. Girls Inter College, Kashipur - UKPCB",04-07-2024 19:00:00,29.2124114,78.9611753,NH3,NA,NA,NA
India,Uttarakhand,Rishikesh,"Shivaji Nagar, Rishikesh - UKPCB",04-07-2024 19:00:00,30.075911,78.2859547,SO2,4,5,4
India,West_Bengal,Asansol,"Asansol Court Area, Asansol - WBPCB",04-07-2024 19:00:00,23.685297,86.945968,PM2.5,49,95,68
India,West_Bengal,Asansol,"Evelyn Lodge, Asansol - WBPCB",04-07-2024 19:00:00,23.6979360,86.9443950,NH3,1,2,2
India,West_Bengal,Asansol,"Mahabir Colliery, Asansol - WBPCB",04-07-2024 19:00:00,23.6181830,87.1057180,PM2.5,5,138,48
India,West_Bengal,Barrackpore,"SVSPA Campus, Barrackpore - WBPCB",04-07-2024 19:00:00,22.7605581,88.3617589,PM10,24,85,55
India,West_Bengal,Durgapur,"PCBL Residential Complex, Durgapur - WBPCB",04-07-2024 19:00:00,23.5087640,87.3544400,NH3,NA,NA,NA
India,West_Bengal,Durgapur,"PCBL Residential Complex, Durgapur - WBPCB",04-07-2024 19:00:00,23.5087640,87.3544400,OZONE,5,33,25
India,West_Bengal,Durgapur,"Sidhu Kanhu Indoor Stadium, Durgapur - WBPCB",04-07-2024 19:00:00,23.5404352,87.2892225,CO,14,109,31
India,West_Bengal,Haldia,"Priyambada Housing Estate, Haldia - WBPCB",04-07-2024 19:00:00,22.06047,88.109737,SO2,11,20,15
India,West_Bengal,Haldia,"Priyambada Housing Estate, Haldia - WBPCB",04-07-2024 19:00:00,22.06047,88.109737,CO,25,40,33
India,West_Bengal,Howrah,"Belur Math, Howrah - WBPCB",04-07-2024 19:00:00,22.629801,88.352017,NO2,28,49,41
India,West_Bengal,Howrah,"Botanical Garden, Howrah - WBPCB",04-07-2024 19:00:00,22.554954,88.292568,PM10,30,86,61
India,West_Bengal,Howrah,"Botanical Garden, Howrah - WBPCB",04-07-2024 19:00:00,22.554954,88.292568,SO2,5,7,6
India,West_Bengal,Howrah,"Botanical Garden, Howrah - WBPCB",04-07-2024 19:00:00,22.554954,88.292568,CO,14,28,21
India,West_Bengal,Howrah,"Ghusuri, Howrah - WBPCB",04-07-2024 19:00:00,22.611968,88.347422,NH3,6,6,6
India,West_Bengal,Howrah,"Padmapukur, Howrah - WBPCB",04-07-2024 19:00:00,22.5687319,88.2797276,NO2,30,56,41
India,West_Bengal,Howrah,"Padmapukur, Howrah - WBPCB",04-07-2024 19:00:00,22.5687319,88.2797276,SO2,5,6,6
India,West_Bengal,Kolkata,"Bidhannagar, Kolkata - WBPCB",04-07-2024 19:00:00,22.58157048,88.41002457,NO2,46,63,51
India,West_Bengal,Kolkata,"Fort William, Kolkata - WBPCB",04-07-2024 19:00:00,22.556640,88.342674,PM2.5,18,71,34
India,West_Bengal,Kolkata,"Fort William, Kolkata - WBPCB",04-07-2024 19:00:00,22.556640,88.342674,CO,16,36,21
India,West_Bengal,Kolkata,"Fort William, Kolkata - WBPCB",04-07-2024 19:00:00,22.556640,88.342674,OZONE,26,39,31
India,West_Bengal,Kolkata,"Jadavpur, Kolkata - WBPCB",04-07-2024 19:00:00,22.49929,88.36917,NH3,4,5,5
India,West_Bengal,Kolkata,"Jadavpur, Kolkata - WBPCB",04-07-2024 19:00:00,22.49929,88.36917,CO,13,27,21
India,West_Bengal,Kolkata,"Rabindra Bharati University, Kolkata - WBPCB",04-07-2024 19:00:00,22.627847,88.380669,NH3,NA,NA,NA
India,West_Bengal,Kolkata,"Rabindra Bharati University, Kolkata - WBPCB",04-07-2024 19:00:00,22.627847,88.380669,CO,28,44,35
India,West_Bengal,Kolkata,"Victoria, Kolkata - WBPCB",04-07-2024 19:00:00,22.5448082,88.3403691,NH3,5,6,6
India,West_Bengal,Siliguri,"Ward-32 Bapupara, Siliguri - WBPCB",04-07-2024 19:00:00,26.6879226,88.4152495,PM10,31,47,38
India,West_Bengal,Siliguri,"Ward-32 Bapupara, Siliguri - WBPCB",04-07-2024 19:00:00,26.6879226,88.4152495,OZONE,15,17,15
India,Andhra_Pradesh,Anantapur,"Gulzarpet, Anantapur - APPCB",04-07-2024 19:00:00,14.675886,77.593027,CO,14,30,23
India,Andhra_Pradesh,Rajamahendravaram,"Anand Kala Kshetram, Rajamahendravaram - APPCB",04-07-2024 19:00:00,16.9872867,81.7363176,PM2.5,17,39,24
India,Andhra_Pradesh,Rajamahendravaram,"Anand Kala Kshetram, Rajamahendravaram - APPCB",04-07-2024 19:00:00,16.9872867,81.7363176,NO2,7,71,16
India,Andhra_Pradesh,Rajamahendravaram,"Anand Kala Kshetram, Rajamahendravaram - APPCB",04-07-2024 19:00:00,16.9872867,81.7363176,OZONE,26,60,36
India,Andhra_Pradesh,Tirupati,"Vaikuntapuram, Tirupati - APPCB",04-07-2024 19:00:00,13.615387,79.409230,NO2,NA,NA,NA
India,Andhra_Pradesh,Tirupati,"Vaikuntapuram, Tirupati - APPCB",04-07-2024 19:00:00,13.615387,79.409230,CO,20,30,23
India,Andhra_Pradesh,Vijayawada,"HB Colony, Vijayawada - APPCB",04-07-2024 19:00:00,16.536107,80.594233,PM2.5,30,54,37
India,Andhra_Pradesh,Vijayawada,"HB Colony, Vijayawada - APPCB",04-07-2024 19:00:00,16.536107,80.594233,PM10,40,65,47
India,Andhra_Pradesh,Vijayawada,"HB Colony, Vijayawada - APPCB",04-07-2024 19:00:00,16.536107,80.594233,OZONE,12,32,18
India,Andhra_Pradesh,Vijayawada,"Kanuru, Vijayawada - APPCB",04-07-2024 19:00:00,16.486692,80.699436,SO2,6,10,8
India,Andhra_Pradesh,Vijayawada,"Kanuru, Vijayawada - APPCB",04-07-2024 19:00:00,16.486692,80.699436,CO,36,36,36
India,Andhra_Pradesh,Vijayawada,"Rajiv Gandhi Park, Vijayawada - APPCB",04-07-2024 19:00:00,16.509717,80.612222,PM10,38,72,57
India,Andhra_Pradesh,Vijayawada,"Rajiv Gandhi Park, Vijayawada - APPCB",04-07-2024 19:00:00,16.509717,80.612222,OZONE,31,35,31
India,Andhra_Pradesh,Vijayawada,"Rajiv Nagar, Vijayawada - APPCB",04-07-2024 19:00:00,16.554731,80.649110,PM2.5,47,62,50
India,Andhra_Pradesh,Vijayawada,"Rajiv Nagar, Vijayawada - APPCB",04-07-2024 19:00:00,16.554731,80.649110,OZONE,16,21,20
India,Andhra_Pradesh,Visakhapatnam,"GVM Corporation, Visakhapatnam - APPCB",04-07-2024 19:00:00,17.72,83.3,CO,10,44,31
India,Andhra_Pradesh,Visakhapatnam,"GVM Corporation, Visakhapatnam - APPCB",04-07-2024 19:00:00,17.72,83.3,OZONE,10,19,12
India,Arunachal_Pradesh,Naharlagun,"Naharlagun, Naharlagun - APSPCB",04-07-2024 19:00:00,27.103358,93.679645,SO2,NA,NA,NA
India,Assam,Byrnihat,"Central Academy for SFS, Byrnihat - PCBA",04-07-2024 19:00:00,26.071318,91.87488,NO2,11,41,22
India,Assam,Byrnihat,"Central Academy for SFS, Byrnihat - PCBA",04-07-2024 19:00:00,26.071318,91.87488,NH3,11,23,15
India,Assam,Byrnihat,"Central Academy for SFS, Byrnihat - PCBA",04-07-2024 19:00:00,26.071318,91.87488,CO,8,30,15
India,Assam,Guwahati,"IITG, Guwahati - PCBA",04-07-2024 19:00:00,26.2028636,91.70046436,NO2,1,3,1
India,Assam,Guwahati,"IITG, Guwahati - PCBA",04-07-2024 19:00:00,26.2028636,91.70046436,SO2,19,22,20
India,Assam,Guwahati,"Pan Bazaar, Guwahati - PCBA",04-07-2024 19:00:00,26.187500,91.744194,PM2.5,10,32,17
India,Assam,Guwahati,"Pan Bazaar, Guwahati - PCBA",04-07-2024 19:00:00,26.187500,91.744194,CO,14,36,19
India,Assam,Guwahati,"Pan Bazaar, Guwahati - PCBA",04-07-2024 19:00:00,26.187500,91.744194,OZONE,17,17,17
India,Assam,Guwahati,"Railway Colony, Guwahati - PCBA",04-07-2024 19:00:00,26.181742,91.78063,PM2.5,11,72,33
India,Assam,Nalbari,"Bata Chowk, Nalbari - PCBA",04-07-2024 19:00:00,26.446912,91.439057,PM2.5,27,65,38
India,Assam,Nalbari,"Bata Chowk, Nalbari - PCBA",04-07-2024 19:00:00,26.446912,91.439057,PM10,21,245,48
India,Assam,Nalbari,"Bata Chowk, Nalbari - PCBA",04-07-2024 19:00:00,26.446912,91.439057,NO2,11,27,21
India,Assam,Nalbari,"Bata Chowk, Nalbari - PCBA",04-07-2024 19:00:00,26.446912,91.439057,CO,5,38,32
India,Assam,Sivasagar,"Girls College, Sivasagar - PCBA",04-07-2024 19:00:00,26.987634,94.636574,PM10,51,59,54
India,Assam,Sivasagar,"Girls College, Sivasagar - PCBA",04-07-2024 19:00:00,26.987634,94.636574,NO2,6,12,8
India,Assam,Sivasagar,"Girls College, Sivasagar - PCBA",04-07-2024 19:00:00,26.987634,94.636574,OZONE,1,5,4
India,Bihar,Arrah,"New DM Office, Arrah - BSPCB",04-07-2024 19:00:00,25.5626095,84.663264,SO2,4,10,7
India,Bihar,Aurangabad,"Gurdeo Nagar, Aurangabad - BSPCB",04-07-2024 19:00:00,24.75746,84.366208,PM10,NA,NA,NA
India,Bihar,Bettiah,"Kamalnath Nagar, Bettiah - BSPCB",04-07-2024 19:00:00,26.80365,84.51954,PM2.5,2,117,57
India,Bihar,Bettiah,"Kamalnath Nagar, Bettiah - BSPCB",04-07-2024 19:00:00,26.80365,84.51954,NO2,25,31,28
India,Bihar,Bettiah,"Kamalnath Nagar, Bettiah - BSPCB",04-07-2024 19:00:00,26.80365,84.51954,OZONE,1,23,10
India,Bihar,Bhagalpur,"DM Office_Kachari Chowk, Bhagalpur - BSPCB",04-07-2024 19:00:00,25.251013,86.989001,PM10,36,401,154
India,Bihar,Bhagalpur,"Mayaganj, Bhagalpur - BSPCB",04-07-2024 19:00:00,25.265194,87.012947,PM2.5,25,500,194
India,Bihar,Bhagalpur,"Mayaganj, Bhagalpur - BSPCB",04-07-2024 19:00:00,25.265194,87.012947,SO2,16,54,43
India,Bihar,Bihar Sharif,"D M Colony, Bihar Sharif - BSPCB",04-07-2024 19:00:00,25.204762,85.514960,NH3,1,1,1
India,Bihar,Buxar,"Charitra Van, Buxar - BSPCB (Formerly known as Central Jail)",04-07-2024 19:00:00,25.567520,83.966379,PM10,2,352,103
India,Bihar,Buxar,"Charitra Van, Buxar - BSPCB (Formerly known as Central Jail)",04-07-2024 19:00:00,25.567520,83.966379,SO2,4,11,5
India,Bihar,Chhapra,"Darshan Nagar, Chhapra - BSPCB",04-07-2024 19:00:00,25.7808257,84.7446768,NH3,7,16,11
India,Bihar,Chhapra,"Darshan Nagar, Chhapra - BSPCB",04-07-2024 19:00:00,25.7808257,84.7446768,CO,21,60,30
India,Bihar,Gaya,"Collectorate, Gaya - BSPCB",04-07-2024 19:00:00,24.7955,84.9994,SO2,4,14,9
India,Bihar,Gaya,"SFTI Kusdihra, Gaya - BSPCB",04-07-2024 19:00:00,24.762518,84.982348,NO2,19,34,27
India,Bihar,Hajipur,"Industrial Area, Hajipur - BSPCB",04-07-2024 19:00:00,25.697189,85.245900,PM2.5,11,54,25
India,Bihar,Hajipur,"Industrial Area, Hajipur - BSPCB",04-07-2024 19:00:00,25.697189,85.245900,PM10,18,47,27
India,Bihar,Katihar,"Mirchaibari, Katihar - BSPCB",04-07-2024 19:00:00,25.560083,87.553265,PM2.5,3,48,12
India,Bihar,Katihar,"Mirchaibari, Katihar - BSPCB",04-07-2024 19:00:00,25.560083,87.553265,PM10,6,156,33
India,Bihar,Kishanganj,"SDM Office_Khagra, Kishanganj - BSPCB",04-07-2024 19:00:00,26.0881305,87.93840336,NO2,37,63,41
India,Bihar,Kishanganj,"SDM Office_Khagra, Kishanganj - BSPCB",04-07-2024 19:00:00,26.0881305,87.93840336,SO2,NA,NA,NA
India,Bihar,Muzaffarpur,"Buddha Colony, Muzaffarpur - BSPCB",04-07-2024 19:00:00,26.11442,85.39813,PM10,19,34,27
India,Bihar,Muzaffarpur,"Buddha Colony, Muzaffarpur - BSPCB",04-07-2024 19:00:00,26.11442,85.39813,NO2,8,17,12
India,Bihar,Muzaffarpur,"Buddha Colony, Muzaffarpur - BSPCB",04-07-2024 19:00:00,26.11442,85.39813,NH3,6,11,8
India,Bihar,Muzaffarpur,"Buddha Colony, Muzaffarpur - BSPCB",04-07-2024 19:00:00,26.11442,85.39813,SO2,5,8,7
India,Bihar,Patna,"DRM Office Danapur, Patna - BSPCB",04-07-2024 19:00:00,25.586562,85.043586,NH3,2,3,3
India,Bihar,Patna,"Govt. High School Shikarpur, Patna - BSPCB",04-07-2024 19:00:00,25.592539,85.227158,SO2,9,11,10
India,Bihar,Patna,"Govt. High School Shikarpur, Patna - BSPCB",04-07-2024 19:00:00,25.592539,85.227158,OZONE,1,58,50
India,Bihar,Patna,"IGSC Planetarium Complex, Patna - BSPCB",04-07-2024 19:00:00,25.610369,85.132568,PM2.5,NA,NA,NA
India,Bihar,Patna,"IGSC Planetarium Complex, Patna - BSPCB",04-07-2024 19:00:00,25.610369,85.132568,CO,5,16,7
India,Bihar,Patna,"Muradpur, Patna - BSPCB",04-07-2024 19:00:00,25.619651,85.147382,OZONE,5,62,52
India,Bihar,Patna,"Rajbansi Nagar, Patna - BSPCB",04-07-2024 19:00:00,25.599486,85.113666,CO,20,103,37
India,Bihar,Patna,"Samanpura, Patna - BSPCB",04-07-2024 19:00:00,25.596727,85.085624,SO2,2,3,3
India,Bihar,Patna,"Samanpura, Patna - BSPCB",04-07-2024 19:00:00,25.596727,85.085624,CO,28,68,38
India,Bihar,Purnia,"Mariam Nagar, Purnia - BSPCB",04-07-2024 19:00:00,25.366336,87.117468,NO2,5,6,5
India,Bihar,Rajgir,"Dangi Tola, Rajgir - BSPCB",04-07-2024 19:00:00,25.03280,85.41948,NH3,1,2,2
India,Bihar,Rajgir,"Dangi Tola, Rajgir - BSPCB",04-07-2024 19:00:00,25.03280,85.41948,CO,38,38,38
India,Bihar,Saharsa,"Police Line, Saharsa - BSPCB",04-07-2024 19:00:00,25.892357,86.590325,PM10,8,41,22
India,Bihar,Saharsa,"Police Line, Saharsa - BSPCB",04-07-2024 19:00:00,25.892357,86.590325,NO2,6,8,7
India,Bihar,Saharsa,"Police Line, Saharsa - BSPCB",04-07-2024 19:00:00,25.892357,86.590325,SO2,16,17,16
India,Bihar,Siwan,"Chitragupta Nagar, Siwan - BSPCB",04-07-2024 19:00:00,26.2271665,84.3570427,PM10,NA,NA,NA
India,Bihar,Siwan,"Chitragupta Nagar, Siwan - BSPCB",04-07-2024 19:00:00,26.2271665,84.3570427,CO,32,106,101
India,Bihar,Siwan,"Chitragupta Nagar, Siwan - BSPCB",04-07-2024 19:00:00,26.2271665,84.3570427,OZONE,1,56,14
India,Chandigarh,Chandigarh,"Sector 22, Chandigarh - CPCC",04-07-2024 19:00:00,30.735567,76.775714,NO2,9,36,20
India,Chandigarh,Chandigarh,"Sector 22, Chandigarh - CPCC",04-07-2024 19:00:00,30.735567,76.775714,OZONE,16,88,44
India,Chandigarh,Chandigarh,"Sector-25, Chandigarh - CPCC",04-07-2024 19:00:00,30.751462,76.762879,PM10,38,80,54
India,Chandigarh,Chandigarh,"Sector-25, Chandigarh - CPCC",04-07-2024 19:00:00,30.751462,76.762879,OZONE,8,19,13
India,Chandigarh,Chandigarh,"Sector-53, Chandigarh - CPCC",04-07-2024 19:00:00,30.719859,76.738637,PM2.5,2,45,21
India,Chandigarh,Chandigarh,"Sector-53, Chandigarh - CPCC",04-07-2024 19:00:00,30.719859,76.738637,NH3,2,18,8
India,Chhattisgarh,Bhilai,"32Bungalows, Bhilai - CECB",04-07-2024 19:00:00,21.194815,81.314770,PM2.5,12,31,20
India,Chhattisgarh,Bhilai,"Civic Center, Bhilai - Bhilai Steel Plant",04-07-2024 19:00:00,21.185571,81.343175,NH3,3,4,4
India,Chhattisgarh,Bhilai,"Civic Center, Bhilai - Bhilai Steel Plant",04-07-2024 19:00:00,21.185571,81.343175,CO,34,46,41
India,Chhattisgarh,Bhilai,"Civic Center, Bhilai - Bhilai Steel Plant",04-07-2024 19:00:00,21.185571,81.343175,OZONE,12,25,21
India,Chhattisgarh,Bhilai,"Hathkhoj, Bhilai - CECB",04-07-2024 19:00:00,21.224231,81.408350,NH3,9,9,9
India,Chhattisgarh,Bhilai,"Hathkhoj, Bhilai - CECB",04-07-2024 19:00:00,21.224231,81.408350,OZONE,20,36,33
India,Chhattisgarh,Korba,"Rampur, Korba - CECB",04-07-2024 19:00:00,22.368195,82.746431,PM2.5,NA,NA,NA
India,Chhattisgarh,Korba,"Rampur, Korba - CECB",04-07-2024 19:00:00,22.368195,82.746431,CO,NA,NA,NA
India,Chhattisgarh,Korba,"Rampur, Korba - CECB",04-07-2024 19:00:00,22.368195,82.746431,OZONE,NA,NA,NA
India,Chhattisgarh,Korba,"Urja Nagar, Korba - CECB",04-07-2024 19:00:00,22.348441,82.549611,NO2,8,48,33
India,Chhattisgarh,Korba,"Urja Nagar, Korba - CECB",04-07-2024 19:00:00,22.348441,82.549611,NH3,NA,NA,NA
India,Chhattisgarh,Korba,"Urja Nagar, Korba - CECB",04-07-2024 19:00:00,22.348441,82.549611,SO2,5,10,8
India,Chhattisgarh,Korba,"Urja Nagar, Korba - CECB",04-07-2024 19:00:00,22.348441,82.549611,CO,4,40,9
India,Chhattisgarh,Kunjemura,"OP Jindal School, Kunjemura - CECB",04-07-2024 19:00:00,22.126650,83.483212,PM2.5,3,21,9
India,Chhattisgarh,Kunjemura,"OP Jindal School, Kunjemura - CECB",04-07-2024 19:00:00,22.126650,83.483212,SO2,1,7,4
India,Chhattisgarh,Raipur,"AIIMS, Raipur - CECB",04-07-2024 19:00:00,21.258815,81.578979,PM2.5,5,23,14
India,Chhattisgarh,Raipur,"AIIMS, Raipur - CECB",04-07-2024 19:00:00,21.258815,81.578979,NO2,9,14,11
India,Chhattisgarh,Raipur,"AIIMS, Raipur - CECB",04-07-2024 19:00:00,21.258815,81.578979,CO,14,28,24
India,Chhattisgarh,Raipur,"AIIMS, Raipur - CECB",04-07-2024 19:00:00,21.258815,81.578979,OZONE,2,5,2
India,Chhattisgarh,Raipur,"Bhatagaon New ISBT, Raipur - CECB",04-07-2024 19:00:00,21.219665,81.630094,CO,16,24,17
India,Delhi,Delhi,"Alipur, Delhi - DPCC",04-07-2024 19:00:00,28.815329,77.153010,CO,24,50,33
India,Delhi,Delhi,"Ashok Vihar, Delhi - DPCC",04-07-2024 19:00:00,28.695381,77.181665,PM10,34,79,54
India,Delhi,Delhi,"Bawana, Delhi - DPCC",04-07-2024 19:00:00,28.776200,77.051074,NO2,11,76,27
India,Delhi,Delhi,"Burari Crossing, Delhi - IMD",04-07-2024 19:00:00,28.7256504,77.2011573,PM2.5,11,99,39
India,Delhi,Delhi,"CRRI Mathura Road, Delhi - IMD",04-07-2024 19:00:00,28.5512005,77.2735737,CO,28,61,35
India,Delhi,Delhi,"CRRI Mathura Road, Delhi - IMD",04-07-2024 19:00:00,28.5512005,77.2735737,OZONE,7,43,28
India,Delhi,Delhi,"Chandni Chowk, Delhi - IITM",04-07-2024 19:00:00,28.656756,77.227234,SO2,NA,NA,NA
India,Delhi,Delhi,"DTU, Delhi - CPCB",04-07-2024 19:00:00,28.7500499,77.1112615,NO2,58,64,60
India,Delhi,Delhi,"DTU, Delhi - CPCB",04-07-2024 19:00:00,28.7500499,77.1112615,CO,38,57,46
India,Delhi,Delhi,"Dr. Karni Singh Shooting Range, Delhi - DPCC",04-07-2024 19:00:00,28.498571,77.264840,PM2.5,13,78,35
India,Delhi,Delhi,"Dwarka-Sector 8, Delhi - DPCC ",04-07-2024 19:00:00,28.5710274,77.0719006,PM2.5,22,88,48
India,Delhi,Delhi,"Dwarka-Sector 8, Delhi - DPCC ",04-07-2024 19:00:00,28.5710274,77.0719006,PM10,35,113,62
India,Delhi,Delhi,"Dwarka-Sector 8, Delhi - DPCC ",04-07-2024 19:00:00,28.5710274,77.0719006,SO2,8,14,10
India,Delhi,Delhi,"Dwarka-Sector 8, Delhi - DPCC ",04-07-2024 19:00:00,28.5710274,77.0719006,CO,30,98,45
India,Delhi,Delhi,"Dwarka-Sector 8, Delhi - DPCC ",04-07-2024 19:00:00,28.5710274,77.0719006,OZONE,6,32,18
India,Delhi,Delhi,"IGI Airport (T3), Delhi - IMD",04-07-2024 19:00:00,28.5627763,77.1180053,NO2,16,53,27
India,Delhi,Delhi,"IGI Airport (T3), Delhi - IMD",04-07-2024 19:00:00,28.5627763,77.1180053,CO,35,52,40
India,Delhi,Delhi,"IHBAS, Dilshad Garden, Delhi - CPCB",04-07-2024 19:00:00,28.6811736,77.3025234,PM2.5,40,78,51
India,Delhi,Delhi,"IHBAS, Dilshad Garden, Delhi - CPCB",04-07-2024 19:00:00,28.6811736,77.3025234,PM10,46,66,56
India,Delhi,Delhi,"IHBAS, Dilshad Garden, Delhi - CPCB",04-07-2024 19:00:00,28.6811736,77.3025234,NH3,5,10,7
India,Delhi,Delhi,"IHBAS, Dilshad Garden, Delhi - CPCB",04-07-2024 19:00:00,28.6811736,77.3025234,OZONE,13,17,16
India,Delhi,Delhi,"ITO, Delhi - CPCB",04-07-2024 19:00:00,28.628624,77.241060,PM2.5,30,67,44
India,Delhi,Delhi,"Jawaharlal Nehru Stadium, Delhi - DPCC",04-07-2024 19:00:00,28.580280,77.233829,CO,35,74,44
India,Delhi,Delhi,"Lodhi Road, Delhi - IMD",04-07-2024 19:00:00,28.5918245,77.2273074,PM10,7,65,35
India,Delhi,Delhi,"Mandir Marg, Delhi - DPCC",04-07-2024 19:00:00,28.636429,77.201067,NO2,55,72,63
India,Delhi,Delhi,"Mandir Marg, Delhi - DPCC",04-07-2024 19:00:00,28.636429,77.201067,OZONE,12,51,29
India,Delhi,Delhi,"Mundka, Delhi - DPCC",04-07-2024 19:00:00,28.684678,77.076574,NO2,37,104,68
India,Delhi,Delhi,"NSIT Dwarka, Delhi - CPCB",04-07-2024 19:00:00,28.60909,77.0325413,OZONE,18,36,29
India,Delhi,Delhi,"Narela, Delhi - DPCC",04-07-2024 19:00:00,28.822836,77.101981,PM2.5,15,73,39
India,Delhi,Delhi,"Nehru Nagar, Delhi - DPCC",04-07-2024 19:00:00,28.567890,77.250515,NO2,17,95,35
India,Delhi,Delhi,"Nehru Nagar, Delhi - DPCC",04-07-2024 19:00:00,28.567890,77.250515,NH3,2,5,3
India,Delhi,Delhi,"Punjabi Bagh, Delhi - DPCC",04-07-2024 19:00:00,28.674045,77.131023,NO2,14,43,28
India,Delhi,Delhi,"Punjabi Bagh, Delhi - DPCC",04-07-2024 19:00:00,28.674045,77.131023,OZONE,6,30,25
India,Delhi,Delhi,"Pusa, Delhi - DPCC",04-07-2024 19:00:00,28.639652,77.146275,PM10,22,83,45
India,Delhi,Delhi,"Pusa, Delhi - IMD",04-07-2024 19:00:00,28.636110,77.173332,OZONE,39,50,44
India,Delhi,Delhi,"R K Puram, Delhi - DPCC",04-07-2024 19:00:00,28.563262,77.186937,SO2,3,20,11
India,Delhi,Delhi,"Rohini, Delhi - DPCC",04-07-2024 19:00:00,28.732528,77.119920,PM10,43,117,83
India,Delhi,Delhi,"Rohini, Delhi - DPCC",04-07-2024 19:00:00,28.732528,77.119920,CO,20,50,33
India,Delhi,Delhi,"Rohini, Delhi - DPCC",04-07-2024 19:00:00,28.732528,77.119920,OZONE,15,30,20
India,Delhi,Delhi,"Shadipur, Delhi - CPCB",04-07-2024 19:00:00,28.6514781,77.1473105,NH3,4,7,5
India,Delhi,Delhi,"Sirifort, Delhi - CPCB",04-07-2024 19:00:00,28.5504249,77.2159377,OZONE,7,21,11
India,Delhi,Delhi,"Sonia Vihar, Delhi - DPCC",04-07-2024 19:00:00,28.710508,77.249485,PM2.5,10,150,62
India,Delhi,Delhi,"Sonia Vihar, Delhi - DPCC",04-07-2024 19:00:00,28.710508,77.249485,CO,12,46,26
India,Delhi,Delhi,"Sri Aurobindo Marg, Delhi - DPCC",04-07-2024 19:00:00,28.531346,77.190156,PM2.5,16,64,38
India,Delhi,Delhi,"Sri Aurobindo Marg, Delhi - DPCC",04-07-2024 19:00:00,28.531346,77.190156,NO2,16,67,29
India,Delhi,Delhi,"Sri Aurobindo Marg, Delhi - DPCC",04-07-2024 19:00:00,28.531346,77.190156,NH3,1,21,11
India,Delhi,Delhi,"Vivek Vihar, Delhi - DPCC",04-07-2024 19:00:00,28.672342,77.315260,PM2.5,24,68,44
India,Delhi,Delhi,"Vivek Vihar, Delhi - DPCC",04-07-2024 19:00:00,28.672342,77.315260,SO2,NA,NA,NA
India,Gujarat,Ahmedabad,"Chandkheda, Ahmedabad - IITM",04-07-2024 19:00:00,23.107969,72.574648,PM2.5,37,71,52
India,Gujarat,Ahmedabad,"Chandkheda, Ahmedabad - IITM",04-07-2024 19:00:00,23.107969,72.574648,NO2,7,33,17
India,Gujarat,Ahmedabad,"Maninagar, Ahmedabad - GPCB",04-07-2024 19:00:00,23.002657,72.591912,NO2,26,71,42
India,Gujarat,Ahmedabad,"Raikhad, Ahmedabad - IITM",04-07-2024 19:00:00,23.020509,72.579261,PM10,40,151,70
India,Gujarat,Ahmedabad,"Raikhad, Ahmedabad - IITM",04-07-2024 19:00:00,23.020509,72.579261,NO2,9,77,58
India,Gujarat,Ahmedabad,"Raikhad, Ahmedabad - IITM",04-07-2024 19:00:00,23.020509,72.579261,NH3,1,24,7
India,Gujarat,Ahmedabad,"Rakhial, Ahmedabad - IITM",04-07-2024 19:00:00,23.016834,72.625775,PM2.5,27,155,61
India,Gujarat,Ahmedabad,"Rakhial, Ahmedabad - IITM",04-07-2024 19:00:00,23.016834,72.625775,OZONE,6,87,30
India,Gujarat,Ahmedabad,"SVPI Airport Hansol, Ahmedabad - IITM",04-07-2024 19:00:00,23.076793,72.627874,PM10,57,83,71
India,Gujarat,Ahmedabad,"SVPI Airport Hansol, Ahmedabad - IITM",04-07-2024 19:00:00,23.076793,72.627874,NO2,26,144,92
India,Gujarat,Ahmedabad,"Sardar Vallabhbhai Patel Stadium, Ahmedabad - IITM",04-07-2024 19:00:00,23.043070,72.562968,PM10,50,131,77
India,Gujarat,Ahmedabad,"Sardar Vallabhbhai Patel Stadium, Ahmedabad - IITM",04-07-2024 19:00:00,23.043070,72.562968,NH3,4,6,4
India,Gujarat,Ahmedabad,"Sardar Vallabhbhai Patel Stadium, Ahmedabad - IITM",04-07-2024 19:00:00,23.043070,72.562968,CO,13,51,36
India,Gujarat,Gandhinagar,"Sector-10, Gandhinagar - GPCB",04-07-2024 19:00:00,23.221714,72.654328,PM10,36,107,66
India,Gujarat,Gandhinagar,"Sector-10, Gandhinagar - GPCB",04-07-2024 19:00:00,23.221714,72.654328,NO2,16,18,16
India,Gujarat,Nandesari,"GIDC, Nandesari - Nandesari Ind. Association",04-07-2024 19:00:00,22.410802,73.097923,PM10,NA,NA,NA
India,Gujarat,Vatva,"Phase-4 GIDC, Vatva - GPCB",04-07-2024 19:00:00,22.969611,72.643500,PM10,NA,NA,NA
India,Gujarat,Vatva,"Phase-4 GIDC, Vatva - GPCB",04-07-2024 19:00:00,22.969611,72.643500,NH3,4,22,12
India,Haryana,Ambala,"Patti Mehar, Ambala - HSPCB",04-07-2024 19:00:00,30.379589,76.778328,PM2.5,NA,NA,NA
India,Haryana,Ambala,"Patti Mehar, Ambala - HSPCB",04-07-2024 19:00:00,30.379589,76.778328,NH3,5,12,9
India,Haryana,Bahadurgarh,"Arya Nagar, Bahadurgarh - HSPCB",04-07-2024 19:00:00,28.6701,76.9254,NH3,8,10,9
India,Haryana,Ballabgarh,"Nathu Colony, Ballabgarh - HSPCB",04-07-2024 19:00:00,28.3419248,77.319699,CO,10,89,36
India,Haryana,Ballabgarh,"Nathu Colony, Ballabgarh - HSPCB",04-07-2024 19:00:00,28.3419248,77.319699,OZONE,4,34,14
India,Haryana,Bhiwani,"H.B. Colony, Bhiwani - HSPCB",04-07-2024 19:00:00,28.806223,76.141105,NH3,6,6,6
India,Haryana,Charkhi Dadri,"Mini Secretariat, Charkhi Dadri - HSPCB",04-07-2024 19:00:00,28.593883,76.270653,NO2,15,25,18
India,Haryana,Charkhi Dadri,"Mini Secretariat, Charkhi Dadri - HSPCB",04-07-2024 19:00:00,28.593883,76.270653,SO2,5,27,18
India,Haryana,Charkhi Dadri,"Mini Secretariat, Charkhi Dadri - HSPCB",04-07-2024 19:00:00,28.593883,76.270653,CO,2,120,77
India,Haryana,Dharuhera,"Municipal Corporation Office, Dharuhera -  HSPCB",04-07-2024 19:00:00,28.206800,76.799700,OZONE,45,171,89
India,Haryana,Faridabad,"New Industrial Town, Faridabad - HSPCB",04-07-2024 19:00:00,28.39072,77.30059,PM10,2,91,35
India,Haryana,Faridabad,"New Industrial Town, Faridabad - HSPCB",04-07-2024 19:00:00,28.39072,77.30059,NH3,2,10,3
India,Haryana,Faridabad,"Sector 11, Faridabad - HSPCB",04-07-2024 19:00:00,28.376058,77.315741,NO2,29,33,31
India,Haryana,Fatehabad,"Huda Sector, Fatehabad - HSPCB",04-07-2024 19:00:00,29.503664,75.467934,PM10,18,120,41
India,Haryana,Fatehabad,"Huda Sector, Fatehabad - HSPCB",04-07-2024 19:00:00,29.503664,75.467934,CO,76,84,78
India,Haryana,Gurugram,"Sector-51, Gurugram - HSPCB",04-07-2024 19:00:00,28.4227,77.0667,PM10,103,231,126
India,Haryana,Gurugram,"Vikas Sadan, Gurugram - HSPCB",04-07-2024 19:00:00,28.4501238,77.0263051,CO,50,131,103
India,Haryana,Hisar,"Urban Estate-II, Hisar - HSPCB",04-07-2024 19:00:00,29.140560,75.744941,OZONE,23,101,45
India,Haryana,Jind,"Police Lines, Jind - HSPCB",04-07-2024 19:00:00,29.307814,76.337619,CO,1,102,40
India,Haryana,Kaithal,"Rishi Nagar, Kaithal - HSPCB",04-07-2024 19:00:00,29.8006,76.4155,PM2.5,15,63,34
India,Haryana,Kaithal,"Rishi Nagar, Kaithal - HSPCB",04-07-2024 19:00:00,29.8006,76.4155,CO,8,24,15
India,Haryana,Karnal,"Sector-12, Karnal - HSPCB",04-07-2024 19:00:00,29.695300,77.002700,PM2.5,6,28,21
India,Haryana,Karnal,"Sector-12, Karnal - HSPCB",04-07-2024 19:00:00,29.695300,77.002700,PM10,23,50,34
India,Haryana,Karnal,"Sector-12, Karnal - HSPCB",04-07-2024 19:00:00,29.695300,77.002700,CO,12,34,27
India,Haryana,Kurukshetra,"Sector-7, Kurukshetra - HSPCB",04-07-2024 19:00:00,29.966942,76.875879,PM10,14,203,55
India,Haryana,Mandikhera,"General Hospital, Mandikhera - HSPCB",04-07-2024 19:00:00,27.9002,76.9938,SO2,32,38,35
India,Haryana,Manesar,"Sector-2 IMT, Manesar - HSPCB",04-07-2024 19:00:00,28.360699,76.936090,PM10,16,109,55
India,Haryana,Palwal,"Shyam Nagar, Palwal - HSPCB",04-07-2024 19:00:00,28.1485564,77.3320667,PM2.5,23,57,39
India,Haryana,Panchkula,"Sector-6, Panchkula - HSPCB ",04-07-2024 19:00:00,30.7057778,76.8531805555555,NO2,9,11,10
India,Haryana,Panipat,"Sector-18, Panipat - HSPCB",04-07-2024 19:00:00,29.432304,76.972765,PM10,88,89,88
India,Haryana,Rohtak,"MD University, Rohtak - HSPCB",04-07-2024 19:00:00,28.52123,76.37138,PM2.5,25,254,87
India,Haryana,Rohtak,"MD University, Rohtak - HSPCB",04-07-2024 19:00:00,28.52123,76.37138,NO2,34,52,43
India,Haryana,Rohtak,"MD University, Rohtak - HSPCB",04-07-2024 19:00:00,28.52123,76.37138,CO,2,58,23
India,Haryana,Rohtak,"MD University, Rohtak - HSPCB",04-07-2024 19:00:00,28.52123,76.37138,OZONE,46,53,49
India,Haryana,Sirsa,"F-Block, Sirsa - HSPCB",04-07-2024 19:00:00,29.536400,75.015800,PM2.5,NA,NA,NA
India,Haryana,Sirsa,"F-Block, Sirsa - HSPCB",04-07-2024 19:00:00,29.536400,75.015800,NO2,8,11,10
India,Haryana,Sirsa,"F-Block, Sirsa - HSPCB",04-07-2024 19:00:00,29.536400,75.015800,NH3,12,13,12
India,Haryana,Sonipat,"Murthal, Sonipat - HSPCB",04-07-2024 19:00:00,29.027200,77.062100,PM10,3,204,39
India,Haryana,Yamuna Nagar,"Gobind Pura, Yamuna Nagar - HSPCB",04-07-2024 19:00:00,30.1480566,77.2893471,SO2,1,11,5
India,Himachal Pradesh,Baddi,"HIMUDA Complex Phase-1, Baddi - HPPCB",04-07-2024 19:00:00,30.943887,76.801991,PM10,24,82,48
India,Himachal Pradesh,Baddi,"HIMUDA Complex Phase-1, Baddi - HPPCB",04-07-2024 19:00:00,30.943887,76.801991,SO2,10,32,17
India,Jammu_and_Kashmir,Srinagar,"Rajbagh, Srinagar - JKSPCB",04-07-2024 19:00:00,34.066206,74.819820,NH3,1,1,1
India,Jharkhand,Dhanbad,"Kalakusuma, Dhanbad - DMC",04-07-2024 19:00:00,23.811548,86.481238,NO2,14,22,15
India,Jharkhand,Pathardih,"Mohalbani Ghat, Pathardih - DMC",04-07-2024 19:00:00,23.669880,86.411725,CO,4,115,27
India,Karnataka,Bagalkot,"Vidayagiri, Bagalkot - KSPCB",04-07-2024 19:00:00,16.172806,75.659694,PM10,42,53,46
India,Karnataka,Bagalkot,"Vidayagiri, Bagalkot - KSPCB",04-07-2024 19:00:00,16.172806,75.659694,NO2,9,10,9
India,Karnataka,Belgaum,"Ramteerth Nagar, Belgaum - KSPCB",04-07-2024 19:00:00,15.888653,74.541751,PM2.5,15,41,27
India,Karnataka,Belgaum,"Ramteerth Nagar, Belgaum - KSPCB",04-07-2024 19:00:00,15.888653,74.541751,NO2,NA,NA,NA
India,Karnataka,Belgaum,"Ramteerth Nagar, Belgaum - KSPCB",04-07-2024 19:00:00,15.888653,74.541751,OZONE,19,20,20
India,Karnataka,Bengaluru,"Bapuji Nagar, Bengaluru - KSPCB",04-07-2024 19:00:00,12.951913,77.539784,NO2,14,16,15
India,Karnataka,Bengaluru,"Bapuji Nagar, Bengaluru - KSPCB",04-07-2024 19:00:00,12.951913,77.539784,SO2,5,8,7
India,Karnataka,Bengaluru,"Hebbal, Bengaluru - KSPCB",04-07-2024 19:00:00,13.029152,77.585901,PM2.5,2,35,14
India,Karnataka,Bengaluru,"Hebbal, Bengaluru - KSPCB",04-07-2024 19:00:00,13.029152,77.585901,PM10,11,38,22
India,Karnataka,Bengaluru,"Hebbal, Bengaluru - KSPCB",04-07-2024 19:00:00,13.029152,77.585901,NH3,1,1,1
India,Karnataka,Bengaluru,"Hebbal, Bengaluru - KSPCB",04-07-2024 19:00:00,13.029152,77.585901,CO,3,26,19
India,Karnataka,Bengaluru,"Hombegowda Nagar, Bengaluru - KSPCB",04-07-2024 19:00:00,12.938539,77.590100,PM2.5,7,25,16
India,Karnataka,Bengaluru,"Hombegowda Nagar, Bengaluru - KSPCB",04-07-2024 19:00:00,12.938539,77.590100,OZONE,2,25,17
India,Karnataka,Bengaluru,"Jayanagar 5th Block, Bengaluru - KSPCB",04-07-2024 19:00:00,12.920984,77.584908,OZONE,12,13,13
India,Karnataka,Bengaluru,"Jigani, Bengaluru - KSPCB",04-07-2024 19:00:00,12.7816279,77.6299145,NO2,33,34,34
India,Karnataka,Bengaluru,"Peenya, Bengaluru - CPCB",04-07-2024 19:00:00,13.0270199,77.494094,SO2,11,17,13
India,Karnataka,Bengaluru,"Peenya, Bengaluru - CPCB",04-07-2024 19:00:00,13.0270199,77.494094,CO,75,98,86
India,Karnataka,Bengaluru,"RVCE-Mailasandra, Bengaluru - KSPCB",04-07-2024 19:00:00,12.921418,77.502466,PM2.5,33,129,60
India,Karnataka,Bengaluru,"Sanegurava Halli, Bengaluru - KSPCB",04-07-2024 19:00:00,12.990328,77.5431385,CO,14,42,22
India,Karnataka,Bengaluru,"Silk Board, Bengaluru - KSPCB",04-07-2024 19:00:00,12.917348,77.622813,SO2,8,13,10
India,Karnataka,Bengaluru,"Silk Board, Bengaluru - KSPCB",04-07-2024 19:00:00,12.917348,77.622813,OZONE,6,20,12
India,Karnataka,Bidar,"Naubad, Bidar - KSPCB",04-07-2024 19:00:00,17.930306,77.482194,OZONE,5,14,11
India,Karnataka,Chamarajanagar,"Urban, Chamarajanagar - KSPCB",04-07-2024 19:00:00,11.55358,76.55521,SO2,3,8,5
India,Karnataka,Chikkaballapur,"Chikkaballapur Rural, Chikkaballapur - KSPCB",04-07-2024 19:00:00,13.428828,77.731418,PM2.5,7,31,16
India,Karnataka,Chikkamagaluru,"Kalyana Nagara, Chikkamagaluru - KSPCB",04-07-2024 19:00:00,13.328028,75.797056,PM10,20,483,59
India,Karnataka,Chikkamagaluru,"Kalyana Nagara, Chikkamagaluru - KSPCB",04-07-2024 19:00:00,13.328028,75.797056,NO2,12,23,16
India,Karnataka,Davanagere,"Devaraj Urs Badavane, Davanagere - KSPCB",04-07-2024 19:00:00,14.475800,75.905200,OZONE,20,22,21
India,Karnataka,Dharwad,"Kalabhavan, Dharwad - KSPCB",04-07-2024 19:00:00,15.459706,75.008381,NO2,11,22,18
India,Karnataka,Dharwad,"Kalabhavan, Dharwad - KSPCB",04-07-2024 19:00:00,15.459706,75.008381,CO,6,51,42
India,Karnataka,Dharwad,"Kalabhavan, Dharwad - KSPCB",04-07-2024 19:00:00,15.459706,75.008381,OZONE,24,35,27
India,Karnataka,Gadag,"Panchal Nagar, Gadag - KSPCB",04-07-2024 19:00:00,15.411456,75.638133,NO2,6,22,14
India,Karnataka,Gadag,"Panchal Nagar, Gadag - KSPCB",04-07-2024 19:00:00,15.411456,75.638133,OZONE,6,6,6
India,Karnataka,Hassan,"B.Katihalli, Hassan - KSPCB",04-07-2024 19:00:00,13.008556,76.125258,OZONE,11,19,15
India,Karnataka,Haveri,"Ashwini Nagar, Haveri - KSPCB",04-07-2024 19:00:00,14.791800,75.389600,OZONE,20,24,21
India,Karnataka,Hubballi,"Lingaraj Nagar, Hubballi - KSPCB",04-07-2024 19:00:00,15.3714823,75.1160168,OZONE,10,18,14
India,Karnataka,Kalaburagi,"Mahatma Basaveswar Colony, Kalaburgi - KSPCB",04-07-2024 19:00:00,17.336318,76.847397,NH3,3,4,3
India,Karnataka,Kalaburagi,"Mahatma Basaveswar Colony, Kalaburgi - KSPCB",04-07-2024 19:00:00,17.336318,76.847397,CO,21,40,36
India,Karnataka,Karwar,"KHB Colony, Karwar - KSPCB",04-07-2024 19:00:00,14.816666,74.141003,PM2.5,7,45,19
India,Karnataka,Karwar,"KHB Colony, Karwar - KSPCB",04-07-2024 19:00:00,14.816666,74.141003,PM10,10,53,25
India,Karnataka,Karwar,"KHB Colony, Karwar - KSPCB",04-07-2024 19:00:00,14.816666,74.141003,SO2,20,22,21
India,Karnataka,Koppal,"Diwator Nagar, Koppal - KSPCB",04-07-2024 19:00:00,15.347630,76.181767,PM2.5,1,13,6
India,Karnataka,Madikeri,"Stuart Hill, Madikeri - KSPCB",04-07-2024 19:00:00,12.415911,75.735050,SO2,4,4,4
India,Karnataka,Mangalore,"Kadri, Mangalore - KSPCB",04-07-2024 19:00:00,12.889250,74.853000,OZONE,30,33,32
India,Karnataka,Mysuru,"Hebbal 1st Stage, Mysuru - KSPCB",04-07-2024 19:00:00,12.21041,76.37376,PM10,20,61,34
India,Karnataka,Mysuru,"Hebbal 1st Stage, Mysuru - KSPCB",04-07-2024 19:00:00,12.21041,76.37376,NH3,1,2,2
India,Karnataka,Ramanagara,"Vijay Nagar, Ramanagara - KSPCB",04-07-2024 19:00:00,12.733409,77.298051,SO2,13,25,19
India,Karnataka,Shivamogga,"Vinoba Nagara, Shivamogga - KSPCB",04-07-2024 19:00:00,13.940000,75.555917,OZONE,16,42,27
India,Karnataka,Tumakuru,"Thimmalapura, Tumakuru - KSPCB",04-07-2024 19:00:00,13.377516,77.099072,PM2.5,16,40,27
India,Karnataka,Tumakuru,"Thimmalapura, Tumakuru - KSPCB",04-07-2024 19:00:00,13.377516,77.099072,PM10,41,120,93
India,Karnataka,Tumakuru,"Thimmalapura, Tumakuru - KSPCB",04-07-2024 19:00:00,13.377516,77.099072,NO2,17,17,17
India,Karnataka,Udupi,"Brahmagiri, Udupi - KSPCB",04-07-2024 19:00:00,13.34194444,74.74694444,PM10,1,31,17
India,Karnataka,Udupi,"Brahmagiri, Udupi - KSPCB",04-07-2024 19:00:00,13.34194444,74.74694444,SO2,16,18,17
India,Karnataka,Vijayapura,"Ibrahimpur, Vijayapura - KSPCB",04-07-2024 19:00:00,16.802639,75.722694,NO2,17,19,19
India,Karnataka,Yadgir,"Collector Office, Yadgir - KSPCB",04-07-2024 19:00:00,16.7602,77.1428,PM10,26,55,40
India,Karnataka,Yadgir,"Collector Office, Yadgir - KSPCB",04-07-2024 19:00:00,16.7602,77.1428,NH3,1,2,1
India,Kerala,Eloor,"Udyogamandal, Eloor - Kerala PCB",04-07-2024 19:00:00,10.073232,76.302765,NO2,5,6,5
India,Kerala,Eloor,"Udyogamandal, Eloor - Kerala PCB",04-07-2024 19:00:00,10.073232,76.302765,NH3,1,1,1
India,Kerala,Eloor,"Udyogamandal, Eloor - Kerala PCB",04-07-2024 19:00:00,10.073232,76.302765,SO2,1,2,1
India,Kerala,Eloor,"Udyogamandal, Eloor - Kerala PCB",04-07-2024 19:00:00,10.073232,76.302765,CO,12,78,55
India,Kerala,Eloor,"Udyogamandal, Eloor - Kerala PCB",04-07-2024 19:00:00,10.073232,76.302765,OZONE,9,11,10
India,Kerala,Kannur,"Thavakkara, Kannur - Kerala PCB",04-07-2024 19:00:00,11.875000,75.373200,NO2,5,5,5
India,Kerala,Kollam,"Polayathode, Kollam - Kerala PCB",04-07-2024 19:00:00,8.8787,76.6073,PM2.5,NA,NA,NA
India,Kerala,Thrissur,"Corporation Ground, Thrissur - Kerala PCB",04-07-2024 19:00:00,10.532400,76.215900,OZONE,20,22,21
India,Madhya Pradesh,Bhopal,"Paryavaran Parisar, Bhopal - MPPCB",04-07-2024 19:00:00,23.210494,77.425409,NH3,2,18,4
India,Madhya Pradesh,Bhopal,"T T Nagar, Bhopal - MPPCB",04-07-2024 19:00:00,23.233584,77.400574,PM2.5,13,32,23
India,Madhya Pradesh,Bhopal,"T T Nagar, Bhopal - MPPCB",04-07-2024 19:00:00,23.233584,77.400574,SO2,2,39,18
India,Madhya Pradesh,Gwalior,"Deen Dayal Nagar, Gwalior - MPPCB",04-07-2024 19:00:00,26.259242,78.216432,PM10,10,69,25
India,Madhya Pradesh,Gwalior,"Deen Dayal Nagar, Gwalior - MPPCB",04-07-2024 19:00:00,26.259242,78.216432,SO2,11,21,15
India,Madhya Pradesh,Gwalior,"Maharaj Bada, Gwalior - MPPCB",04-07-2024 19:00:00,26.200388,78.147714,PM2.5,8,22,15
India,Madhya Pradesh,Indore,"Chhoti Gwaltoli, Indore - MPPCB",04-07-2024 19:00:00,22.4310,75.5213,PM2.5,28,55,41
India,Madhya Pradesh,Indore,"Chhoti Gwaltoli, Indore - MPPCB",04-07-2024 19:00:00,22.4310,75.5213,PM10,50,91,76
India,Madhya Pradesh,Indore,"Residency Area, Indore - IMC",04-07-2024 19:00:00,22.7084,75.8815,PM10,18,51,36
India,Madhya Pradesh,Indore,"Residency Area, Indore - IMC",04-07-2024 19:00:00,22.7084,75.8815,NO2,24,29,26
