country,state,city,station,last_update,latitude,longitude,pollutant_id,pollutant_min,pollutant_max,pollutant_avg
India,Andhra_Pradesh,Amaravati,"Secretariat, Amaravati - APPCB",11-02-2024 19:00:00,16.5150833,80.5181667,CO,18,43,30
India,Andhra_Pradesh,Anantapur,"Gulzarpet, Anantapur - APPCB",11-02-2024 19:00:00,14.675886,77.593027,CO,20,34,23
India,Andhra_Pradesh,Chittoor,"Gangineni Cheruvu, Chittoor - APPCB",11-02-2024 19:00:00,13.204880,79.097889,PM10,48,96,74
India,Andhra_Pradesh,Chittoor,"Gangineni Cheruvu, Chittoor - APPCB",11-02-2024 19:00:00,13.204880,79.097889,NH3,NA,NA,NA
India,Andhra_Pradesh,Kadapa,"Yerramukkapalli, Kadapa - APPCB",11-02-2024 19:00:00,14.465052,78.824187,SO2,1,2,2
India,Andhra_Pradesh,Rajamahendravaram,"Anand Kala Kshetram, Rajamahendravaram - APPCB",11-02-2024 19:00:00,16.9872867,81.7363176,PM10,92,137,108
India,Andhra_Pradesh,Rajamahendravaram,"Anand Kala Kshetram, Rajamahendravaram - APPCB",11-02-2024 19:00:00,16.9872867,81.7363176,NH3,4,7,5
India,Andhra_Pradesh,Tirupati,"Tirumala, Tirupati - APPCB",11-02-2024 19:00:00,13.67,79.35,CO,42,64,46
India,Andhra_Pradesh,Tirupati,"Vaikuntapuram, Tirupati - APPCB",11-02-2024 19:00:00,13.615387,79.409230,NO2,6,23,18
India,Andhra_Pradesh,Vijayawada,"HB Colony, Vijayawada - APPCB",11-02-2024 19:00:00,16.536107,80.594233,PM10,49,93,72
India,Andhra_Pradesh,Vijayawada,"HB Colony, Vijayawada - APPCB",11-02-2024 19:00:00,16.536107,80.594233,SO2,4,6,5
India,Andhra_Pradesh,Vijayawada,"Kanuru, Vijayawada - APPCB",11-02-2024 19:00:00,16.486692,80.699436,PM2.5,63,82,75
India,Andhra_Pradesh,Vijayawada,"Kanuru, Vijayawada - APPCB",11-02-2024 19:00:00,16.486692,80.699436,PM10,71,95,86
India,Andhra_Pradesh,Vijayawada,"Kanuru, Vijayawada - APPCB",11-02-2024 19:00:00,16.486692,80.699436,CO,22,48,37
India,Andhra_Pradesh,Vijayawada,"Rajiv Gandhi Park, Vijayawada - APPCB",11-02-2024 19:00:00,16.509717,80.612222,CO,34,34,34
India,Andhra_Pradesh,Visakhapatnam,"GVM Corporation, Visakhapatnam - APPCB",11-02-2024 19:00:00,17.72,83.3,PM10,104,122,114
India,Andhra_Pradesh,Visakhapatnam,"GVM Corporation, Visakhapatnam - APPCB",11-02-2024 19:00:00,17.72,83.3,NO2,23,58,35
India,Andhra_Pradesh,Visakhapatnam,"GVM Corporation, Visakhapatnam - APPCB",11-02-2024 19:00:00,17.72,83.3,CO,10,184,79
India,Arunachal_Pradesh,Naharlagun,"Naharlagun, Naharlagun - APSPCB",11-02-2024 19:00:00,27.103358,93.679645,PM2.5,4,322,90
India,Arunachal_Pradesh,Naharlagun,"Naharlagun, Naharlagun - APSPCB",11-02-2024 19:00:00,27.103358,93.679645,PM10,11,201,72
India,Arunachal_Pradesh,Naharlagun,"Naharlagun, Naharlagun - APSPCB",11-02-2024 19:00:00,27.103358,93.679645,CO,8,46,12
India,Assam,Byrnihat,"Central Academy for SFS, Byrnihat - PCBA",11-02-2024 19:00:00,26.071318,91.87488,NO2,43,145,80
India,Assam,Guwahati,"LGBI Airport, Guwahati - PCBA",11-02-2024 19:00:00,26.10887,91.589544,NO2,13,67,39
India,Assam,Guwahati,"LGBI Airport, Guwahati - PCBA",11-02-2024 19:00:00,26.10887,91.589544,SO2,13,13,13
India,Assam,Guwahati,"Pan Bazaar, Guwahati - PCBA",11-02-2024 19:00:00,26.187500,91.744194,NH3,3,5,4
India,Assam,Nagaon,"Christianpatty, Nagaon - PCBA",11-02-2024 19:00:00,26.349082,92.68449,NH3,2,7,3
India,Assam,Silchar,"Tarapur, Silchar - PCBA",11-02-2024 19:00:00,24.82827,92.79525,SO2,NA,NA,NA
India,Assam,Sivasagar,"Girls College, Sivasagar - PCBA",11-02-2024 19:00:00,26.987634,94.636574,PM10,27,100,56
India,Assam,Sivasagar,"Girls College, Sivasagar - PCBA",11-02-2024 19:00:00,26.987634,94.636574,SO2,5,5,5
India,Assam,Sivasagar,"Girls College, Sivasagar - PCBA",11-02-2024 19:00:00,26.987634,94.636574,OZONE,1,6,4
India,Bihar,Arrah,"New DM Office, Arrah - BSPCB",11-02-2024 19:00:00,25.5626095,84.663264,NO2,NA,NA,NA
India,Bihar,Bettiah,"Kamalnath Nagar, Bettiah - BSPCB",11-02-2024 19:00:00,26.80365,84.51954,PM10,NA,NA,NA
India,Bihar,Bettiah,"Kamalnath Nagar, Bettiah - BSPCB",11-02-2024 19:00:00,26.80365,84.51954,NO2,NA,NA,NA
India,Bihar,Bettiah,"Kamalnath Nagar, Bettiah - BSPCB",11-02-2024 19:00:00,26.80365,84.51954,NH3,NA,NA,NA
India,Bihar,Bhagalpur,"DM Office_Kachari Chowk, Bhagalpur - BSPCB",11-02-2024 19:00:00,25.251013,86.989001,PM10,103,258,166
India,Bihar,Bhagalpur,"Mayaganj, Bhagalpur - BSPCB",11-02-2024 19:00:00,25.265194,87.012947,CO,8,11,9
India,Bihar,Bihar Sharif,"D M Colony, Bihar Sharif - BSPCB",11-02-2024 19:00:00,25.204762,85.514960,PM2.5,35,293,114
India,Bihar,Bihar Sharif,"D M Colony, Bihar Sharif - BSPCB",11-02-2024 19:00:00,25.204762,85.514960,CO,4,57,28
India,Bihar,Buxar,"Charitra Van, Buxar - BSPCB (Formerly known as Central Jail)",11-02-2024 19:00:00,25.567520,83.966379,SO2,7,16,13
India,Bihar,Gaya,"Kareemganj, Gaya - BSPCB",11-02-2024 19:00:00,24.792403,84.992416,NH3,2,5,3
India,Bihar,Gaya,"Kareemganj, Gaya - BSPCB",11-02-2024 19:00:00,24.792403,84.992416,OZONE,1,26,8
India,Bihar,Hajipur,"Industrial Area, Hajipur - BSPCB",11-02-2024 19:00:00,25.697189,85.245900,SO2,6,9,8
India,Bihar,Hajipur,"Industrial Area, Hajipur - BSPCB",11-02-2024 19:00:00,25.697189,85.245900,OZONE,3,205,86
India,Bihar,Katihar,"Mirchaibari, Katihar - BSPCB",11-02-2024 19:00:00,25.560083,87.553265,PM10,94,273,149
India,Bihar,Katihar,"Mirchaibari, Katihar - BSPCB",11-02-2024 19:00:00,25.560083,87.553265,NH3,2,4,3
India,Bihar,Katihar,"Mirchaibari, Katihar - BSPCB",11-02-2024 19:00:00,25.560083,87.553265,CO,2,2,2
India,Bihar,Kishanganj,"SDM Office_Khagra, Kishanganj - BSPCB",11-02-2024 19:00:00,26.0881305,87.93840336,PM2.5,38,410,88
India,Bihar,Kishanganj,"SDM Office_Khagra, Kishanganj - BSPCB",11-02-2024 19:00:00,26.0881305,87.93840336,CO,5,10,7
India,Bihar,Motihari,"Gandak Colony, Motihari - BSPCB",11-02-2024 19:00:00,26.63086,84.90051,NO2,35,69,53
India,Bihar,Motihari,"Gandak Colony, Motihari - BSPCB",11-02-2024 19:00:00,26.63086,84.90051,NH3,6,11,9
India,Bihar,Munger,"Town Hall, Munger - BSPCB",11-02-2024 19:00:00,25.376776,86.471523,PM10,59,260,116
India,Bihar,Munger,"Town Hall, Munger - BSPCB",11-02-2024 19:00:00,25.376776,86.471523,SO2,26,47,36
India,Bihar,Patna,"DRM Office Danapur, Patna - BSPCB",11-02-2024 19:00:00,25.586562,85.043586,PM2.5,148,338,279
India,Bihar,Patna,"DRM Office Danapur, Patna - BSPCB",11-02-2024 19:00:00,25.586562,85.043586,OZONE,1,77,59
India,Bihar,Patna,"Govt. High School Shikarpur, Patna - BSPCB",11-02-2024 19:00:00,25.592539,85.227158,CO,30,121,57
India,Bihar,Patna,"Govt. High School Shikarpur, Patna - BSPCB",11-02-2024 19:00:00,25.592539,85.227158,OZONE,4,45,30
India,Bihar,Patna,"IGSC Planetarium Complex, Patna - BSPCB",11-02-2024 19:00:00,25.610369,85.132568,NO2,12,12,12
India,Bihar,Patna,"IGSC Planetarium Complex, Patna - BSPCB",11-02-2024 19:00:00,25.610369,85.132568,SO2,7,8,7
India,Bihar,Patna,"Muradpur, Patna - BSPCB",11-02-2024 19:00:00,25.619651,85.147382,PM2.5,32,384,250
India,Bihar,Patna,"Muradpur, Patna - BSPCB",11-02-2024 19:00:00,25.619651,85.147382,PM10,124,500,326
India,Bihar,Patna,"Rajbansi Nagar, Patna - BSPCB",11-02-2024 19:00:00,25.599486,85.113666,PM2.5,86,343,244
India,Bihar,Patna,"Rajbansi Nagar, Patna - BSPCB",11-02-2024 19:00:00,25.599486,85.113666,PM10,109,446,236
India,Bihar,Patna,"Samanpura, Patna - BSPCB",11-02-2024 19:00:00,25.596727,85.085624,CO,30,178,56
India,Bihar,Purnia,"Mariam Nagar, Purnia - BSPCB",11-02-2024 19:00:00,25.366336,87.117468,PM2.5,45,355,214
India,Bihar,Purnia,"Mariam Nagar, Purnia - BSPCB",11-02-2024 19:00:00,25.366336,87.117468,PM10,96,246,148
India,Bihar,Purnia,"Mariam Nagar, Purnia - BSPCB",11-02-2024 19:00:00,25.366336,87.117468,CO,40,85,49
India,Bihar,Rajgir,"Dangi Tola, Rajgir - BSPCB",11-02-2024 19:00:00,25.03280,85.41948,OZONE,21,24,23
India,Bihar,Saharsa,"Police Line, Saharsa - BSPCB",11-02-2024 19:00:00,25.892357,86.590325,PM10,69,233,129
India,Bihar,Saharsa,"Police Line, Saharsa - BSPCB",11-02-2024 19:00:00,25.892357,86.590325,CO,2,78,26
India,Bihar,Saharsa,"Police Line, Saharsa - BSPCB",11-02-2024 19:00:00,25.892357,86.590325,OZONE,15,81,71
India,Bihar,Samastipur,"DM Office_Kasipur, Samastipur - BSPCB",11-02-2024 19:00:00,25.859655,85.77944,PM10,75,153,122
India,Bihar,Samastipur,"DM Office_Kasipur, Samastipur - BSPCB",11-02-2024 19:00:00,25.859655,85.77944,NO2,3,9,5
India,Bihar,Samastipur,"DM Office_Kasipur, Samastipur - BSPCB",11-02-2024 19:00:00,25.859655,85.77944,SO2,1,13,10
India,Bihar,Sasaram,"Dada Peer, Sasaram - BSPCB",11-02-2024 19:00:00,24.952822,84.002396,PM10,NA,NA,NA
India,Bihar,Sasaram,"Dada Peer, Sasaram - BSPCB",11-02-2024 19:00:00,24.952822,84.002396,SO2,NA,NA,NA
India,Bihar,Sasaram,"Dada Peer, Sasaram - BSPCB",11-02-2024 19:00:00,24.952822,84.002396,CO,40,49,44
India,Bihar,Siwan,"Chitragupta Nagar, Siwan - BSPCB",11-02-2024 19:00:00,26.2271665,84.3570427,SO2,9,35,27
India,Chandigarh,Chandigarh,"Sector-25, Chandigarh - CPCC",11-02-2024 19:00:00,30.751462,76.762879,SO2,4,20,10
India,Chandigarh,Chandigarh,"Sector-25, Chandigarh - CPCC",11-02-2024 19:00:00,30.751462,76.762879,OZONE,1,64,51
India,Chandigarh,Chandigarh,"Sector-53, Chandigarh - CPCC",11-02-2024 19:00:00,30.719859,76.738637,PM2.5,253,401,347
India,Chhattisgarh,Bhilai,"32Bungalows, Bhilai - CECB",11-02-2024 19:00:00,21.194815,81.314770,SO2,4,8,6
India,Chhattisgarh,Bhilai,"32Bungalows, Bhilai - CECB",11-02-2024 19:00:00,21.194815,81.314770,OZONE,4,11,8
India,Chhattisgarh,Bhilai,"Hathkhoj, Bhilai - CECB",11-02-2024 19:00:00,21.224231,81.408350,PM10,110,152,124
India,Chhattisgarh,Chhal,"Nawapara SECL Colony, Chhal - CECB",11-02-2024 19:00:00,22.118125,83.140608,OZONE,2,73,57
India,Chhattisgarh,Korba,"Rampur, Korba - CECB",11-02-2024 19:00:00,22.368195,82.746431,SO2,19,67,29
India,Chhattisgarh,Korba,"Urja Nagar, Korba - CECB",11-02-2024 19:00:00,22.348441,82.549611,PM10,27,188,77
India,Chhattisgarh,Korba,"Urja Nagar, Korba - CECB",11-02-2024 19:00:00,22.348441,82.549611,NO2,77,91,82
India,Chhattisgarh,Korba,"Urja Nagar, Korba - CECB",11-02-2024 19:00:00,22.348441,82.549611,NH3,4,9,6
India,Chhattisgarh,Korba,"Urja Nagar, Korba - CECB",11-02-2024 19:00:00,22.348441,82.549611,SO2,6,15,9
India,Chhattisgarh,Korba,"Urja Nagar, Korba - CECB",11-02-2024 19:00:00,22.348441,82.549611,CO,27,50,28
India,Chhattisgarh,Kunjemura,"OP Jindal School, Kunjemura - CECB",11-02-2024 19:00:00,22.126650,83.483212,SO2,7,20,13
India,Chhattisgarh,Kunjemura,"OP Jindal School, Kunjemura - CECB",11-02-2024 19:00:00,22.126650,83.483212,CO,36,74,42
India,Chhattisgarh,Milupara,"Govt. Higher Secondary School, Milupara - CECB",11-02-2024 19:00:00,22.1910172,83.5197009,NH3,1,2,2
India,Chhattisgarh,Milupara,"Govt. Higher Secondary School, Milupara - CECB",11-02-2024 19:00:00,22.1910172,83.5197009,CO,25,50,30
India,Chhattisgarh,Raipur,"AIIMS, Raipur - CECB",11-02-2024 19:00:00,21.258815,81.578979,NO2,40,63,53
India,Chhattisgarh,Raipur,"AIIMS, Raipur - CECB",11-02-2024 19:00:00,21.258815,81.578979,OZONE,1,13,7
India,Chhattisgarh,Raipur,"Bhatagaon New ISBT, Raipur - CECB",11-02-2024 19:00:00,21.219665,81.630094,PM2.5,37,70,54
India,Chhattisgarh,Raipur,"Bhatagaon New ISBT, Raipur - CECB",11-02-2024 19:00:00,21.219665,81.630094,NO2,68,100,80
India,Chhattisgarh,Raipur,"Siltara Phase-II, Raipur - CECB",11-02-2024 19:00:00,21.371751,81.664929,PM10,76,146,111
India,Delhi,Delhi,"Ashok Vihar, Delhi - DPCC",11-02-2024 19:00:00,28.695381,77.181665,PM10,156,367,248
India,Delhi,Delhi,"Ashok Vihar, Delhi - DPCC",11-02-2024 19:00:00,28.695381,77.181665,OZONE,4,25,19
India,Delhi,Delhi,"Aya Nagar, Delhi - IMD",11-02-2024 19:00:00,28.4706914,77.1099364,PM10,144,365,223
India,Delhi,Delhi,"Aya Nagar, Delhi - IMD",11-02-2024 19:00:00,28.4706914,77.1099364,NO2,33,83,50
India,Delhi,Delhi,"Bawana, Delhi - DPCC",11-02-2024 19:00:00,28.776200,77.051074,PM10,112,372,210
India,Delhi,Delhi,"Bawana, Delhi - DPCC",11-02-2024 19:00:00,28.776200,77.051074,OZONE,4,102,69
India,Delhi,Delhi,"DTU, Delhi - CPCB",11-02-2024 19:00:00,28.7500499,77.1112615,SO2,26,28,27
India,Delhi,Delhi,"Dr. Karni Singh Shooting Range, Delhi - DPCC",11-02-2024 19:00:00,28.498571,77.264840,PM2.5,284,395,350
India,Delhi,Delhi,"Dr. Karni Singh Shooting Range, Delhi - DPCC",11-02-2024 19:00:00,28.498571,77.264840,NO2,53,190,113
India,Delhi,Delhi,"Dwarka-Sector 8, Delhi - DPCC ",11-02-2024 19:00:00,28.5710274,77.0719006,NH3,7,13,10
India,Delhi,Delhi,"IGI Airport (T3), Delhi - IMD",11-02-2024 19:00:00,28.5627763,77.1180053,PM10,134,467,258
India,Delhi,Delhi,"IGI Airport (T3), Delhi - IMD",11-02-2024 19:00:00,28.5627763,77.1180053,NO2,NA,NA,NA
India,Delhi,Delhi,"IHBAS, Dilshad Garden, Delhi - CPCB",11-02-2024 19:00:00,28.6811736,77.3025234,NH3,13,17,15
India,Delhi,Delhi,"IHBAS, Dilshad Garden, Delhi - CPCB",11-02-2024 19:00:00,28.6811736,77.3025234,SO2,2,31,7
India,Delhi,Delhi,"IHBAS, Dilshad Garden, Delhi - CPCB",11-02-2024 19:00:00,28.6811736,77.3025234,OZONE,11,46,39
India,Delhi,Delhi,"Jahangirpuri, Delhi - DPCC",11-02-2024 19:00:00,28.732820,77.170633,PM2.5,219,450,358
India,Delhi,Delhi,"Jahangirpuri, Delhi - DPCC",11-02-2024 19:00:00,28.732820,77.170633,CO,36,110,57
India,Delhi,Delhi,"Jawaharlal Nehru Stadium, Delhi - DPCC",11-02-2024 19:00:00,28.580280,77.233829,PM10,151,304,223
India,Delhi,Delhi,"Jawaharlal Nehru Stadium, Delhi - DPCC",11-02-2024 19:00:00,28.580280,77.233829,OZONE,1,226,134
India,Delhi,Delhi,"Lodhi Road, Delhi - IITM",11-02-2024 19:00:00,28.588333,77.221667,SO2,21,35,30
India,Delhi,Delhi,"Mandir Marg, Delhi - DPCC",11-02-2024 19:00:00,28.636429,77.201067,NH3,17,19,18
India,Delhi,Delhi,"Mandir Marg, Delhi - DPCC",11-02-2024 19:00:00,28.636429,77.201067,OZONE,11,41,30
India,Delhi,Delhi,"Mundka, Delhi - DPCC",11-02-2024 19:00:00,28.684678,77.076574,PM10,128,435,253
India,Delhi,Delhi,"NSIT Dwarka, Delhi - CPCB",11-02-2024 19:00:00,28.60909,77.0325413,PM10,155,379,241
India,Delhi,Delhi,"NSIT Dwarka, Delhi - CPCB",11-02-2024 19:00:00,28.60909,77.0325413,CO,26,80,38
India,Delhi,Delhi,"Najafgarh, Delhi - DPCC",11-02-2024 19:00:00,28.570173,76.933762,SO2,8,16,12
India,Delhi,Delhi,"Narela, Delhi - DPCC",11-02-2024 19:00:00,28.822836,77.101981,PM10,124,341,212
India,Delhi,Delhi,"Narela, Delhi - DPCC",11-02-2024 19:00:00,28.822836,77.101981,OZONE,10,189,147
India,Delhi,Delhi,"Nehru Nagar, Delhi - DPCC",11-02-2024 19:00:00,28.567890,77.250515,OZONE,2,247,151
India,Delhi,Delhi,"North Campus, DU, Delhi - IMD",11-02-2024 19:00:00,28.6573814,77.1585447,PM2.5,250,379,327
India,Delhi,Delhi,"North Campus, DU, Delhi - IMD",11-02-2024 19:00:00,28.6573814,77.1585447,CO,12,50,15
India,Delhi,Delhi,"Okhla Phase-2, Delhi - DPCC",11-02-2024 19:00:00,28.530785,77.271255,NH3,13,17,15
India,Delhi,Delhi,"Patparganj, Delhi - DPCC",11-02-2024 19:00:00,28.623763,77.287209,OZONE,1,147,83
India,Delhi,Delhi,"Punjabi Bagh, Delhi - DPCC",11-02-2024 19:00:00,28.674045,77.131023,SO2,3,27,8
India,Delhi,Delhi,"Punjabi Bagh, Delhi - DPCC",11-02-2024 19:00:00,28.674045,77.131023,OZONE,6,53,29
India,Delhi,Delhi,"Pusa, Delhi - DPCC",11-02-2024 19:00:00,28.639652,77.146275,NO2,70,390,221
India,Delhi,Delhi,"Pusa, Delhi - DPCC",11-02-2024 19:00:00,28.639652,77.146275,SO2,3,32,15
India,Delhi,Delhi,"Pusa, Delhi - IMD",11-02-2024 19:00:00,28.636110,77.173332,PM10,147,226,176
India,Delhi,Delhi,"Pusa, Delhi - IMD",11-02-2024 19:00:00,28.636110,77.173332,CO,80,100,83
India,Delhi,Delhi,"R K Puram, Delhi - DPCC",11-02-2024 19:00:00,28.563262,77.186937,PM10,120,424,239
India,Delhi,Delhi,"R K Puram, Delhi - DPCC",11-02-2024 19:00:00,28.563262,77.186937,NO2,47,153,85
India,Delhi,Delhi,"R K Puram, Delhi - DPCC",11-02-2024 19:00:00,28.563262,77.186937,SO2,6,49,29
India,Delhi,Delhi,"Rohini, Delhi - DPCC",11-02-2024 19:00:00,28.732528,77.119920,PM2.5,202,480,348
India,Delhi,Delhi,"Rohini, Delhi - DPCC",11-02-2024 19:00:00,28.732528,77.119920,OZONE,2,135,94
India,Delhi,Delhi,"Shadipur, Delhi - CPCB",11-02-2024 19:00:00,28.6514781,77.1473105,PM10,211,378,311
India,Delhi,Delhi,"Shadipur, Delhi - CPCB",11-02-2024 19:00:00,28.6514781,77.1473105,NH3,22,34,30
India,Delhi,Delhi,"Sirifort, Delhi - CPCB",11-02-2024 19:00:00,28.5504249,77.2159377,PM10,58,127,89
India,Delhi,Delhi,"Sirifort, Delhi - CPCB",11-02-2024 19:00:00,28.5504249,77.2159377,NH3,9,13,11
India,Delhi,Delhi,"Sonia Vihar, Delhi - DPCC",11-02-2024 19:00:00,28.710508,77.249485,NH3,6,10,8
India,Delhi,Delhi,"Sonia Vihar, Delhi - DPCC",11-02-2024 19:00:00,28.710508,77.249485,OZONE,3,192,134
India,Delhi,Delhi,"Sri Aurobindo Marg, Delhi - DPCC",11-02-2024 19:00:00,28.531346,77.190156,PM2.5,267,365,331
India,Gujarat,Ahmedabad,"Chandkheda, Ahmedabad - IITM",11-02-2024 19:00:00,23.107969,72.574648,PM10,41,180,96
India,Gujarat,Ahmedabad,"Chandkheda, Ahmedabad - IITM",11-02-2024 19:00:00,23.107969,72.574648,CO,1,104,23
India,Gujarat,Ahmedabad,"Gyaspur, Ahmedabad - IITM",11-02-2024 19:00:00,22.977134,72.553024,CO,15,24,18
India,Gujarat,Ahmedabad,"Maninagar, Ahmedabad - GPCB",11-02-2024 19:00:00,23.002657,72.591912,PM2.5,26,73,42
India,Gujarat,Ahmedabad,"Raikhad, Ahmedabad - IITM",11-02-2024 19:00:00,23.020509,72.579261,CO,60,108,77
India,Gujarat,Ahmedabad,"Rakhial, Ahmedabad - IITM",11-02-2024 19:00:00,23.016834,72.625775,NH3,4,14,9
India,Gujarat,Ahmedabad,"Rakhial, Ahmedabad - IITM",11-02-2024 19:00:00,23.016834,72.625775,SO2,3,6,4
India,Gujarat,Ahmedabad,"SAC ISRO Satellite, Ahmedabad - IITM",11-02-2024 19:00:00,23.023389,72.515201,PM2.5,123,200,145
India,Gujarat,Ahmedabad,"SAC ISRO Satellite, Ahmedabad - IITM",11-02-2024 19:00:00,23.023389,72.515201,SO2,12,21,15
India,Gujarat,Ahmedabad,"SVPI Airport Hansol, Ahmedabad - IITM",11-02-2024 19:00:00,23.076793,72.627874,SO2,2,6,4
India,Gujarat,Ahmedabad,"SVPI Airport Hansol, Ahmedabad - IITM",11-02-2024 19:00:00,23.076793,72.627874,CO,NA,NA,NA
India,Gujarat,Ahmedabad,"SVPI Airport Hansol, Ahmedabad - IITM",11-02-2024 19:00:00,23.076793,72.627874,OZONE,10,27,24
India,Gujarat,Ahmedabad,"Sardar Vallabhbhai Patel Stadium, Ahmedabad - IITM",11-02-2024 19:00:00,23.043070,72.562968,PM2.5,48,95,68
India,Gujarat,Ankleshwar,"GIDC, Ankleshwar - GPCB",11-02-2024 19:00:00,21.613267,73.010555,NO2,36,37,36
India,Gujarat,Gandhinagar,"IIPHG Lekawada, Gandhinagar - IITM",11-02-2024 19:00:00,23.243639,72.68994,PM2.5,73,148,127
India,Gujarat,Gandhinagar,"IIPHG Lekawada, Gandhinagar - IITM",11-02-2024 19:00:00,23.243639,72.68994,NO2,12,20,15
India,Gujarat,Gandhinagar,"Sector-10, Gandhinagar - GPCB",11-02-2024 19:00:00,23.221714,72.654328,NO2,3,14,8
India,Gujarat,Surat,"Science Center, Surat - SMC",11-02-2024 19:00:00,21.170046,72.795405,PM10,41,150,68
India,Gujarat,Vapi,"Phase-1 GIDC, Vapi - GPCB",11-02-2024 19:00:00,20.362421,72.918013,NH3,15,92,25
India,Gujarat,Vapi,"Phase-1 GIDC, Vapi - GPCB",11-02-2024 19:00:00,20.362421,72.918013,SO2,42,45,44
India,Gujarat,Vapi,"Phase-1 GIDC, Vapi - GPCB",11-02-2024 19:00:00,20.362421,72.918013,CO,1,188,110
India,Gujarat,Vatva,"Phase-4 GIDC, Vatva - GPCB",11-02-2024 19:00:00,22.969611,72.643500,PM10,42,78,61
India,Gujarat,Vatva,"Phase-4 GIDC, Vatva - GPCB",11-02-2024 19:00:00,22.969611,72.643500,NO2,24,105,42
India,Gujarat,Vatva,"Phase-4 GIDC, Vatva - GPCB",11-02-2024 19:00:00,22.969611,72.643500,CO,48,50,49
India,Haryana,Ambala,"Patti Mehar, Ambala - HSPCB",11-02-2024 19:00:00,30.379589,76.778328,NH3,6,6,6
India,Haryana,Ambala,"Patti Mehar, Ambala - HSPCB",11-02-2024 19:00:00,30.379589,76.778328,CO,30,60,43
India,Haryana,Bahadurgarh,"Arya Nagar, Bahadurgarh - HSPCB",11-02-2024 19:00:00,28.6701,76.9254,PM10,88,365,149
India,Haryana,Ballabgarh,"Nathu Colony, Ballabgarh - HSPCB",11-02-2024 19:00:00,28.3419248,77.319699,OZONE,3,25,19
India,Haryana,Bhiwani,"H.B. Colony, Bhiwani - HSPCB",11-02-2024 19:00:00,28.806223,76.141105,SO2,5,15,10
India,Haryana,Bhiwani,"H.B. Colony, Bhiwani - HSPCB",11-02-2024 19:00:00,28.806223,76.141105,CO,16,48,32
India,Haryana,Dharuhera,"Municipal Corporation Office, Dharuhera -  HSPCB",11-02-2024 19:00:00,28.206800,76.799700,PM2.5,78,315,201
India,Haryana,Faridabad,"New Industrial Town, Faridabad - HSPCB",11-02-2024 19:00:00,28.39072,77.30059,OZONE,26,261,179
India,Haryana,Faridabad,"Sector 11, Faridabad - HSPCB",11-02-2024 19:00:00,28.376058,77.315741,NO2,30,32,31
India,Haryana,Faridabad,"Sector 11, Faridabad - HSPCB",11-02-2024 19:00:00,28.376058,77.315741,NH3,6,6,6
India,Haryana,Faridabad,"Sector 11, Faridabad - HSPCB",11-02-2024 19:00:00,28.376058,77.315741,SO2,11,15,13
India,Haryana,Faridabad,"Sector 30, Faridabad - HSPCB",11-02-2024 19:00:00,28.4417,77.3217,PM2.5,125,178,156
India,Haryana,Fatehabad,"Huda Sector, Fatehabad - HSPCB",11-02-2024 19:00:00,29.503664,75.467934,PM2.5,82,348,160
India,Haryana,Fatehabad,"Huda Sector, Fatehabad - HSPCB",11-02-2024 19:00:00,29.503664,75.467934,NO2,24,25,25
India,Haryana,Fatehabad,"Huda Sector, Fatehabad - HSPCB",11-02-2024 19:00:00,29.503664,75.467934,SO2,5,11,7
India,Haryana,Gurugram,"Teri Gram, Gurugram - HSPCB",11-02-2024 19:00:00,28.4275,77.1465,NH3,NA,NA,NA
India,Haryana,Gurugram,"Teri Gram, Gurugram - HSPCB",11-02-2024 19:00:00,28.4275,77.1465,OZONE,10,10,10
India,Haryana,Hisar,"Urban Estate-II, Hisar - HSPCB",11-02-2024 19:00:00,29.140560,75.744941,NH3,3,4,4
India,Haryana,Hisar,"Urban Estate-II, Hisar - HSPCB",11-02-2024 19:00:00,29.140560,75.744941,OZONE,58,161,142
India,Haryana,Jind,"Police Lines, Jind - HSPCB",11-02-2024 19:00:00,29.307814,76.337619,PM2.5,68,192,136
India,Haryana,Jind,"Police Lines, Jind - HSPCB",11-02-2024 19:00:00,29.307814,76.337619,SO2,4,18,8
India,Haryana,Kaithal,"Rishi Nagar, Kaithal - HSPCB",11-02-2024 19:00:00,29.8006,76.4155,PM10,75,139,114
India,Haryana,Karnal,"Sector-12, Karnal - HSPCB",11-02-2024 19:00:00,29.695300,77.002700,PM10,77,121,107
India,Haryana,Karnal,"Sector-12, Karnal - HSPCB",11-02-2024 19:00:00,29.695300,77.002700,NO2,7,12,10
India,Haryana,Karnal,"Sector-12, Karnal - HSPCB",11-02-2024 19:00:00,29.695300,77.002700,OZONE,29,33,31
India,Haryana,Kurukshetra,"Sector-7, Kurukshetra - HSPCB",11-02-2024 19:00:00,29.966942,76.875879,NO2,10,10,10
India,Haryana,Mandikhera,"General Hospital, Mandikhera - HSPCB",11-02-2024 19:00:00,27.9002,76.9938,PM2.5,30,74,47
India,Haryana,Mandikhera,"General Hospital, Mandikhera - HSPCB",11-02-2024 19:00:00,27.9002,76.9938,PM10,74,153,106
India,Haryana,Mandikhera,"General Hospital, Mandikhera - HSPCB",11-02-2024 19:00:00,27.9002,76.9938,OZONE,23,30,27
India,Haryana,Rohtak,"MD University, Rohtak - HSPCB",11-02-2024 19:00:00,28.52123,76.37138,OZONE,45,57,49
India,Haryana,Sirsa,"F-Block, Sirsa - HSPCB",11-02-2024 19:00:00,29.536400,75.015800,PM10,43,119,79
India,Haryana,Sirsa,"F-Block, Sirsa - HSPCB",11-02-2024 19:00:00,29.536400,75.015800,NO2,10,10,10
India,Haryana,Sirsa,"F-Block, Sirsa - HSPCB",11-02-2024 19:00:00,29.536400,75.015800,NH3,12,13,13
India,Haryana,Sirsa,"F-Block, Sirsa - HSPCB",11-02-2024 19:00:00,29.536400,75.015800,OZONE,21,137,98
India,Haryana,Sonipat,"Murthal, Sonipat - HSPCB",11-02-2024 19:00:00,29.027200,77.062100,PM2.5,105,303,213
India,Haryana,Sonipat,"Murthal, Sonipat - HSPCB",11-02-2024 19:00:00,29.027200,77.062100,OZONE,16,36,35
India,Haryana,Yamuna Nagar,"Gobind Pura, Yamuna Nagar - HSPCB",11-02-2024 19:00:00,30.1480566,77.2893471,PM2.5,110,212,155
India,Himachal Pradesh,Baddi,"HIMUDA Complex Phase-1, Baddi - HPPCB",11-02-2024 19:00:00,30.943887,76.801991,NH3,4,7,5
India,Himachal Pradesh,Baddi,"HIMUDA Complex Phase-1, Baddi - HPPCB",11-02-2024 19:00:00,30.943887,76.801991,OZONE,16,130,95
India,Jharkhand,Pathardih,"Mohalbani Ghat, Pathardih - DMC",11-02-2024 19:00:00,23.669880,86.411725,SO2,18,21,20
India,Karnataka,Belgaum,"Ramteerth Nagar, Belgaum - KSPCB",11-02-2024 19:00:00,15.888653,74.541751,NO2,NA,NA,NA
India,Karnataka,Bengaluru,"BTM Layout, Bengaluru - CPCB",11-02-2024 19:00:00,12.9135218,77.5950804,NO2,NA,NA,NA
India,Karnataka,Bengaluru,"BTM Layout, Bengaluru - CPCB",11-02-2024 19:00:00,12.9135218,77.5950804,SO2,NA,NA,NA
India,Karnataka,Bengaluru,"Bapuji Nagar, Bengaluru - KSPCB",11-02-2024 19:00:00,12.951913,77.539784,SO2,5,7,6
India,Karnataka,Bengaluru,"Hebbal, Bengaluru - KSPCB",11-02-2024 19:00:00,13.029152,77.585901,NO2,5,5,5
India,Karnataka,Bengaluru,"Hebbal, Bengaluru - KSPCB",11-02-2024 19:00:00,13.029152,77.585901,NH3,1,1,1
India,Karnataka,Bengaluru,"Hebbal, Bengaluru - KSPCB",11-02-2024 19:00:00,13.029152,77.585901,OZONE,9,22,11
India,Karnataka,Bengaluru,"Hombegowda Nagar, Bengaluru - KSPCB",11-02-2024 19:00:00,12.938539,77.590100,PM2.5,43,89,58
India,Karnataka,Bengaluru,"Hombegowda Nagar, Bengaluru - KSPCB",11-02-2024 19:00:00,12.938539,77.590100,NO2,30,41,36
India,Karnataka,Bengaluru,"Hombegowda Nagar, Bengaluru - KSPCB",11-02-2024 19:00:00,12.938539,77.590100,CO,16,20,17
India,Karnataka,Bengaluru,"Kasturi Nagar, Bengaluru - KSPCB",11-02-2024 19:00:00,13.003872,77.664217,CO,21,26,23
India,Karnataka,Bengaluru,"Peenya, Bengaluru - CPCB",11-02-2024 19:00:00,13.0270199,77.494094,CO,31,42,42
India,Karnataka,Bengaluru,"Sanegurava Halli, Bengaluru - KSPCB",11-02-2024 19:00:00,12.990328,77.5431385,NO2,22,38,28
India,Karnataka,Bengaluru,"Sanegurava Halli, Bengaluru - KSPCB",11-02-2024 19:00:00,12.990328,77.5431385,CO,8,26,16
India,Karnataka,Bengaluru,"Shivapura_Peenya, Bengaluru - KSPCB",11-02-2024 19:00:00,13.0246342,77.5080115,PM10,39,103,76
India,Karnataka,Bengaluru,"Silk Board, Bengaluru - KSPCB",11-02-2024 19:00:00,12.917348,77.622813,PM2.5,37,78,61
India,Karnataka,Bengaluru,"Silk Board, Bengaluru - KSPCB",11-02-2024 19:00:00,12.917348,77.622813,CO,26,38,32
India,Karnataka,Bidar,"Naubad, Bidar - KSPCB",11-02-2024 19:00:00,17.930306,77.482194,NH3,3,3,3
India,Karnataka,Bidar,"Naubad, Bidar - KSPCB",11-02-2024 19:00:00,17.930306,77.482194,OZONE,8,37,33
India,Karnataka,Chamarajanagar,"Urban, Chamarajanagar - KSPCB",11-02-2024 19:00:00,11.55358,76.55521,NO2,23,43,34
India,Karnataka,Chamarajanagar,"Urban, Chamarajanagar - KSPCB",11-02-2024 19:00:00,11.55358,76.55521,NH3,2,3,2
India,Karnataka,Chamarajanagar,"Urban, Chamarajanagar - KSPCB",11-02-2024 19:00:00,11.55358,76.55521,SO2,2,8,5
India,Karnataka,Chamarajanagar,"Urban, Chamarajanagar - KSPCB",11-02-2024 19:00:00,11.55358,76.55521,OZONE,14,36,32
India,Karnataka,Chikkaballapur,"Chikkaballapur Rural, Chikkaballapur - KSPCB",11-02-2024 19:00:00,13.428828,77.731418,SO2,16,26,21
India,Karnataka,Chikkamagaluru,"Kalyana Nagara, Chikkamagaluru - KSPCB",11-02-2024 19:00:00,13.328028,75.797056,PM2.5,16,94,52
India,Karnataka,Chikkamagaluru,"Kalyana Nagara, Chikkamagaluru - KSPCB",11-02-2024 19:00:00,13.328028,75.797056,SO2,3,9,4
India,Karnataka,Chikkamagaluru,"Kalyana Nagara, Chikkamagaluru - KSPCB",11-02-2024 19:00:00,13.328028,75.797056,CO,11,106,46
India,Karnataka,Davanagere,"Devaraj Urs Badavane, Davanagere - KSPCB",11-02-2024 19:00:00,14.475800,75.905200,CO,16,20,17
India,Karnataka,Dharwad,"Kalabhavan, Dharwad - KSPCB",11-02-2024 19:00:00,15.459706,75.008381,NH3,2,3,3
India,Karnataka,Gadag,"Panchal Nagar, Gadag - KSPCB",11-02-2024 19:00:00,15.411456,75.638133,SO2,15,18,16
India,Karnataka,Gadag,"Panchal Nagar, Gadag - KSPCB",11-02-2024 19:00:00,15.411456,75.638133,OZONE,36,73,64
India,Karnataka,Haveri,"Ashwini Nagar, Haveri - KSPCB",11-02-2024 19:00:00,14.791800,75.389600,PM10,NA,NA,NA
India,Karnataka,Hubballi,"Lingaraj Nagar, Hubballi - KSPCB",11-02-2024 19:00:00,15.3714823,75.1160168,PM2.5,9,79,41
India,Karnataka,Kalaburagi,"Lal Bahadur Shastri Nagar, Kalaburagi - KSPCB",11-02-2024 19:00:00,17.321993,76.822628,OZONE,3,33,20
India,Karnataka,Kalaburagi,"Mahatma Basaveswar Colony, Kalaburgi - KSPCB",11-02-2024 19:00:00,17.336318,76.847397,NH3,2,4,3
India,Karnataka,Karwar,"KHB Colony, Karwar - KSPCB",11-02-2024 19:00:00,14.816666,74.141003,PM10,73,149,99
India,Karnataka,Karwar,"KHB Colony, Karwar - KSPCB",11-02-2024 19:00:00,14.816666,74.141003,NO2,NA,NA,NA
India,Karnataka,Kolar,"Tamaka Ind. Area, Kolar - KSPCB",11-02-2024 19:00:00,13.1276288,78.1570122,NO2,3,17,7
India,Karnataka,Koppal,"Diwator Nagar, Koppal - KSPCB",11-02-2024 19:00:00,15.347630,76.181767,PM2.5,27,57,39
India,Karnataka,Koppal,"Diwator Nagar, Koppal - KSPCB",11-02-2024 19:00:00,15.347630,76.181767,CO,24,38,25
India,Karnataka,Madikeri,"Stuart Hill, Madikeri - KSPCB",11-02-2024 19:00:00,12.415911,75.735050,NH3,1,1,1
India,Karnataka,Madikeri,"Stuart Hill, Madikeri - KSPCB",11-02-2024 19:00:00,12.415911,75.735050,OZONE,28,42,38
India,Karnataka,Mangalore,"Kadri, Mangalore - KSPCB",11-02-2024 19:00:00,12.889250,74.853000,NO2,3,9,7
India,Karnataka,Mangalore,"Kadri, Mangalore - KSPCB",11-02-2024 19:00:00,12.889250,74.853000,OZONE,30,33,32
India,Karnataka,Mysuru,"Hebbal 1st Stage, Mysuru - KSPCB",11-02-2024 19:00:00,12.21041,76.37376,PM2.5,34,47,40
India,Karnataka,Raichur,"Haji Colony, Raichur - KSPCB",11-02-2024 19:00:00,16.208139,77.348417,NO2,16,47,28
India,Karnataka,Ramanagara,"Vijay Nagar, Ramanagara - KSPCB",11-02-2024 19:00:00,12.733409,77.298051,PM2.5,41,93,62
India,Karnataka,Ramanagara,"Vijay Nagar, Ramanagara - KSPCB",11-02-2024 19:00:00,12.733409,77.298051,CO,4,19,6
India,Karnataka,Shivamogga,"Vinoba Nagara, Shivamogga - KSPCB",11-02-2024 19:00:00,13.940000,75.555917,SO2,3,15,7
India,Karnataka,Shivamogga,"Vinoba Nagara, Shivamogga - KSPCB",11-02-2024 19:00:00,13.940000,75.555917,OZONE,6,70,57
India,Karnataka,Tumakuru,"Thimmalapura, Tumakuru - KSPCB",11-02-2024 19:00:00,13.377516,77.099072,PM10,14,36,23
India,Karnataka,Udupi,"Brahmagiri, Udupi - KSPCB",11-02-2024 19:00:00,13.34194444,74.74694444,PM10,34,78,58
India,Karnataka,Udupi,"Brahmagiri, Udupi - KSPCB",11-02-2024 19:00:00,13.34194444,74.74694444,NO2,13,14,14
India,Karnataka,Udupi,"Brahmagiri, Udupi - KSPCB",11-02-2024 19:00:00,13.34194444,74.74694444,OZONE,23,24,23
India,Karnataka,Vijayapura,"Ibrahimpur, Vijayapura - KSPCB",11-02-2024 19:00:00,16.802639,75.722694,CO,NA,NA,NA
India,Karnataka,Yadgir,"Collector Office, Yadgir - KSPCB",11-02-2024 19:00:00,16.7602,77.1428,NH3,NA,NA,NA
India,Kerala,Eloor,"Udyogamandal, Eloor - Kerala PCB",11-02-2024 19:00:00,10.073232,76.302765,PM2.5,41,60,49
India,Kerala,Eloor,"Udyogamandal, Eloor - Kerala PCB",11-02-2024 19:00:00,10.073232,76.302765,CO,8,81,61
India,Kerala,Kannur,"Thavakkara, Kannur - Kerala PCB",11-02-2024 19:00:00,11.875000,75.373200,PM2.5,44,52,47
India,Kerala,Kollam,"Polayathode, Kollam - Kerala PCB",11-02-2024 19:00:00,8.8787,76.6073,PM10,82,120,105
India,Kerala,Kollam,"Polayathode, Kollam - Kerala PCB",11-02-2024 19:00:00,8.8787,76.6073,NO2,8,9,8
India,Kerala,Thiruvananthapuram,"Kariavattom, Thiruvananthapuram - Kerala PCB",11-02-2024 19:00:00,8.563700,76.886500,SO2,1,13,8
India,Kerala,Thiruvananthapuram,"Kariavattom, Thiruvananthapuram - Kerala PCB",11-02-2024 19:00:00,8.563700,76.886500,CO,18,44,21
India,Kerala,Thiruvananthapuram,"Plammoodu, Thiruvananthapuram - Kerala PCB",11-02-2024 19:00:00,8.5149093,76.9435879,OZONE,12,60,17
India,Madhya Pradesh,Bhopal,"Idgah Hills, Bhopal - MPPCB",11-02-2024 19:00:00,23.264759,77.381568,NO2,15,43,27
India,Madhya Pradesh,Bhopal,"Paryavaran Parisar, Bhopal - MPPCB",11-02-2024 19:00:00,23.210494,77.425409,PM10,69,111,93
India,Madhya Pradesh,Bhopal,"T T Nagar, Bhopal - MPPCB",11-02-2024 19:00:00,23.233584,77.400574,PM10,73,116,100
India,Madhya Pradesh,Dewas,"Bhopal Chauraha, Dewas - MPPCB",11-02-2024 19:00:00,22.9682591,76.064118,PM2.5,61,101,73
India,Madhya Pradesh,Gwalior,"City Center, Gwalior - MPPCB",11-02-2024 19:00:00,26.203442,78.193251,OZONE,45,68,57
India,Madhya Pradesh,Gwalior,"Maharaj Bada, Gwalior - MPPCB",11-02-2024 19:00:00,26.200388,78.147714,PM2.5,83,357,209
India,Madhya Pradesh,Gwalior,"Maharaj Bada, Gwalior - MPPCB",11-02-2024 19:00:00,26.200388,78.147714,NO2,26,133,59
India,Madhya Pradesh,Gwalior,"Maharaj Bada, Gwalior - MPPCB",11-02-2024 19:00:00,26.200388,78.147714,SO2,19,55,26
India,Madhya Pradesh,Indore,"Chhoti Gwaltoli, Indore - MPPCB",11-02-2024 19:00:00,22.4310,75.5213,NO2,55,121,73
India,Madhya Pradesh,Indore,"Chhoti Gwaltoli, Indore - MPPCB",11-02-2024 19:00:00,22.4310,75.5213,SO2,14,31,20
India,Madhya Pradesh,Indore,"Regional Park, Indore - IMC",11-02-2024 19:00:00,22.6780,75.8559,NH3,1,2,1
India,Madhya Pradesh,Indore,"Residency Area, Indore - IMC",11-02-2024 19:00:00,22.7084,75.8815,PM10,40,75,56
India,Madhya Pradesh,Jabalpur,"Govindh Bhavan Colony, Jabalpur - JMC",11-02-2024 19:00:00,23.163174,79.973061,OZONE,38,86,67
India,Madhya Pradesh,Jabalpur,"Gupteshwar, Jabalpur - JMC",11-02-2024 19:00:00,23.142888,79.916147,NH3,2,3,3
India,Madhya Pradesh,Jabalpur,"Suhagi, Jabalpur - JMC",11-02-2024 19:00:00,23.218135,79.957770,PM2.5,NA,NA,NA
India,Madhya Pradesh,Pithampur,"Sector-2 Industrial Area, Pithampur - MPPCB",11-02-2024 19:00:00,22.624758,75.675238,NO2,10,20,15
India,Madhya Pradesh,Pithampur,"Sector-2 Industrial Area, Pithampur - MPPCB",11-02-2024 19:00:00,22.624758,75.675238,NH3,6,8,8
India,Madhya Pradesh,Pithampur,"Sector-2 Industrial Area, Pithampur - MPPCB",11-02-2024 19:00:00,22.624758,75.675238,SO2,10,17,14
India,Madhya Pradesh,Ratlam,"Shasthri Nagar, Ratlam - IPCA Lab",11-02-2024 19:00:00,23.331731,75.045981,NO2,22,102,45
India,Madhya Pradesh,Sagar,"Civil Lines, Sagar - MPPCB",11-02-2024 19:00:00,23.838586,78.759431,NH3,2,4,3
India,Madhya Pradesh,Sagar,"Deen Dayal Nagar, Sagar - MPPCB",11-02-2024 19:00:00,23.8640158,78.80289321,CO,52,64,56
India,Madhya Pradesh,Satna,"Bandhavgar Colony, Satna - Birla Cement",11-02-2024 19:00:00,24.58434363,80.8549414,CO,18,36,20
India,Madhya Pradesh,Singrauli,"Suryakiran Bhawan NCL, Singrauli - MPPCB",11-02-2024 19:00:00,24.108970,82.645580,PM10,102,383,191
India,Madhya Pradesh,Singrauli,"Suryakiran Bhawan NCL, Singrauli - MPPCB",11-02-2024 19:00:00,24.108970,82.645580,NH3,4,6,5
India,Madhya Pradesh,Ujjain,"Mahakaleshwar Temple, Ujjain - MPPCB",11-02-2024 19:00:00,23.182719 ,75.768218 ,NH3,4,5,5
India,Madhya Pradesh,Ujjain,"Mahakaleshwar Temple, Ujjain - MPPCB",11-02-2024 19:00:00,23.182719 ,75.768218 ,SO2,5,17,10
India,Maharashtra,Amravati,"Shri Shivaji Science College, Amaravati - MPCB",11-02-2024 19:00:00,20.939198,77.765701,NO2,9,72,18
India,Maharashtra,Amravati,"Shri Shivaji Science College, Amaravati - MPCB",11-02-2024 19:00:00,20.939198,77.765701,NH3,5,5,5
India,Maharashtra,Aurangabad,"More Chowk Waluj, Aurangabad - MPCB",11-02-2024 19:00:00,19.8389439,75.244448,PM10,39,151,76
India,Maharashtra,Aurangabad,"More Chowk Waluj, Aurangabad - MPCB",11-02-2024 19:00:00,19.8389439,75.244448,NO2,32,35,33
India,Maharashtra,Aurangabad,"More Chowk Waluj, Aurangabad - MPCB",11-02-2024 19:00:00,19.8389439,75.244448,SO2,10,12,11
India,Maharashtra,Aurangabad,"Rachnakar Colony, Aurangabad - MPCB",11-02-2024 19:00:00,19.863756,75.321188,OZONE,12,82,67
India,Maharashtra,Belapur,"CBD Belapur, Belapur - MPCB",11-02-2024 19:00:00,19.0243902,73.0406721,OZONE,1,86,60
India,Maharashtra,Bhiwandi,"Gokul Nagar, Bhiwandi - MPCB",11-02-2024 19:00:00,19.309073,73.057223,PM10,77,216,127
India,Maharashtra,Bhiwandi,"Gokul Nagar, Bhiwandi - MPCB",11-02-2024 19:00:00,19.309073,73.057223,NH3,1,2,2
India,Maharashtra,Boisar,"Khaira, Boisar - MPCB",11-02-2024 19:00:00,19.786089,72.757971,CO,NA,NA,NA
India,Maharashtra,Chandrapur,"Chauhan Colony, Chandrapur - MPCB",11-02-2024 19:00:00,19.962900,79.298714,PM2.5,NA,NA,NA
India,Maharashtra,Chandrapur,"Chauhan Colony, Chandrapur - MPCB",11-02-2024 19:00:00,19.962900,79.298714,SO2,2,24,7
India,Maharashtra,Chandrapur,"Chauhan Colony, Chandrapur - MPCB",11-02-2024 19:00:00,19.962900,79.298714,OZONE,9,22,14
India,Maharashtra,Jalgaon,"Prabhat Colony, Jalgaon - MPCB",11-02-2024 19:00:00,21.001264,75.565602,NO2,20,157,42
India,Maharashtra,Jalgaon,"Prabhat Colony, Jalgaon - MPCB",11-02-2024 19:00:00,21.001264,75.565602,NH3,NA,NA,NA
India,Maharashtra,Jalna,"Old MIDC, Jalna - MPCB",11-02-2024 19:00:00,19.854616,75.905894,NH3,6,8,7
India,Maharashtra,Kolhapur,"Shivaji University, Kolhapur - MPCB",11-02-2024 19:00:00,16.6870449,74.2505872,NH3,3,9,5
India,Maharashtra,Kolhapur,"Sinchan Bhavan, Kolhapur - MPCB",11-02-2024 19:00:00,16.7143745,74.2426398,SO2,1,18,6
India,Maharashtra,Kolhapur,"Sinchan Bhavan, Kolhapur - MPCB",11-02-2024 19:00:00,16.7143745,74.2426398,OZONE,27,271,198
India,Maharashtra,Latur,"Sawe Wadi, Latur - MPCB",11-02-2024 19:00:00,18.39963,76.57452,SO2,9,19,17
India,Maharashtra,Mahad,"Kamble Tarf Birwadi, Mahad - MPCB",11-02-2024 19:00:00,18.1023399,73.4783687,CO,23,29,25
India,Maharashtra,Malegaon,"Mahesh Nagar, Malegaon - MPCB",11-02-2024 19:00:00,20.555712,74.529236,PM2.5,45,427,178
India,Maharashtra,Mira-Bhayandar,"Bhayandar West, Mira-Bhayandar - MPCB",11-02-2024 19:00:00,19.296481,72.840923,SO2,4,41,15
India,Maharashtra,Mira-Bhayandar,"Bhayandar West, Mira-Bhayandar - MPCB",11-02-2024 19:00:00,19.296481,72.840923,CO,21,78,27
India,Maharashtra,Mumbai,"Bandra Kurla Complex, Mumbai - MPCB",11-02-2024 19:00:00,19.065931,72.862131,OZONE,1,58,47
India,Maharashtra,Mumbai,"Borivali East, Mumbai - MPCB",11-02-2024 19:00:00,19.2243333,72.8658113,PM10,27,144,76
India,Maharashtra,Mumbai,"Borivali East, Mumbai - MPCB",11-02-2024 19:00:00,19.2243333,72.8658113,NO2,7,46,16
India,Maharashtra,Mumbai,"Borivali East, Mumbai - MPCB",11-02-2024 19:00:00,19.2243333,72.8658113,NH3,1,2,1
India,Maharashtra,Mumbai,"Byculla, Mumbai - BMC",11-02-2024 19:00:00,18.9767,72.8380,PM2.5,39,142,74
India,Maharashtra,Mumbai,"Byculla, Mumbai - BMC",11-02-2024 19:00:00,18.9767,72.8380,SO2,1,8,4
India,Maharashtra,Mumbai,"Chakala-Andheri East, Mumbai - IITM",11-02-2024 19:00:00,19.11074,72.86084,PM10,65,163,98
India,Maharashtra,Mumbai,"Chakala-Andheri East, Mumbai - IITM",11-02-2024 19:00:00,19.11074,72.86084,NH3,10,71,23
India,Maharashtra,Mumbai,"Chakala-Andheri East, Mumbai - IITM",11-02-2024 19:00:00,19.11074,72.86084,SO2,14,60,32
India,Maharashtra,Mumbai,"Chakala-Andheri East, Mumbai - IITM",11-02-2024 19:00:00,19.11074,72.86084,CO,50,112,60
India,Maharashtra,Mumbai,"Chhatrapati Shivaji Intl. Airport (T2), Mumbai - MPCB",11-02-2024 19:00:00,19.10078,72.87462,PM10,64,148,96
India,Maharashtra,Mumbai,"Colaba, Mumbai - MPCB",11-02-2024 19:00:00,18.910000,72.820000,PM10,56,126,88
India,Maharashtra,Mumbai,"Colaba, Mumbai - MPCB",11-02-2024 19:00:00,18.910000,72.820000,SO2,8,11,10
India,Maharashtra,Mumbai,"Ghatkopar, Mumbai - BMC",11-02-2024 19:00:00,19.083694,72.920967,PM2.5,42,113,78
India,Maharashtra,Mumbai,"Ghatkopar, Mumbai - BMC",11-02-2024 19:00:00,19.083694,72.920967,NO2,19,62,46
India,Maharashtra,Mumbai,"Ghatkopar, Mumbai - BMC",11-02-2024 19:00:00,19.083694,72.920967,CO,14,42,20
India,Maharashtra,Mumbai,"Kandivali East, Mumbai - MPCB",11-02-2024 19:00:00,19.205800,72.868200,PM10,48,333,113
India,Maharashtra,Mumbai,"Kandivali West, Mumbai - BMC",11-02-2024 19:00:00,19.215859,72.831718,NH3,1,3,2
India,Maharashtra,Mumbai,"Kherwadi_Bandra East, Mumbai - MPCB",11-02-2024 19:00:00,19.0632143,72.8456324,NH3,1,2,1
India,Maharashtra,Mumbai,"Khindipada-Bhandup West, Mumbai - IITM",11-02-2024 19:00:00,19.1653323,72.922099,PM10,44,123,84
India,Maharashtra,Mumbai,"Khindipada-Bhandup West, Mumbai - IITM",11-02-2024 19:00:00,19.1653323,72.922099,SO2,2,4,3
India,Maharashtra,Mumbai,"Malad West, Mumbai - IITM",11-02-2024 19:00:00,19.19709,72.82204,CO,1,40,19
India,Maharashtra,Mumbai,"Malad West, Mumbai - IITM",11-02-2024 19:00:00,19.19709,72.82204,OZONE,2,86,69
India,Maharashtra,Mumbai,"Mazgaon, Mumbai - IITM",11-02-2024 19:00:00,18.96702,72.84214,NO2,62,171,113
India,Maharashtra,Mumbai,"Mulund West, Mumbai - MPCB",11-02-2024 19:00:00,19.1750,72.9419,PM10,36,128,80
India,Maharashtra,Mumbai,"Powai, Mumbai - MPCB",11-02-2024 19:00:00,19.137500,72.915056,PM10,45,149,93
India,Maharashtra,Mumbai,"Siddharth Nagar-Worli, Mumbai - IITM",11-02-2024 19:00:00,19.000083,72.813993,NH3,1,2,2
India,Maharashtra,Mumbai,"Siddharth Nagar-Worli, Mumbai - IITM",11-02-2024 19:00:00,19.000083,72.813993,CO,24,44,35
India,Maharashtra,Mumbai,"Siddharth Nagar-Worli, Mumbai - IITM",11-02-2024 19:00:00,19.000083,72.813993,OZONE,5,154,127
India,Maharashtra,Mumbai,"Sion, Mumbai - MPCB",11-02-2024 19:00:00,19.047000,72.874600,CO,12,66,21
India,Maharashtra,Mumbai,"Vasai West, Mumbai - MPCB",11-02-2024 19:00:00,19.383200,72.820400,PM10,42,139,74
India,Maharashtra,Mumbai,"Vasai West, Mumbai - MPCB",11-02-2024 19:00:00,19.383200,72.820400,NH3,4,4,4
India,Maharashtra,Mumbai,"Vasai West, Mumbai - MPCB",11-02-2024 19:00:00,19.383200,72.820400,SO2,16,16,16
India,Maharashtra,Mumbai,"Vasai West, Mumbai - MPCB",11-02-2024 19:00:00,19.383200,72.820400,OZONE,9,76,57
India,Maharashtra,Mumbai,"Vile Parle West, Mumbai - MPCB",11-02-2024 19:00:00,19.10861,72.83622,NO2,7,36,15
India,Maharashtra,Mumbai,"Worli, Mumbai - MPCB",11-02-2024 19:00:00,18.9936162,72.8128113,SO2,10,11,10
India,Maharashtra,Mumbai,"Worli, Mumbai - MPCB",11-02-2024 19:00:00,18.9936162,72.8128113,OZONE,5,11,8
India,Maharashtra,Nagpur,"Mahal, Nagpur - MPCB",11-02-2024 19:00:00,21.14472,79.107595,SO2,34,70,50
India,Maharashtra,Nagpur,"Mahal, Nagpur - MPCB",11-02-2024 19:00:00,21.14472,79.107595,OZONE,20,81,51
India,Maharashtra,Nagpur,"Opp GPO Civil Lines, Nagpur - MPCB",11-02-2024 19:00:00,21.152875,79.0517531,SO2,11,75,35
India,Maharashtra,Nagpur,"Opp GPO Civil Lines, Nagpur - MPCB",11-02-2024 19:00:00,21.152875,79.0517531,CO,18,57,28
India,Maharashtra,Nagpur,"Opp GPO Civil Lines, Nagpur - MPCB",11-02-2024 19:00:00,21.152875,79.0517531,OZONE,22,74,52
India,Maharashtra,Nagpur,"Ram Nagar, Nagpur - MPCB",11-02-2024 19:00:00,21.143383,79.048912,NO2,14,86,33
India,Maharashtra,Nanded,"Sneh Nagar, Nanded - MPCB",11-02-2024 19:00:00,19.173852,77.296291,PM2.5,77,199,124
India,Maharashtra,Nanded,"Sneh Nagar, Nanded - MPCB",11-02-2024 19:00:00,19.173852,77.296291,PM10,104,143,120
India,Maharashtra,Nanded,"Sneh Nagar, Nanded - MPCB",11-02-2024 19:00:00,19.173852,77.296291,NO2,16,40,25
India,Maharashtra,Nashik,"Gangapur Road, Nashik - MPCB",11-02-2024 19:00:00,20.0073285,73.7762427,OZONE,1,77,49
India,Maharashtra,Nashik,"Hirawadi, Nashik - MPCB",11-02-2024 19:00:00,20.021503,73.813844,SO2,NA,NA,NA
India,Maharashtra,Nashik,"MIDC Ambad, Nashik - MPCB",11-02-2024 19:00:00,19.950220,73.731480,PM2.5,60,235,135
India,Maharashtra,Nashik,"MIDC Ambad, Nashik - MPCB",11-02-2024 19:00:00,19.950220,73.731480,NO2,13,106,34
India,Maharashtra,Nashik,"Pandav Nagari, Nashik - MPCB",11-02-2024 19:00:00,19.9591346,73.7788008,SO2,21,46,29
India,Maharashtra,Navi Mumbai,"Mahape, Navi Mumbai - MPCB",11-02-2024 19:00:00,19.1135051,73.008978,SO2,NA,NA,NA
India,Maharashtra,Navi Mumbai,"Mahape, Navi Mumbai - MPCB",11-02-2024 19:00:00,19.1135051,73.008978,CO,28,48,36
India,Maharashtra,Navi Mumbai,"Nerul, Navi Mumbai - MPCB",11-02-2024 19:00:00,19.008751,73.016620,PM2.5,43,180,90
India,Maharashtra,Navi Mumbai,"Sanpada, Navi Mumbai - MPCB",11-02-2024 19:00:00,19.0575752,73.0151367,PM2.5,74,76,75
India,Maharashtra,Navi Mumbai,"Sector-2E Kalamboli, Navi Mumbai - MPCB",11-02-2024 19:00:00,19.02579,73.10297,NH3,1,17,9
India,Maharashtra,Navi Mumbai,"Sector-2E Kalamboli, Navi Mumbai - MPCB",11-02-2024 19:00:00,19.02579,73.10297,CO,14,84,22
India,Maharashtra,Pimpri-Chinchwad,"Thergaon, Pimpri Chinchwad - MPCB",11-02-2024 19:00:00,18.616318,73.765797,PM2.5,92,313,212
India,Maharashtra,Pimpri-Chinchwad,"Thergaon, Pimpri Chinchwad - MPCB",11-02-2024 19:00:00,18.616318,73.765797,CO,18,82,41
India,Maharashtra,Pimpri-Chinchwad,"Thergaon, Pimpri Chinchwad - MPCB",11-02-2024 19:00:00,18.616318,73.765797,OZONE,7,202,139
India,Maharashtra,Pune,"Katraj Dairy, Pune - MPCB",11-02-2024 19:00:00,18.454450,73.854155,NH3,3,7,5
India,Maharashtra,Pune,"Katraj Dairy, Pune - MPCB",11-02-2024 19:00:00,18.454450,73.854155,OZONE,6,60,43
India,Maharashtra,Pune,"Mhada Colony, Pune - IITM",11-02-2024 19:00:00,18.573040,73.927715,NO2,1,18,10
India,Maharashtra,Pune,"Revenue Colony-Shivajinagar, Pune - IITM",11-02-2024 19:00:00,18.530085,73.849598,NO2,70,179,126
India,Maharashtra,Pune,"Revenue Colony-Shivajinagar, Pune - IITM",11-02-2024 19:00:00,18.530085,73.849598,OZONE,3,70,47
India,Maharashtra,Pune,"Savitribai Phule Pune University, Pune - MPCB",11-02-2024 19:00:00,18.547056,73.826908,SO2,2,14,5
India,Maharashtra,Sangli,"Vijay Nagar, Sangli - MPCB",11-02-2024 19:00:00, 16.5038,74.3623,OZONE,NA,NA,NA
India,Maharashtra,Solapur,"Ratandeep Housing Society, Solapur - MPCB",11-02-2024 19:00:00,17.65439,75.90649,OZONE,6,42,33
India,Maharashtra,Thane,"Kasarvadavali, Thane - MPCB",11-02-2024 19:00:00,19.26777,72.97182,PM2.5,95,113,103
India,Maharashtra,Thane,"Kasarvadavali, Thane - MPCB",11-02-2024 19:00:00,19.26777,72.97182,SO2,6,31,16
India,Maharashtra,Thane,"Kasarvadavali, Thane - MPCB",11-02-2024 19:00:00,19.26777,72.97182,CO,22,62,27
India,Maharashtra,Thane,"Upvan Fort, Thane - MPCB",11-02-2024 19:00:00,19.222279,72.957979,NO2,20,100,45
India,Maharashtra,Thane,"Upvan Fort, Thane - MPCB",11-02-2024 19:00:00,19.222279,72.957979,SO2,9,42,22
India,Maharashtra,Thane,"Upvan Fort, Thane - MPCB",11-02-2024 19:00:00,19.222279,72.957979,CO,4,38,17
India,Maharashtra,Ulhasnagar,"Sidhi Vinayak Nagar, Ulhasnagar - MPCB",11-02-2024 19:00:00,19.235581,73.159121,PM2.5,89,191,127
India,Maharashtra,Virar,"Bolinj, Virar - MPCB",11-02-2024 19:00:00,19.4458210,72.7988231,PM10,92,157,124
India,Maharashtra,Virar,"Bolinj, Virar - MPCB",11-02-2024 19:00:00,19.4458210,72.7988231,NO2,12,64,29
India,Maharashtra,Virar,"Bolinj, Virar - MPCB",11-02-2024 19:00:00,19.4458210,72.7988231,OZONE,19,128,103
India,Manipur,Imphal,"DM College of Science, Imphal - Manipur PCB",11-02-2024 19:00:00,24.8207389,93.9423085,NO2,7,8,8
India,Manipur,Imphal,"DM College of Science, Imphal - Manipur PCB",11-02-2024 19:00:00,24.8207389,93.9423085,NH3,1,2,2
India,Manipur,Imphal,"DM College of Science, Imphal - Manipur PCB",11-02-2024 19:00:00,24.8207389,93.9423085,OZONE,NA,NA,NA
India,Manipur,Imphal,"Manipur University, Imphal - Manipur PCB",11-02-2024 19:00:00,24.7524239,93.9286218,PM2.5,25,329,135
India,Manipur,Imphal,"Manipur University, Imphal - Manipur PCB",11-02-2024 19:00:00,24.7524239,93.9286218,SO2,64,71,67
India,Meghalaya,Shillong,"Lumpyngngad, Shillong - Meghalaya PCB",11-02-2024 19:00:00,25.5586,91.8985,PM10,20,117,56
India,Mizoram,Aizawl,"Sikulpuikawn, Aizawl - Mizoram PCB",11-02-2024 19:00:00,23.7176342,92.7192841,NH3,NA,NA,NA
India,Nagaland,Kohima,"PWD Juction, Kohima - NPCB",11-02-2024 19:00:00,25.6635413,94.0989878,SO2,28,34,31
India,Odisha,Angul,"Hakimapada, Angul - OSPCB",11-02-2024 19:00:00,20.832874,85.104082,PM10,121,371,204
India,Odisha,Angul,"Hakimapada, Angul - OSPCB",11-02-2024 19:00:00,20.832874,85.104082,NO2,13,61,28
India,Odisha,Balasore,"Kalidaspur, Balasore - OSPCB",11-02-2024 19:00:00,21.51161,86.89088,CO,95,110,108
India,Odisha,Bhubaneswar,"Lingraj Mandir, Bhubaneswar - OSPCB",11-02-2024 19:00:00,20.240790,85.836784,NO2,19,88,46
India,Odisha,Brajrajnagar,"GM Office, Brajrajnagar - OSPCB",11-02-2024 19:00:00,21.8004996,83.8396977,PM2.5,46,238,91
India,Odisha,Brajrajnagar,"GM Office, Brajrajnagar - OSPCB",11-02-2024 19:00:00,21.8004996,83.8396977,PM10,64,191,108
India,Odisha,Brajrajnagar,"GM Office, Brajrajnagar - OSPCB",11-02-2024 19:00:00,21.8004996,83.8396977,CO,54,107,67
India,Odisha,Byasanagar,"Ferro Chrome Colony, Byasanagar - OSPCB",11-02-2024 19:00:00,20.94185,86.11510,SO2,6,21,14
India,Odisha,Cuttack,"CDA Area, Cuttack - OSPCB",11-02-2024 19:00:00,20.48891     ,85.84768     ,SO2,8,27,16
India,Odisha,Cuttack,"CDA Area, Cuttack - OSPCB",11-02-2024 19:00:00,20.48891     ,85.84768     ,CO,39,67,43
India,Odisha,Rairangpur,"Divisional Forest Office, Rairangpur - OSPCB",11-02-2024 19:00:00,22.265816,86.174829,NH3,5,5,5
India,Odisha,Rairangpur,"Divisional Forest Office, Rairangpur - OSPCB",11-02-2024 19:00:00,22.265816,86.174829,OZONE,11,90,64
India,Odisha,Rourkela,"Fertilizer Township, Rourkela - OSPCB",11-02-2024 19:00:00,22.18972222,84.86277778,PM10,85,187,129
India,Odisha,Rourkela,"Raghunathpali, Rourkela - OSPCB",11-02-2024 19:00:00,22.220833,84.809444,PM10,104,318,156
India,Odisha,Rourkela,"Raghunathpali, Rourkela - OSPCB",11-02-2024 19:00:00,22.220833,84.809444,SO2,6,40,15
India,Odisha,Suakati,"OMC Colony, Suakati - OSPCB",11-02-2024 19:00:00,21.606865,85.510538,OZONE,NA,NA,NA
India,Odisha,Tensa,"Barsua Iron Ore Mines, Tensa - OSPCB",11-02-2024 19:00:00,21.869985,85.167016,CO,20,44,28
India,Puducherry,Puducherry,"Jawahar Nagar, Puducherry - PPCC",11-02-2024 19:00:00,11.9309,79.8027,PM2.5,55,112,80
India,Puducherry,Puducherry,"Jawahar Nagar, Puducherry - PPCC",11-02-2024 19:00:00,11.9309,79.8027,OZONE,24,69,67
India,Punjab,Amritsar,"Golden Temple, Amritsar - PPCB",11-02-2024 19:00:00,31.620000,74.876512,PM2.5,68,302,143
India,Punjab,Bathinda,"Hardev Nagar, Bathinda - PPCB",11-02-2024 19:00:00,30.233011,74.907758,PM2.5,34,218,103
India,Punjab,Bathinda,"Hardev Nagar, Bathinda - PPCB",11-02-2024 19:00:00,30.233011,74.907758,SO2,1,107,37
India,Punjab,Bathinda,"Hardev Nagar, Bathinda - PPCB",11-02-2024 19:00:00,30.233011,74.907758,CO,2,74,14
India,Punjab,Khanna,"Kalal Majra, Khanna - PPCB",11-02-2024 19:00:00,30.736056 ,76.209694,PM2.5,36,98,71
India,Punjab,Khanna,"Kalal Majra, Khanna - PPCB",11-02-2024 19:00:00,30.736056 ,76.209694,NH3,15,16,15
India,Punjab,Khanna,"Kalal Majra, Khanna - PPCB",11-02-2024 19:00:00,30.736056 ,76.209694,SO2,10,30,19
India,Punjab,Khanna,"Kalal Majra, Khanna - PPCB",11-02-2024 19:00:00,30.736056 ,76.209694,OZONE,18,65,51
India,Punjab,Ludhiana,"Punjab Agricultural University, Ludhiana - PPCB",11-02-2024 19:00:00,30.9028,75.8086,PM2.5,72,147,101
India,Punjab,Ludhiana,"Punjab Agricultural University, Ludhiana - PPCB",11-02-2024 19:00:00,30.9028,75.8086,SO2,2,12,9
India,Punjab,Mandi Gobindgarh,"RIMT University, Mandi Gobindgarh - PPCB",11-02-2024 19:00:00,30.649961,76.331442,NO2,29,32,31
India,Punjab,Mandi Gobindgarh,"RIMT University, Mandi Gobindgarh - PPCB",11-02-2024 19:00:00,30.649961,76.331442,NH3,2,2,2
India,Punjab,Patiala,"Model Town, Patiala - PPCB",11-02-2024 19:00:00,30.349388,76.366642,SO2,1,19,7
India,Punjab,Rupnagar,"Ratanpura, Rupnagar - Ambuja Cements",11-02-2024 19:00:00,31.0325454,76.5623046,SO2,4,10,8
India,Rajasthan,Ajmer,"Civil Lines,  Ajmer - RSPCB",11-02-2024 19:00:00,26.470859,74.646594,NH3,22,43,26
India,Rajasthan,Alwar,"Moti Doongri, Alwar - RSPCB",11-02-2024 19:00:00,27.554793,76.611536,NO2,40,66,51
India,Rajasthan,Banswara,"Rati Talai, Banswara - RSPCB",11-02-2024 19:00:00,23.555190,74.440010,PM2.5,26,77,49
India,Rajasthan,Baran,"Bamboliya, Baran - RSPCB",11-02-2024 19:00:00,25.106006,76.469948,SO2,6,14,8
India,Rajasthan,Barmer,"Railway Colony, Barmer - RSPCB",11-02-2024 19:00:00,25.747299,71.393989,NH3,4,6,5
India,Rajasthan,Barmer,"Railway Colony, Barmer - RSPCB",11-02-2024 19:00:00,25.747299,71.393989,OZONE,45,118,101
India,Rajasthan,Bhilwara,"Pratap Nagar, Bhilwara - RSPCB",11-02-2024 19:00:00,25.339605,74.618883,OZONE,15,87,79
India,Rajasthan,Bikaner,"MM Ground, Bikaner - RSPCB",11-02-2024 19:00:00,28.018792,73.292658,NH3,5,7,6
India,Rajasthan,Bundi,"New Colony, Bundi - RSPCB",11-02-2024 19:00:00,25.435774,75.644272,OZONE,17,69,69
India,Rajasthan,Chittorgarh,"Shastri Nagar, Chittorgarh - RSPCB",11-02-2024 19:00:00,24.892047,74.623527,CO,14,80,19
India,Rajasthan,Churu,"Subash Chowk, Churu - RSPCB",11-02-2024 19:00:00,28.296139,74.961696,PM10,57,289,107
India,Rajasthan,Churu,"Subash Chowk, Churu - RSPCB",11-02-2024 19:00:00,28.296139,74.961696,SO2,17,52,29
India,Rajasthan,Churu,"Subash Chowk, Churu - RSPCB",11-02-2024 19:00:00,28.296139,74.961696,OZONE,8,150,137
India,Rajasthan,Dausa,"Khatikan Mohalla, Dausa - RSPCB",11-02-2024 19:00:00,26.895552,76.334753,CO,2,106,12
India,Rajasthan,Dholpur,"Raja Ganj, Dholpur - RSPCB",11-02-2024 19:00:00,26.699557,77.898881,NH3,12,26,14
India,Rajasthan,Dungarpur,"Bhoiwada, Dungarpur - RSPCB",11-02-2024 19:00:00,23.837789,73.714926,SO2,5,12,7
India,Rajasthan,Dungarpur,"Bhoiwada, Dungarpur - RSPCB",11-02-2024 19:00:00,23.837789,73.714926,CO,20,57,25
India,Rajasthan,Hanumangarh,"Housing Board, Hanumangarh - RSPCB",11-02-2024 19:00:00,29.610750,74.283608,OZONE,1,22,18
India,Rajasthan,Jaipur,"Adarsh Nagar, Jaipur - RSPCB",11-02-2024 19:00:00,26.902909,75.836858,PM2.5,41,303,124
India,Rajasthan,Jaipur,"Mansarovar Sector-12, Jaipur - RSPCB",11-02-2024 19:00:00,26.843698,75.766894,NO2,31,139,72
India,Rajasthan,Jaipur,"Police Commissionerate, Jaipur - RSPCB",11-02-2024 19:00:00,26.9164092,75.7994901,SO2,12,23,18
India,Rajasthan,Jaipur,"Sector-2 Murlipura, Jaipur - RSPCB",11-02-2024 19:00:00,26.960669,75.771817,NO2,7,21,14
India,Rajasthan,Jaipur,"Sector-2 Murlipura, Jaipur - RSPCB",11-02-2024 19:00:00,26.960669,75.771817,NH3,3,10,6
India,Rajasthan,Jaipur,"Sector-2 Murlipura, Jaipur - RSPCB",11-02-2024 19:00:00,26.960669,75.771817,SO2,10,83,30
India,Rajasthan,Jaipur,"Sector-2 Murlipura, Jaipur - RSPCB",11-02-2024 19:00:00,26.960669,75.771817,OZONE,6,213,173
India,Rajasthan,Jaisalmer,"Sadar Bazar, Jaisalmer - RSPCB",11-02-2024 19:00:00,26.912329,70.909168,CO,6,78,19
India,Rajasthan,Jalore,"Mudtra Sili, Jalore - RSPCB",11-02-2024 19:00:00,25.344694,72.626208,OZONE,10,133,112
India,Rajasthan,Jhalawar,"Rajlaxmi Nagar, Jhalawar - RSPCB",11-02-2024 19:00:00,24.588397,76.172782,PM2.5,31,97,57
India,Rajasthan,Jhunjhunu,"Indra Nagar, Jhunjhunu - RSPCB",11-02-2024 19:00:00,28.108988,75.386577,SO2,3,12,7
India,Rajasthan,Jhunjhunu,"Indra Nagar, Jhunjhunu - RSPCB",11-02-2024 19:00:00,28.108988,75.386577,OZONE,5,125,107
India,Rajasthan,Jodhpur,"Collectorate, Jodhpur - RSPCB",11-02-2024 19:00:00,26.268249,73.0193853,OZONE,37,126,100
India,Rajasthan,Jodhpur,"Digari Kalan, Jodhpur - RSPCB",11-02-2024 19:00:00,26.295810,73.082283,SO2,1,6,3
India,Rajasthan,Jodhpur,"Jhalamand, Jodhpur - RSPCB",11-02-2024 19:00:00,26.215415,73.070156,SO2,5,12,7
India,Rajasthan,Jodhpur,"Samrat Ashok Udhyan, Jodhpur - RSPCB",11-02-2024 19:00:00,26.253384,72.976571,NO2,11,136,42
India,Rajasthan,Jodhpur,"Samrat Ashok Udhyan, Jodhpur - RSPCB",11-02-2024 19:00:00,26.253384,72.976571,NH3,4,7,5
India,Rajasthan,Jodhpur,"Samrat Ashok Udhyan, Jodhpur - RSPCB",11-02-2024 19:00:00,26.253384,72.976571,CO,24,102,29
India,Rajasthan,Karauli,"Satyawati Vihar, Karauli - RSPCB",11-02-2024 19:00:00,26.506177,77.025989,NO2,20,58,32
India,Rajasthan,Karauli,"Satyawati Vihar, Karauli - RSPCB",11-02-2024 19:00:00,26.506177,77.025989,CO,15,61,24
India,Rajasthan,Karauli,"Satyawati Vihar, Karauli - RSPCB",11-02-2024 19:00:00,26.506177,77.025989,OZONE,9,65,60
India,Rajasthan,Kota,"Dhanmandi, Kota - RSPCB",11-02-2024 19:00:00,25.164090,75.858137,CO,20,129,32
India,Rajasthan,Kota,"Dhanmandi, Kota - RSPCB",11-02-2024 19:00:00,25.164090,75.858137,OZONE,5,105,67
India,Rajasthan,Kota,"Nayapura, Kota - RSPCB",11-02-2024 19:00:00,25.196024,75.855668,NO2,19,113,58
India,Rajasthan,Kota,"Shrinath Puram, Kota - RSPCB",11-02-2024 19:00:00,25.14389,75.821256,PM2.5,64,165,88
India,Rajasthan,Kota,"Shrinath Puram, Kota - RSPCB",11-02-2024 19:00:00,25.14389,75.821256,NH3,6,10,9
India,Rajasthan,Nagaur,"Karni Colony, Nagaur - RSPCB",11-02-2024 19:00:00,27.213494,73.734444,OZONE,38,79,74
India,Rajasthan,Sawai Madhopur,"Sahu Nagar, Sawai Madhopur - RSPCB",11-02-2024 19:00:00,26.031443,76.359327,OZONE,2,136,114
India,Rajasthan,Sirohi,"Vedhaynath Colony, Sirohi - RSPCB",11-02-2024 19:00:00,24.885261,72.857549,PM2.5,20,113,47
India,Rajasthan,Tonk,"Shastri Nagar, Tonk - RSPCB",11-02-2024 19:00:00,26.159933,75.780517,PM2.5,57,318,143
India,Rajasthan,Tonk,"Shastri Nagar, Tonk - RSPCB",11-02-2024 19:00:00,26.159933,75.780517,NO2,14,118,39
India,Rajasthan,Udaipur,"Ashok Nagar, Udaipur - RSPCB",11-02-2024 19:00:00,24.5886166,73.6321397,NO2,25,125,66
India,Rajasthan,Udaipur,"Ashok Nagar, Udaipur - RSPCB",11-02-2024 19:00:00,24.5886166,73.6321397,NH3,3,9,5
India,Rajasthan,Udaipur,"Ashok Nagar, Udaipur - RSPCB",11-02-2024 19:00:00,24.5886166,73.6321397,CO,18,109,46
India,Sikkim,Gangtok,"Zero Point GICI, Gangtok - SSPCB",11-02-2024 19:00:00,27.338530,88.614099,PM10,5,53,22
India,TamilNadu,Ariyalur,"Keelapalur, Ariyalur - TNPCB",11-02-2024 19:00:00,11.06825,79.07033,PM10,47,75,62
India,TamilNadu,Chennai,"Arumbakkam, Chennai - TNPCB",11-02-2024 19:00:00,13.0664,80.2112 ,NO2,7,34,14
India,TamilNadu,Chennai,"Kodungaiyur, Chennai - TNPCB",11-02-2024 19:00:00,13.1278,80.2642,CO,25,41,33
India,TamilNadu,Chennai,"Manali, Chennai - CPCB",11-02-2024 19:00:00,13.164544,80.26285,NH3,4,11,6
India,TamilNadu,Chennai,"Perungudi, Chennai - TNPCB",11-02-2024 19:00:00,12.9533,80.2357,OZONE,8,12,10
India,TamilNadu,Chennai,"Royapuram, Chennai - TNPCB",11-02-2024 19:00:00,13.1036,80.2909,PM10,63,123,76
India,TamilNadu,Chennai,"Royapuram, Chennai - TNPCB",11-02-2024 19:00:00,13.1036,80.2909,OZONE,8,11,9
India,TamilNadu,Chennai,"Velachery Res. Area, Chennai - CPCB",11-02-2024 19:00:00,13.0052189,80.2398125,NO2,14,30,17
India,TamilNadu,Chennai,"Velachery Res. Area, Chennai - CPCB",11-02-2024 19:00:00,13.0052189,80.2398125,CO,8,104,71
India,TamilNadu,Coimbatore,"PSG College of Arts and Science, Coimbatore - TNPCB",11-02-2024 19:00:00,11.0328,77.0349,PM2.5,72,247,123
India,TamilNadu,Cuddalore,"Kudikadu, Cuddalore - TNPCB",11-02-2024 19:00:00,11.6829898,79.7532099,PM2.5,67,130,92
India,TamilNadu,Cuddalore,"Kudikadu, Cuddalore - TNPCB",11-02-2024 19:00:00,11.6829898,79.7532099,PM10,81,125,104
India,TamilNadu,Cuddalore,"Kudikadu, Cuddalore - TNPCB",11-02-2024 19:00:00,11.6829898,79.7532099,SO2,14,15,15
India,TamilNadu,Cuddalore,"Semmandalam, Cuddalore - TNPCB",11-02-2024 19:00:00,11.7637683,79.7499835,PM10,36,87,58
India,TamilNadu,Gummidipoondi,"Anthoni Pillai Nagar, Gummidipoondi - TNPCB",11-02-2024 19:00:00,13.4127,80.1081,NH3,1,2,2
India,TamilNadu,Gummidipoondi,"Anthoni Pillai Nagar, Gummidipoondi - TNPCB",11-02-2024 19:00:00,13.4127,80.1081,SO2,1,18,5
India,TamilNadu,Ooty,"Bombay Castel, Ooty - TNPCB",11-02-2024 19:00:00,11.4068288,76.7138973,PM2.5,7,70,20
India,TamilNadu,Ramanathapuram,"Chalai Bazaar, Ramanathapuram - TNPCB",11-02-2024 19:00:00,9.36399,78.831977,NH3,1,1,1
India,TamilNadu,Ramanathapuram,"Chalai Bazaar, Ramanathapuram - TNPCB",11-02-2024 19:00:00,9.36399,78.831977,SO2,4,8,6
India,TamilNadu,Thoothukudi,"Meelavittan, Thoothukudi - TNPCB",11-02-2024 19:00:00,8.816428 ,78.099039,SO2,9,20,13
India,TamilNadu,Thoothukudi,"Meelavittan, Thoothukudi - TNPCB",11-02-2024 19:00:00,8.816428 ,78.099039,OZONE,3,18,9
India,TamilNadu,Virudhunagar,"Collectorate Office, Virudhunagar - TNPCB",11-02-2024 19:00:00,9.559382,77.948828,PM2.5,75,99,88
India,TamilNadu,Virudhunagar,"Collectorate Office, Virudhunagar - TNPCB",11-02-2024 19:00:00,9.559382,77.948828,PM10,89,111,102
India,Telangana,Hyderabad,"Bollaram Industrial Area, Hyderabad - TSPCB",11-02-2024 19:00:00,17.540891,78.358528,SO2,9,22,14
India,Telangana,Hyderabad,"Bollaram Industrial Area, Hyderabad - TSPCB",11-02-2024 19:00:00,17.540891,78.358528,CO,19,32,26
India,Telangana,Hyderabad,"ECIL Kapra, Hyderabad - TSPCB",11-02-2024 19:00:00,17.470431,78.566959,CO,8,14,10
India,Telangana,Hyderabad,"ICRISAT Patancheru, Hyderabad - TSPCB",11-02-2024 19:00:00,17.518400,78.278777,SO2,8,17,13
India,Telangana,Hyderabad,"Kokapet, Hyderabad - TSPCB",11-02-2024 19:00:00,17.393559,78.339194,PM2.5,48,66,54
India,Telangana,Hyderabad,"Kokapet, Hyderabad - TSPCB",11-02-2024 19:00:00,17.393559,78.339194,NO2,8,9,8
India,Telangana,Hyderabad,"Nacharam_TSIIC IALA, Hyderabad - TSPCB",11-02-2024 19:00:00,17.429398,78.569354,PM2.5,58,86,66
India,Telangana,Hyderabad,"Nacharam_TSIIC IALA, Hyderabad - TSPCB",11-02-2024 19:00:00,17.429398,78.569354,NO2,9,10,10
India,Telangana,Hyderabad,"Nacharam_TSIIC IALA, Hyderabad - TSPCB",11-02-2024 19:00:00,17.429398,78.569354,SO2,1,10,4
India,Telangana,Hyderabad,"New Malakpet, Hyderabad - TSPCB",11-02-2024 19:00:00,17.37206,78.50864,NO2,17,27,21
India,Telangana,Hyderabad,"Sanathnagar, Hyderabad - TSPCB",11-02-2024 19:00:00,17.4559458,78.4332152,NO2,NA,NA,NA
India,Telangana,Hyderabad,"Sanathnagar, Hyderabad - TSPCB",11-02-2024 19:00:00,17.4559458,78.4332152,CO,32,53,45
India,Telangana,Hyderabad,"Somajiguda, Hyderabad - TSPCB",11-02-2024 19:00:00,17.417094,78.457437,NO2,NA,NA,NA
India,Telangana,Hyderabad,"Somajiguda, Hyderabad - TSPCB",11-02-2024 19:00:00,17.417094,78.457437,SO2,NA,NA,NA
India,Uttar_Pradesh,Agra,"Manoharpur, Agra - UPPCB",11-02-2024 19:00:00,27.23711,78.01936,SO2,23,25,24
India,Uttar_Pradesh,Agra,"Rohta, Agra - UPPCB",11-02-2024 19:00:00,27.106972,78.000111,PM2.5,NA,NA,NA
India,Uttar_Pradesh,Agra,"Rohta, Agra - UPPCB",11-02-2024 19:00:00,27.106972,78.000111,PM10,NA,NA,NA
India,Uttar_Pradesh,Agra,"Rohta, Agra - UPPCB",11-02-2024 19:00:00,27.106972,78.000111,OZONE,13,15,14
India,Uttar_Pradesh,Agra,"Sanjay Palace, Agra - UPPCB",11-02-2024 19:00:00,27.19865833,78.00598056,PM2.5,43,154,91
India,Uttar_Pradesh,Agra,"Sanjay Palace, Agra - UPPCB",11-02-2024 19:00:00,27.19865833,78.00598056,PM10,30,418,104
India,Uttar_Pradesh,Agra,"Sanjay Palace, Agra - UPPCB",11-02-2024 19:00:00,27.19865833,78.00598056,NO2,52,116,89
India,Uttar_Pradesh,Agra,"Sector-3B Avas Vikas Colony, Agra - UPPCB",11-02-2024 19:00:00,27.19412,77.96237,NH3,3,6,4
India,Uttar_Pradesh,Agra,"Shahjahan Garden, Agra - UPPCB",11-02-2024 19:00:00,27.169338,78.03582,PM2.5,41,243,122
India,Uttar_Pradesh,Agra,"Shahjahan Garden, Agra - UPPCB",11-02-2024 19:00:00,27.169338,78.03582,OZONE,2,15,13
India,Uttar_Pradesh,Agra,"Shastripuram, Agra - UPPCB",11-02-2024 19:00:00,27.19862,77.92066,NH3,1,30,4
India,Uttar_Pradesh,Agra,"Shastripuram, Agra - UPPCB",11-02-2024 19:00:00,27.19862,77.92066,CO,14,30,17
India,Uttar_Pradesh,Baghpat,"Sardar Patel Inter College, Baghpat - UPPCB",11-02-2024 19:00:00,28.964949,77.278761,NO2,35,79,56
India,Uttar_Pradesh,Baghpat,"Sardar Patel Inter College, Baghpat - UPPCB",11-02-2024 19:00:00,28.964949,77.278761,NH3,2,6,4
India,Uttar_Pradesh,Baghpat,"Sardar Patel Inter College, Baghpat - UPPCB",11-02-2024 19:00:00,28.964949,77.278761,SO2,20,89,37
India,Uttar_Pradesh,Bareilly,"Rajendra Nagar, Bareilly - UPPCB",11-02-2024 19:00:00,28.38910936,79.42963708,NH3,1,1,1
India,Uttar_Pradesh,Bulandshahr,"Yamunapuram, Bulandshahr - UPPCB",11-02-2024 19:00:00,28.406963,77.849831,CO,3,151,55
India,Uttar_Pradesh,Firozabad,"Nagla Bhau, Firozabad - UPPCB",11-02-2024 19:00:00,27.168897,78.376960,SO2,11,22,12
India,Uttar_Pradesh,Firozabad,"Nagla Bhau, Firozabad - UPPCB",11-02-2024 19:00:00,27.168897,78.376960,CO,1,32,18
India,Uttar_Pradesh,Ghaziabad,"Indirapuram, Ghaziabad - UPPCB",11-02-2024 19:00:00,28.646233,77.358075,NO2,108,167,132
India,Uttar_Pradesh,Ghaziabad,"Loni, Ghaziabad - UPPCB",11-02-2024 19:00:00,28.757294,77.278792,NO2,25,66,45
India,Uttar_Pradesh,Ghaziabad,"Loni, Ghaziabad - UPPCB",11-02-2024 19:00:00,28.757294,77.278792,OZONE,1,126,92
India,Uttar_Pradesh,Ghaziabad,"Sanjay Nagar, Ghaziabad - UPPCB",11-02-2024 19:00:00,28.685382,77.453839,SO2,16,36,23
India,Uttar_Pradesh,Ghaziabad,"Sanjay Nagar, Ghaziabad - UPPCB",11-02-2024 19:00:00,28.685382,77.453839,CO,16,106,39
India,Uttar_Pradesh,Ghaziabad,"Vasundhara, Ghaziabad - UPPCB",11-02-2024 19:00:00,28.6603346,77.3572563,NH3,1,16,8
India,Uttar_Pradesh,Greater Noida,"Knowledge Park - V, Greater Noida - UPPCB",11-02-2024 19:00:00,28.557054,77.453663,SO2,11,30,17
India,Uttar_Pradesh,Hapur,"Anand Vihar, Hapur - UPPCB",11-02-2024 19:00:00,28.725645,77.749675,NH3,5,18,9
India,Uttar_Pradesh,Hapur,"Anand Vihar, Hapur - UPPCB",11-02-2024 19:00:00,28.725645,77.749675,OZONE,22,223,154
India,Uttar_Pradesh,Kanpur,"FTI Kidwai Nagar, Kanpur - UPPCB",11-02-2024 19:00:00,26.428282,80.327067,NO2,16,22,20
India,Uttar_Pradesh,Kanpur,"FTI Kidwai Nagar, Kanpur - UPPCB",11-02-2024 19:00:00,26.428282,80.327067,CO,33,111,37
India,Uttar_Pradesh,Kanpur,"Nehru Nagar, Kanpur - UPPCB",11-02-2024 19:00:00,26.4703136,80.3229863,NO2,15,111,48
India,Uttar_Pradesh,Lucknow,"Kendriya Vidyalaya, Lucknow - CPCB",11-02-2024 19:00:00,26.906111,80.948222,NO2,31,114,63
India,Uttar_Pradesh,Lucknow,"Kukrail Picnic Spot-1, Lucknow - UPPCB",11-02-2024 19:00:00,26.90723,80.98579,PM2.5,63,168,113
India,Uttar_Pradesh,Lucknow,"Lalbagh, Lucknow - CPCB",11-02-2024 19:00:00,26.8458805,80.9365541,PM2.5,84,313,202
India,Uttar_Pradesh,Lucknow,"Lalbagh, Lucknow - CPCB",11-02-2024 19:00:00,26.8458805,80.9365541,NH3,9,15,11
India,Uttar_Pradesh,Lucknow,"Lalbagh, Lucknow - CPCB",11-02-2024 19:00:00,26.8458805,80.9365541,OZONE,11,104,85
India,Uttar_Pradesh,Lucknow,"Talkatora District Industries Center, Lucknow - CPCB",11-02-2024 19:00:00,26.83399722,80.8917361,NO2,11,98,40
India,Uttar_Pradesh,Meerut,"Jai Bhim Nagar, Meerut - UPPCB",11-02-2024 19:00:00,28.9535882,77.7622941,NH3,8,11,9
India,Uttar_Pradesh,Meerut,"Jai Bhim Nagar, Meerut - UPPCB",11-02-2024 19:00:00,28.9535882,77.7622941,OZONE,10,15,11
India,Uttar_Pradesh,Meerut,"Pallavpuram Phase 2, Meerut - UPPCB",11-02-2024 19:00:00,29.063510,77.709723,PM2.5,NA,NA,NA
India,Uttar_Pradesh,Meerut,"Pallavpuram Phase 2, Meerut - UPPCB",11-02-2024 19:00:00,29.063510,77.709723,NH3,NA,NA,NA
India,Uttar_Pradesh,Moradabad,"Eco Herbal Park, Moradabad - UPPCB",11-02-2024 19:00:00,28.840739,78.697531,PM2.5,62,227,141
India,Uttar_Pradesh,Moradabad,"Employment Office, Moradabad - UPPCB",11-02-2024 19:00:00,28.88528,78.73880,PM10,75,203,138
India,Uttar_Pradesh,Moradabad,"Employment Office, Moradabad - UPPCB",11-02-2024 19:00:00,28.88528,78.73880,OZONE,12,27,20
India,Uttar_Pradesh,Moradabad,"Jigar Colony, Moradabad - UPPCB",11-02-2024 19:00:00,28.856664,78.772638,PM2.5,46,216,85
India,Uttar_Pradesh,Moradabad,"Jigar Colony, Moradabad - UPPCB",11-02-2024 19:00:00,28.856664,78.772638,PM10,78,194,118
India,Uttar_Pradesh,Moradabad,"Jigar Colony, Moradabad - UPPCB",11-02-2024 19:00:00,28.856664,78.772638,CO,22,56,41
India,Uttar_Pradesh,Moradabad,"Kashiram Nagar, Moradabad - UPPCB",11-02-2024 19:00:00,28.849399,78.742362,OZONE,14,17,16
India,Uttar_Pradesh,Moradabad,"Transport Nagar, Moradabad - UPPCB",11-02-2024 19:00:00,28.802625,78.753728,PM2.5,NA,NA,NA
India,Uttar_Pradesh,Moradabad,"Transport Nagar, Moradabad - UPPCB",11-02-2024 19:00:00,28.802625,78.753728,NO2,17,53,36
India,Uttar_Pradesh,Moradabad,"Transport Nagar, Moradabad - UPPCB",11-02-2024 19:00:00,28.802625,78.753728,NH3,6,6,6
India,Uttar_Pradesh,Moradabad,"Transport Nagar, Moradabad - UPPCB",11-02-2024 19:00:00,28.802625,78.753728,OZONE,14,29,23
India,Uttar_Pradesh,Muzaffarnagar,"New Mandi, Muzaffarnagar - UPPCB",11-02-2024 19:00:00,29.4723508,77.7194031,PM10,126,411,240
India,Uttar_Pradesh,Muzaffarnagar,"New Mandi, Muzaffarnagar - UPPCB",11-02-2024 19:00:00,29.4723508,77.7194031,NO2,16,102,36
India,Uttar_Pradesh,Muzaffarnagar,"New Mandi, Muzaffarnagar - UPPCB",11-02-2024 19:00:00,29.4723508,77.7194031,NH3,2,6,5
India,Uttar_Pradesh,Muzaffarnagar,"New Mandi, Muzaffarnagar - UPPCB",11-02-2024 19:00:00,29.4723508,77.7194031,CO,22,111,46
India,Uttar_Pradesh,Noida,"Sector - 125, Noida - UPPCB",11-02-2024 19:00:00,28.5447608,77.3231257,CO,15,107,31
India,Uttar_Pradesh,Noida,"Sector - 62, Noida - IMD",11-02-2024 19:00:00,28.6245479,77.3577104,PM10,143,415,292
India,Uttar_Pradesh,Noida,"Sector - 62, Noida - IMD",11-02-2024 19:00:00,28.6245479,77.3577104,OZONE,1,42,30
India,Uttar_Pradesh,Noida,"Sector-1, Noida - UPPCB",11-02-2024 19:00:00,28.5898,77.3101,NH3,6,10,7
India,Uttar_Pradesh,Noida,"Sector-1, Noida - UPPCB",11-02-2024 19:00:00,28.5898,77.3101,CO,9,106,23
India,Uttar_Pradesh,Prayagraj,"Motilal Nehru NIT, Prayagraj - UPPCB",11-02-2024 19:00:00,25.494,81.863,PM10,41,147,102
India,Uttar_Pradesh,Prayagraj,"Motilal Nehru NIT, Prayagraj - UPPCB",11-02-2024 19:00:00,25.494,81.863,OZONE,5,37,25
India,Uttar_Pradesh,Prayagraj,"Nagar Nigam, Prayagraj - UPPCB",11-02-2024 19:00:00,25.44919916 ,81.82735986 ,PM10,56,154,109
India,Uttar_Pradesh,Prayagraj,"Nagar Nigam, Prayagraj - UPPCB",11-02-2024 19:00:00,25.44919916 ,81.82735986 ,CO,16,102,21
India,Uttar_Pradesh,Varanasi,"Ardhali Bazar, Varanasi - UPPCB",11-02-2024 19:00:00,25.3505986,82.9083074,SO2,15,28,20
India,Uttar_Pradesh,Varanasi,"Bhelupur, Varanasi - UPPCB",11-02-2024 19:00:00,25.301778,82.996789,NH3,1,2,2
India,Uttar_Pradesh,Varanasi,"IESD Banaras Hindu University, Varanasi - UPPCB",11-02-2024 19:00:00,25.262326,82.995408,OZONE,1,3,2
India,Uttar_Pradesh,Varanasi,"Maldahiya, Varanasi - UPPCB",11-02-2024 19:00:00,25.32393,82.99687,NH3,1,2,1
India,Uttar_Pradesh,Vrindavan,"Omex Eternity, Vrindavan - UPPCB",11-02-2024 19:00:00,27.5714090,77.6557570,PM2.5,42,105,69
India,Uttar_Pradesh,Vrindavan,"Omex Eternity, Vrindavan - UPPCB",11-02-2024 19:00:00,27.5714090,77.6557570,NO2,2,3,3
India,Uttar_Pradesh,Vrindavan,"Omex Eternity, Vrindavan - UPPCB",11-02-2024 19:00:00,27.5714090,77.6557570,NH3,2,3,3
India,Uttarakhand,Kashipur,"Govt. Girls Inter College, Kashipur - UKPCB",11-02-2024 19:00:00,29.2124114,78.9611753,PM2.5,51,254,106
India,Uttarakhand,Kashipur,"Govt. Girls Inter College, Kashipur - UKPCB",11-02-2024 19:00:00,29.2124114,78.9611753,PM10,60,143,92
India,Uttarakhand,Kashipur,"Govt. Girls Inter College, Kashipur - UKPCB",11-02-2024 19:00:00,29.2124114,78.9611753,OZONE,3,38,30
India,Uttarakhand,Rishikesh,"Shivaji Nagar, Rishikesh - UKPCB",11-02-2024 19:00:00,30.075911,78.2859547,NO2,5,23,9
India,Uttarakhand,Rishikesh,"Shivaji Nagar, Rishikesh - UKPCB",11-02-2024 19:00:00,30.075911,78.2859547,OZONE,5,95,59
India,West_Bengal,Asansol,"Asansol Court Area, Asansol - WBPCB",11-02-2024 19:00:00,23.685297,86.945968,NH3,6,9,8
India,West_Bengal,Asansol,"Asansol Court Area, Asansol - WBPCB",11-02-2024 19:00:00,23.685297,86.945968,OZONE,11,25,21
India,West_Bengal,Barrackpore,"SVSPA Campus, Barrackpore - WBPCB",11-02-2024 19:00:00,22.7605581,88.3617589,NO2,13,76,41
India,West_Bengal,Barrackpore,"SVSPA Campus, Barrackpore - WBPCB",11-02-2024 19:00:00,22.7605581,88.3617589,CO,22,86,32
India,West_Bengal,Durgapur,"Sidhu Kanhu Indoor Stadium, Durgapur - WBPCB",11-02-2024 19:00:00,23.5404352,87.2892225,PM2.5,63,222,127
India,West_Bengal,Durgapur,"Sidhu Kanhu Indoor Stadium, Durgapur - WBPCB",11-02-2024 19:00:00,23.5404352,87.2892225,PM10,86,153,122
India,West_Bengal,Durgapur,"Sidhu Kanhu Indoor Stadium, Durgapur - WBPCB",11-02-2024 19:00:00,23.5404352,87.2892225,OZONE,2,45,28
India,West_Bengal,Haldia,"Priyambada Housing Estate, Haldia - WBPCB",11-02-2024 19:00:00,22.06047,88.109737,NH3,4,6,4
India,West_Bengal,Haldia,"Priyambada Housing Estate, Haldia - WBPCB",11-02-2024 19:00:00,22.06047,88.109737,SO2,8,25,14
India,West_Bengal,Haldia,"Priyambada Housing Estate, Haldia - WBPCB",11-02-2024 19:00:00,22.06047,88.109737,CO,56,103,63
India,West_Bengal,Howrah,"Belur Math, Howrah - WBPCB",11-02-2024 19:00:00,22.629801,88.352017,PM2.5,67,297,185
India,West_Bengal,Howrah,"Belur Math, Howrah - WBPCB",11-02-2024 19:00:00,22.629801,88.352017,NO2,17,60,38
India,West_Bengal,Howrah,"Ghusuri, Howrah - WBPCB",11-02-2024 19:00:00,22.611968,88.347422,PM2.5,159,341,282
India,West_Bengal,Howrah,"Ghusuri, Howrah - WBPCB",11-02-2024 19:00:00,22.611968,88.347422,NH3,7,12,9
India,West_Bengal,Howrah,"Ghusuri, Howrah - WBPCB",11-02-2024 19:00:00,22.611968,88.347422,CO,2,59,12
India,West_Bengal,Howrah,"Ghusuri, Howrah - WBPCB",11-02-2024 19:00:00,22.611968,88.347422,OZONE,10,30,24
India,West_Bengal,Howrah,"Padmapukur, Howrah - WBPCB",11-02-2024 19:00:00,22.5687319,88.2797276,NO2,18,74,42
India,West_Bengal,Kolkata,"Ballygunge, Kolkata - WBPCB",11-02-2024 19:00:00,22.5367507,88.3638022,PM2.5,66,400,229
India,West_Bengal,Kolkata,"Bidhannagar, Kolkata - WBPCB",11-02-2024 19:00:00,22.58157048,88.41002457,NO2,14,43,30
India,West_Bengal,Kolkata,"Fort William, Kolkata - WBPCB",11-02-2024 19:00:00,22.556640,88.342674,NO2,24,154,89
India,West_Bengal,Kolkata,"Jadavpur, Kolkata - WBPCB",11-02-2024 19:00:00,22.49929,88.36917,PM2.5,91,315,234
India,West_Bengal,Kolkata,"Jadavpur, Kolkata - WBPCB",11-02-2024 19:00:00,22.49929,88.36917,PM10,89,200,158
India,West_Bengal,Kolkata,"Jadavpur, Kolkata - WBPCB",11-02-2024 19:00:00,22.49929,88.36917,NO2,4,11,6
India,West_Bengal,Kolkata,"Jadavpur, Kolkata - WBPCB",11-02-2024 19:00:00,22.49929,88.36917,NH3,4,7,5
India,West_Bengal,Kolkata,"Jadavpur, Kolkata - WBPCB",11-02-2024 19:00:00,22.49929,88.36917,SO2,5,11,7
India,West_Bengal,Kolkata,"Jadavpur, Kolkata - WBPCB",11-02-2024 19:00:00,22.49929,88.36917,OZONE,5,43,23
India,West_Bengal,Kolkata,"Rabindra Sarobar, Kolkata - WBPCB",11-02-2024 19:00:00,22.51106,88.35142,NH3,5,31,18
India,West_Bengal,Siliguri,"Ward-32 Bapupara, Siliguri - WBPCB",11-02-2024 19:00:00,26.6879226,88.4152495,CO,16,103,27
India,Andhra_Pradesh,Amaravati,"Secretariat, Amaravati - APPCB",11-02-2024 19:00:00,16.5150833,80.5181667,NH3,3,5,4
India,Andhra_Pradesh,Amaravati,"Secretariat, Amaravati - APPCB",11-02-2024 19:00:00,16.5150833,80.5181667,OZONE,17,58,55
India,Andhra_Pradesh,Anantapur,"Gulzarpet, Anantapur - APPCB",11-02-2024 19:00:00,14.675886,77.593027,PM2.5,NA,NA,NA
India,Andhra_Pradesh,Anantapur,"Gulzarpet, Anantapur - APPCB",11-02-2024 19:00:00,14.675886,77.593027,NH3,NA,NA,NA
India,Andhra_Pradesh,Chittoor,"Gangineni Cheruvu, Chittoor - APPCB",11-02-2024 19:00:00,13.204880,79.097889,PM2.5,44,89,69
India,Andhra_Pradesh,Rajamahendravaram,"Anand Kala Kshetram, Rajamahendravaram - APPCB",11-02-2024 19:00:00,16.9872867,81.7363176,PM2.5,85,167,110
India,Andhra_Pradesh,Rajamahendravaram,"Anand Kala Kshetram, Rajamahendravaram - APPCB",11-02-2024 19:00:00,16.9872867,81.7363176,CO,26,40,33
India,Andhra_Pradesh,Vijayawada,"Kanuru, Vijayawada - APPCB",11-02-2024 19:00:00,16.486692,80.699436,OZONE,25,25,25
India,Andhra_Pradesh,Vijayawada,"Rajiv Gandhi Park, Vijayawada - APPCB",11-02-2024 19:00:00,16.509717,80.612222,NH3,5,7,6
India,Andhra_Pradesh,Visakhapatnam,"GVM Corporation, Visakhapatnam - APPCB",11-02-2024 19:00:00,17.72,83.3,PM2.5,77,118,96
India,Andhra_Pradesh,Visakhapatnam,"GVM Corporation, Visakhapatnam - APPCB",11-02-2024 19:00:00,17.72,83.3,OZONE,9,90,61
India,Assam,Byrnihat,"Central Academy for SFS, Byrnihat - PCBA",11-02-2024 19:00:00,26.071318,91.87488,PM2.5,70,500,317
India,Assam,Byrnihat,"Central Academy for SFS, Byrnihat - PCBA",11-02-2024 19:00:00,26.071318,91.87488,PM10,49,500,298
India,Assam,Byrnihat,"Central Academy for SFS, Byrnihat - PCBA",11-02-2024 19:00:00,26.071318,91.87488,SO2,10,15,12
India,Assam,Guwahati,"LGBI Airport, Guwahati - PCBA",11-02-2024 19:00:00,26.10887,91.589544,PM2.5,77,312,198
India,Assam,Guwahati,"LGBI Airport, Guwahati - PCBA",11-02-2024 19:00:00,26.10887,91.589544,PM10,116,236,164
India,Assam,Guwahati,"Pan Bazaar, Guwahati - PCBA",11-02-2024 19:00:00,26.187500,91.744194,PM2.5,55,327,212
India,Assam,Guwahati,"Pan Bazaar, Guwahati - PCBA",11-02-2024 19:00:00,26.187500,91.744194,SO2,55,98,69
India,Assam,Guwahati,"Railway Colony, Guwahati - PCBA",11-02-2024 19:00:00,26.181742,91.78063,OZONE,5,42,24
India,Assam,Nagaon,"Christianpatty, Nagaon - PCBA",11-02-2024 19:00:00,26.349082,92.68449,PM2.5,87,500,226
India,Assam,Nagaon,"Christianpatty, Nagaon - PCBA",11-02-2024 19:00:00,26.349082,92.68449,SO2,7,18,13
India,Assam,Silchar,"Tarapur, Silchar - PCBA",11-02-2024 19:00:00,24.82827,92.79525,PM10,NA,NA,NA
India,Assam,Sivasagar,"Girls College, Sivasagar - PCBA",11-02-2024 19:00:00,26.987634,94.636574,PM2.5,18,45,30
India,Bihar,Araria,"Kharahiya Basti, Araria - BSPCB",11-02-2024 19:00:00,26.146529,87.454184,SO2,14,17,16
India,Bihar,Arrah,"New DM Office, Arrah - BSPCB",11-02-2024 19:00:00,25.5626095,84.663264,PM2.5,NA,NA,NA
India,Bihar,Arrah,"New DM Office, Arrah - BSPCB",11-02-2024 19:00:00,25.5626095,84.663264,NH3,NA,NA,NA
India,Bihar,Aurangabad,"Gurdeo Nagar, Aurangabad - BSPCB",11-02-2024 19:00:00,24.75746,84.366208,PM2.5,110,410,217
India,Bihar,Bettiah,"Kamalnath Nagar, Bettiah - BSPCB",11-02-2024 19:00:00,26.80365,84.51954,SO2,NA,NA,NA
India,Bihar,Bettiah,"Kamalnath Nagar, Bettiah - BSPCB",11-02-2024 19:00:00,26.80365,84.51954,OZONE,NA,NA,NA
India,Bihar,Buxar,"Charitra Van, Buxar - BSPCB (Formerly known as Central Jail)",11-02-2024 19:00:00,25.567520,83.966379,PM2.5,280,480,409
India,Bihar,Chhapra,"Darshan Nagar, Chhapra - BSPCB",11-02-2024 19:00:00,25.7808257,84.7446768,NO2,16,32,23
India,Bihar,Gaya,"Collectorate, Gaya - BSPCB",11-02-2024 19:00:00,24.7955,84.9994,SO2,15,56,23
India,Bihar,Gaya,"SFTI Kusdihra, Gaya - BSPCB",11-02-2024 19:00:00,24.762518,84.982348,PM10,61,105,78
India,Bihar,Gaya,"SFTI Kusdihra, Gaya - BSPCB",11-02-2024 19:00:00,24.762518,84.982348,OZONE,2,63,40
India,Bihar,Hajipur,"Industrial Area, Hajipur - BSPCB",11-02-2024 19:00:00,25.697189,85.245900,PM2.5,73,354,207
India,Bihar,Katihar,"Mirchaibari, Katihar - BSPCB",11-02-2024 19:00:00,25.560083,87.553265,PM2.5,55,323,152
India,Bihar,Motihari,"Gandak Colony, Motihari - BSPCB",11-02-2024 19:00:00,26.63086,84.90051,PM2.5,52,320,161
India,Bihar,Munger,"Town Hall, Munger - BSPCB",11-02-2024 19:00:00,25.376776,86.471523,PM2.5,48,327,127
India,Bihar,Munger,"Town Hall, Munger - BSPCB",11-02-2024 19:00:00,25.376776,86.471523,NO2,8,10,9
India,Bihar,Munger,"Town Hall, Munger - BSPCB",11-02-2024 19:00:00,25.376776,86.471523,OZONE,10,81,33
India,Bihar,Muzaffarpur,"Buddha Colony, Muzaffarpur - BSPCB",11-02-2024 19:00:00,26.11442,85.39813,SO2,8,22,10
India,Bihar,Muzaffarpur,"Buddha Colony, Muzaffarpur - BSPCB",11-02-2024 19:00:00,26.11442,85.39813,OZONE,64,101,88
India,Bihar,Patna,"DRM Office Danapur, Patna - BSPCB",11-02-2024 19:00:00,25.586562,85.043586,CO,16,128,37
India,Bihar,Patna,"Govt. High School Shikarpur, Patna - BSPCB",11-02-2024 19:00:00,25.592539,85.227158,PM10,125,242,189
India,Bihar,Patna,"Govt. High School Shikarpur, Patna - BSPCB",11-02-2024 19:00:00,25.592539,85.227158,NO2,17,37,26
India,Bihar,Patna,"Govt. High School Shikarpur, Patna - BSPCB",11-02-2024 19:00:00,25.592539,85.227158,NH3,4,5,4
India,Bihar,Patna,"Muradpur, Patna - BSPCB",11-02-2024 19:00:00,25.619651,85.147382,NO2,10,28,16
India,Bihar,Patna,"Muradpur, Patna - BSPCB",11-02-2024 19:00:00,25.619651,85.147382,SO2,8,28,15
India,Bihar,Patna,"Muradpur, Patna - BSPCB",11-02-2024 19:00:00,25.619651,85.147382,OZONE,21,133,107
India,Bihar,Patna,"Rajbansi Nagar, Patna - BSPCB",11-02-2024 19:00:00,25.599486,85.113666,NO2,35,59,49
India,Bihar,Purnia,"Mariam Nagar, Purnia - BSPCB",11-02-2024 19:00:00,25.366336,87.117468,NH3,1,1,1
India,Bihar,Purnia,"Mariam Nagar, Purnia - BSPCB",11-02-2024 19:00:00,25.366336,87.117468,SO2,16,23,19
India,Bihar,Rajgir,"Dangi Tola, Rajgir - BSPCB",11-02-2024 19:00:00,25.03280,85.41948,PM2.5,48,345,171
India,Bihar,Saharsa,"Police Line, Saharsa - BSPCB",11-02-2024 19:00:00,25.892357,86.590325,SO2,2,88,29
India,Bihar,Samastipur,"DM Office_Kasipur, Samastipur - BSPCB",11-02-2024 19:00:00,25.859655,85.77944,NH3,3,5,5
India,Bihar,Sasaram,"Dada Peer, Sasaram - BSPCB",11-02-2024 19:00:00,24.952822,84.002396,NO2,NA,NA,NA
India,Bihar,Sasaram,"Dada Peer, Sasaram - BSPCB",11-02-2024 19:00:00,24.952822,84.002396,OZONE,4,5,4
India,Chandigarh,Chandigarh,"Sector 22, Chandigarh - CPCC",11-02-2024 19:00:00,30.735567,76.775714,OZONE,2,173,130
India,Chandigarh,Chandigarh,"Sector-25, Chandigarh - CPCC",11-02-2024 19:00:00,30.751462,76.762879,PM10,130,210,154
India,Chandigarh,Chandigarh,"Sector-25, Chandigarh - CPCC",11-02-2024 19:00:00,30.751462,76.762879,NO2,12,73,30
India,Chhattisgarh,Bhilai,"Civic Center, Bhilai - Bhilai Steel Plant",11-02-2024 19:00:00,21.185571,81.343175,PM2.5,34,65,46
India,Chhattisgarh,Bhilai,"Civic Center, Bhilai - Bhilai Steel Plant",11-02-2024 19:00:00,21.185571,81.343175,SO2,3,13,10
India,Chhattisgarh,Bhilai,"Civic Center, Bhilai - Bhilai Steel Plant",11-02-2024 19:00:00,21.185571,81.343175,OZONE,10,81,65
India,Chhattisgarh,Bhilai,"Hathkhoj, Bhilai - CECB",11-02-2024 19:00:00,21.224231,81.408350,NO2,32,48,39
India,Chhattisgarh,Chhal,"Nawapara SECL Colony, Chhal - CECB",11-02-2024 19:00:00,22.118125,83.140608,PM10,51,123,81
India,Chhattisgarh,Chhal,"Nawapara SECL Colony, Chhal - CECB",11-02-2024 19:00:00,22.118125,83.140608,NO2,15,56,30
India,Chhattisgarh,Korba,"Rampur, Korba - CECB",11-02-2024 19:00:00,22.368195,82.746431,CO,24,33,25
India,Chhattisgarh,Korba,"Urja Nagar, Korba - CECB",11-02-2024 19:00:00,22.348441,82.549611,PM2.5,7,24,13
India,Chhattisgarh,Kunjemura,"OP Jindal School, Kunjemura - CECB",11-02-2024 19:00:00,22.126650,83.483212,PM2.5,44,73,56
India,Chhattisgarh,Raipur,"AIIMS, Raipur - CECB",11-02-2024 19:00:00,21.258815,81.578979,PM10,41,193,110
India,Chhattisgarh,Raipur,"AIIMS, Raipur - CECB",11-02-2024 19:00:00,21.258815,81.578979,CO,28,57,37
India,Chhattisgarh,Raipur,"Krishak Nagar, Raipur - CECB",11-02-2024 19:00:00,21.237755,81.705301,PM10,51,114,91
India,Chhattisgarh,Raipur,"Krishak Nagar, Raipur - CECB",11-02-2024 19:00:00,21.237755,81.705301,NH3,1,1,1
India,Chhattisgarh,Raipur,"Krishak Nagar, Raipur - CECB",11-02-2024 19:00:00,21.237755,81.705301,SO2,8,30,13
India,Chhattisgarh,Raipur,"Siltara Phase-II, Raipur - CECB",11-02-2024 19:00:00,21.371751,81.664929,PM2.5,50,172,101
India,Chhattisgarh,Tumidih,"OP Jindal Industrial Park, Tumidih - CECB",11-02-2024 19:00:00,22.06631475,83.33820077,PM2.5,NA,NA,NA
India,Chhattisgarh,Tumidih,"OP Jindal Industrial Park, Tumidih - CECB",11-02-2024 19:00:00,22.06631475,83.33820077,NH3,NA,NA,NA
India,Delhi,Delhi,"Alipur, Delhi - DPCC",11-02-2024 19:00:00,28.815329,77.153010,NH3,10,16,13
India,Delhi,Delhi,"Anand Vihar, Delhi - DPCC",11-02-2024 19:00:00,28.647622,77.3158090,NO2,93,190,132
India,Delhi,Delhi,"Aya Nagar, Delhi - IMD",11-02-2024 19:00:00,28.4706914,77.1099364,CO,70,102,82
India,Delhi,Delhi,"Bawana, Delhi - DPCC",11-02-2024 19:00:00,28.776200,77.051074,NH3,6,11,8
India,Delhi,Delhi,"Bawana, Delhi - DPCC",11-02-2024 19:00:00,28.776200,77.051074,CO,34,94,44
India,Delhi,Delhi,"CRRI Mathura Road, Delhi - IMD",11-02-2024 19:00:00,28.5512005,77.2735737,PM2.5,135,360,295
India,Delhi,Delhi,"DTU, Delhi - CPCB",11-02-2024 19:00:00,28.7500499,77.1112615,PM10,NA,NA,NA
India,Delhi,Delhi,"DTU, Delhi - CPCB",11-02-2024 19:00:00,28.7500499,77.1112615,CO,18,40,20
India,Delhi,Delhi,"Dr. Karni Singh Shooting Range, Delhi - DPCC",11-02-2024 19:00:00,28.498571,77.264840,NH3,8,11,10
India,Delhi,Delhi,"Dr. Karni Singh Shooting Range, Delhi - DPCC",11-02-2024 19:00:00,28.498571,77.264840,OZONE,1,268,163
India,Delhi,Delhi,"Dwarka-Sector 8, Delhi - DPCC ",11-02-2024 19:00:00,28.5710274,77.0719006,NO2,25,98,47
India,Delhi,Delhi,"Dwarka-Sector 8, Delhi - DPCC ",11-02-2024 19:00:00,28.5710274,77.0719006,OZONE,2,66,38
India,Delhi,Delhi,"IGI Airport (T3), Delhi - IMD",11-02-2024 19:00:00,28.5627763,77.1180053,PM2.5,121,371,300
India,Delhi,Delhi,"IGI Airport (T3), Delhi - IMD",11-02-2024 19:00:00,28.5627763,77.1180053,CO,91,127,98
India,Delhi,Delhi,"IHBAS, Dilshad Garden, Delhi - CPCB",11-02-2024 19:00:00,28.6811736,77.3025234,PM10,132,199,162
India,Delhi,Delhi,"ITO, Delhi - CPCB",11-02-2024 19:00:00,28.628624,77.241060,PM2.5,208,367,289
India,Delhi,Delhi,"Jahangirpuri, Delhi - DPCC",11-02-2024 19:00:00,28.732820,77.170633,PM10,159,473,341
India,Delhi,Delhi,"Jawaharlal Nehru Stadium, Delhi - DPCC",11-02-2024 19:00:00,28.580280,77.233829,PM2.5,237,362,323
India,Delhi,Delhi,"Jawaharlal Nehru Stadium, Delhi - DPCC",11-02-2024 19:00:00,28.580280,77.233829,NH3,10,17,13
India,Delhi,Delhi,"Jawaharlal Nehru Stadium, Delhi - DPCC",11-02-2024 19:00:00,28.580280,77.233829,SO2,5,34,16
India,Delhi,Delhi,"Lodhi Road, Delhi - IITM",11-02-2024 19:00:00,28.588333,77.221667,OZONE,15,17,16
India,Delhi,Delhi,"Lodhi Road, Delhi - IMD",11-02-2024 19:00:00,28.5918245,77.2273074,OZONE,14,115,75
India,Delhi,Delhi,"Major Dhyan Chand National Stadium, Delhi - DPCC",11-02-2024 19:00:00,28.611281,77.237738,NO2,43,177,96
India,Delhi,Delhi,"Major Dhyan Chand National Stadium, Delhi - DPCC",11-02-2024 19:00:00,28.611281,77.237738,NH3,9,15,12
India,Delhi,Delhi,"Major Dhyan Chand National Stadium, Delhi - DPCC",11-02-2024 19:00:00,28.611281,77.237738,SO2,13,28,17
India,Delhi,Delhi,"Mandir Marg, Delhi - DPCC",11-02-2024 19:00:00,28.636429,77.201067,PM2.5,233,380,329
India,Delhi,Delhi,"Mandir Marg, Delhi - DPCC",11-02-2024 19:00:00,28.636429,77.201067,NO2,99,142,124
India,Delhi,Delhi,"NSIT Dwarka, Delhi - CPCB",11-02-2024 19:00:00,28.60909,77.0325413,NO2,26,65,39
India,Delhi,Delhi,"NSIT Dwarka, Delhi - CPCB",11-02-2024 19:00:00,28.60909,77.0325413,NH3,8,11,9
India,Delhi,Delhi,"NSIT Dwarka, Delhi - CPCB",11-02-2024 19:00:00,28.60909,77.0325413,SO2,11,17,13
India,Delhi,Delhi,"Najafgarh, Delhi - DPCC",11-02-2024 19:00:00,28.570173,76.933762,NO2,NA,NA,NA
India,Delhi,Delhi,"Najafgarh, Delhi - DPCC",11-02-2024 19:00:00,28.570173,76.933762,CO,3,50,12
India,Delhi,Delhi,"Narela, Delhi - DPCC",11-02-2024 19:00:00,28.822836,77.101981,NO2,19,93,48
India,Delhi,Delhi,"Nehru Nagar, Delhi - DPCC",11-02-2024 19:00:00,28.567890,77.250515,PM2.5,306,478,373
India,Delhi,Delhi,"North Campus, DU, Delhi - IMD",11-02-2024 19:00:00,28.6573814,77.1585447,OZONE,8,19,13
India,Delhi,Delhi,"Patparganj, Delhi - DPCC",11-02-2024 19:00:00,28.623763,77.287209,PM10,171,417,296
India,Delhi,Delhi,"Patparganj, Delhi - DPCC",11-02-2024 19:00:00,28.623763,77.287209,NO2,48,87,64
India,Delhi,Delhi,"R K Puram, Delhi - DPCC",11-02-2024 19:00:00,28.563262,77.186937,NH3,3,18,9
India,Delhi,Delhi,"Rohini, Delhi - DPCC",11-02-2024 19:00:00,28.732528,77.119920,NO2,28,102,57
India,Delhi,Delhi,"Rohini, Delhi - DPCC",11-02-2024 19:00:00,28.732528,77.119920,NH3,10,14,12
India,Delhi,Delhi,"Shadipur, Delhi - CPCB",11-02-2024 19:00:00,28.6514781,77.1473105,NO2,35,53,43
India,Delhi,Delhi,"Shadipur, Delhi - CPCB",11-02-2024 19:00:00,28.6514781,77.1473105,CO,22,73,38
India,Delhi,Delhi,"Sirifort, Delhi - CPCB",11-02-2024 19:00:00,28.5504249,77.2159377,CO,40,109,52
India,Delhi,Delhi,"Sonia Vihar, Delhi - DPCC",11-02-2024 19:00:00,28.710508,77.249485,SO2,6,39,14
India,Delhi,Delhi,"Sri Aurobindo Marg, Delhi - DPCC",11-02-2024 19:00:00,28.531346,77.190156,PM10,149,248,196
India,Delhi,Delhi,"Sri Aurobindo Marg, Delhi - DPCC",11-02-2024 19:00:00,28.531346,77.190156,CO,26,72,30
India,Delhi,Delhi,"Sri Aurobindo Marg, Delhi - DPCC",11-02-2024 19:00:00,28.531346,77.190156,OZONE,2,48,35
India,Delhi,Delhi,"Vivek Vihar, Delhi - DPCC",11-02-2024 19:00:00,28.672342,77.315260,NH3,4,9,7
India,Delhi,Delhi,"Vivek Vihar, Delhi - DPCC",11-02-2024 19:00:00,28.672342,77.315260,SO2,26,34,31
India,Delhi,Delhi,"Wazirpur, Delhi - DPCC",11-02-2024 19:00:00,28.699793,77.165453,PM2.5,241,426,358
India,Delhi,Delhi,"Wazirpur, Delhi - DPCC",11-02-2024 19:00:00,28.699793,77.165453,NH3,5,9,7
India,Gujarat,Ahmedabad,"Chandkheda, Ahmedabad - IITM",11-02-2024 19:00:00,23.107969,72.574648,NO2,40,106,71
India,Gujarat,Ahmedabad,"Raikhad, Ahmedabad - IITM",11-02-2024 19:00:00,23.020509,72.579261,PM2.5,90,244,148
India,Gujarat,Ahmedabad,"Raikhad, Ahmedabad - IITM",11-02-2024 19:00:00,23.020509,72.579261,NO2,14,40,23
India,Gujarat,Ahmedabad,"Raikhad, Ahmedabad - IITM",11-02-2024 19:00:00,23.020509,72.579261,NH3,1,2,2
India,Gujarat,Ahmedabad,"Raikhad, Ahmedabad - IITM",11-02-2024 19:00:00,23.020509,72.579261,SO2,2,13,5
India,Gujarat,Ahmedabad,"SAC ISRO Bopal, Ahmedabad - IITM",11-02-2024 19:00:00,23.041137,72.456691,PM2.5,50,117,71
India,Gujarat,Ahmedabad,"SAC ISRO Bopal, Ahmedabad - IITM",11-02-2024 19:00:00,23.041137,72.456691,NO2,24,36,27
India,Gujarat,Ahmedabad,"Sardar Vallabhbhai Patel Stadium, Ahmedabad - IITM",11-02-2024 19:00:00,23.043070,72.562968,SO2,3,7,6
India,Gujarat,Ankleshwar,"GIDC, Ankleshwar - GPCB",11-02-2024 19:00:00,21.613267,73.010555,SO2,21,79,44
India,Gujarat,Ankleshwar,"GIDC, Ankleshwar - GPCB",11-02-2024 19:00:00,21.613267,73.010555,CO,4,124,18
India,Gujarat,Ankleshwar,"GIDC, Ankleshwar - GPCB",11-02-2024 19:00:00,21.613267,73.010555,OZONE,22,38,34
India,Gujarat,Gandhinagar,"GIFT City, Gandhinagar - IITM",11-02-2024 19:00:00,23.163798,72.677768,PM2.5,43,83,59
India,Gujarat,Gandhinagar,"GIFT City, Gandhinagar - IITM",11-02-2024 19:00:00,23.163798,72.677768,PM10,56,103,72
India,Gujarat,Gandhinagar,"GIFT City, Gandhinagar - IITM",11-02-2024 19:00:00,23.163798,72.677768,NH3,6,6,6
India,Gujarat,Gandhinagar,"IIPHG Lekawada, Gandhinagar - IITM",11-02-2024 19:00:00,23.243639,72.68994,CO,28,42,31
India,Gujarat,Gandhinagar,"IIPHG Lekawada, Gandhinagar - IITM",11-02-2024 19:00:00,23.243639,72.68994,OZONE,23,95,34
India,Gujarat,Gandhinagar,"Sector-10, Gandhinagar - GPCB",11-02-2024 19:00:00,23.221714,72.654328,CO,8,35,12
India,Gujarat,Vapi,"Phase-1 GIDC, Vapi - GPCB",11-02-2024 19:00:00,20.362421,72.918013,PM2.5,99,413,235
India,Gujarat,Vapi,"Phase-1 GIDC, Vapi - GPCB",11-02-2024 19:00:00,20.362421,72.918013,PM10,118,416,183
India,Haryana,Ambala,"Patti Mehar, Ambala - HSPCB",11-02-2024 19:00:00,30.379589,76.778328,PM2.5,63,152,95
India,Haryana,Ambala,"Patti Mehar, Ambala - HSPCB",11-02-2024 19:00:00,30.379589,76.778328,PM10,45,97,68
India,Haryana,Bahadurgarh,"Arya Nagar, Bahadurgarh - HSPCB",11-02-2024 19:00:00,28.6701,76.9254,SO2,7,19,10
India,Haryana,Charkhi Dadri,"Mini Secretariat, Charkhi Dadri - HSPCB",11-02-2024 19:00:00,28.593883,76.270653,NO2,9,17,12
India,Haryana,Charkhi Dadri,"Mini Secretariat, Charkhi Dadri - HSPCB",11-02-2024 19:00:00,28.593883,76.270653,SO2,6,14,9
India,Haryana,Dharuhera,"Municipal Corporation Office, Dharuhera -  HSPCB",11-02-2024 19:00:00,28.206800,76.799700,SO2,5,47,12
India,Haryana,Faridabad,"New Industrial Town, Faridabad - HSPCB",11-02-2024 19:00:00,28.39072,77.30059,PM10,142,500,273
India,Haryana,Faridabad,"New Industrial Town, Faridabad - HSPCB",11-02-2024 19:00:00,28.39072,77.30059,NO2,8,19,12
India,Haryana,Faridabad,"New Industrial Town, Faridabad - HSPCB",11-02-2024 19:00:00,28.39072,77.30059,CO,20,55,25
India,Haryana,Faridabad,"Sector 30, Faridabad - HSPCB",11-02-2024 19:00:00,28.4417,77.3217,PM10,111,129,122
India,Haryana,Faridabad,"Sector 30, Faridabad - HSPCB",11-02-2024 19:00:00,28.4417,77.3217,NH3,9,9,9
India,Haryana,Faridabad,"Sector- 16A, Faridabad - HSPCB",11-02-2024 19:00:00,28.4088421,77.3099081,PM2.5,279,397,347
India,Haryana,Fatehabad,"Huda Sector, Fatehabad - HSPCB",11-02-2024 19:00:00,29.503664,75.467934,NH3,8,9,9
India,Haryana,Fatehabad,"Huda Sector, Fatehabad - HSPCB",11-02-2024 19:00:00,29.503664,75.467934,CO,5,32,6
India,Haryana,Hisar,"Urban Estate-II, Hisar - HSPCB",11-02-2024 19:00:00,29.140560,75.744941,CO,40,50,41
India,Haryana,Jind,"Police Lines, Jind - HSPCB",11-02-2024 19:00:00,29.307814,76.337619,CO,2,112,43
India,Haryana,Kaithal,"Rishi Nagar, Kaithal - HSPCB",11-02-2024 19:00:00,29.8006,76.4155,NO2,23,26,25
India,Haryana,Kaithal,"Rishi Nagar, Kaithal - HSPCB",11-02-2024 19:00:00,29.8006,76.4155,NH3,8,8,8
India,Haryana,Kaithal,"Rishi Nagar, Kaithal - HSPCB",11-02-2024 19:00:00,29.8006,76.4155,OZONE,5,14,13
India,Haryana,Kurukshetra,"Sector-7, Kurukshetra - HSPCB",11-02-2024 19:00:00,29.966942,76.875879,NH3,5,5,5
India,Haryana,Kurukshetra,"Sector-7, Kurukshetra - HSPCB",11-02-2024 19:00:00,29.966942,76.875879,CO,16,82,24
India,Haryana,Mandikhera,"General Hospital, Mandikhera - HSPCB",11-02-2024 19:00:00,27.9002,76.9938,NH3,17,21,19
India,Haryana,Mandikhera,"General Hospital, Mandikhera - HSPCB",11-02-2024 19:00:00,27.9002,76.9938,SO2,31,36,34
India,Haryana,Manesar,"Sector-2 IMT, Manesar - HSPCB",11-02-2024 19:00:00,28.360699,76.936090,NO2,5,15,10
India,Haryana,Sirsa,"F-Block, Sirsa - HSPCB",11-02-2024 19:00:00,29.536400,75.015800,CO,62,83,73
India,Haryana,Sonipat,"Murthal, Sonipat - HSPCB",11-02-2024 19:00:00,29.027200,77.062100,NH3,7,10,9
India,Haryana,Sonipat,"Murthal, Sonipat - HSPCB",11-02-2024 19:00:00,29.027200,77.062100,CO,23,36,27
India,Haryana,Yamuna Nagar,"Gobind Pura, Yamuna Nagar - HSPCB",11-02-2024 19:00:00,30.1480566,77.2893471,NH3,2,14,3
India,Haryana,Yamuna Nagar,"Gobind Pura, Yamuna Nagar - HSPCB",11-02-2024 19:00:00,30.1480566,77.2893471,SO2,1,14,6
India,Himachal Pradesh,Baddi,"HIMUDA Complex Phase-1, Baddi - HPPCB",11-02-2024 19:00:00,30.943887,76.801991,PM10,104,335,181
India,Himachal Pradesh,Baddi,"HIMUDA Complex Phase-1, Baddi - HPPCB",11-02-2024 19:00:00,30.943887,76.801991,NO2,10,51,25
India,Himachal Pradesh,Baddi,"HIMUDA Complex Phase-1, Baddi - HPPCB",11-02-2024 19:00:00,30.943887,76.801991,CO,14,47,21
India,Jharkhand,Dhanbad,"Sardar Patel Nagar, Dhanbad - JSPCB",11-02-2024 19:00:00,23.80569,86.44268,SO2,8,11,10
India,Karnataka,Bagalkot,"Vidayagiri, Bagalkot - KSPCB",11-02-2024 19:00:00,16.172806,75.659694,NH3,1,2,1
India,Karnataka,Bagalkot,"Vidayagiri, Bagalkot - KSPCB",11-02-2024 19:00:00,16.172806,75.659694,SO2,NA,NA,NA
India,Karnataka,Bagalkot,"Vidayagiri, Bagalkot - KSPCB",11-02-2024 19:00:00,16.172806,75.659694,CO,20,60,43
India,Karnataka,Bengaluru,"BTM Layout, Bengaluru - CPCB",11-02-2024 19:00:00,12.9135218,77.5950804,PM10,NA,NA,NA
India,Karnataka,Bengaluru,"BTM Layout, Bengaluru - CPCB",11-02-2024 19:00:00,12.9135218,77.5950804,CO,22,22,22
India,Karnataka,Bengaluru,"Bapuji Nagar, Bengaluru - KSPCB",11-02-2024 19:00:00,12.951913,77.539784,PM10,63,113,96
India,Karnataka,Bengaluru,"Bapuji Nagar, Bengaluru - KSPCB",11-02-2024 19:00:00,12.951913,77.539784,NO2,9,12,10
India,Karnataka,Bengaluru,"Hombegowda Nagar, Bengaluru - KSPCB",11-02-2024 19:00:00,12.938539,77.590100,PM10,65,122,85
India,Karnataka,Bengaluru,"Hombegowda Nagar, Bengaluru - KSPCB",11-02-2024 19:00:00,12.938539,77.590100,OZONE,4,5,4
India,Karnataka,Bengaluru,"Jayanagar 5th Block, Bengaluru - KSPCB",11-02-2024 19:00:00,12.920984,77.584908,OZONE,18,19,19
India,Karnataka,Bengaluru,"Jigani, Bengaluru - KSPCB",11-02-2024 19:00:00,12.7816279,77.6299145,OZONE,9,62,59
India,Karnataka,Bengaluru,"Kasturi Nagar, Bengaluru - KSPCB",11-02-2024 19:00:00,13.003872,77.664217,PM2.5,70,144,102
India,Karnataka,Bengaluru,"Peenya, Bengaluru - CPCB",11-02-2024 19:00:00,13.0270199,77.494094,PM2.5,40,177,103
India,Karnataka,Bengaluru,"Peenya, Bengaluru - CPCB",11-02-2024 19:00:00,13.0270199,77.494094,PM10,115,137,126
India,Karnataka,Bengaluru,"Peenya, Bengaluru - CPCB",11-02-2024 19:00:00,13.0270199,77.494094,NO2,18,24,22
India,Karnataka,Bengaluru,"Sanegurava Halli, Bengaluru - KSPCB",11-02-2024 19:00:00,12.990328,77.5431385,PM10,24,53,33
India,Karnataka,Bengaluru,"Shivapura_Peenya, Bengaluru - KSPCB",11-02-2024 19:00:00,13.0246342,77.5080115,NO2,15,16,15
India,Karnataka,Bengaluru,"Silk Board, Bengaluru - KSPCB",11-02-2024 19:00:00,12.917348,77.622813,SO2,1,10,6
India,Karnataka,Chikkaballapur,"Chikkaballapur Rural, Chikkaballapur - KSPCB",11-02-2024 19:00:00,13.428828,77.731418,NO2,2,6,4
India,Karnataka,Chikkamagaluru,"Kalyana Nagara, Chikkamagaluru - KSPCB",11-02-2024 19:00:00,13.328028,75.797056,PM10,11,107,48
India,Karnataka,Davanagere,"Devaraj Urs Badavane, Davanagere - KSPCB",11-02-2024 19:00:00,14.475800,75.905200,PM2.5,10,196,90
India,Karnataka,Dharwad,"Kalabhavan, Dharwad - KSPCB",11-02-2024 19:00:00,15.459706,75.008381,PM2.5,47,93,71
India,Karnataka,Gadag,"Panchal Nagar, Gadag - KSPCB",11-02-2024 19:00:00,15.411456,75.638133,NO2,7,20,14
India,Karnataka,Haveri,"Ashwini Nagar, Haveri - KSPCB",11-02-2024 19:00:00,14.791800,75.389600,OZONE,18,20,19
India,Karnataka,Hubballi,"Lingaraj Nagar, Hubballi - KSPCB",11-02-2024 19:00:00,15.3714823,75.1160168,NH3,2,2,2
India,Karnataka,Hubballi,"Lingaraj Nagar, Hubballi - KSPCB",11-02-2024 19:00:00,15.3714823,75.1160168,CO,16,108,36
India,Karnataka,Hubballi,"Lingaraj Nagar, Hubballi - KSPCB",11-02-2024 19:00:00,15.3714823,75.1160168,OZONE,6,44,39
India,Karnataka,Kalaburagi,"Lal Bahadur Shastri Nagar, Kalaburagi - KSPCB",11-02-2024 19:00:00,17.321993,76.822628,CO,36,46,37
India,Karnataka,Kalaburagi,"Mahatma Basaveswar Colony, Kalaburgi - KSPCB",11-02-2024 19:00:00,17.336318,76.847397,PM2.5,20,48,30
India,Karnataka,Karwar,"KHB Colony, Karwar - KSPCB",11-02-2024 19:00:00,14.816666,74.141003,CO,8,8,8
India,Karnataka,Kolar,"Tamaka Ind. Area, Kolar - KSPCB",11-02-2024 19:00:00,13.1276288,78.1570122,PM10,75,171,104
India,Karnataka,Koppal,"Diwator Nagar, Koppal - KSPCB",11-02-2024 19:00:00,15.347630,76.181767,NO2,5,31,15
India,Karnataka,Madikeri,"Stuart Hill, Madikeri - KSPCB",11-02-2024 19:00:00,12.415911,75.735050,NO2,6,14,8
India,Karnataka,Madikeri,"Stuart Hill, Madikeri - KSPCB",11-02-2024 19:00:00,12.415911,75.735050,SO2,4,4,4
India,Karnataka,Mangalore,"Kadri, Mangalore - KSPCB",11-02-2024 19:00:00,12.889250,74.853000,PM10,25,74,61
India,Karnataka,Mangalore,"Kadri, Mangalore - KSPCB",11-02-2024 19:00:00,12.889250,74.853000,CO,30,46,40
India,Karnataka,Mysuru,"Hebbal 1st Stage, Mysuru - KSPCB",11-02-2024 19:00:00,12.21041,76.37376,NO2,NA,NA,NA
India,Karnataka,Mysuru,"Hebbal 1st Stage, Mysuru - KSPCB",11-02-2024 19:00:00,12.21041,76.37376,CO,2,28,12
India,Karnataka,Mysuru,"Hebbal 1st Stage, Mysuru - KSPCB",11-02-2024 19:00:00,12.21041,76.37376,OZONE,8,76,64
India,Karnataka,Raichur,"Haji Colony, Raichur - KSPCB",11-02-2024 19:00:00,16.208139,77.348417,PM10,64,197,100
India,Karnataka,Raichur,"Haji Colony, Raichur - KSPCB",11-02-2024 19:00:00,16.208139,77.348417,CO,78,108,100
India,Karnataka,Shivamogga,"Vinoba Nagara, Shivamogga - KSPCB",11-02-2024 19:00:00,13.940000,75.555917,NO2,9,17,13
India,Karnataka,Udupi,"Brahmagiri, Udupi - KSPCB",11-02-2024 19:00:00,13.34194444,74.74694444,NH3,1,2,1
India,Karnataka,Vijayapura,"Ibrahimpur, Vijayapura - KSPCB",11-02-2024 19:00:00,16.802639,75.722694,NO2,17,19,19
India,Karnataka,Vijayapura,"Ibrahimpur, Vijayapura - KSPCB",11-02-2024 19:00:00,16.802639,75.722694,OZONE,13,16,15
India,Kerala,Eloor,"Udyogamandal, Eloor - Kerala PCB",11-02-2024 19:00:00,10.073232,76.302765,SO2,1,5,2
India,Kerala,Eloor,"Udyogamandal, Eloor - Kerala PCB",11-02-2024 19:00:00,10.073232,76.302765,OZONE,10,20,16
India,Kerala,Kannur,"Thavakkara, Kannur - Kerala PCB",11-02-2024 19:00:00,11.875000,75.373200,NH3,1,1,1
India,Kerala,Kannur,"Thavakkara, Kannur - Kerala PCB",11-02-2024 19:00:00,11.875000,75.373200,SO2,5,6,5
India,Kerala,Kochi,"Vyttila, Kochi - Kerala PCB",11-02-2024 19:00:00,9.969447,76.321186,PM2.5,52,173,101
India,Kerala,Kochi,"Vyttila, Kochi - Kerala PCB",11-02-2024 19:00:00,9.969447,76.321186,PM10,60,126,96
India,Kerala,Kochi,"Vyttila, Kochi - Kerala PCB",11-02-2024 19:00:00,9.969447,76.321186,NO2,2,5,3
India,Kerala,Kochi,"Vyttila, Kochi - Kerala PCB",11-02-2024 19:00:00,9.969447,76.321186,NH3,3,3,3
India,Kerala,Kollam,"Polayathode, Kollam - Kerala PCB",11-02-2024 19:00:00,8.8787,76.6073,PM2.5,100,260,186
India,Kerala,Kollam,"Polayathode, Kollam - Kerala PCB",11-02-2024 19:00:00,8.8787,76.6073,NH3,1,1,1
India,Kerala,Thiruvananthapuram,"Kariavattom, Thiruvananthapuram - Kerala PCB",11-02-2024 19:00:00,8.563700,76.886500,NO2,8,10,9
India,Madhya Pradesh,Bhopal,"Idgah Hills, Bhopal - MPPCB",11-02-2024 19:00:00,23.264759,77.381568,SO2,7,26,15
India,Madhya Pradesh,Bhopal,"Idgah Hills, Bhopal - MPPCB",11-02-2024 19:00:00,23.264759,77.381568,CO,28,48,32
India,Madhya Pradesh,Bhopal,"Idgah Hills, Bhopal - MPPCB",11-02-2024 19:00:00,23.264759,77.381568,OZONE,53,100,90
India,Madhya Pradesh,Dewas,"Bhopal Chauraha, Dewas - MPPCB",11-02-2024 19:00:00,22.9682591,76.064118,PM10,76,180,112
India,Madhya Pradesh,Dewas,"Bhopal Chauraha, Dewas - MPPCB",11-02-2024 19:00:00,22.9682591,76.064118,SO2,13,53,33
India,Madhya Pradesh,Gwalior,"City Center, Gwalior - MPPCB",11-02-2024 19:00:00,26.203442,78.193251,PM2.5,94,383,255
India,Madhya Pradesh,Gwalior,"City Center, Gwalior - MPPCB",11-02-2024 19:00:00,26.203442,78.193251,SO2,11,30,22
India,Madhya Pradesh,Gwalior,"Deen Dayal Nagar, Gwalior - MPPCB",11-02-2024 19:00:00,26.259242,78.216432,PM2.5,88,397,248
India,Madhya Pradesh,Gwalior,"Deen Dayal Nagar, Gwalior - MPPCB",11-02-2024 19:00:00,26.259242,78.216432,CO,36,107,65
India,Madhya Pradesh,Gwalior,"Maharaj Bada, Gwalior - MPPCB",11-02-2024 19:00:00,26.200388,78.147714,PM10,96,379,183
India,Madhya Pradesh,Gwalior,"Phool Bagh, Gwalior - Mondelez Ind. Food",11-02-2024 19:00:00,26.210536,78.171,CO,32,53,33
India,Madhya Pradesh,Indore,"Chhoti Gwaltoli, Indore - MPPCB",11-02-2024 19:00:00,22.4310,75.5213,OZONE,40,116,98
India,Madhya Pradesh,Indore,"Regional Park, Indore - IMC",11-02-2024 19:00:00,22.6780,75.8559,OZONE,8,14,13
India,Madhya Pradesh,Indore,"Residency Area, Indore - IMC",11-02-2024 19:00:00,22.7084,75.8815,NO2,30,55,43
India,Madhya Pradesh,Indore,"Residency Area, Indore - IMC",11-02-2024 19:00:00,22.7084,75.8815,OZONE,14,23,20
India,Madhya Pradesh,Jabalpur,"Govindh Bhavan Colony, Jabalpur - JMC",11-02-2024 19:00:00,23.163174,79.973061,PM2.5,47,113,68
India,Madhya Pradesh,Jabalpur,"Govindh Bhavan Colony, Jabalpur - JMC",11-02-2024 19:00:00,23.163174,79.973061,CO,23,43,33
India,Madhya Pradesh,Jabalpur,"Gupteshwar, Jabalpur - JMC",11-02-2024 19:00:00,23.142888,79.916147,PM2.5,47,500,111
India,Madhya Pradesh,Jabalpur,"Marhatal, Jabalpur - MPPCB",11-02-2024 19:00:00,23.168606,79.932247,PM2.5,82,207,145
India,Madhya Pradesh,Jabalpur,"Suhagi, Jabalpur - JMC",11-02-2024 19:00:00,23.218135,79.957770,NH3,5,5,5
India,Madhya Pradesh,Jabalpur,"Suhagi, Jabalpur - JMC",11-02-2024 19:00:00,23.218135,79.957770,SO2,9,10,10
