country,state,city,station,last_update,latitude,longitude,pollutant_id,pollutant_min,pollutant_max,pollutant_avg
India,Andhra_Pradesh,Amaravati,"Secretariat, Amaravati - APPCB",13-05-2024 14:00:00,16.5150833,80.5181667,OZONE,2,37,28
India,Andhra_Pradesh,Anantapur,"Gulzarpet, Anantapur - APPCB",13-05-2024 14:00:00,14.675886,77.593027,SO2,4,8,6
India,Andhra_Pradesh,Chittoor,"Gangineni Cheruvu, Chittoor - APPCB",13-05-2024 14:00:00,13.204880,79.097889,PM10,NA,NA,NA
India,Andhra_Pradesh,Chittoor,"Gangineni Cheruvu, Chittoor - APPCB",13-05-2024 14:00:00,13.204880,79.097889,SO2,NA,NA,NA
India,Andhra_Pradesh,Chittoor,"Gangineni Cheruvu, Chittoor - APPCB",13-05-2024 14:00:00,13.204880,79.097889,CO,19,25,23
India,Andhra_Pradesh,Kadapa,"Yerramukkapalli, Kadapa - APPCB",13-05-2024 14:00:00,14.465052,78.824187,PM10,NA,NA,NA
India,Andhra_Pradesh,Kadapa,"Yerramukkapalli, Kadapa - APPCB",13-05-2024 14:00:00,14.465052,78.824187,NO2,12,13,12
India,Andhra_Pradesh,Kadapa,"Yerramukkapalli, Kadapa - APPCB",13-05-2024 14:00:00,14.465052,78.824187,OZONE,4,64,22
India,Andhra_Pradesh,Tirupati,"Vaikuntapuram, Tirupati - APPCB",13-05-2024 14:00:00,13.615387,79.409230,SO2,4,5,5
India,Andhra_Pradesh,Tirupati,"Vaikuntapuram, Tirupati - APPCB",13-05-2024 14:00:00,13.615387,79.409230,OZONE,4,17,8
India,Andhra_Pradesh,Visakhapatnam,"GVM Corporation, Visakhapatnam - APPCB",13-05-2024 14:00:00,17.72,83.3,SO2,9,15,12
India,Arunachal_Pradesh,Naharlagun,"Naharlagun, Naharlagun - APSPCB",13-05-2024 14:00:00,27.103358,93.679645,PM10,2,50,22
India,Arunachal_Pradesh,Naharlagun,"Naharlagun, Naharlagun - APSPCB",13-05-2024 14:00:00,27.103358,93.679645,NO2,3,3,3
India,Assam,Byrnihat,"Central Academy for SFS, Byrnihat - PCBA",13-05-2024 14:00:00,26.071318,91.87488,PM2.5,NA,NA,NA
India,Assam,Guwahati,"IITG, Guwahati - PCBA",13-05-2024 14:00:00,26.2028636,91.70046436,NH3,5,5,5
India,Assam,Guwahati,"IITG, Guwahati - PCBA",13-05-2024 14:00:00,26.2028636,91.70046436,SO2,12,13,13
India,Assam,Guwahati,"IITG, Guwahati - PCBA",13-05-2024 14:00:00,26.2028636,91.70046436,CO,8,15,11
India,Assam,Guwahati,"Pan Bazaar, Guwahati - PCBA",13-05-2024 14:00:00,26.187500,91.744194,CO,18,80,32
India,Assam,Guwahati,"Railway Colony, Guwahati - PCBA",13-05-2024 14:00:00,26.181742,91.78063,PM2.5,41,294,118
India,Assam,Guwahati,"Railway Colony, Guwahati - PCBA",13-05-2024 14:00:00,26.181742,91.78063,CO,12,102,21
India,Assam,Guwahati,"Railway Colony, Guwahati - PCBA",13-05-2024 14:00:00,26.181742,91.78063,OZONE,1,9,6
India,Assam,Nalbari,"Bata Chowk, Nalbari - PCBA",13-05-2024 14:00:00,26.446912,91.439057,NO2,12,24,18
India,Assam,Silchar,"Tarapur, Silchar - PCBA",13-05-2024 14:00:00,24.82827,92.79525,SO2,3,9,5
India,Assam,Sivasagar,"Girls College, Sivasagar - PCBA",13-05-2024 14:00:00,26.987634,94.636574,PM2.5,23,44,28
India,Assam,Sivasagar,"Girls College, Sivasagar - PCBA",13-05-2024 14:00:00,26.987634,94.636574,OZONE,1,13,8
India,Bihar,Arrah,"New DM Office, Arrah - BSPCB",13-05-2024 14:00:00,25.5626095,84.663264,PM2.5,NA,NA,NA
India,Bihar,Arrah,"New DM Office, Arrah - BSPCB",13-05-2024 14:00:00,25.5626095,84.663264,PM10,NA,NA,NA
India,Bihar,Bettiah,"Kamalnath Nagar, Bettiah - BSPCB",13-05-2024 14:00:00,26.80365,84.51954,OZONE,1,13,7
India,Bihar,Bhagalpur,"DM Office_Kachari Chowk, Bhagalpur - BSPCB",13-05-2024 14:00:00,25.251013,86.989001,PM2.5,47,127,74
India,Bihar,Bhagalpur,"DM Office_Kachari Chowk, Bhagalpur - BSPCB",13-05-2024 14:00:00,25.251013,86.989001,NO2,46,65,54
India,Bihar,Bihar Sharif,"D M Colony, Bihar Sharif - BSPCB",13-05-2024 14:00:00,25.204762,85.514960,PM2.5,NA,NA,NA
India,Bihar,Bihar Sharif,"D M Colony, Bihar Sharif - BSPCB",13-05-2024 14:00:00,25.204762,85.514960,CO,52,60,55
India,Bihar,Buxar,"Charitra Van, Buxar - BSPCB (Formerly known as Central Jail)",13-05-2024 14:00:00,25.567520,83.966379,NH3,3,4,3
India,Bihar,Chhapra,"Darshan Nagar, Chhapra - BSPCB",13-05-2024 14:00:00,25.7808257,84.7446768,PM10,32,88,51
India,Bihar,Gaya,"Collectorate, Gaya - BSPCB",13-05-2024 14:00:00,24.7955,84.9994,PM2.5,57,228,104
India,Bihar,Gaya,"Collectorate, Gaya - BSPCB",13-05-2024 14:00:00,24.7955,84.9994,NO2,NA,NA,NA
India,Bihar,Gaya,"Kareemganj, Gaya - BSPCB",13-05-2024 14:00:00,24.792403,84.992416,PM2.5,NA,NA,NA
India,Bihar,Gaya,"SFTI Kusdihra, Gaya - BSPCB",13-05-2024 14:00:00,24.762518,84.982348,NH3,4,8,6
India,Bihar,Gaya,"SFTI Kusdihra, Gaya - BSPCB",13-05-2024 14:00:00,24.762518,84.982348,SO2,7,9,7
India,Bihar,Gaya,"SFTI Kusdihra, Gaya - BSPCB",13-05-2024 14:00:00,24.762518,84.982348,OZONE,15,61,24
India,Bihar,Hajipur,"Industrial Area, Hajipur - BSPCB",13-05-2024 14:00:00,25.697189,85.245900,PM10,60,107,88
India,Bihar,Hajipur,"Industrial Area, Hajipur - BSPCB",13-05-2024 14:00:00,25.697189,85.245900,SO2,6,8,7
India,Bihar,Katihar,"Mirchaibari, Katihar - BSPCB",13-05-2024 14:00:00,25.560083,87.553265,CO,54,64,60
India,Bihar,Kishanganj,"SDM Office_Khagra, Kishanganj - BSPCB",13-05-2024 14:00:00,26.0881305,87.93840336,NH3,9,10,9
India,Bihar,Kishanganj,"SDM Office_Khagra, Kishanganj - BSPCB",13-05-2024 14:00:00,26.0881305,87.93840336,SO2,30,34,32
India,Bihar,Motihari,"Gandak Colony, Motihari - BSPCB",13-05-2024 14:00:00,26.63086,84.90051,NH3,4,12,8
India,Bihar,Motihari,"Gandak Colony, Motihari - BSPCB",13-05-2024 14:00:00,26.63086,84.90051,SO2,10,23,16
India,Bihar,Motihari,"Gandak Colony, Motihari - BSPCB",13-05-2024 14:00:00,26.63086,84.90051,OZONE,12,69,28
India,Bihar,Munger,"Town Hall, Munger - BSPCB",13-05-2024 14:00:00,25.376776,86.471523,PM2.5,NA,NA,NA
India,Bihar,Munger,"Town Hall, Munger - BSPCB",13-05-2024 14:00:00,25.376776,86.471523,NO2,NA,NA,NA
India,Bihar,Muzaffarpur,"Buddha Colony, Muzaffarpur - BSPCB",13-05-2024 14:00:00,26.11442,85.39813,PM10,29,83,51
India,Bihar,Muzaffarpur,"Buddha Colony, Muzaffarpur - BSPCB",13-05-2024 14:00:00,26.11442,85.39813,NO2,6,13,9
India,Bihar,Patna,"DRM Office Danapur, Patna - BSPCB",13-05-2024 14:00:00,25.586562,85.043586,PM2.5,44,125,67
India,Bihar,Patna,"DRM Office Danapur, Patna - BSPCB",13-05-2024 14:00:00,25.586562,85.043586,NO2,11,21,14
India,Bihar,Patna,"Govt. High School Shikarpur, Patna - BSPCB",13-05-2024 14:00:00,25.592539,85.227158,PM2.5,32,93,57
India,Bihar,Patna,"Govt. High School Shikarpur, Patna - BSPCB",13-05-2024 14:00:00,25.592539,85.227158,NO2,21,22,21
India,Bihar,Patna,"Govt. High School Shikarpur, Patna - BSPCB",13-05-2024 14:00:00,25.592539,85.227158,OZONE,1,59,32
India,Bihar,Patna,"IGSC Planetarium Complex, Patna - BSPCB",13-05-2024 14:00:00,25.610369,85.132568,CO,4,16,12
India,Bihar,Patna,"IGSC Planetarium Complex, Patna - BSPCB",13-05-2024 14:00:00,25.610369,85.132568,OZONE,47,93,73
India,Bihar,Patna,"Muradpur, Patna - BSPCB",13-05-2024 14:00:00,25.619651,85.147382,NH3,2,6,5
India,Bihar,Patna,"Muradpur, Patna - BSPCB",13-05-2024 14:00:00,25.619651,85.147382,OZONE,29,32,31
India,Bihar,Patna,"Samanpura, Patna - BSPCB",13-05-2024 14:00:00,25.596727,85.085624,NO2,7,74,16
India,Bihar,Purnia,"Mariam Nagar, Purnia - BSPCB",13-05-2024 14:00:00,25.366336,87.117468,NH3,2,9,6
India,Bihar,Purnia,"Mariam Nagar, Purnia - BSPCB",13-05-2024 14:00:00,25.366336,87.117468,SO2,9,40,17
India,Bihar,Rajgir,"Dangi Tola, Rajgir - BSPCB",13-05-2024 14:00:00,25.03280,85.41948,NH3,NA,NA,NA
India,Bihar,Samastipur,"DM Office_Kasipur, Samastipur - BSPCB",13-05-2024 14:00:00,25.859655,85.77944,PM10,38,102,60
India,Bihar,Samastipur,"DM Office_Kasipur, Samastipur - BSPCB",13-05-2024 14:00:00,25.859655,85.77944,SO2,6,67,18
India,Bihar,Samastipur,"DM Office_Kasipur, Samastipur - BSPCB",13-05-2024 14:00:00,25.859655,85.77944,OZONE,2,18,9
India,Bihar,Sasaram,"Dada Peer, Sasaram - BSPCB",13-05-2024 14:00:00,24.952822,84.002396,PM10,23,100,59
India,Bihar,Sasaram,"Dada Peer, Sasaram - BSPCB",13-05-2024 14:00:00,24.952822,84.002396,NH3,2,30,15
India,Bihar,Siwan,"Chitragupta Nagar, Siwan - BSPCB",13-05-2024 14:00:00,26.2271665,84.3570427,NO2,9,22,14
India,Chandigarh,Chandigarh,"Sector-25, Chandigarh - CPCC",13-05-2024 14:00:00,30.751462,76.762879,NH3,8,17,12
India,Chandigarh,Chandigarh,"Sector-25, Chandigarh - CPCC",13-05-2024 14:00:00,30.751462,76.762879,SO2,9,16,12
India,Chandigarh,Chandigarh,"Sector-53, Chandigarh - CPCC",13-05-2024 14:00:00,30.719859,76.738637,PM2.5,65,147,94
India,Chandigarh,Chandigarh,"Sector-53, Chandigarh - CPCC",13-05-2024 14:00:00,30.719859,76.738637,OZONE,10,75,45
India,Chhattisgarh,Bhilai,"32Bungalows, Bhilai - CECB",13-05-2024 14:00:00,21.194815,81.314770,PM2.5,23,47,36
India,Chhattisgarh,Bhilai,"32Bungalows, Bhilai - CECB",13-05-2024 14:00:00,21.194815,81.314770,NO2,17,28,23
India,Chhattisgarh,Bhilai,"Civic Center, Bhilai - Bhilai Steel Plant",13-05-2024 14:00:00,21.185571,81.343175,PM2.5,18,39,29
India,Chhattisgarh,Bhilai,"Civic Center, Bhilai - Bhilai Steel Plant",13-05-2024 14:00:00,21.185571,81.343175,PM10,20,57,32
India,Chhattisgarh,Bhilai,"Civic Center, Bhilai - Bhilai Steel Plant",13-05-2024 14:00:00,21.185571,81.343175,NO2,11,18,13
India,Chhattisgarh,Bhilai,"Civic Center, Bhilai - Bhilai Steel Plant",13-05-2024 14:00:00,21.185571,81.343175,NH3,4,6,5
India,Chhattisgarh,Bilaspur,"Mangala, Bilaspur - NTPC",13-05-2024 14:00:00,22.08815,82.13737,PM10,19,64,39
India,Chhattisgarh,Korba,"Rampur, Korba - CECB",13-05-2024 14:00:00,22.368195,82.746431,PM2.5,31,60,45
India,Chhattisgarh,Korba,"Rampur, Korba - CECB",13-05-2024 14:00:00,22.368195,82.746431,NO2,26,90,40
India,Chhattisgarh,Korba,"Rampur, Korba - CECB",13-05-2024 14:00:00,22.368195,82.746431,OZONE,10,34,22
India,Chhattisgarh,Korba,"Urja Nagar, Korba - CECB",13-05-2024 14:00:00,22.348441,82.549611,PM10,15,179,58
India,Chhattisgarh,Korba,"Urja Nagar, Korba - CECB",13-05-2024 14:00:00,22.348441,82.549611,NO2,25,74,67
India,Chhattisgarh,Korba,"Urja Nagar, Korba - CECB",13-05-2024 14:00:00,22.348441,82.549611,NH3,3,9,6
India,Chhattisgarh,Korba,"Urja Nagar, Korba - CECB",13-05-2024 14:00:00,22.348441,82.549611,OZONE,1,50,11
India,Chhattisgarh,Kunjemura,"OP Jindal School, Kunjemura - CECB",13-05-2024 14:00:00,22.126650,83.483212,OZONE,6,63,30
India,Chhattisgarh,Raipur,"AIIMS, Raipur - CECB",13-05-2024 14:00:00,21.258815,81.578979,PM2.5,NA,NA,NA
India,Chhattisgarh,Raipur,"AIIMS, Raipur - CECB",13-05-2024 14:00:00,21.258815,81.578979,NH3,NA,NA,NA
India,Chhattisgarh,Raipur,"Bhatagaon New ISBT, Raipur - CECB",13-05-2024 14:00:00,21.219665,81.630094,PM2.5,9,29,18
India,Chhattisgarh,Raipur,"Krishak Nagar, Raipur - CECB",13-05-2024 14:00:00,21.237755,81.705301,PM10,21,69,41
India,Chhattisgarh,Raipur,"Siltara Phase-II, Raipur - CECB",13-05-2024 14:00:00,21.371751,81.664929,PM2.5,39,67,49
India,Chhattisgarh,Raipur,"Siltara Phase-II, Raipur - CECB",13-05-2024 14:00:00,21.371751,81.664929,NO2,28,55,41
India,Delhi,Delhi,"Alipur, Delhi - DPCC",13-05-2024 14:00:00,28.815329,77.153010,PM2.5,70,334,199
India,Delhi,Delhi,"Alipur, Delhi - DPCC",13-05-2024 14:00:00,28.815329,77.153010,NH3,NA,NA,NA
India,Delhi,Delhi,"Alipur, Delhi - DPCC",13-05-2024 14:00:00,28.815329,77.153010,SO2,19,61,30
India,Delhi,Delhi,"Alipur, Delhi - DPCC",13-05-2024 14:00:00,28.815329,77.153010,CO,21,76,46
India,Delhi,Delhi,"Alipur, Delhi - DPCC",13-05-2024 14:00:00,28.815329,77.153010,OZONE,2,272,195
India,Delhi,Delhi,"Anand Vihar, Delhi - DPCC",13-05-2024 14:00:00,28.647622,77.3158090,CO,76,113,104
India,Delhi,Delhi,"Ashok Vihar, Delhi - DPCC",13-05-2024 14:00:00,28.695381,77.181665,NO2,12,111,56
India,Delhi,Delhi,"Ashok Vihar, Delhi - DPCC",13-05-2024 14:00:00,28.695381,77.181665,OZONE,21,260,260
India,Delhi,Delhi,"Bawana, Delhi - DPCC",13-05-2024 14:00:00,28.776200,77.051074,PM2.5,75,392,231
India,Delhi,Delhi,"Burari Crossing, Delhi - IMD",13-05-2024 14:00:00,28.7256504,77.2011573,CO,42,76,61
India,Delhi,Delhi,"CRRI Mathura Road, Delhi - IMD",13-05-2024 14:00:00,28.5512005,77.2735737,PM2.5,96,313,196
India,Delhi,Delhi,"CRRI Mathura Road, Delhi - IMD",13-05-2024 14:00:00,28.5512005,77.2735737,PM10,131,291,184
India,Delhi,Delhi,"DTU, Delhi - CPCB",13-05-2024 14:00:00,28.7500499,77.1112615,NO2,7,12,9
India,Delhi,Delhi,"DTU, Delhi - CPCB",13-05-2024 14:00:00,28.7500499,77.1112615,OZONE,29,272,112
India,Delhi,Delhi,"Dr. Karni Singh Shooting Range, Delhi - DPCC",13-05-2024 14:00:00,28.498571,77.264840,OZONE,7,252,178
India,Delhi,Delhi,"Dwarka-Sector 8, Delhi - DPCC ",13-05-2024 14:00:00,28.5710274,77.0719006,PM2.5,77,312,183
India,Delhi,Delhi,"Dwarka-Sector 8, Delhi - DPCC ",13-05-2024 14:00:00,28.5710274,77.0719006,SO2,6,17,10
India,Delhi,Delhi,"IHBAS, Dilshad Garden, Delhi - CPCB",13-05-2024 14:00:00,28.6811736,77.3025234,PM2.5,86,221,135
India,Delhi,Delhi,"ITO, Delhi - CPCB",13-05-2024 14:00:00,28.628624,77.241060,PM10,96,169,129
India,Delhi,Delhi,"ITO, Delhi - CPCB",13-05-2024 14:00:00,28.628624,77.241060,NO2,19,70,38
India,Delhi,Delhi,"Jahangirpuri, Delhi - DPCC",13-05-2024 14:00:00,28.732820,77.170633,PM10,124,389,235
India,Delhi,Delhi,"Jahangirpuri, Delhi - DPCC",13-05-2024 14:00:00,28.732820,77.170633,NH3,2,12,8
India,Delhi,Delhi,"Jawaharlal Nehru Stadium, Delhi - DPCC",13-05-2024 14:00:00,28.580280,77.233829,CO,34,110,63
India,Delhi,Delhi,"Jawaharlal Nehru Stadium, Delhi - DPCC",13-05-2024 14:00:00,28.580280,77.233829,OZONE,7,278,103
India,Delhi,Delhi,"Lodhi Road, Delhi - IITM",13-05-2024 14:00:00,28.588333,77.221667,PM2.5,NA,NA,NA
India,Delhi,Delhi,"Lodhi Road, Delhi - IMD",13-05-2024 14:00:00,28.5918245,77.2273074,CO,17,41,31
India,Delhi,Delhi,"Major Dhyan Chand National Stadium, Delhi - DPCC",13-05-2024 14:00:00,28.611281,77.237738,PM2.5,97,334,222
India,Delhi,Delhi,"NSIT Dwarka, Delhi - CPCB",13-05-2024 14:00:00,28.60909,77.0325413,PM10,131,214,175
India,Delhi,Delhi,"NSIT Dwarka, Delhi - CPCB",13-05-2024 14:00:00,28.60909,77.0325413,NO2,17,42,30
India,Delhi,Delhi,"Najafgarh, Delhi - DPCC",13-05-2024 14:00:00,28.570173,76.933762,PM10,105,204,145
India,Delhi,Delhi,"Najafgarh, Delhi - DPCC",13-05-2024 14:00:00,28.570173,76.933762,SO2,15,20,18
India,Delhi,Delhi,"Narela, Delhi - DPCC",13-05-2024 14:00:00,28.822836,77.101981,SO2,16,57,30
India,Delhi,Delhi,"Nehru Nagar, Delhi - DPCC",13-05-2024 14:00:00,28.567890,77.250515,NO2,3,44,21
India,Delhi,Delhi,"New Moti Bagh, Delhi - MHUA",13-05-2024 14:00:00,28.57834,77.18400,CO,38,118,69
India,Delhi,Delhi,"Okhla Phase-2, Delhi - DPCC",13-05-2024 14:00:00,28.530785,77.271255,PM10,137,344,204
India,Delhi,Delhi,"Patparganj, Delhi - DPCC",13-05-2024 14:00:00,28.623763,77.287209,NO2,7,39,21
India,Delhi,Delhi,"Patparganj, Delhi - DPCC",13-05-2024 14:00:00,28.623763,77.287209,SO2,2,10,7
India,Delhi,Delhi,"Punjabi Bagh, Delhi - DPCC",13-05-2024 14:00:00,28.674045,77.131023,OZONE,1,77,31
India,Delhi,Delhi,"Pusa, Delhi - IMD",13-05-2024 14:00:00,28.636110,77.173332,PM2.5,213,351,281
India,Delhi,Delhi,"Pusa, Delhi - IMD",13-05-2024 14:00:00,28.636110,77.173332,NO2,5,22,14
India,Delhi,Delhi,"R K Puram, Delhi - DPCC",13-05-2024 14:00:00,28.563262,77.186937,PM2.5,115,320,233
India,Delhi,Delhi,"R K Puram, Delhi - DPCC",13-05-2024 14:00:00,28.563262,77.186937,OZONE,32,267,89
India,Delhi,Delhi,"Rohini, Delhi - DPCC",13-05-2024 14:00:00,28.732528,77.119920,NO2,16,92,51
India,Delhi,Delhi,"Rohini, Delhi - DPCC",13-05-2024 14:00:00,28.732528,77.119920,SO2,22,93,44
India,Delhi,Delhi,"Shadipur, Delhi - CPCB",13-05-2024 14:00:00,28.6514781,77.1473105,NO2,82,200,136
India,Delhi,Delhi,"Shadipur, Delhi - CPCB",13-05-2024 14:00:00,28.6514781,77.1473105,NH3,7,10,8
India,Delhi,Delhi,"Shadipur, Delhi - CPCB",13-05-2024 14:00:00,28.6514781,77.1473105,SO2,3,80,23
India,Delhi,Delhi,"Shadipur, Delhi - CPCB",13-05-2024 14:00:00,28.6514781,77.1473105,OZONE,11,112,25
India,Delhi,Delhi,"Sirifort, Delhi - CPCB",13-05-2024 14:00:00,28.5504249,77.2159377,OZONE,3,140,66
India,Delhi,Delhi,"Sonia Vihar, Delhi - DPCC",13-05-2024 14:00:00,28.710508,77.249485,PM2.5,80,331,241
India,Delhi,Delhi,"Sri Aurobindo Marg, Delhi - DPCC",13-05-2024 14:00:00,28.531346,77.190156,NO2,15,125,65
India,Delhi,Delhi,"Vivek Vihar, Delhi - DPCC",13-05-2024 14:00:00,28.672342,77.315260,PM10,151,340,241
India,Delhi,Delhi,"Vivek Vihar, Delhi - DPCC",13-05-2024 14:00:00,28.672342,77.315260,CO,20,100,46
India,Delhi,Delhi,"Wazirpur, Delhi - DPCC",13-05-2024 14:00:00,28.699793,77.165453,PM2.5,101,350,244
India,Delhi,Delhi,"Wazirpur, Delhi - DPCC",13-05-2024 14:00:00,28.699793,77.165453,CO,77,111,98
India,Gujarat,Ahmedabad,"Chandkheda, Ahmedabad - IITM",13-05-2024 14:00:00,23.107969,72.574648,PM10,37,164,78
India,Gujarat,Ahmedabad,"Chandkheda, Ahmedabad - IITM",13-05-2024 14:00:00,23.107969,72.574648,SO2,3,18,10
India,Gujarat,Ahmedabad,"Maninagar, Ahmedabad - GPCB",13-05-2024 14:00:00,23.002657,72.591912,SO2,NA,NA,NA
India,Gujarat,Ahmedabad,"Raikhad, Ahmedabad - IITM",13-05-2024 14:00:00,23.020509,72.579261,PM2.5,NA,NA,NA
India,Gujarat,Ahmedabad,"Rakhial, Ahmedabad - IITM",13-05-2024 14:00:00,23.016834,72.625775,NO2,57,130,81
India,Gujarat,Ahmedabad,"SVPI Airport Hansol, Ahmedabad - IITM",13-05-2024 14:00:00,23.076793,72.627874,PM2.5,38,63,50
India,Gujarat,Ahmedabad,"Sardar Vallabhbhai Patel Stadium, Ahmedabad - IITM",13-05-2024 14:00:00,23.043070,72.562968,PM2.5,59,99,80
India,Gujarat,Ahmedabad,"Sardar Vallabhbhai Patel Stadium, Ahmedabad - IITM",13-05-2024 14:00:00,23.043070,72.562968,NO2,56,69,66
India,Gujarat,Ankleshwar,"GIDC, Ankleshwar - GPCB",13-05-2024 14:00:00,21.613267,73.010555,NH3,NA,NA,NA
India,Gujarat,Gandhinagar,"Sector-10, Gandhinagar - GPCB",13-05-2024 14:00:00,23.221714,72.654328,NO2,17,22,21
India,Gujarat,Gandhinagar,"Sector-10, Gandhinagar - GPCB",13-05-2024 14:00:00,23.221714,72.654328,SO2,5,6,5
India,Gujarat,Gandhinagar,"Sector-10, Gandhinagar - GPCB",13-05-2024 14:00:00,23.221714,72.654328,CO,20,52,34
India,Gujarat,Nandesari,"GIDC, Nandesari - Nandesari Ind. Association",13-05-2024 14:00:00,22.410802,73.097923,PM2.5,55,257,131
India,Gujarat,Nandesari,"GIDC, Nandesari - Nandesari Ind. Association",13-05-2024 14:00:00,22.410802,73.097923,PM10,77,167,123
India,Gujarat,Surat,"Science Center, Surat - SMC",13-05-2024 14:00:00,21.170046,72.795405,PM2.5,2,17,7
India,Gujarat,Surat,"Science Center, Surat - SMC",13-05-2024 14:00:00,21.170046,72.795405,CO,18,42,23
India,Gujarat,Vapi,"Phase-1 GIDC, Vapi - GPCB",13-05-2024 14:00:00,20.362421,72.918013,OZONE,8,50,31
India,Gujarat,Vatva,"Phase-4 GIDC, Vatva - GPCB",13-05-2024 14:00:00,22.969611,72.643500,PM2.5,12,34,20
India,Gujarat,Vatva,"Phase-4 GIDC, Vatva - GPCB",13-05-2024 14:00:00,22.969611,72.643500,PM10,58,101,76
India,Haryana,Ambala,"Patti Mehar, Ambala - HSPCB",13-05-2024 14:00:00,30.379589,76.778328,PM10,49,115,86
India,Haryana,Bahadurgarh,"Arya Nagar, Bahadurgarh - HSPCB",13-05-2024 14:00:00,28.6701,76.9254,OZONE,31,41,36
India,Haryana,Ballabgarh,"Nathu Colony, Ballabgarh - HSPCB",13-05-2024 14:00:00,28.3419248,77.319699,NH3,1,3,2
India,Haryana,Ballabgarh,"Nathu Colony, Ballabgarh - HSPCB",13-05-2024 14:00:00,28.3419248,77.319699,SO2,3,131,29
India,Haryana,Ballabgarh,"Nathu Colony, Ballabgarh - HSPCB",13-05-2024 14:00:00,28.3419248,77.319699,CO,10,50,30
India,Haryana,Bhiwani,"H.B. Colony, Bhiwani - HSPCB",13-05-2024 14:00:00,28.806223,76.141105,OZONE,12,20,13
India,Haryana,Charkhi Dadri,"Mini Secretariat, Charkhi Dadri - HSPCB",13-05-2024 14:00:00,28.593883,76.270653,PM2.5,88,324,207
India,Haryana,Faridabad,"Sector 11, Faridabad - HSPCB",13-05-2024 14:00:00,28.376058,77.315741,SO2,1,2,2
India,Haryana,Faridabad,"Sector- 16A, Faridabad - HSPCB",13-05-2024 14:00:00,28.4088421,77.3099081,OZONE,14,14,14
India,Haryana,Fatehabad,"Huda Sector, Fatehabad - HSPCB",13-05-2024 14:00:00,29.503664,75.467934,NO2,29,40,35
India,Haryana,Fatehabad,"Huda Sector, Fatehabad - HSPCB",13-05-2024 14:00:00,29.503664,75.467934,SO2,3,57,11
India,Haryana,Gurugram,"NISE Gwal Pahari, Gurugram - IMD",13-05-2024 14:00:00,28.422681,77.148944,NO2,NA,NA,NA
India,Haryana,Gurugram,"Teri Gram, Gurugram - HSPCB",13-05-2024 14:00:00,28.4275,77.1465,NO2,16,111,57
India,Haryana,Gurugram,"Vikas Sadan, Gurugram - HSPCB",13-05-2024 14:00:00,28.4501238,77.0263051,SO2,NA,NA,NA
India,Haryana,Hisar,"Urban Estate-II, Hisar - HSPCB",13-05-2024 14:00:00,29.140560,75.744941,PM10,70,124,99
India,Haryana,Hisar,"Urban Estate-II, Hisar - HSPCB",13-05-2024 14:00:00,29.140560,75.744941,CO,20,43,22
India,Haryana,Jind,"Police Lines, Jind - HSPCB",13-05-2024 14:00:00,29.307814,76.337619,PM10,67,111,92
India,Haryana,Kaithal,"Rishi Nagar, Kaithal - HSPCB",13-05-2024 14:00:00,29.8006,76.4155,CO,11,44,37
India,Haryana,Karnal,"Sector-12, Karnal - HSPCB",13-05-2024 14:00:00,29.695300,77.002700,PM10,94,128,108
India,Haryana,Karnal,"Sector-12, Karnal - HSPCB",13-05-2024 14:00:00,29.695300,77.002700,NH3,10,13,11
India,Haryana,Karnal,"Sector-12, Karnal - HSPCB",13-05-2024 14:00:00,29.695300,77.002700,OZONE,27,49,30
India,Haryana,Kurukshetra,"Sector-7, Kurukshetra - HSPCB",13-05-2024 14:00:00,29.966942,76.875879,PM2.5,67,184,119
India,Haryana,Kurukshetra,"Sector-7, Kurukshetra - HSPCB",13-05-2024 14:00:00,29.966942,76.875879,PM10,59,181,119
India,Haryana,Mandikhera,"General Hospital, Mandikhera - HSPCB",13-05-2024 14:00:00,27.9002,76.9938,NO2,20,25,22
India,Haryana,Mandikhera,"General Hospital, Mandikhera - HSPCB",13-05-2024 14:00:00,27.9002,76.9938,SO2,30,38,34
India,Haryana,Mandikhera,"General Hospital, Mandikhera - HSPCB",13-05-2024 14:00:00,27.9002,76.9938,CO,14,37,24
India,Haryana,Manesar,"Sector-2 IMT, Manesar - HSPCB",13-05-2024 14:00:00,28.360699,76.936090,PM2.5,76,230,135
India,Haryana,Manesar,"Sector-2 IMT, Manesar - HSPCB",13-05-2024 14:00:00,28.360699,76.936090,NO2,26,85,48
India,Haryana,Manesar,"Sector-2 IMT, Manesar - HSPCB",13-05-2024 14:00:00,28.360699,76.936090,NH3,15,52,29
India,Haryana,Manesar,"Sector-2 IMT, Manesar - HSPCB",13-05-2024 14:00:00,28.360699,76.936090,SO2,NA,NA,NA
India,Haryana,Manesar,"Sector-2 IMT, Manesar - HSPCB",13-05-2024 14:00:00,28.360699,76.936090,OZONE,24,141,89
India,Haryana,Narnaul,"Shastri Nagar, Narnaul - HSPCB",13-05-2024 14:00:00,28.060249,76.113115,PM2.5,69,451,156
India,Haryana,Narnaul,"Shastri Nagar, Narnaul - HSPCB",13-05-2024 14:00:00,28.060249,76.113115,NO2,15,82,49
India,Haryana,Narnaul,"Shastri Nagar, Narnaul - HSPCB",13-05-2024 14:00:00,28.060249,76.113115,SO2,13,43,16
India,Haryana,Palwal,"Shyam Nagar, Palwal - HSPCB",13-05-2024 14:00:00,28.1485564,77.3320667,NH3,8,9,9
India,Haryana,Rohtak,"MD University, Rohtak - HSPCB",13-05-2024 14:00:00,28.52123,76.37138,SO2,5,8,7
India,Haryana,Rohtak,"MD University, Rohtak - HSPCB",13-05-2024 14:00:00,28.52123,76.37138,OZONE,41,53,47
India,Haryana,Sirsa,"F-Block, Sirsa - HSPCB",13-05-2024 14:00:00,29.536400,75.015800,OZONE,45,89,68
India,Haryana,Sonipat,"Murthal, Sonipat - HSPCB",13-05-2024 14:00:00,29.027200,77.062100,PM2.5,33,79,40
India,Haryana,Yamuna Nagar,"Gobind Pura, Yamuna Nagar - HSPCB",13-05-2024 14:00:00,30.1480566,77.2893471,NH3,1,6,4
India,Jharkhand,Dhanbad,"Sardar Patel Nagar, Dhanbad - JSPCB",13-05-2024 14:00:00,23.80569,86.44268,OZONE,29,82,52
India,Karnataka,Bagalkot,"Vidayagiri, Bagalkot - KSPCB",13-05-2024 14:00:00,16.172806,75.659694,CO,26,66,44
India,Karnataka,Belgaum,"Ramteerth Nagar, Belgaum - KSPCB",13-05-2024 14:00:00,15.888653,74.541751,CO,50,64,59
India,Karnataka,Belgaum,"Ramteerth Nagar, Belgaum - KSPCB",13-05-2024 14:00:00,15.888653,74.541751,OZONE,19,19,19
India,Karnataka,Bengaluru,"Hebbal, Bengaluru - KSPCB",13-05-2024 14:00:00,13.029152,77.585901,NO2,4,5,5
India,Karnataka,Bengaluru,"Hebbal, Bengaluru - KSPCB",13-05-2024 14:00:00,13.029152,77.585901,NH3,1,1,1
India,Karnataka,Bengaluru,"Hombegowda Nagar, Bengaluru - KSPCB",13-05-2024 14:00:00,12.938539,77.590100,PM2.5,20,60,35
India,Karnataka,Bengaluru,"Hombegowda Nagar, Bengaluru - KSPCB",13-05-2024 14:00:00,12.938539,77.590100,NH3,2,3,2
India,Karnataka,Bengaluru,"Hombegowda Nagar, Bengaluru - KSPCB",13-05-2024 14:00:00,12.938539,77.590100,CO,12,62,23
India,Karnataka,Bengaluru,"Kasturi Nagar, Bengaluru - KSPCB",13-05-2024 14:00:00,13.003872,77.664217,PM2.5,7,7,7
India,Karnataka,Bengaluru,"Kasturi Nagar, Bengaluru - KSPCB",13-05-2024 14:00:00,13.003872,77.664217,NO2,16,17,17
India,Karnataka,Bengaluru,"Kasturi Nagar, Bengaluru - KSPCB",13-05-2024 14:00:00,13.003872,77.664217,SO2,10,10,10
India,Karnataka,Bengaluru,"Peenya, Bengaluru - CPCB",13-05-2024 14:00:00,13.0270199,77.494094,PM2.5,32,58,43
India,Karnataka,Bengaluru,"Peenya, Bengaluru - CPCB",13-05-2024 14:00:00,13.0270199,77.494094,SO2,9,13,11
India,Karnataka,Bengaluru,"Peenya, Bengaluru - CPCB",13-05-2024 14:00:00,13.0270199,77.494094,CO,32,45,38
India,Karnataka,Bengaluru,"RVCE-Mailasandra, Bengaluru - KSPCB",13-05-2024 14:00:00,12.921418,77.502466,NO2,16,17,17
India,Karnataka,Bengaluru,"RVCE-Mailasandra, Bengaluru - KSPCB",13-05-2024 14:00:00,12.921418,77.502466,CO,29,55,36
India,Karnataka,Bengaluru,"RVCE-Mailasandra, Bengaluru - KSPCB",13-05-2024 14:00:00,12.921418,77.502466,OZONE,39,39,39
India,Karnataka,Bengaluru,"Sanegurava Halli, Bengaluru - KSPCB",13-05-2024 14:00:00,12.990328,77.5431385,PM10,NA,NA,NA
India,Karnataka,Bengaluru,"Shivapura_Peenya, Bengaluru - KSPCB",13-05-2024 14:00:00,13.0246342,77.5080115,NO2,15,16,16
India,Karnataka,Bengaluru,"Shivapura_Peenya, Bengaluru - KSPCB",13-05-2024 14:00:00,13.0246342,77.5080115,SO2,3,8,5
India,Karnataka,Bidar,"Naubad, Bidar - KSPCB",13-05-2024 14:00:00,17.930306,77.482194,NH3,2,3,3
India,Karnataka,Bidar,"Naubad, Bidar - KSPCB",13-05-2024 14:00:00,17.930306,77.482194,CO,74,101,83
India,Karnataka,Bidar,"Naubad, Bidar - KSPCB",13-05-2024 14:00:00,17.930306,77.482194,OZONE,18,46,36
India,Karnataka,Chamarajanagar,"Urban, Chamarajanagar - KSPCB",13-05-2024 14:00:00,11.55358,76.55521,PM10,34,49,39
India,Karnataka,Chamarajanagar,"Urban, Chamarajanagar - KSPCB",13-05-2024 14:00:00,11.55358,76.55521,SO2,2,6,3
India,Karnataka,Chamarajanagar,"Urban, Chamarajanagar - KSPCB",13-05-2024 14:00:00,11.55358,76.55521,CO,19,28,19
India,Karnataka,Chikkaballapur,"Chikkaballapur Rural, Chikkaballapur - KSPCB",13-05-2024 14:00:00,13.428828,77.731418,PM10,11,67,33
India,Karnataka,Chikkaballapur,"Chikkaballapur Rural, Chikkaballapur - KSPCB",13-05-2024 14:00:00,13.428828,77.731418,NO2,6,12,8
India,Karnataka,Chikkamagaluru,"Kalyana Nagara, Chikkamagaluru - KSPCB",13-05-2024 14:00:00,13.328028,75.797056,PM2.5,NA,NA,NA
India,Karnataka,Chikkamagaluru,"Kalyana Nagara, Chikkamagaluru - KSPCB",13-05-2024 14:00:00,13.328028,75.797056,PM10,NA,NA,NA
India,Karnataka,Chikkamagaluru,"Kalyana Nagara, Chikkamagaluru - KSPCB",13-05-2024 14:00:00,13.328028,75.797056,NO2,NA,NA,NA
India,Karnataka,Chikkamagaluru,"Kalyana Nagara, Chikkamagaluru - KSPCB",13-05-2024 14:00:00,13.328028,75.797056,SO2,NA,NA,NA
India,Karnataka,Chikkamagaluru,"Kalyana Nagara, Chikkamagaluru - KSPCB",13-05-2024 14:00:00,13.328028,75.797056,OZONE,16,45,34
India,Karnataka,Davanagere,"Devaraj Urs Badavane, Davanagere - KSPCB",13-05-2024 14:00:00,14.475800,75.905200,NO2,5,15,13
India,Karnataka,Davanagere,"Devaraj Urs Badavane, Davanagere - KSPCB",13-05-2024 14:00:00,14.475800,75.905200,CO,12,26,25
India,Karnataka,Dharwad,"Kalabhavan, Dharwad - KSPCB",13-05-2024 14:00:00,15.459706,75.008381,SO2,1,8,3
India,Karnataka,Gadag,"Panchal Nagar, Gadag - KSPCB",13-05-2024 14:00:00,15.411456,75.638133,NH3,1,4,2
India,Karnataka,Hassan,"B.Katihalli, Hassan - KSPCB",13-05-2024 14:00:00,13.008556,76.125258,PM2.5,10,68,41
India,Karnataka,Hassan,"B.Katihalli, Hassan - KSPCB",13-05-2024 14:00:00,13.008556,76.125258,PM10,18,89,60
India,Karnataka,Hubballi,"Lingaraj Nagar, Hubballi - KSPCB",13-05-2024 14:00:00,15.3714823,75.1160168,NH3,2,2,2
India,Karnataka,Hubballi,"Lingaraj Nagar, Hubballi - KSPCB",13-05-2024 14:00:00,15.3714823,75.1160168,CO,4,24,16
India,Karnataka,Kalaburagi,"Lal Bahadur Shastri Nagar, Kalaburagi - KSPCB",13-05-2024 14:00:00,17.321993,76.822628,NH3,NA,NA,NA
India,Karnataka,Kalaburagi,"Lal Bahadur Shastri Nagar, Kalaburagi - KSPCB",13-05-2024 14:00:00,17.321993,76.822628,CO,44,48,46
India,Karnataka,Kalaburagi,"Mahatma Basaveswar Colony, Kalaburgi - KSPCB",13-05-2024 14:00:00,17.336318,76.847397,CO,16,37,25
India,Karnataka,Koppal,"Diwator Nagar, Koppal - KSPCB",13-05-2024 14:00:00,15.347630,76.181767,CO,52,54,53
India,Karnataka,Madikeri,"Stuart Hill, Madikeri - KSPCB",13-05-2024 14:00:00,12.415911,75.735050,PM10,7,45,27
India,Karnataka,Mangalore,"Kadri, Mangalore - KSPCB",13-05-2024 14:00:00,12.889250,74.853000,PM2.5,7,35,22
India,Karnataka,Mangalore,"Kadri, Mangalore - KSPCB",13-05-2024 14:00:00,12.889250,74.853000,CO,38,48,43
India,Karnataka,Mangalore,"Kadri, Mangalore - KSPCB",13-05-2024 14:00:00,12.889250,74.853000,OZONE,31,33,32
India,Karnataka,Mysuru,"Hebbal 1st Stage, Mysuru - KSPCB",13-05-2024 14:00:00,12.21041,76.37376,PM2.5,14,39,23
India,Karnataka,Mysuru,"Hebbal 1st Stage, Mysuru - KSPCB",13-05-2024 14:00:00,12.21041,76.37376,CO,4,57,27
India,Karnataka,Mysuru,"Hebbal 1st Stage, Mysuru - KSPCB",13-05-2024 14:00:00,12.21041,76.37376,OZONE,19,84,36
India,Karnataka,Raichur,"Haji Colony, Raichur - KSPCB",13-05-2024 14:00:00,16.208139,77.348417,NO2,10,40,27
India,Karnataka,Shivamogga,"Vinoba Nagara, Shivamogga - KSPCB",13-05-2024 14:00:00,13.940000,75.555917,PM2.5,22,53,42
India,Karnataka,Shivamogga,"Vinoba Nagara, Shivamogga - KSPCB",13-05-2024 14:00:00,13.940000,75.555917,NO2,10,15,13
India,Karnataka,Udupi,"Brahmagiri, Udupi - KSPCB",13-05-2024 14:00:00,13.34194444,74.74694444,NH3,1,1,1
India,Karnataka,Udupi,"Brahmagiri, Udupi - KSPCB",13-05-2024 14:00:00,13.34194444,74.74694444,CO,48,54,51
India,Karnataka,Udupi,"Brahmagiri, Udupi - KSPCB",13-05-2024 14:00:00,13.34194444,74.74694444,OZONE,23,23,23
India,Karnataka,Vijayapura,"Ibrahimpur, Vijayapura - KSPCB",13-05-2024 14:00:00,16.802639,75.722694,NH3,2,2,2
India,Kerala,Eloor,"Udyogamandal, Eloor - Kerala PCB",13-05-2024 14:00:00,10.073232,76.302765,NO2,4,4,4
India,Kerala,Eloor,"Udyogamandal, Eloor - Kerala PCB",13-05-2024 14:00:00,10.073232,76.302765,CO,10,101,50
India,Kerala,Kannur,"Thavakkara, Kannur - Kerala PCB",13-05-2024 14:00:00,11.875000,75.373200,NH3,1,1,1
India,Kerala,Kollam,"Polayathode, Kollam - Kerala PCB",13-05-2024 14:00:00,8.8787,76.6073,SO2,NA,NA,NA
India,Kerala,Thiruvananthapuram,"Kariavattom, Thiruvananthapuram - Kerala PCB",13-05-2024 14:00:00,8.563700,76.886500,PM2.5,76,89,83
India,Kerala,Thiruvananthapuram,"Plammoodu, Thiruvananthapuram - Kerala PCB",13-05-2024 14:00:00,8.5149093,76.9435879,PM10,NA,NA,NA
India,Kerala,Thiruvananthapuram,"Plammoodu, Thiruvananthapuram - Kerala PCB",13-05-2024 14:00:00,8.5149093,76.9435879,SO2,NA,NA,NA
India,Kerala,Thiruvananthapuram,"Plammoodu, Thiruvananthapuram - Kerala PCB",13-05-2024 14:00:00,8.5149093,76.9435879,OZONE,10,12,11
India,Kerala,Thrissur,"Corporation Ground, Thrissur - Kerala PCB",13-05-2024 14:00:00,10.532400,76.215900,NH3,NA,NA,NA
India,Kerala,Thrissur,"Corporation Ground, Thrissur - Kerala PCB",13-05-2024 14:00:00,10.532400,76.215900,SO2,1,4,1
India,Madhya Pradesh,Bhopal,"Idgah Hills, Bhopal - MPPCB",13-05-2024 14:00:00,23.264759,77.381568,PM2.5,23,48,35
India,Madhya Pradesh,Bhopal,"Paryavaran Parisar, Bhopal - MPPCB",13-05-2024 14:00:00,23.210494,77.425409,PM2.5,13,117,42
India,Madhya Pradesh,Bhopal,"T T Nagar, Bhopal - MPPCB",13-05-2024 14:00:00,23.233584,77.400574,PM2.5,13,61,33
India,Madhya Pradesh,Dewas,"Bhopal Chauraha, Dewas - MPPCB",13-05-2024 14:00:00,22.9682591,76.064118,NO2,13,15,14
India,Madhya Pradesh,Dewas,"Bhopal Chauraha, Dewas - MPPCB",13-05-2024 14:00:00,22.9682591,76.064118,OZONE,19,68,50
India,Madhya Pradesh,Gwalior,"City Center, Gwalior - MPPCB",13-05-2024 14:00:00,26.203442,78.193251,SO2,1,29,16
India,Madhya Pradesh,Gwalior,"Deen Dayal Nagar, Gwalior - MPPCB",13-05-2024 14:00:00,26.259242,78.216432,NO2,NA,NA,NA
India,Madhya Pradesh,Gwalior,"Deen Dayal Nagar, Gwalior - MPPCB",13-05-2024 14:00:00,26.259242,78.216432,CO,2,106,58
India,Madhya Pradesh,Gwalior,"Deen Dayal Nagar, Gwalior - MPPCB",13-05-2024 14:00:00,26.259242,78.216432,OZONE,72,109,90
India,Madhya Pradesh,Gwalior,"Maharaj Bada, Gwalior - MPPCB",13-05-2024 14:00:00,26.200388,78.147714,NH3,3,29,9
India,Madhya Pradesh,Gwalior,"Maharaj Bada, Gwalior - MPPCB",13-05-2024 14:00:00,26.200388,78.147714,CO,7,126,46
India,Madhya Pradesh,Gwalior,"Maharaj Bada, Gwalior - MPPCB",13-05-2024 14:00:00,26.200388,78.147714,OZONE,24,193,175
India,Madhya Pradesh,Gwalior,"Phool Bagh, Gwalior - Mondelez Ind. Food",13-05-2024 14:00:00,26.210536,78.171,CO,66,102,73
India,Madhya Pradesh,Indore,"Chhoti Gwaltoli, Indore - MPPCB",13-05-2024 14:00:00,22.4310,75.5213,CO,31,119,77
India,Madhya Pradesh,Indore,"Chhoti Gwaltoli, Indore - MPPCB",13-05-2024 14:00:00,22.4310,75.5213,OZONE,29,149,85
India,Madhya Pradesh,Indore,"Maguda Nagar, Indore - IMC",13-05-2024 14:00:00,22.7524,75.8872,NO2,5,6,5
India,Madhya Pradesh,Indore,"Maguda Nagar, Indore - IMC",13-05-2024 14:00:00,22.7524,75.8872,NH3,1,2,2
India,Madhya Pradesh,Indore,"Residency Area, Indore - IMC",13-05-2024 14:00:00,22.7084,75.8815,OZONE,10,24,16
India,Madhya Pradesh,Jabalpur,"Govindh Bhavan Colony, Jabalpur - JMC",13-05-2024 14:00:00,23.163174,79.973061,PM2.5,27,73,47
India,Madhya Pradesh,Jabalpur,"Govindh Bhavan Colony, Jabalpur - JMC",13-05-2024 14:00:00,23.163174,79.973061,NH3,15,23,20
India,Madhya Pradesh,Jabalpur,"Govindh Bhavan Colony, Jabalpur - JMC",13-05-2024 14:00:00,23.163174,79.973061,OZONE,57,109,79
India,Madhya Pradesh,Jabalpur,"Gupteshwar, Jabalpur - JMC",13-05-2024 14:00:00,23.142888,79.916147,PM2.5,NA,NA,NA
India,Madhya Pradesh,Jabalpur,"Gupteshwar, Jabalpur - JMC",13-05-2024 14:00:00,23.142888,79.916147,PM10,32,102,62
India,Madhya Pradesh,Jabalpur,"Gupteshwar, Jabalpur - JMC",13-05-2024 14:00:00,23.142888,79.916147,NH3,6,7,7
India,Madhya Pradesh,Jabalpur,"Gupteshwar, Jabalpur - JMC",13-05-2024 14:00:00,23.142888,79.916147,CO,12,52,17
India,Madhya Pradesh,Jabalpur,"Marhatal, Jabalpur - MPPCB",13-05-2024 14:00:00,23.168606,79.932247,PM2.5,29,84,47
India,Madhya Pradesh,Jabalpur,"Marhatal, Jabalpur - MPPCB",13-05-2024 14:00:00,23.168606,79.932247,NO2,4,53,22
India,Madhya Pradesh,Jabalpur,"Marhatal, Jabalpur - MPPCB",13-05-2024 14:00:00,23.168606,79.932247,NH3,3,6,4
India,Madhya Pradesh,Jabalpur,"Marhatal, Jabalpur - MPPCB",13-05-2024 14:00:00,23.168606,79.932247,SO2,6,40,15
India,Madhya Pradesh,Jabalpur,"Suhagi, Jabalpur - JMC",13-05-2024 14:00:00,23.218135,79.957770,NH3,3,4,4
India,Madhya Pradesh,Katni,"Gole Bazar, Katni - MPPCB",13-05-2024 14:00:00,23.50016,80.23284,NO2,29,79,45
India,Madhya Pradesh,Katni,"Gole Bazar, Katni - MPPCB",13-05-2024 14:00:00,23.50016,80.23284,NH3,4,7,6
India,Madhya Pradesh,Mandideep,"Sector-D Industrial Area, Mandideep - MPPCB",13-05-2024 14:00:00,23.108440,77.511428,SO2,6,110,24
India,Madhya Pradesh,Mandideep,"Sector-D Industrial Area, Mandideep - MPPCB",13-05-2024 14:00:00,23.108440,77.511428,CO,14,52,19
India,Madhya Pradesh,Pithampur,"Sector-2 Industrial Area, Pithampur - MPPCB",13-05-2024 14:00:00,22.624758,75.675238,PM10,41,194,89
India,Madhya Pradesh,Ratlam,"Shasthri Nagar, Ratlam - IPCA Lab",13-05-2024 14:00:00,23.331731,75.045981,NO2,35,36,36
India,Madhya Pradesh,Sagar,"Civil Lines, Sagar - MPPCB",13-05-2024 14:00:00,23.838586,78.759431,OZONE,82,172,113
India,Madhya Pradesh,Sagar,"Deen Dayal Nagar, Sagar - MPPCB",13-05-2024 14:00:00,23.8640158,78.80289321,PM10,41,109,78
India,Madhya Pradesh,Satna,"Bandhavgar Colony, Satna - Birla Cement",13-05-2024 14:00:00,24.58434363,80.8549414,PM2.5,NA,NA,NA
India,Madhya Pradesh,Satna,"Bandhavgar Colony, Satna - Birla Cement",13-05-2024 14:00:00,24.58434363,80.8549414,PM10,NA,NA,NA
India,Madhya Pradesh,Ujjain,"Mahakaleshwar Temple, Ujjain - MPPCB",13-05-2024 14:00:00,23.182719 ,75.768218 ,PM2.5,15,48,27
India,Maharashtra,Ahmednagar,"Tarakpur, Ahmednagar - MPCB",13-05-2024 14:00:00,19.10122,74.73339,NO2,30,109,60
India,Maharashtra,Ahmednagar,"Tarakpur, Ahmednagar - MPCB",13-05-2024 14:00:00,19.10122,74.73339,SO2,8,16,12
India,Maharashtra,Aurangabad,"MIDC Chilkalthana, Aurangabad - MPCB",13-05-2024 14:00:00,19.875620,75.387310,NO2,NA,NA,NA
India,Maharashtra,Aurangabad,"More Chowk Waluj, Aurangabad - MPCB",13-05-2024 14:00:00,19.8389439,75.244448,CO,8,71,17
India,Maharashtra,Badlapur,"Katrap, Badlapur - MPCB",13-05-2024 14:00:00,19.16485,73.23409,PM10,NA,NA,NA
India,Maharashtra,Belapur,"CBD Belapur, Belapur - MPCB",13-05-2024 14:00:00,19.0243902,73.0406721,SO2,2,15,9
India,Maharashtra,Bhiwandi,"Gokul Nagar, Bhiwandi - MPCB",13-05-2024 14:00:00,19.309073,73.057223,NO2,9,28,17
India,Maharashtra,Bhiwandi,"Gokul Nagar, Bhiwandi - MPCB",13-05-2024 14:00:00,19.309073,73.057223,NH3,1,2,2
India,Maharashtra,Chandrapur,"MIDC Khutala, Chandrapur - MPCB",13-05-2024 14:00:00,19.9775302,79.2337086,PM2.5,NA,NA,NA
India,Maharashtra,Chandrapur,"MIDC Khutala, Chandrapur - MPCB",13-05-2024 14:00:00,19.9775302,79.2337086,PM10,NA,NA,NA
India,Maharashtra,Chandrapur,"MIDC Khutala, Chandrapur - MPCB",13-05-2024 14:00:00,19.9775302,79.2337086,CO,26,40,32
India,Maharashtra,Dhule,"Deopur, Dhule - MPCB",13-05-2024 14:00:00,20.918946,74.776388,PM2.5,62,213,113
India,Maharashtra,Dhule,"Deopur, Dhule - MPCB",13-05-2024 14:00:00,20.918946,74.776388,NO2,3,12,7
India,Maharashtra,Dhule,"Deopur, Dhule - MPCB",13-05-2024 14:00:00,20.918946,74.776388,NH3,4,8,5
India,Maharashtra,Jalgaon,"Prabhat Colony, Jalgaon - MPCB",13-05-2024 14:00:00,21.001264,75.565602,OZONE,26,127,56
India,Maharashtra,Kalyan,"Khadakpada, Kalyan - MPCB",13-05-2024 14:00:00,19.25292,73.142019,CO,15,18,16
India,Maharashtra,Kolhapur,"Shivaji University, Kolhapur - MPCB",13-05-2024 14:00:00,16.6870449,74.2505872,SO2,1,10,4
India,Maharashtra,Kolhapur,"Shivaji University, Kolhapur - MPCB",13-05-2024 14:00:00,16.6870449,74.2505872,CO,50,102,67
India,Maharashtra,Mahad,"Kamble Tarf Birwadi, Mahad - MPCB",13-05-2024 14:00:00,18.1023399,73.4783687,NH3,5,11,6
India,Maharashtra,Mahad,"Kamble Tarf Birwadi, Mahad - MPCB",13-05-2024 14:00:00,18.1023399,73.4783687,OZONE,8,109,36
India,Maharashtra,Malegaon,"Mahesh Nagar, Malegaon - MPCB",13-05-2024 14:00:00,20.555712,74.529236,NO2,10,77,37
India,Maharashtra,Malegaon,"Mahesh Nagar, Malegaon - MPCB",13-05-2024 14:00:00,20.555712,74.529236,SO2,11,16,14
India,Maharashtra,Mumbai,"Bandra Kurla Complex, Mumbai - MPCB",13-05-2024 14:00:00,19.065931,72.862131,NO2,4,16,10
India,Maharashtra,Mumbai,"Bandra Kurla Complex, Mumbai - MPCB",13-05-2024 14:00:00,19.065931,72.862131,SO2,3,4,4
India,Maharashtra,Mumbai,"Borivali East, Mumbai - MPCB",13-05-2024 14:00:00,19.2243333,72.8658113,CO,34,38,36
India,Maharashtra,Mumbai,"Borivali East, Mumbai - MPCB",13-05-2024 14:00:00,19.2243333,72.8658113,OZONE,14,16,15
India,Maharashtra,Mumbai,"Byculla, Mumbai - BMC",13-05-2024 14:00:00,18.9767,72.8380,NO2,4,7,5
India,Maharashtra,Mumbai,"Chakala-Andheri East, Mumbai - IITM",13-05-2024 14:00:00,19.11074,72.86084,OZONE,NA,NA,NA
India,Maharashtra,Mumbai,"Chembur, Mumbai - MPCB",13-05-2024 14:00:00,19.0364585,72.8954371,SO2,1,2,1
India,Maharashtra,Mumbai,"Chembur, Mumbai - MPCB",13-05-2024 14:00:00,19.0364585,72.8954371,CO,14,28,20
India,Maharashtra,Mumbai,"Chembur, Mumbai - MPCB",13-05-2024 14:00:00,19.0364585,72.8954371,OZONE,3,65,26
India,Maharashtra,Mumbai,"Chhatrapati Shivaji Intl. Airport (T2), Mumbai - MPCB",13-05-2024 14:00:00,19.10078,72.87462,PM10,48,117,77
India,Maharashtra,Mumbai,"Ghatkopar, Mumbai - BMC",13-05-2024 14:00:00,19.083694,72.920967,PM2.5,9,38,22
India,Maharashtra,Mumbai,"Khindipada-Bhandup West, Mumbai - IITM",13-05-2024 14:00:00,19.1653323,72.922099,PM10,NA,NA,NA
India,Maharashtra,Mumbai,"Kurla, Mumbai - MPCB",13-05-2024 14:00:00,19.0863,72.8888,PM2.5,NA,NA,NA
India,Maharashtra,Mumbai,"Kurla, Mumbai - MPCB",13-05-2024 14:00:00,19.0863,72.8888,OZONE,28,29,29
India,Maharashtra,Mumbai,"Mindspace-Malad West, Mumbai - MPCB",13-05-2024 14:00:00,19.1878657,72.8304069,SO2,9,14,11
India,Maharashtra,Mumbai,"Mindspace-Malad West, Mumbai - MPCB",13-05-2024 14:00:00,19.1878657,72.8304069,CO,16,30,20
India,Maharashtra,Mumbai,"Mulund West, Mumbai - MPCB",13-05-2024 14:00:00,19.1750,72.9419,SO2,12,14,13
India,Maharashtra,Mumbai,"Navy Nagar-Colaba, Mumbai - IITM",13-05-2024 14:00:00,18.897756,72.813320,PM2.5,21,40,30
India,Maharashtra,Mumbai,"Powai, Mumbai - MPCB",13-05-2024 14:00:00,19.137500,72.915056,OZONE,24,69,40
India,Maharashtra,Mumbai,"Sewri, Mumbai - BMC",13-05-2024 14:00:00,19.000084,72.856730,PM2.5,NA,NA,NA
India,Maharashtra,Mumbai,"Sewri, Mumbai - BMC",13-05-2024 14:00:00,19.000084,72.856730,NO2,15,27,19
India,Maharashtra,Mumbai,"Sion, Mumbai - MPCB",13-05-2024 14:00:00,19.047000,72.874600,NO2,102,107,104
India,Maharashtra,Mumbai,"Vasai West, Mumbai - MPCB",13-05-2024 14:00:00,19.383200,72.820400,PM10,67,172,115
India,Maharashtra,Mumbai,"Vile Parle West, Mumbai - MPCB",13-05-2024 14:00:00,19.10861,72.83622,PM10,57,105,79
India,Maharashtra,Mumbai,"Vile Parle West, Mumbai - MPCB",13-05-2024 14:00:00,19.10861,72.83622,NH3,11,11,11
India,Maharashtra,Mumbai,"Worli, Mumbai - MPCB",13-05-2024 14:00:00,18.9936162,72.8128113,NO2,14,17,16
India,Maharashtra,Nagpur,"Ambazari, Nagpur - MPCB",13-05-2024 14:00:00,21.121801,79.04952,NO2,5,47,19
India,Maharashtra,Nagpur,"Mahal, Nagpur - MPCB",13-05-2024 14:00:00,21.14472,79.107595,NO2,5,31,16
India,Maharashtra,Nagpur,"Mahal, Nagpur - MPCB",13-05-2024 14:00:00,21.14472,79.107595,OZONE,35,115,60
India,Maharashtra,Nagpur,"Opp GPO Civil Lines, Nagpur - MPCB",13-05-2024 14:00:00,21.152875,79.0517531,CO,11,40,26
India,Maharashtra,Nanded,"Sneh Nagar, Nanded - MPCB",13-05-2024 14:00:00,19.173852,77.296291,NO2,4,10,7
India,Maharashtra,Nashik,"Gangapur Road, Nashik - MPCB",13-05-2024 14:00:00,20.0073285,73.7762427,CO,34,136,97
India,Maharashtra,Nashik,"Hirawadi, Nashik - MPCB",13-05-2024 14:00:00,20.021503,73.813844,NO2,22,134,47
India,Maharashtra,Nashik,"MIDC Ambad, Nashik - MPCB",13-05-2024 14:00:00,19.950220,73.731480,PM2.5,39,241,131
India,Maharashtra,Nashik,"MIDC Ambad, Nashik - MPCB",13-05-2024 14:00:00,19.950220,73.731480,NO2,14,91,30
India,Maharashtra,Nashik,"MIDC Ambad, Nashik - MPCB",13-05-2024 14:00:00,19.950220,73.731480,OZONE,10,85,48
India,Maharashtra,Nashik,"Pandav Nagari, Nashik - MPCB",13-05-2024 14:00:00,19.9591346,73.7788008,PM10,83,148,120
India,Maharashtra,Nashik,"Pandav Nagari, Nashik - MPCB",13-05-2024 14:00:00,19.9591346,73.7788008,NO2,NA,NA,NA
India,Maharashtra,Nashik,"Pandav Nagari, Nashik - MPCB",13-05-2024 14:00:00,19.9591346,73.7788008,NH3,2,24,4
India,Maharashtra,Nashik,"Pandav Nagari, Nashik - MPCB",13-05-2024 14:00:00,19.9591346,73.7788008,SO2,6,44,17
India,Maharashtra,Navi Mumbai,"Nerul, Navi Mumbai - MPCB",13-05-2024 14:00:00,19.008751,73.016620,PM2.5,12,65,40
India,Maharashtra,Navi Mumbai,"Nerul, Navi Mumbai - MPCB",13-05-2024 14:00:00,19.008751,73.016620,NO2,34,44,38
India,Maharashtra,Navi Mumbai,"Nerul, Navi Mumbai - MPCB",13-05-2024 14:00:00,19.008751,73.016620,OZONE,32,42,35
India,Maharashtra,Navi Mumbai,"Sanpada, Navi Mumbai - MPCB",13-05-2024 14:00:00,19.0575752,73.0151367,PM10,53,109,79
India,Maharashtra,Navi Mumbai,"Sanpada, Navi Mumbai - MPCB",13-05-2024 14:00:00,19.0575752,73.0151367,NO2,1,23,5
India,Maharashtra,Navi Mumbai,"Sanpada, Navi Mumbai - MPCB",13-05-2024 14:00:00,19.0575752,73.0151367,CO,2,14,9
India,Maharashtra,Navi Mumbai,"Sector-19A Nerul, Navi Mumbai - IITM",13-05-2024 14:00:00,19.044,73.0325,PM10,27,78,58
India,Maharashtra,Navi Mumbai,"Sector-19A Nerul, Navi Mumbai - IITM",13-05-2024 14:00:00,19.044,73.0325,NH3,2,3,2
India,Maharashtra,Navi Mumbai,"Sector-19A Nerul, Navi Mumbai - IITM",13-05-2024 14:00:00,19.044,73.0325,SO2,1,27,11
India,Maharashtra,Navi Mumbai,"Sector-2E Kalamboli, Navi Mumbai - MPCB",13-05-2024 14:00:00,19.02579,73.10297,PM2.5,NA,NA,NA
India,Maharashtra,Navi Mumbai,"Sector-2E Kalamboli, Navi Mumbai - MPCB",13-05-2024 14:00:00,19.02579,73.10297,PM10,NA,NA,NA
India,Maharashtra,Navi Mumbai,"Tondare-Taloja, Navi Mumbai - MPCB",13-05-2024 14:00:00,19.0630,73.1209,PM10,39,110,83
India,Maharashtra,Navi Mumbai,"Tondare-Taloja, Navi Mumbai - MPCB",13-05-2024 14:00:00,19.0630,73.1209,OZONE,1,98,34
India,Maharashtra,Pimpri-Chinchwad,"Gavalinagar, Pimpri Chinchwad - MPCB",13-05-2024 14:00:00,18.63673,73.82487,NH3,1,13,2
India,Maharashtra,Pimpri-Chinchwad,"Gavalinagar, Pimpri Chinchwad - MPCB",13-05-2024 14:00:00,18.63673,73.82487,SO2,1,5,3
India,Maharashtra,Pimpri-Chinchwad,"Park Street Wakad, Pimpri Chinchwad - MPCB",13-05-2024 14:00:00,18.59051,73.77946,CO,28,106,67
India,Maharashtra,Pimpri-Chinchwad,"Thergaon, Pimpri Chinchwad - MPCB",13-05-2024 14:00:00,18.616318,73.765797,PM2.5,38,97,71
India,Maharashtra,Pimpri-Chinchwad,"Thergaon, Pimpri Chinchwad - MPCB",13-05-2024 14:00:00,18.616318,73.765797,OZONE,1,126,60
India,Maharashtra,Pune,"Alandi, Pune - IITM",13-05-2024 14:00:00,18.675076,73.892743,PM2.5,15,53,27
India,Maharashtra,Pune,"Alandi, Pune - IITM",13-05-2024 14:00:00,18.675076,73.892743,CO,38,84,59
India,Maharashtra,Pune,"Karve Road, Pune - MPCB",13-05-2024 14:00:00,18.5011743,73.8165527,PM2.5,6,180,63
India,Maharashtra,Pune,"Karve Road, Pune - MPCB",13-05-2024 14:00:00,18.5011743,73.8165527,PM10,10,196,94
India,Maharashtra,Pune,"Karve Road, Pune - MPCB",13-05-2024 14:00:00,18.5011743,73.8165527,OZONE,9,215,70
India,Maharashtra,Pune,"Katraj Dairy, Pune - MPCB",13-05-2024 14:00:00,18.454450,73.854155,PM10,51,102,75
India,Maharashtra,Pune,"Mhada Colony, Pune - IITM",13-05-2024 14:00:00,18.573040,73.927715,PM2.5,11,89,47
India,Maharashtra,Pune,"Transport Nagar-Nigdi, Pune - IITM",13-05-2024 14:00:00,18.664282,73.763966,NO2,9,54,24
India,Maharashtra,Sangli,"Vijay Nagar, Sangli - MPCB",13-05-2024 14:00:00, 16.5038,74.3623,OZONE,24,146,69
India,Maharashtra,Solapur,"Dnyaneshwar Nagar, Solapur - MPCB",13-05-2024 14:00:00,17.6336264,75.9132495,PM10,48,78,60
India,Maharashtra,Solapur,"Dnyaneshwar Nagar, Solapur - MPCB",13-05-2024 14:00:00,17.6336264,75.9132495,NO2,10,34,19
India,Maharashtra,Solapur,"Ratandeep Housing Society, Solapur - MPCB",13-05-2024 14:00:00,17.65439,75.90649,NH3,5,14,8
India,Maharashtra,Solapur,"Solapur, Solapur - MPCB",13-05-2024 14:00:00,17.6599188,75.9063906,PM2.5,34,67,41
India,Maharashtra,Thane,"Kasarvadavali, Thane - MPCB",13-05-2024 14:00:00,19.26777,72.97182,CO,2,22,16
India,Maharashtra,Thane,"Pimpleshwar Mandir, Thane - MPCB",13-05-2024 14:00:00,19.192056,72.9585188,NO2,4,16,9
India,Maharashtra,Thane,"Pimpleshwar Mandir, Thane - MPCB",13-05-2024 14:00:00,19.192056,72.9585188,OZONE,9,66,32
India,Maharashtra,Thane,"Upvan Fort, Thane - MPCB",13-05-2024 14:00:00,19.222279,72.957979,NH3,3,4,4
India,Maharashtra,Ulhasnagar,"Sidhi Vinayak Nagar, Ulhasnagar - MPCB",13-05-2024 14:00:00,19.235581,73.159121,NH3,1,2,2
India,Maharashtra,Ulhasnagar,"Sidhi Vinayak Nagar, Ulhasnagar - MPCB",13-05-2024 14:00:00,19.235581,73.159121,CO,14,36,23
India,Maharashtra,Virar,"Bolinj, Virar - MPCB",13-05-2024 14:00:00,19.4458210,72.7988231,PM2.5,4,23,16
India,Maharashtra,Virar,"Bolinj, Virar - MPCB",13-05-2024 14:00:00,19.4458210,72.7988231,NH3,3,9,9
India,Manipur,Imphal,"Manipur University, Imphal - Manipur PCB",13-05-2024 14:00:00,24.7524239,93.9286218,OZONE,1,32,20
India,Meghalaya,Shillong,"Lumpyngngad, Shillong - Meghalaya PCB",13-05-2024 14:00:00,25.5586,91.8985,PM2.5,NA,NA,NA
India,Meghalaya,Shillong,"Lumpyngngad, Shillong - Meghalaya PCB",13-05-2024 14:00:00,25.5586,91.8985,PM10,NA,NA,NA
India,Meghalaya,Shillong,"Lumpyngngad, Shillong - Meghalaya PCB",13-05-2024 14:00:00,25.5586,91.8985,CO,NA,NA,NA
India,Mizoram,Aizawl,"Sikulpuikawn, Aizawl - Mizoram PCB",13-05-2024 14:00:00,23.7176342,92.7192841,NO2,NA,NA,NA
India,Nagaland,Kohima,"PWD Juction, Kohima - NPCB",13-05-2024 14:00:00,25.6635413,94.0989878,NH3,NA,NA,NA
India,Odisha,Angul,"Hakimapada, Angul - OSPCB",13-05-2024 14:00:00,20.832874,85.104082,NO2,NA,NA,NA
India,Odisha,Balasore,"Kalidaspur, Balasore - OSPCB",13-05-2024 14:00:00,21.51161,86.89088,NO2,1,6,3
India,Odisha,Barbil,"Forest Office, Barbil - OSPCB",13-05-2024 14:00:00,22.1166054,85.3945546,PM10,23,125,66
India,Odisha,Baripada,"Meher Colony, Baripada - OSPCB",13-05-2024 14:00:00,21.941841,86.728318,PM10,42,76,52
India,Odisha,Baripada,"Meher Colony, Baripada - OSPCB",13-05-2024 14:00:00,21.941841,86.728318,NO2,1,10,4
India,Odisha,Bhubaneswar,"Lingraj Mandir, Bhubaneswar - OSPCB",13-05-2024 14:00:00,20.240790,85.836784,PM10,27,112,58
India,Odisha,Bhubaneswar,"Lingraj Mandir, Bhubaneswar - OSPCB",13-05-2024 14:00:00,20.240790,85.836784,NO2,7,22,15
India,Odisha,Bhubaneswar,"Lingraj Mandir, Bhubaneswar - OSPCB",13-05-2024 14:00:00,20.240790,85.836784,SO2,NA,NA,NA
India,Odisha,Bhubaneswar,"Patia, Bhubaneswar - OSPCB",13-05-2024 14:00:00,20.34652,85.81630,OZONE,36,189,113
India,Odisha,Bileipada,"Tata Township, Bileipada - OSPCB",13-05-2024 14:00:00,22.06156703,85.47409613,NH3,11,12,12
India,Odisha,Bileipada,"Tata Township, Bileipada - OSPCB",13-05-2024 14:00:00,22.06156703,85.47409613,OZONE,24,168,85
India,Odisha,Brajrajnagar,"GM Office, Brajrajnagar - OSPCB",13-05-2024 14:00:00,21.8004996,83.8396977,PM2.5,15,67,36
India,Odisha,Brajrajnagar,"GM Office, Brajrajnagar - OSPCB",13-05-2024 14:00:00,21.8004996,83.8396977,CO,86,90,88
India,Odisha,Byasanagar,"Ferro Chrome Colony, Byasanagar - OSPCB",13-05-2024 14:00:00,20.94185,86.11510,NH3,2,4,3
India,Odisha,Cuttack,"CDA Area, Cuttack - OSPCB",13-05-2024 14:00:00,20.48891     ,85.84768     ,NH3,1,6,3
India,Odisha,Keonjhar,"Jagamohanpur, Keonjhar - OSPCB",13-05-2024 14:00:00,21.643900,85.599355,NO2,4,23,12
India,Odisha,Nayagarh,"Dabuna, Nayagarh - OSPCB",13-05-2024 14:00:00,21.847279,85.416905,PM2.5,27,71,47
India,Odisha,Nayagarh,"Dabuna, Nayagarh - OSPCB",13-05-2024 14:00:00,21.847279,85.416905,PM10,29,79,51
India,Odisha,Nayagarh,"Dabuna, Nayagarh - OSPCB",13-05-2024 14:00:00,21.847279,85.416905,NO2,4,5,5
India,Odisha,Rairangpur,"Divisional Forest Office, Rairangpur - OSPCB",13-05-2024 14:00:00,22.265816,86.174829,PM2.5,14,81,51
India,Odisha,Rourkela,"Fertilizer Township, Rourkela - OSPCB",13-05-2024 14:00:00,22.18972222,84.86277778,CO,18,22,21
India,Odisha,Rourkela,"Sector-2, Rourkela - OSPCB",13-05-2024 14:00:00,22.24500000,84.88111111,CO,18,44,30
India,Odisha,Talcher,"Talcher Coalfields,Talcher - OSPCB",13-05-2024 14:00:00,20.9360711,85.1707021,PM2.5,NA,NA,NA
India,Odisha,Talcher,"Talcher Coalfields,Talcher - OSPCB",13-05-2024 14:00:00,20.9360711,85.1707021,CO,56,110,96
India,Puducherry,Puducherry,"Jawahar Nagar, Puducherry - PPCC",13-05-2024 14:00:00,11.9309,79.8027,OZONE,14,74,35
India,Punjab,Amritsar,"Golden Temple, Amritsar - PPCB",13-05-2024 14:00:00,31.620000,74.876512,NO2,6,50,23
India,Punjab,Bathinda,"Hardev Nagar, Bathinda - PPCB",13-05-2024 14:00:00,30.233011,74.907758,SO2,1,38,9
India,Punjab,Khanna,"Kalal Majra, Khanna - PPCB",13-05-2024 14:00:00,30.736056 ,76.209694,PM10,54,94,77
India,Punjab,Ludhiana,"Punjab Agricultural University, Ludhiana - PPCB",13-05-2024 14:00:00,30.9028,75.8086,PM2.5,53,118,79
India,Punjab,Ludhiana,"Punjab Agricultural University, Ludhiana - PPCB",13-05-2024 14:00:00,30.9028,75.8086,CO,25,50,37
India,Punjab,Ludhiana,"Punjab Agricultural University, Ludhiana - PPCB",13-05-2024 14:00:00,30.9028,75.8086,OZONE,18,66,43
India,Punjab,Patiala,"Model Town, Patiala - PPCB",13-05-2024 14:00:00,30.349388,76.366642,PM2.5,38,73,53
India,Punjab,Patiala,"Model Town, Patiala - PPCB",13-05-2024 14:00:00,30.349388,76.366642,PM10,39,414,107
India,Punjab,Patiala,"Model Town, Patiala - PPCB",13-05-2024 14:00:00,30.349388,76.366642,SO2,3,39,8
India,Punjab,Patiala,"Model Town, Patiala - PPCB",13-05-2024 14:00:00,30.349388,76.366642,OZONE,17,118,61
India,Punjab,Rupnagar,"Ratanpura, Rupnagar - Ambuja Cements",13-05-2024 14:00:00,31.0325454,76.5623046,PM2.5,197,318,274
India,Rajasthan,Banswara,"Rati Talai, Banswara - RSPCB",13-05-2024 14:00:00,23.555190,74.440010,NO2,10,88,26
India,Rajasthan,Banswara,"Rati Talai, Banswara - RSPCB",13-05-2024 14:00:00,23.555190,74.440010,CO,32,80,38
India,Rajasthan,Baran,"Bamboliya, Baran - RSPCB",13-05-2024 14:00:00,25.106006,76.469948,PM10,44,100,75
India,Rajasthan,Baran,"Bamboliya, Baran - RSPCB",13-05-2024 14:00:00,25.106006,76.469948,NH3,3,6,4
India,Rajasthan,Baran,"Bamboliya, Baran - RSPCB",13-05-2024 14:00:00,25.106006,76.469948,OZONE,28,142,81
India,Rajasthan,Barmer,"Railway Colony, Barmer - RSPCB",13-05-2024 14:00:00,25.747299,71.393989,PM10,56,125,85
India,Rajasthan,Bharatpur,"Krishna Nagar, Bharatpur - RSPCB",13-05-2024 14:00:00,27.215415,77.50873,SO2,1,6,4
India,Rajasthan,Bharatpur,"Krishna Nagar, Bharatpur - RSPCB",13-05-2024 14:00:00,27.215415,77.50873,CO,2,63,29
India,Rajasthan,Bharatpur,"Krishna Nagar, Bharatpur - RSPCB",13-05-2024 14:00:00,27.215415,77.50873,OZONE,57,167,150
India,Rajasthan,Bhilwara,"Pratap Nagar, Bhilwara - RSPCB",13-05-2024 14:00:00,25.339605,74.618883,PM10,19,112,49
India,Rajasthan,Bhilwara,"Pratap Nagar, Bhilwara - RSPCB",13-05-2024 14:00:00,25.339605,74.618883,NO2,9,72,28
India,Rajasthan,Bhiwadi,"Vasundhara Nagar_UIT, Bhiwadi - RSPCB",13-05-2024 14:00:00,28.207266,76.829265,NO2,12,134,54
India,Rajasthan,Bikaner,"MM Ground, Bikaner - RSPCB",13-05-2024 14:00:00,28.018792,73.292658,PM10,90,331,183
India,Rajasthan,Bikaner,"MM Ground, Bikaner - RSPCB",13-05-2024 14:00:00,28.018792,73.292658,NH3,11,13,12
India,Rajasthan,Bundi,"New Colony, Bundi - RSPCB",13-05-2024 14:00:00,25.435774,75.644272,PM2.5,10,42,28
India,Rajasthan,Bundi,"New Colony, Bundi - RSPCB",13-05-2024 14:00:00,25.435774,75.644272,NH3,4,4,4
India,Rajasthan,Chittorgarh,"Shastri Nagar, Chittorgarh - RSPCB",13-05-2024 14:00:00,24.892047,74.623527,NO2,19,104,46
India,Rajasthan,Dausa,"Khatikan Mohalla, Dausa - RSPCB",13-05-2024 14:00:00,26.895552,76.334753,PM10,NA,NA,NA
India,Rajasthan,Dausa,"Khatikan Mohalla, Dausa - RSPCB",13-05-2024 14:00:00,26.895552,76.334753,NH3,NA,NA,NA
India,Rajasthan,Dausa,"Khatikan Mohalla, Dausa - RSPCB",13-05-2024 14:00:00,26.895552,76.334753,OZONE,37,139,109
India,Rajasthan,Dholpur,"Raja Ganj, Dholpur - RSPCB",13-05-2024 14:00:00,26.699557,77.898881,CO,7,100,22
India,Rajasthan,Dholpur,"Raja Ganj, Dholpur - RSPCB",13-05-2024 14:00:00,26.699557,77.898881,OZONE,28,139,93
India,Rajasthan,Dungarpur,"Bhoiwada, Dungarpur - RSPCB",13-05-2024 14:00:00,23.837789,73.714926,NH3,6,7,7
India,Rajasthan,Hanumangarh,"Housing Board, Hanumangarh - RSPCB",13-05-2024 14:00:00,29.610750,74.283608,NH3,5,10,7
India,Rajasthan,Hanumangarh,"Housing Board, Hanumangarh - RSPCB",13-05-2024 14:00:00,29.610750,74.283608,OZONE,11,50,29
India,Rajasthan,Jaipur,"Mansarovar Sector-12, Jaipur - RSPCB",13-05-2024 14:00:00,26.843698,75.766894,NO2,10,132,56
India,Rajasthan,Jaipur,"Police Commissionerate, Jaipur - RSPCB",13-05-2024 14:00:00,26.9164092,75.7994901,SO2,6,41,24
India,Rajasthan,Jaipur,"Sector-2 Murlipura, Jaipur - RSPCB",13-05-2024 14:00:00,26.960669,75.771817,SO2,6,54,22
India,Rajasthan,Jaipur,"Shastri Nagar, Jaipur - RSPCB",13-05-2024 14:00:00,26.9502929,75.730943,PM2.5,47,177,81
India,Rajasthan,Jaipur,"Shastri Nagar, Jaipur - RSPCB",13-05-2024 14:00:00,26.9502929,75.730943,OZONE,31,107,75
India,Rajasthan,Jalore,"Mudtra Sili, Jalore - RSPCB",13-05-2024 14:00:00,25.344694,72.626208,PM10,52,237,101
India,Rajasthan,Jhalawar,"Rajlaxmi Nagar, Jhalawar - RSPCB",13-05-2024 14:00:00,24.588397,76.172782,NO2,17,50,27
India,Rajasthan,Jhunjhunu,"Indra Nagar, Jhunjhunu - RSPCB",13-05-2024 14:00:00,28.108988,75.386577,PM2.5,13,327,140
India,Rajasthan,Jhunjhunu,"Indra Nagar, Jhunjhunu - RSPCB",13-05-2024 14:00:00,28.108988,75.386577,NO2,13,46,27
India,Rajasthan,Jodhpur,"Collectorate, Jodhpur - RSPCB",13-05-2024 14:00:00,26.268249,73.0193853,PM10,50,184,101
India,Rajasthan,Jodhpur,"Collectorate, Jodhpur - RSPCB",13-05-2024 14:00:00,26.268249,73.0193853,CO,4,142,44
India,Rajasthan,Jodhpur,"Digari Kalan, Jodhpur - RSPCB",13-05-2024 14:00:00,26.295810,73.082283,PM2.5,2,52,17
India,Rajasthan,Jodhpur,"Digari Kalan, Jodhpur - RSPCB",13-05-2024 14:00:00,26.295810,73.082283,PM10,31,156,72
India,Rajasthan,Jodhpur,"Jhalamand, Jodhpur - RSPCB",13-05-2024 14:00:00,26.215415,73.070156,PM10,34,188,74
India,Rajasthan,Jodhpur,"Jhalamand, Jodhpur - RSPCB",13-05-2024 14:00:00,26.215415,73.070156,NO2,1,72,14
India,Rajasthan,Jodhpur,"Jhalamand, Jodhpur - RSPCB",13-05-2024 14:00:00,26.215415,73.070156,OZONE,29,90,70
India,Rajasthan,Jodhpur,"Samrat Ashok Udhyan, Jodhpur - RSPCB",13-05-2024 14:00:00,26.253384,72.976571,PM2.5,2,37,16
India,Rajasthan,Karauli,"Satyawati Vihar, Karauli - RSPCB",13-05-2024 14:00:00,26.506177,77.025989,PM2.5,12,230,48
India,Rajasthan,Kota,"Nayapura, Kota - RSPCB",13-05-2024 14:00:00,25.196024,75.855668,PM2.5,15,118,55
India,Rajasthan,Kota,"Nayapura, Kota - RSPCB",13-05-2024 14:00:00,25.196024,75.855668,PM10,36,165,97
India,Rajasthan,Kota,"Nayapura, Kota - RSPCB",13-05-2024 14:00:00,25.196024,75.855668,NH3,2,6,3
India,Rajasthan,Kota,"Shrinath Puram, Kota - RSPCB",13-05-2024 14:00:00,25.14389,75.821256,OZONE,12,72,44
India,Rajasthan,Nagaur,"Karni Colony, Nagaur - RSPCB",13-05-2024 14:00:00,27.213494,73.734444,NH3,13,27,20
India,Rajasthan,Pratapgarh,"Pragati Nagar, Pratapgarh - RSPCB",13-05-2024 14:00:00,24.041198,74.780702,PM2.5,12,39,26
India,Rajasthan,Pratapgarh,"Pragati Nagar, Pratapgarh - RSPCB",13-05-2024 14:00:00,24.041198,74.780702,OZONE,33,124,69
India,Rajasthan,Rajsamand,"Dhoinda, Rajsamand - RSPCB",13-05-2024 14:00:00,25.036360,73.883502,PM10,30,71,45
India,Rajasthan,Sawai Madhopur,"Sahu Nagar, Sawai Madhopur - RSPCB",13-05-2024 14:00:00,26.031443,76.359327,PM10,41,458,129
India,Rajasthan,Sawai Madhopur,"Sahu Nagar, Sawai Madhopur - RSPCB",13-05-2024 14:00:00,26.031443,76.359327,NH3,2,14,8
India,Rajasthan,Sawai Madhopur,"Sahu Nagar, Sawai Madhopur - RSPCB",13-05-2024 14:00:00,26.031443,76.359327,OZONE,21,133,86
India,Rajasthan,Sikar,"Radhakishan Pura, Sikar - RSPCB",13-05-2024 14:00:00,27.608912,75.153302,NO2,16,60,35
India,Rajasthan,Sikar,"Radhakishan Pura, Sikar - RSPCB",13-05-2024 14:00:00,27.608912,75.153302,OZONE,23,139,101
India,Rajasthan,Sirohi,"Vedhaynath Colony, Sirohi - RSPCB",13-05-2024 14:00:00,24.885261,72.857549,NH3,2,3,3
India,Rajasthan,Sri Ganganagar,"Old City, Sri Ganganagar - RSPCB",13-05-2024 14:00:00,29.931624,73.864511,PM10,149,385,244
India,Rajasthan,Sri Ganganagar,"Old City, Sri Ganganagar - RSPCB",13-05-2024 14:00:00,29.931624,73.864511,NO2,13,76,42
India,Rajasthan,Sri Ganganagar,"Old City, Sri Ganganagar - RSPCB",13-05-2024 14:00:00,29.931624,73.864511,NH3,10,14,3
India,Rajasthan,Udaipur,"Ashok Nagar, Udaipur - RSPCB",13-05-2024 14:00:00,24.5886166,73.6321397,PM10,71,119,88
India,Sikkim,Gangtok,"Zero Point GICI, Gangtok - SSPCB",13-05-2024 14:00:00,27.338530,88.614099,PM10,5,23,12
India,Sikkim,Gangtok,"Zero Point GICI, Gangtok - SSPCB",13-05-2024 14:00:00,27.338530,88.614099,CO,5,12,8
India,TamilNadu,Chengalpattu,"Crescent University, Chengalpattu - TNPCB",13-05-2024 14:00:00,12.8777316,80.0834807,PM2.5,NA,NA,NA
India,TamilNadu,Chennai,"Alandur Bus Depot, Chennai - CPCB",13-05-2024 14:00:00,12.9099161,80.1076538,PM2.5,24,38,33
India,TamilNadu,Chennai,"Alandur Bus Depot, Chennai - CPCB",13-05-2024 14:00:00,12.9099161,80.1076538,CO,56,107,98
India,TamilNadu,Chennai,"Kodungaiyur, Chennai - TNPCB",13-05-2024 14:00:00,13.1278,80.2642,NO2,NA,NA,NA
India,TamilNadu,Chennai,"Kodungaiyur, Chennai - TNPCB",13-05-2024 14:00:00,13.1278,80.2642,SO2,NA,NA,NA
India,TamilNadu,Chennai,"Perungudi, Chennai - TNPCB",13-05-2024 14:00:00,12.9533,80.2357,PM10,5,75,31
India,TamilNadu,Chennai,"Perungudi, Chennai - TNPCB",13-05-2024 14:00:00,12.9533,80.2357,NO2,1,4,2
India,TamilNadu,Chennai,"Perungudi, Chennai - TNPCB",13-05-2024 14:00:00,12.9533,80.2357,OZONE,5,14,9
India,TamilNadu,Chennai,"Royapuram, Chennai - TNPCB",13-05-2024 14:00:00,13.1036,80.2909,SO2,2,7,4
India,TamilNadu,Chennai,"Velachery Res. Area, Chennai - CPCB",13-05-2024 14:00:00,13.0052189,80.2398125,NO2,13,25,16
India,TamilNadu,Chennai,"Velachery Res. Area, Chennai - CPCB",13-05-2024 14:00:00,13.0052189,80.2398125,NH3,14,23,18
India,TamilNadu,Chennai,"Velachery Res. Area, Chennai - CPCB",13-05-2024 14:00:00,13.0052189,80.2398125,OZONE,36,50,44
India,TamilNadu,Cuddalore,"Semmandalam, Cuddalore - TNPCB",13-05-2024 14:00:00,11.7637683,79.7499835,PM10,4,104,20
India,TamilNadu,Gummidipoondi,"Anthoni Pillai Nagar, Gummidipoondi - TNPCB",13-05-2024 14:00:00,13.4127,80.1081,PM2.5,2,108,27
India,TamilNadu,Gummidipoondi,"Anthoni Pillai Nagar, Gummidipoondi - TNPCB",13-05-2024 14:00:00,13.4127,80.1081,NH3,1,4,3
India,TamilNadu,Gummidipoondi,"Anthoni Pillai Nagar, Gummidipoondi - TNPCB",13-05-2024 14:00:00,13.4127,80.1081,SO2,3,87,21
India,TamilNadu,Ooty,"Bombay Castel, Ooty - TNPCB",13-05-2024 14:00:00,11.4068288,76.7138973,NO2,10,77,30
India,TamilNadu,Salem,"Sona College of Technology, Salem - TNPCB",13-05-2024 14:00:00,11.679111,78.125052,PM10,NA,NA,NA
India,TamilNadu,Salem,"Sona College of Technology, Salem - TNPCB",13-05-2024 14:00:00,11.679111,78.125052,CO,44,45,44
India,TamilNadu,Thoothukudi,"Meelavittan, Thoothukudi - TNPCB",13-05-2024 14:00:00,8.816428 ,78.099039,SO2,5,14,8
India,TamilNadu,Tirupur,"Kumaran College, Tirupur - TNPCB",13-05-2024 14:00:00,11.0973603,77.3228673,NO2,7,22,13
India,TamilNadu,Tirupur,"Kumaran College, Tirupur - TNPCB",13-05-2024 14:00:00,11.0973603,77.3228673,SO2,23,25,24
India,TamilNadu,Tirupur,"Kumaran College, Tirupur - TNPCB",13-05-2024 14:00:00,11.0973603,77.3228673,OZONE,6,7,7
India,TamilNadu,Vellore,"Vasanthapuram, Vellore - TNPCB",13-05-2024 14:00:00,12.909494,79.131861,PM2.5,NA,NA,NA
India,TamilNadu,Vellore,"Vasanthapuram, Vellore - TNPCB",13-05-2024 14:00:00,12.909494,79.131861,NH3,NA,NA,NA
India,Telangana,Hyderabad,"Bollaram Industrial Area, Hyderabad - TSPCB",13-05-2024 14:00:00,17.540891,78.358528,PM10,11,73,42
India,Telangana,Hyderabad,"Bollaram Industrial Area, Hyderabad - TSPCB",13-05-2024 14:00:00,17.540891,78.358528,NO2,3,18,11
India,Telangana,Hyderabad,"Bollaram Industrial Area, Hyderabad - TSPCB",13-05-2024 14:00:00,17.540891,78.358528,CO,4,16,10
India,Telangana,Hyderabad,"Central University, Hyderabad - TSPCB",13-05-2024 14:00:00,17.460103,78.334361,PM2.5,7,60,24
India,Telangana,Hyderabad,"Central University, Hyderabad - TSPCB",13-05-2024 14:00:00,17.460103,78.334361,PM10,16,68,40
India,Telangana,Hyderabad,"ICRISAT Patancheru, Hyderabad - TSPCB",13-05-2024 14:00:00,17.518400,78.278777,CO,26,53,33
India,Telangana,Hyderabad,"IITH Kandi, Hyderabad - TSPCB",13-05-2024 14:00:00,17.585705,78.126199,NO2,NA,NA,NA
India,Telangana,Hyderabad,"IITH Kandi, Hyderabad - TSPCB",13-05-2024 14:00:00,17.585705,78.126199,OZONE,21,28,24
India,Telangana,Hyderabad,"Kokapet, Hyderabad - TSPCB",13-05-2024 14:00:00,17.393559,78.339194,NH3,2,3,2
India,Telangana,Hyderabad,"Kompally Municipal Office, Hyderabad - TSPCB",13-05-2024 14:00:00,17.544899,78.486949,SO2,3,8,5
India,Telangana,Hyderabad,"Kompally Municipal Office, Hyderabad - TSPCB",13-05-2024 14:00:00,17.544899,78.486949,CO,NA,NA,NA
India,Telangana,Hyderabad,"Nacharam_TSIIC IALA, Hyderabad - TSPCB",13-05-2024 14:00:00,17.429398,78.569354,PM2.5,38,58,54
India,Telangana,Hyderabad,"Ramachandrapuram, Hyderabad - TSPCB",13-05-2024 14:00:00,17.528544,78.286195,SO2,9,11,10
India,Telangana,Hyderabad,"Sanathnagar, Hyderabad - TSPCB",13-05-2024 14:00:00,17.4559458,78.4332152,SO2,22,52,30
India,Tripura,Agartala,"Bardowali, Agartala - Tripura SPCB",13-05-2024 14:00:00,23.8175497,91.2726974,PM2.5,40,121,78
India,Tripura,Agartala,"Bardowali, Agartala - Tripura SPCB",13-05-2024 14:00:00,23.8175497,91.2726974,SO2,30,31,31
India,Uttar_Pradesh,Agra,"Manoharpur, Agra - UPPCB",13-05-2024 14:00:00,27.23711,78.01936,PM2.5,39,189,63
India,Uttar_Pradesh,Agra,"Manoharpur, Agra - UPPCB",13-05-2024 14:00:00,27.23711,78.01936,SO2,13,18,16
India,Uttar_Pradesh,Agra,"Sanjay Palace, Agra - UPPCB",13-05-2024 14:00:00,27.19865833,78.00598056,PM10,52,250,81
India,Uttar_Pradesh,Agra,"Sanjay Palace, Agra - UPPCB",13-05-2024 14:00:00,27.19865833,78.00598056,NO2,9,22,15
India,Uttar_Pradesh,Agra,"Sanjay Palace, Agra - UPPCB",13-05-2024 14:00:00,27.19865833,78.00598056,SO2,1,10,6
India,Uttar_Pradesh,Agra,"Shahjahan Garden, Agra - UPPCB",13-05-2024 14:00:00,27.169338,78.03582,NO2,20,21,21
India,Uttar_Pradesh,Agra,"Shastripuram, Agra - UPPCB",13-05-2024 14:00:00,27.19862,77.92066,SO2,13,15,14
India,Uttar_Pradesh,Bulandshahr,"Yamunapuram, Bulandshahr - UPPCB",13-05-2024 14:00:00,28.406963,77.849831,PM10,58,199,114
India,Uttar_Pradesh,Firozabad,"Vibhab Nagar, Firozabad - UPPCB",13-05-2024 14:00:00,27.1594,78.3953,PM2.5,54,230,72
India,Uttar_Pradesh,Firozabad,"Vibhab Nagar, Firozabad - UPPCB",13-05-2024 14:00:00,27.1594,78.3953,CO,14,31,27
India,Uttar_Pradesh,Ghaziabad,"Indirapuram, Ghaziabad - UPPCB",13-05-2024 14:00:00,28.646233,77.358075,NH3,6,10,8
India,Uttar_Pradesh,Ghaziabad,"Indirapuram, Ghaziabad - UPPCB",13-05-2024 14:00:00,28.646233,77.358075,OZONE,6,240,240
India,Uttar_Pradesh,Ghaziabad,"Sanjay Nagar, Ghaziabad - UPPCB",13-05-2024 14:00:00,28.685382,77.453839,NO2,23,145,78
India,Uttar_Pradesh,Ghaziabad,"Sanjay Nagar, Ghaziabad - UPPCB",13-05-2024 14:00:00,28.685382,77.453839,OZONE,5,275,275
India,Uttar_Pradesh,Ghaziabad,"Vasundhara, Ghaziabad - UPPCB",13-05-2024 14:00:00,28.6603346,77.3572563,CO,2,79,23
India,Uttar_Pradesh,Gorakhpur,"Madan Mohan Malaviya University of Technology, Gorakhpur - UPPCB",13-05-2024 14:00:00,26.730136,83.433859,SO2,NA,NA,NA
India,Uttar_Pradesh,Greater Noida,"Knowledge Park - III, Greater Noida - UPPCB",13-05-2024 14:00:00,28.47272,77.482000,PM2.5,91,332,199
India,Uttar_Pradesh,Greater Noida,"Knowledge Park - III, Greater Noida - UPPCB",13-05-2024 14:00:00,28.47272,77.482000,NH3,1,8,4
India,Uttar_Pradesh,Greater Noida,"Knowledge Park - III, Greater Noida - UPPCB",13-05-2024 14:00:00,28.47272,77.482000,SO2,15,38,22
India,Uttar_Pradesh,Greater Noida,"Knowledge Park - V, Greater Noida - UPPCB",13-05-2024 14:00:00,28.557054,77.453663,PM2.5,94,348,232
India,Uttar_Pradesh,Greater Noida,"Knowledge Park - V, Greater Noida - UPPCB",13-05-2024 14:00:00,28.557054,77.453663,NO2,28,63,42
India,Uttar_Pradesh,Hapur,"Anand Vihar, Hapur - UPPCB",13-05-2024 14:00:00,28.725645,77.749675,SO2,NA,NA,NA
India,Uttar_Pradesh,Jhansi,"Shivaji Nagar, Jhansi - UPPCB",13-05-2024 14:00:00,25.4547,78.6039,PM10,NA,NA,NA
India,Uttar_Pradesh,Jhansi,"Shivaji Nagar, Jhansi - UPPCB",13-05-2024 14:00:00,25.4547,78.6039,CO,9,29,15
India,Uttar_Pradesh,Kanpur,"FTI Kidwai Nagar, Kanpur - UPPCB",13-05-2024 14:00:00,26.428282,80.327067,SO2,26,26,26
India,Uttar_Pradesh,Kanpur,"NSI Kalyanpur, Kanpur - UPPCB",13-05-2024 14:00:00,26.509954,80.249612,NO2,25,25,25
India,Uttar_Pradesh,Kanpur,"NSI Kalyanpur, Kanpur - UPPCB",13-05-2024 14:00:00,26.509954,80.249612,SO2,22,40,27
India,Uttar_Pradesh,Kanpur,"NSI Kalyanpur, Kanpur - UPPCB",13-05-2024 14:00:00,26.509954,80.249612,CO,36,46,43
India,Uttar_Pradesh,Khurja,"Kalindi Kunj, Khurja - UPPCB",13-05-2024 14:00:00,28.2348927,77.8683002,NO2,3,4,3
India,Uttar_Pradesh,Khurja,"Kalindi Kunj, Khurja - UPPCB",13-05-2024 14:00:00,28.2348927,77.8683002,SO2,53,72,62
India,Uttar_Pradesh,Lucknow,"Kendriya Vidyalaya, Lucknow - CPCB",13-05-2024 14:00:00,26.906111,80.948222,PM2.5,43,151,86
India,Uttar_Pradesh,Lucknow,"Kendriya Vidyalaya, Lucknow - CPCB",13-05-2024 14:00:00,26.906111,80.948222,PM10,71,118,99
India,Uttar_Pradesh,Lucknow,"Kendriya Vidyalaya, Lucknow - CPCB",13-05-2024 14:00:00,26.906111,80.948222,NO2,10,28,15
India,Uttar_Pradesh,Lucknow,"Kendriya Vidyalaya, Lucknow - CPCB",13-05-2024 14:00:00,26.906111,80.948222,SO2,4,7,5
India,Uttar_Pradesh,Lucknow,"Kukrail Picnic Spot-1, Lucknow - UPPCB",13-05-2024 14:00:00,26.90723,80.98579,NO2,8,9,8
India,Uttar_Pradesh,Lucknow,"Kukrail Picnic Spot-1, Lucknow - UPPCB",13-05-2024 14:00:00,26.90723,80.98579,SO2,30,33,31
India,Uttar_Pradesh,Lucknow,"Kukrail Picnic Spot-1, Lucknow - UPPCB",13-05-2024 14:00:00,26.90723,80.98579,OZONE,15,48,25
India,Uttar_Pradesh,Meerut,"Ganga Nagar, Meerut - UPPCB",13-05-2024 14:00:00,28.999264,77.7590354,PM2.5,39,255,113
India,Uttar_Pradesh,Meerut,"Jai Bhim Nagar, Meerut - UPPCB",13-05-2024 14:00:00,28.9535882,77.7622941,NH3,7,24,11
India,Uttar_Pradesh,Meerut,"Jai Bhim Nagar, Meerut - UPPCB",13-05-2024 14:00:00,28.9535882,77.7622941,CO,28,72,56
India,Uttar_Pradesh,Moradabad,"Buddhi Vihar, Moradabad - UPPCB",13-05-2024 14:00:00,28.83526,78.74460,NO2,23,23,23
India,Uttar_Pradesh,Moradabad,"Buddhi Vihar, Moradabad - UPPCB",13-05-2024 14:00:00,28.83526,78.74460,OZONE,14,56,27
India,Uttar_Pradesh,Moradabad,"Eco Herbal Park, Moradabad - UPPCB",13-05-2024 14:00:00,28.840739,78.697531,PM2.5,45,123,70
India,Uttar_Pradesh,Moradabad,"Eco Herbal Park, Moradabad - UPPCB",13-05-2024 14:00:00,28.840739,78.697531,OZONE,21,154,66
India,Uttar_Pradesh,Moradabad,"Employment Office, Moradabad - UPPCB",13-05-2024 14:00:00,28.88528,78.73880,PM2.5,42,104,60
India,Uttar_Pradesh,Moradabad,"Employment Office, Moradabad - UPPCB",13-05-2024 14:00:00,28.88528,78.73880,OZONE,9,212,26
India,Uttar_Pradesh,Moradabad,"Jigar Colony, Moradabad - UPPCB",13-05-2024 14:00:00,28.856664,78.772638,SO2,7,9,8
India,Uttar_Pradesh,Moradabad,"Jigar Colony, Moradabad - UPPCB",13-05-2024 14:00:00,28.856664,78.772638,OZONE,15,42,23
India,Uttar_Pradesh,Moradabad,"Transport Nagar, Moradabad - UPPCB",13-05-2024 14:00:00,28.802625,78.753728,OZONE,5,265,265
India,Uttar_Pradesh,Muzaffarnagar,"New Mandi, Muzaffarnagar - UPPCB",13-05-2024 14:00:00,29.4723508,77.7194031,NO2,16,64,28
India,Uttar_Pradesh,Muzaffarnagar,"New Mandi, Muzaffarnagar - UPPCB",13-05-2024 14:00:00,29.4723508,77.7194031,NH3,9,12,10
India,Uttar_Pradesh,Noida,"Sector - 125, Noida - UPPCB",13-05-2024 14:00:00,28.5447608,77.3231257,NO2,28,341,117
India,Uttar_Pradesh,Noida,"Sector - 62, Noida - IMD",13-05-2024 14:00:00,28.6245479,77.3577104,PM2.5,79,276,168
India,Uttar_Pradesh,Noida,"Sector - 62, Noida - IMD",13-05-2024 14:00:00,28.6245479,77.3577104,OZONE,2,49,25
India,Uttar_Pradesh,Prayagraj,"Jhunsi, Prayagraj - UPPCB",13-05-2024 14:00:00,25.425602,81.917152,PM2.5,29,68,43
India,Uttar_Pradesh,Prayagraj,"Jhunsi, Prayagraj - UPPCB",13-05-2024 14:00:00,25.425602,81.917152,SO2,31,32,31
India,Uttar_Pradesh,Prayagraj,"Nagar Nigam, Prayagraj - UPPCB",13-05-2024 14:00:00,25.44919916 ,81.82735986 ,PM2.5,34,95,50
India,Uttar_Pradesh,Varanasi,"Ardhali Bazar, Varanasi - UPPCB",13-05-2024 14:00:00,25.3505986,82.9083074,PM10,30,49,40
India,Uttar_Pradesh,Varanasi,"Ardhali Bazar, Varanasi - UPPCB",13-05-2024 14:00:00,25.3505986,82.9083074,NO2,12,17,14
India,Uttar_Pradesh,Varanasi,"Bhelupur, Varanasi - UPPCB",13-05-2024 14:00:00,25.301778,82.996789,PM10,16,62,28
India,Uttar_Pradesh,Varanasi,"IESD Banaras Hindu University, Varanasi - UPPCB",13-05-2024 14:00:00,25.262326,82.995408,PM10,17,47,23
India,Uttar_Pradesh,Varanasi,"IESD Banaras Hindu University, Varanasi - UPPCB",13-05-2024 14:00:00,25.262326,82.995408,NO2,2,3,2
India,Uttar_Pradesh,Varanasi,"Maldahiya, Varanasi - UPPCB",13-05-2024 14:00:00,25.32393,82.99687,PM10,15,46,22
India,Uttarakhand,Dehradun,"Doon University, Dehradun - UKPCB",13-05-2024 14:00:00,30.269444,78.044167,CO,19,35,30
India,Uttarakhand,Rishikesh,"Shivaji Nagar, Rishikesh - UKPCB",13-05-2024 14:00:00,30.075911,78.2859547,SO2,4,7,5
India,West_Bengal,Asansol,"Asansol Court Area, Asansol - WBPCB",13-05-2024 14:00:00,23.685297,86.945968,PM10,88,137,110
India,West_Bengal,Asansol,"Asansol Court Area, Asansol - WBPCB",13-05-2024 14:00:00,23.685297,86.945968,NO2,39,48,43
India,West_Bengal,Asansol,"Asansol Court Area, Asansol - WBPCB",13-05-2024 14:00:00,23.685297,86.945968,NH3,10,13,11
India,West_Bengal,Durgapur,"PCBL Residential Complex, Durgapur - WBPCB",13-05-2024 14:00:00,23.5087640,87.3544400,PM2.5,30,353,184
India,West_Bengal,Durgapur,"PCBL Residential Complex, Durgapur - WBPCB",13-05-2024 14:00:00,23.5087640,87.3544400,NO2,11,73,34
India,West_Bengal,Haldia,"Priyambada Housing Estate, Haldia - WBPCB",13-05-2024 14:00:00,22.06047,88.109737,SO2,9,29,13
India,West_Bengal,Haldia,"Priyambada Housing Estate, Haldia - WBPCB",13-05-2024 14:00:00,22.06047,88.109737,CO,18,43,29
India,West_Bengal,Howrah,"Belur Math, Howrah - WBPCB",13-05-2024 14:00:00,22.629801,88.352017,SO2,4,10,8
India,West_Bengal,Howrah,"Ghusuri, Howrah - WBPCB",13-05-2024 14:00:00,22.611968,88.347422,SO2,4,6,5
India,West_Bengal,Howrah,"Padmapukur, Howrah - WBPCB",13-05-2024 14:00:00,22.5687319,88.2797276,OZONE,4,58,29
India,West_Bengal,Kolkata,"Ballygunge, Kolkata - WBPCB",13-05-2024 14:00:00,22.5367507,88.3638022,PM2.5,25,48,38
India,West_Bengal,Kolkata,"Ballygunge, Kolkata - WBPCB",13-05-2024 14:00:00,22.5367507,88.3638022,NO2,18,95,30
India,West_Bengal,Kolkata,"Ballygunge, Kolkata - WBPCB",13-05-2024 14:00:00,22.5367507,88.3638022,NH3,16,27,22
India,West_Bengal,Kolkata,"Ballygunge, Kolkata - WBPCB",13-05-2024 14:00:00,22.5367507,88.3638022,SO2,5,12,7
India,West_Bengal,Kolkata,"Fort William, Kolkata - WBPCB",13-05-2024 14:00:00,22.556640,88.342674,NO2,18,68,34
India,West_Bengal,Kolkata,"Jadavpur, Kolkata - WBPCB",13-05-2024 14:00:00,22.49929,88.36917,NO2,47,65,50
India,West_Bengal,Kolkata,"Rabindra Bharati University, Kolkata - WBPCB",13-05-2024 14:00:00,22.627847,88.380669,PM10,34,54,44
India,West_Bengal,Kolkata,"Rabindra Sarobar, Kolkata - WBPCB",13-05-2024 14:00:00,22.51106,88.35142,CO,20,31,21
India,West_Bengal,Siliguri,"Ward-32 Bapupara, Siliguri - WBPCB",13-05-2024 14:00:00,26.6879226,88.4152495,CO,16,95,22
India,Andhra_Pradesh,Amaravati,"Secretariat, Amaravati - APPCB",13-05-2024 14:00:00,16.5150833,80.5181667,SO2,9,20,12
India,Andhra_Pradesh,Anantapur,"Gulzarpet, Anantapur - APPCB",13-05-2024 14:00:00,14.675886,77.593027,PM10,30,84,58
India,Andhra_Pradesh,Anantapur,"Gulzarpet, Anantapur - APPCB",13-05-2024 14:00:00,14.675886,77.593027,NH3,4,4,4
India,Andhra_Pradesh,Anantapur,"Gulzarpet, Anantapur - APPCB",13-05-2024 14:00:00,14.675886,77.593027,CO,20,32,26
India,Andhra_Pradesh,Anantapur,"Gulzarpet, Anantapur - APPCB",13-05-2024 14:00:00,14.675886,77.593027,OZONE,18,57,22
India,Andhra_Pradesh,Chittoor,"Gangineni Cheruvu, Chittoor - APPCB",13-05-2024 14:00:00,13.204880,79.097889,PM2.5,NA,NA,NA
India,Andhra_Pradesh,Chittoor,"Gangineni Cheruvu, Chittoor - APPCB",13-05-2024 14:00:00,13.204880,79.097889,OZONE,12,72,12
India,Andhra_Pradesh,Kadapa,"Yerramukkapalli, Kadapa - APPCB",13-05-2024 14:00:00,14.465052,78.824187,CO,2,11,10
India,Andhra_Pradesh,Rajamahendravaram,"Anand Kala Kshetram, Rajamahendravaram - APPCB",13-05-2024 14:00:00,16.9872867,81.7363176,PM10,18,98,35
India,Andhra_Pradesh,Rajamahendravaram,"Anand Kala Kshetram, Rajamahendravaram - APPCB",13-05-2024 14:00:00,16.9872867,81.7363176,SO2,12,13,12
India,Andhra_Pradesh,Rajamahendravaram,"Anand Kala Kshetram, Rajamahendravaram - APPCB",13-05-2024 14:00:00,16.9872867,81.7363176,OZONE,36,78,59
India,Andhra_Pradesh,Tirupati,"Tirumala, Tirupati - APPCB",13-05-2024 14:00:00,13.67,79.35,PM10,8,53,24
India,Andhra_Pradesh,Tirupati,"Vaikuntapuram, Tirupati - APPCB",13-05-2024 14:00:00,13.615387,79.409230,PM2.5,13,302,55
India,Andhra_Pradesh,Tirupati,"Vaikuntapuram, Tirupati - APPCB",13-05-2024 14:00:00,13.615387,79.409230,NO2,14,16,15
India,Andhra_Pradesh,Visakhapatnam,"GVM Corporation, Visakhapatnam - APPCB",13-05-2024 14:00:00,17.72,83.3,PM10,40,106,68
India,Andhra_Pradesh,Visakhapatnam,"GVM Corporation, Visakhapatnam - APPCB",13-05-2024 14:00:00,17.72,83.3,OZONE,2,49,24
India,Arunachal_Pradesh,Naharlagun,"Naharlagun, Naharlagun - APSPCB",13-05-2024 14:00:00,27.103358,93.679645,PM2.5,1,45,22
India,Assam,Byrnihat,"Central Academy for SFS, Byrnihat - PCBA",13-05-2024 14:00:00,26.071318,91.87488,PM10,NA,NA,NA
India,Assam,Byrnihat,"Central Academy for SFS, Byrnihat - PCBA",13-05-2024 14:00:00,26.071318,91.87488,CO,26,36,31
India,Assam,Byrnihat,"Central Academy for SFS, Byrnihat - PCBA",13-05-2024 14:00:00,26.071318,91.87488,OZONE,23,27,25
India,Assam,Guwahati,"IITG, Guwahati - PCBA",13-05-2024 14:00:00,26.2028636,91.70046436,PM2.5,22,202,77
India,Assam,Guwahati,"IITG, Guwahati - PCBA",13-05-2024 14:00:00,26.2028636,91.70046436,OZONE,3,30,17
India,Assam,Guwahati,"LGBI Airport, Guwahati - PCBA",13-05-2024 14:00:00,26.10887,91.589544,NO2,8,68,29
India,Assam,Guwahati,"LGBI Airport, Guwahati - PCBA",13-05-2024 14:00:00,26.10887,91.589544,SO2,8,13,11
India,Assam,Guwahati,"Pan Bazaar, Guwahati - PCBA",13-05-2024 14:00:00,26.187500,91.744194,OZONE,16,17,17
India,Assam,Guwahati,"Railway Colony, Guwahati - PCBA",13-05-2024 14:00:00,26.181742,91.78063,PM10,49,193,103
India,Assam,Nagaon,"Christianpatty, Nagaon - PCBA",13-05-2024 14:00:00,26.349082,92.68449,NH3,2,7,3
India,Assam,Nagaon,"Christianpatty, Nagaon - PCBA",13-05-2024 14:00:00,26.349082,92.68449,SO2,2,98,28
India,Assam,Nagaon,"Christianpatty, Nagaon - PCBA",13-05-2024 14:00:00,26.349082,92.68449,CO,26,78,31
India,Assam,Nalbari,"Bata Chowk, Nalbari - PCBA",13-05-2024 14:00:00,26.446912,91.439057,PM2.5,28,157,83
India,Assam,Nalbari,"Bata Chowk, Nalbari - PCBA",13-05-2024 14:00:00,26.446912,91.439057,PM10,31,205,121
India,Assam,Nalbari,"Bata Chowk, Nalbari - PCBA",13-05-2024 14:00:00,26.446912,91.439057,SO2,4,12,11
India,Assam,Silchar,"Tarapur, Silchar - PCBA",13-05-2024 14:00:00,24.82827,92.79525,PM2.5,31,40,36
India,Assam,Silchar,"Tarapur, Silchar - PCBA",13-05-2024 14:00:00,24.82827,92.79525,NO2,16,16,16
India,Assam,Sivasagar,"Girls College, Sivasagar - PCBA",13-05-2024 14:00:00,26.987634,94.636574,PM10,43,86,59
India,Assam,Sivasagar,"Girls College, Sivasagar - PCBA",13-05-2024 14:00:00,26.987634,94.636574,NO2,10,21,14
India,Bihar,Araria,"Kharahiya Basti, Araria - BSPCB",13-05-2024 14:00:00,26.146529,87.454184,PM2.5,6,163,36
India,Bihar,Araria,"Kharahiya Basti, Araria - BSPCB",13-05-2024 14:00:00,26.146529,87.454184,PM10,4,141,45
India,Bihar,Araria,"Kharahiya Basti, Araria - BSPCB",13-05-2024 14:00:00,26.146529,87.454184,NO2,6,14,8
India,Bihar,Araria,"Kharahiya Basti, Araria - BSPCB",13-05-2024 14:00:00,26.146529,87.454184,CO,12,30,27
India,Bihar,Arrah,"New DM Office, Arrah - BSPCB",13-05-2024 14:00:00,25.5626095,84.663264,NO2,NA,NA,NA
India,Bihar,Arrah,"New DM Office, Arrah - BSPCB",13-05-2024 14:00:00,25.5626095,84.663264,NH3,NA,NA,NA
India,Bihar,Arrah,"New DM Office, Arrah - BSPCB",13-05-2024 14:00:00,25.5626095,84.663264,SO2,NA,NA,NA
India,Bihar,Aurangabad,"Gurdeo Nagar, Aurangabad - BSPCB",13-05-2024 14:00:00,24.75746,84.366208,PM10,33,64,49
India,Bihar,Aurangabad,"Gurdeo Nagar, Aurangabad - BSPCB",13-05-2024 14:00:00,24.75746,84.366208,CO,4,37,18
India,Bihar,Bettiah,"Kamalnath Nagar, Bettiah - BSPCB",13-05-2024 14:00:00,26.80365,84.51954,PM10,45,136,71
India,Bihar,Bettiah,"Kamalnath Nagar, Bettiah - BSPCB",13-05-2024 14:00:00,26.80365,84.51954,NO2,28,34,32
India,Bihar,Bhagalpur,"Mayaganj, Bhagalpur - BSPCB",13-05-2024 14:00:00,25.265194,87.012947,PM10,42,101,75
India,Bihar,Bhagalpur,"Mayaganj, Bhagalpur - BSPCB",13-05-2024 14:00:00,25.265194,87.012947,SO2,11,12,12
India,Bihar,Bihar Sharif,"D M Colony, Bihar Sharif - BSPCB",13-05-2024 14:00:00,25.204762,85.514960,NO2,NA,NA,NA
India,Bihar,Buxar,"Charitra Van, Buxar - BSPCB (Formerly known as Central Jail)",13-05-2024 14:00:00,25.567520,83.966379,PM10,NA,NA,NA
India,Bihar,Buxar,"Charitra Van, Buxar - BSPCB (Formerly known as Central Jail)",13-05-2024 14:00:00,25.567520,83.966379,CO,42,80,64
India,Bihar,Chhapra,"Darshan Nagar, Chhapra - BSPCB",13-05-2024 14:00:00,25.7808257,84.7446768,PM2.5,25,67,39
India,Bihar,Gaya,"Kareemganj, Gaya - BSPCB",13-05-2024 14:00:00,24.792403,84.992416,PM10,NA,NA,NA
India,Bihar,Gaya,"Kareemganj, Gaya - BSPCB",13-05-2024 14:00:00,24.792403,84.992416,OZONE,6,19,12
India,Bihar,Gaya,"SFTI Kusdihra, Gaya - BSPCB",13-05-2024 14:00:00,24.762518,84.982348,CO,12,37,31
India,Bihar,Katihar,"Mirchaibari, Katihar - BSPCB",13-05-2024 14:00:00,25.560083,87.553265,PM2.5,8,55,35
India,Bihar,Katihar,"Mirchaibari, Katihar - BSPCB",13-05-2024 14:00:00,25.560083,87.553265,PM10,31,123,61
India,Bihar,Katihar,"Mirchaibari, Katihar - BSPCB",13-05-2024 14:00:00,25.560083,87.553265,OZONE,11,19,15
India,Bihar,Motihari,"Gandak Colony, Motihari - BSPCB",13-05-2024 14:00:00,26.63086,84.90051,PM10,26,91,54
India,Bihar,Munger,"Town Hall, Munger - BSPCB",13-05-2024 14:00:00,25.376776,86.471523,PM10,NA,NA,NA
India,Bihar,Munger,"Town Hall, Munger - BSPCB",13-05-2024 14:00:00,25.376776,86.471523,NH3,NA,NA,NA
India,Bihar,Munger,"Town Hall, Munger - BSPCB",13-05-2024 14:00:00,25.376776,86.471523,SO2,NA,NA,NA
India,Bihar,Munger,"Town Hall, Munger - BSPCB",13-05-2024 14:00:00,25.376776,86.471523,OZONE,26,31,27
India,Bihar,Muzaffarpur,"Buddha Colony, Muzaffarpur - BSPCB",13-05-2024 14:00:00,26.11442,85.39813,PM2.5,29,72,47
India,Bihar,Muzaffarpur,"Buddha Colony, Muzaffarpur - BSPCB",13-05-2024 14:00:00,26.11442,85.39813,CO,16,45,24
India,Bihar,Muzaffarpur,"Muzaffarpur Collectorate, Muzaffarpur - BSPCB",13-05-2024 14:00:00,26.1209,85.3647,NO2,32,34,32
India,Bihar,Muzaffarpur,"Muzaffarpur Collectorate, Muzaffarpur - BSPCB",13-05-2024 14:00:00,26.1209,85.3647,SO2,3,9,6
India,Bihar,Patna,"DRM Office Danapur, Patna - BSPCB",13-05-2024 14:00:00,25.586562,85.043586,PM10,58,109,86
India,Bihar,Patna,"DRM Office Danapur, Patna - BSPCB",13-05-2024 14:00:00,25.586562,85.043586,NH3,2,3,3
India,Bihar,Patna,"DRM Office Danapur, Patna - BSPCB",13-05-2024 14:00:00,25.586562,85.043586,SO2,5,37,10
India,Bihar,Patna,"Muradpur, Patna - BSPCB",13-05-2024 14:00:00,25.619651,85.147382,PM2.5,55,213,93
India,Bihar,Patna,"Muradpur, Patna - BSPCB",13-05-2024 14:00:00,25.619651,85.147382,PM10,89,405,154
India,Bihar,Patna,"Muradpur, Patna - BSPCB",13-05-2024 14:00:00,25.619651,85.147382,NO2,NA,NA,NA
India,Bihar,Patna,"Samanpura, Patna - BSPCB",13-05-2024 14:00:00,25.596727,85.085624,PM2.5,40,141,78
India,Bihar,Purnia,"Mariam Nagar, Purnia - BSPCB",13-05-2024 14:00:00,25.366336,87.117468,PM10,17,88,66
India,Bihar,Rajgir,"Dangi Tola, Rajgir - BSPCB",13-05-2024 14:00:00,25.03280,85.41948,CO,28,35,31
India,Bihar,Samastipur,"DM Office_Kasipur, Samastipur - BSPCB",13-05-2024 14:00:00,25.859655,85.77944,NH3,4,4,4
India,Bihar,Sasaram,"Dada Peer, Sasaram - BSPCB",13-05-2024 14:00:00,24.952822,84.002396,PM2.5,8,37,21
India,Bihar,Sasaram,"Dada Peer, Sasaram - BSPCB",13-05-2024 14:00:00,24.952822,84.002396,NO2,12,108,53
India,Bihar,Siwan,"Chitragupta Nagar, Siwan - BSPCB",13-05-2024 14:00:00,26.2271665,84.3570427,NH3,1,2,1
India,Chandigarh,Chandigarh,"Sector 22, Chandigarh - CPCC",13-05-2024 14:00:00,30.735567,76.775714,NH3,5,10,8
India,Chandigarh,Chandigarh,"Sector 22, Chandigarh - CPCC",13-05-2024 14:00:00,30.735567,76.775714,OZONE,16,170,73
India,Chandigarh,Chandigarh,"Sector-53, Chandigarh - CPCC",13-05-2024 14:00:00,30.719859,76.738637,PM10,91,202,118
India,Chandigarh,Chandigarh,"Sector-53, Chandigarh - CPCC",13-05-2024 14:00:00,30.719859,76.738637,NH3,3,6,5
India,Chandigarh,Chandigarh,"Sector-53, Chandigarh - CPCC",13-05-2024 14:00:00,30.719859,76.738637,CO,38,84,51
India,Chhattisgarh,Bhilai,"Hathkhoj, Bhilai - CECB",13-05-2024 14:00:00,21.224231,81.408350,PM10,34,110,65
India,Chhattisgarh,Bhilai,"Hathkhoj, Bhilai - CECB",13-05-2024 14:00:00,21.224231,81.408350,SO2,13,27,17
India,Chhattisgarh,Bilaspur,"Mangala, Bilaspur - NTPC",13-05-2024 14:00:00,22.08815,82.13737,SO2,9,16,12
India,Chhattisgarh,Bilaspur,"Mangala, Bilaspur - NTPC",13-05-2024 14:00:00,22.08815,82.13737,CO,40,47,44
India,Chhattisgarh,Chhal,"Nawapara SECL Colony, Chhal - CECB",13-05-2024 14:00:00,22.118125,83.140608,PM10,50,82,63
India,Chhattisgarh,Chhal,"Nawapara SECL Colony, Chhal - CECB",13-05-2024 14:00:00,22.118125,83.140608,NO2,10,28,17
India,Chhattisgarh,Chhal,"Nawapara SECL Colony, Chhal - CECB",13-05-2024 14:00:00,22.118125,83.140608,OZONE,40,141,74
India,Chhattisgarh,Korba,"Rampur, Korba - CECB",13-05-2024 14:00:00,22.368195,82.746431,PM10,29,229,77
India,Chhattisgarh,Korba,"Urja Nagar, Korba - CECB",13-05-2024 14:00:00,22.348441,82.549611,PM2.5,13,52,28
India,Chhattisgarh,Kunjemura,"OP Jindal School, Kunjemura - CECB",13-05-2024 14:00:00,22.126650,83.483212,NO2,14,111,52
India,Chhattisgarh,Kunjemura,"OP Jindal School, Kunjemura - CECB",13-05-2024 14:00:00,22.126650,83.483212,CO,22,60,36
India,Chhattisgarh,Raipur,"AIIMS, Raipur - CECB",13-05-2024 14:00:00,21.258815,81.578979,PM10,NA,NA,NA
India,Chhattisgarh,Raipur,"Bhatagaon New ISBT, Raipur - CECB",13-05-2024 14:00:00,21.219665,81.630094,NH3,2,2,2
India,Chhattisgarh,Raipur,"Bhatagaon New ISBT, Raipur - CECB",13-05-2024 14:00:00,21.219665,81.630094,SO2,1,10,2
India,Chhattisgarh,Raipur,"Krishak Nagar, Raipur - CECB",13-05-2024 14:00:00,21.237755,81.705301,OZONE,1,37,8
India,Chhattisgarh,Raipur,"Siltara Phase-II, Raipur - CECB",13-05-2024 14:00:00,21.371751,81.664929,NH3,3,3,3
India,Chhattisgarh,Raipur,"Siltara Phase-II, Raipur - CECB",13-05-2024 14:00:00,21.371751,81.664929,SO2,15,34,24
India,Chhattisgarh,Raipur,"Siltara Phase-II, Raipur - CECB",13-05-2024 14:00:00,21.371751,81.664929,CO,26,56,41
India,Delhi,Delhi,"Anand Vihar, Delhi - DPCC",13-05-2024 14:00:00,28.647622,77.3158090,PM2.5,47,404,279
India,Delhi,Delhi,"Anand Vihar, Delhi - DPCC",13-05-2024 14:00:00,28.647622,77.3158090,NO2,90,169,121
India,Delhi,Delhi,"Anand Vihar, Delhi - DPCC",13-05-2024 14:00:00,28.647622,77.3158090,OZONE,9,199,190
India,Delhi,Delhi,"Ashok Vihar, Delhi - DPCC",13-05-2024 14:00:00,28.695381,77.181665,SO2,27,56,40
India,Delhi,Delhi,"Aya Nagar, Delhi - IMD",13-05-2024 14:00:00,28.4706914,77.1099364,CO,46,102,78
India,Delhi,Delhi,"Aya Nagar, Delhi - IMD",13-05-2024 14:00:00,28.4706914,77.1099364,OZONE,6,72,52
India,Delhi,Delhi,"Bawana, Delhi - DPCC",13-05-2024 14:00:00,28.776200,77.051074,NH3,5,11,8
India,Delhi,Delhi,"Bawana, Delhi - DPCC",13-05-2024 14:00:00,28.776200,77.051074,CO,9,67,36
India,Delhi,Delhi,"Chandni Chowk, Delhi - IITM",13-05-2024 14:00:00,28.656756,77.227234,PM10,178,366,256
India,Delhi,Delhi,"DTU, Delhi - CPCB",13-05-2024 14:00:00,28.7500499,77.1112615,PM10,109,429,199
India,Delhi,Delhi,"DTU, Delhi - CPCB",13-05-2024 14:00:00,28.7500499,77.1112615,SO2,36,42,38
India,Delhi,Delhi,"DTU, Delhi - CPCB",13-05-2024 14:00:00,28.7500499,77.1112615,CO,12,62,32
India,Delhi,Delhi,"Dr. Karni Singh Shooting Range, Delhi - DPCC",13-05-2024 14:00:00,28.498571,77.264840,PM2.5,85,302,158
India,Delhi,Delhi,"Dr. Karni Singh Shooting Range, Delhi - DPCC",13-05-2024 14:00:00,28.498571,77.264840,NO2,24,135,55
India,Delhi,Delhi,"Dr. Karni Singh Shooting Range, Delhi - DPCC",13-05-2024 14:00:00,28.498571,77.264840,NH3,6,9,7
India,Delhi,Delhi,"Dwarka-Sector 8, Delhi - DPCC ",13-05-2024 14:00:00,28.5710274,77.0719006,CO,58,109,75
India,Delhi,Delhi,"Dwarka-Sector 8, Delhi - DPCC ",13-05-2024 14:00:00,28.5710274,77.0719006,OZONE,4,111,56
India,Delhi,Delhi,"IGI Airport (T3), Delhi - IMD",13-05-2024 14:00:00,28.5627763,77.1180053,PM10,110,205,150
India,Delhi,Delhi,"IHBAS, Dilshad Garden, Delhi - CPCB",13-05-2024 14:00:00,28.6811736,77.3025234,OZONE,16,24,21
India,Delhi,Delhi,"ITO, Delhi - CPCB",13-05-2024 14:00:00,28.628624,77.241060,NH3,1,14,6
India,Delhi,Delhi,"ITO, Delhi - CPCB",13-05-2024 14:00:00,28.628624,77.241060,SO2,9,39,26
India,Delhi,Delhi,"Jawaharlal Nehru Stadium, Delhi - DPCC",13-05-2024 14:00:00,28.580280,77.233829,NO2,5,41,19
India,Delhi,Delhi,"Jawaharlal Nehru Stadium, Delhi - DPCC",13-05-2024 14:00:00,28.580280,77.233829,SO2,15,55,31
India,Delhi,Delhi,"Lodhi Road, Delhi - IITM",13-05-2024 14:00:00,28.588333,77.221667,PM10,NA,NA,NA
India,Delhi,Delhi,"Lodhi Road, Delhi - IITM",13-05-2024 14:00:00,28.588333,77.221667,NO2,NA,NA,NA
India,Delhi,Delhi,"Lodhi Road, Delhi - IMD",13-05-2024 14:00:00,28.5918245,77.2273074,NO2,11,40,23
India,Delhi,Delhi,"Mundka, Delhi - DPCC",13-05-2024 14:00:00,28.684678,77.076574,PM2.5,78,430,227
India,Delhi,Delhi,"Mundka, Delhi - DPCC",13-05-2024 14:00:00,28.684678,77.076574,NH3,6,9,7
India,Delhi,Delhi,"NSIT Dwarka, Delhi - CPCB",13-05-2024 14:00:00,28.60909,77.0325413,PM2.5,232,326,292
India,Delhi,Delhi,"NSIT Dwarka, Delhi - CPCB",13-05-2024 14:00:00,28.60909,77.0325413,NH3,13,20,17
India,Delhi,Delhi,"NSIT Dwarka, Delhi - CPCB",13-05-2024 14:00:00,28.60909,77.0325413,SO2,2,31,19
India,Delhi,Delhi,"Najafgarh, Delhi - DPCC",13-05-2024 14:00:00,28.570173,76.933762,CO,22,82,32
India,Delhi,Delhi,"Narela, Delhi - DPCC",13-05-2024 14:00:00,28.822836,77.101981,NO2,12,80,38
India,Delhi,Delhi,"Narela, Delhi - DPCC",13-05-2024 14:00:00,28.822836,77.101981,OZONE,12,274,211
India,Delhi,Delhi,"Nehru Nagar, Delhi - DPCC",13-05-2024 14:00:00,28.567890,77.250515,SO2,5,13,8
India,Delhi,Delhi,"North Campus, DU, Delhi - IMD",13-05-2024 14:00:00,28.6573814,77.1585447,PM2.5,NA,NA,NA
India,Delhi,Delhi,"North Campus, DU, Delhi - IMD",13-05-2024 14:00:00,28.6573814,77.1585447,PM10,NA,NA,NA
India,Delhi,Delhi,"Okhla Phase-2, Delhi - DPCC",13-05-2024 14:00:00,28.530785,77.271255,PM2.5,83,308,176
India,Delhi,Delhi,"Okhla Phase-2, Delhi - DPCC",13-05-2024 14:00:00,28.530785,77.271255,NH3,7,16,11
India,Delhi,Delhi,"Okhla Phase-2, Delhi - DPCC",13-05-2024 14:00:00,28.530785,77.271255,CO,42,116,68
India,Delhi,Delhi,"Patparganj, Delhi - DPCC",13-05-2024 14:00:00,28.623763,77.287209,PM2.5,157,305,240
India,Delhi,Delhi,"Patparganj, Delhi - DPCC",13-05-2024 14:00:00,28.623763,77.287209,CO,41,102,56
India,Delhi,Delhi,"Punjabi Bagh, Delhi - DPCC",13-05-2024 14:00:00,28.674045,77.131023,PM2.5,65,359,253
India,Delhi,Delhi,"Punjabi Bagh, Delhi - DPCC",13-05-2024 14:00:00,28.674045,77.131023,PM10,133,326,204
India,Delhi,Delhi,"Pusa, Delhi - DPCC",13-05-2024 14:00:00,28.639652,77.146275,NO2,51,136,97
India,Delhi,Delhi,"Pusa, Delhi - DPCC",13-05-2024 14:00:00,28.639652,77.146275,SO2,14,48,24
India,Delhi,Delhi,"Sirifort, Delhi - CPCB",13-05-2024 14:00:00,28.5504249,77.2159377,PM2.5,100,324,216
India,Delhi,Delhi,"Sirifort, Delhi - CPCB",13-05-2024 14:00:00,28.5504249,77.2159377,SO2,18,30,27
India,Delhi,Delhi,"Sonia Vihar, Delhi - DPCC",13-05-2024 14:00:00,28.710508,77.249485,PM10,113,334,211
India,Delhi,Delhi,"Sonia Vihar, Delhi - DPCC",13-05-2024 14:00:00,28.710508,77.249485,NH3,5,11,8
India,Delhi,Delhi,"Sri Aurobindo Marg, Delhi - DPCC",13-05-2024 14:00:00,28.531346,77.190156,NH3,8,12,10
India,Delhi,Delhi,"Sri Aurobindo Marg, Delhi - DPCC",13-05-2024 14:00:00,28.531346,77.190156,OZONE,10,116,66
India,Delhi,Delhi,"Vivek Vihar, Delhi - DPCC",13-05-2024 14:00:00,28.672342,77.315260,OZONE,4,237,213
India,Delhi,Delhi,"Wazirpur, Delhi - DPCC",13-05-2024 14:00:00,28.699793,77.165453,PM10,134,401,218
India,Delhi,Delhi,"Wazirpur, Delhi - DPCC",13-05-2024 14:00:00,28.699793,77.165453,SO2,19,48,32
India,Gujarat,Ahmedabad,"Gyaspur, Ahmedabad - IITM",13-05-2024 14:00:00,22.977134,72.553024,PM2.5,47,303,82
India,Gujarat,Ahmedabad,"Gyaspur, Ahmedabad - IITM",13-05-2024 14:00:00,22.977134,72.553024,PM10,50,185,83
India,Gujarat,Ahmedabad,"Raikhad, Ahmedabad - IITM",13-05-2024 14:00:00,23.020509,72.579261,PM10,NA,NA,NA
India,Gujarat,Ahmedabad,"Raikhad, Ahmedabad - IITM",13-05-2024 14:00:00,23.020509,72.579261,CO,14,51,28
India,Gujarat,Ahmedabad,"Raikhad, Ahmedabad - IITM",13-05-2024 14:00:00,23.020509,72.579261,OZONE,11,141,102
India,Gujarat,Ahmedabad,"Rakhial, Ahmedabad - IITM",13-05-2024 14:00:00,23.016834,72.625775,SO2,4,17,9
India,Gujarat,Ahmedabad,"Sardar Vallabhbhai Patel Stadium, Ahmedabad - IITM",13-05-2024 14:00:00,23.043070,72.562968,PM10,68,112,93
India,Gujarat,Ankleshwar,"GIDC, Ankleshwar - GPCB",13-05-2024 14:00:00,21.613267,73.010555,SO2,NA,NA,NA
India,Gujarat,Gandhinagar,"Sector-10, Gandhinagar - GPCB",13-05-2024 14:00:00,23.221714,72.654328,PM2.5,21,52,37
India,Gujarat,Surat,"Science Center, Surat - SMC",13-05-2024 14:00:00,21.170046,72.795405,SO2,1,3,1
India,Gujarat,Vapi,"Phase-1 GIDC, Vapi - GPCB",13-05-2024 14:00:00,20.362421,72.918013,PM10,NA,NA,NA
India,Haryana,Ambala,"Patti Mehar, Ambala - HSPCB",13-05-2024 14:00:00,30.379589,76.778328,PM2.5,36,111,74
India,Haryana,Ambala,"Patti Mehar, Ambala - HSPCB",13-05-2024 14:00:00,30.379589,76.778328,NH3,5,12,8
India,Haryana,Ambala,"Patti Mehar, Ambala - HSPCB",13-05-2024 14:00:00,30.379589,76.778328,SO2,7,34,22
India,Haryana,Bahadurgarh,"Arya Nagar, Bahadurgarh - HSPCB",13-05-2024 14:00:00,28.6701,76.9254,NO2,20,27,23
India,Haryana,Bahadurgarh,"Arya Nagar, Bahadurgarh - HSPCB",13-05-2024 14:00:00,28.6701,76.9254,NH3,8,10,9
India,Haryana,Ballabgarh,"Nathu Colony, Ballabgarh - HSPCB",13-05-2024 14:00:00,28.3419248,77.319699,PM10,142,151,147
India,Haryana,Ballabgarh,"Nathu Colony, Ballabgarh - HSPCB",13-05-2024 14:00:00,28.3419248,77.319699,OZONE,16,58,37
India,Haryana,Bhiwani,"H.B. Colony, Bhiwani - HSPCB",13-05-2024 14:00:00,28.806223,76.141105,NH3,6,6,6
India,Haryana,Bhiwani,"H.B. Colony, Bhiwani - HSPCB",13-05-2024 14:00:00,28.806223,76.141105,CO,25,56,41
India,Haryana,Charkhi Dadri,"Mini Secretariat, Charkhi Dadri - HSPCB",13-05-2024 14:00:00,28.593883,76.270653,NO2,15,24,18
India,Haryana,Dharuhera,"Municipal Corporation Office, Dharuhera -  HSPCB",13-05-2024 14:00:00,28.206800,76.799700,PM10,NA,NA,NA
India,Haryana,Dharuhera,"Municipal Corporation Office, Dharuhera -  HSPCB",13-05-2024 14:00:00,28.206800,76.799700,CO,20,58,39
India,Haryana,Dharuhera,"Municipal Corporation Office, Dharuhera -  HSPCB",13-05-2024 14:00:00,28.206800,76.799700,OZONE,32,78,52
India,Haryana,Faridabad,"Sector 11, Faridabad - HSPCB",13-05-2024 14:00:00,28.376058,77.315741,OZONE,8,36,15
India,Haryana,Faridabad,"Sector 30, Faridabad - HSPCB",13-05-2024 14:00:00,28.4417,77.3217,PM2.5,NA,NA,NA
India,Haryana,Faridabad,"Sector 30, Faridabad - HSPCB",13-05-2024 14:00:00,28.4417,77.3217,PM10,NA,NA,NA
India,Haryana,Fatehabad,"Huda Sector, Fatehabad - HSPCB",13-05-2024 14:00:00,29.503664,75.467934,CO,5,10,6
India,Haryana,Fatehabad,"Huda Sector, Fatehabad - HSPCB",13-05-2024 14:00:00,29.503664,75.467934,OZONE,23,46,37
India,Haryana,Gurugram,"NISE Gwal Pahari, Gurugram - IMD",13-05-2024 14:00:00,28.422681,77.148944,PM2.5,NA,NA,NA
India,Haryana,Gurugram,"NISE Gwal Pahari, Gurugram - IMD",13-05-2024 14:00:00,28.422681,77.148944,CO,37,40,38
India,Haryana,Gurugram,"Sector-51, Gurugram - HSPCB",13-05-2024 14:00:00,28.4227,77.0667,PM10,121,217,158
India,Haryana,Gurugram,"Sector-51, Gurugram - HSPCB",13-05-2024 14:00:00,28.4227,77.0667,SO2,2,5,3
India,Haryana,Gurugram,"Teri Gram, Gurugram - HSPCB",13-05-2024 14:00:00,28.4275,77.1465,PM2.5,89,322,200
India,Haryana,Gurugram,"Teri Gram, Gurugram - HSPCB",13-05-2024 14:00:00,28.4275,77.1465,SO2,4,7,6
India,Haryana,Gurugram,"Vikas Sadan, Gurugram - HSPCB",13-05-2024 14:00:00,28.4501238,77.0263051,NO2,NA,NA,NA
India,Haryana,Gurugram,"Vikas Sadan, Gurugram - HSPCB",13-05-2024 14:00:00,28.4501238,77.0263051,OZONE,16,69,40
India,Haryana,Jind,"Police Lines, Jind - HSPCB",13-05-2024 14:00:00,29.307814,76.337619,NH3,1,5,1
India,Haryana,Kaithal,"Rishi Nagar, Kaithal - HSPCB",13-05-2024 14:00:00,29.8006,76.4155,PM2.5,45,106,73
India,Haryana,Kaithal,"Rishi Nagar, Kaithal - HSPCB",13-05-2024 14:00:00,29.8006,76.4155,OZONE,8,26,11
India,Haryana,Karnal,"Sector-12, Karnal - HSPCB",13-05-2024 14:00:00,29.695300,77.002700,PM2.5,98,218,149
India,Haryana,Karnal,"Sector-12, Karnal - HSPCB",13-05-2024 14:00:00,29.695300,77.002700,CO,24,59,36
India,Haryana,Kurukshetra,"Sector-7, Kurukshetra - HSPCB",13-05-2024 14:00:00,29.966942,76.875879,NH3,4,5,5
India,Haryana,Kurukshetra,"Sector-7, Kurukshetra - HSPCB",13-05-2024 14:00:00,29.966942,76.875879,OZONE,18,97,47
India,Haryana,Manesar,"Sector-2 IMT, Manesar - HSPCB",13-05-2024 14:00:00,28.360699,76.936090,PM10,76,142,108
India,Haryana,Narnaul,"Shastri Nagar, Narnaul - HSPCB",13-05-2024 14:00:00,28.060249,76.113115,NH3,5,26,16
India,Haryana,Narnaul,"Shastri Nagar, Narnaul - HSPCB",13-05-2024 14:00:00,28.060249,76.113115,OZONE,30,86,63
India,Haryana,Palwal,"Shyam Nagar, Palwal - HSPCB",13-05-2024 14:00:00,28.1485564,77.3320667,PM10,58,116,89
India,Haryana,Palwal,"Shyam Nagar, Palwal - HSPCB",13-05-2024 14:00:00,28.1485564,77.3320667,CO,20,38,26
India,Haryana,Palwal,"Shyam Nagar, Palwal - HSPCB",13-05-2024 14:00:00,28.1485564,77.3320667,OZONE,14,169,66
India,Haryana,Panchkula,"Sector-6, Panchkula - HSPCB ",13-05-2024 14:00:00,30.7057778,76.8531805555555,PM2.5,89,238,154
India,Haryana,Panchkula,"Sector-6, Panchkula - HSPCB ",13-05-2024 14:00:00,30.7057778,76.8531805555555,CO,2,10,7
India,Haryana,Panchkula,"Sector-6, Panchkula - HSPCB ",13-05-2024 14:00:00,30.7057778,76.8531805555555,OZONE,30,56,39
India,Haryana,Panipat,"Sector-18, Panipat - HSPCB",13-05-2024 14:00:00,29.497973,76.993331,NO2,31,32,31
India,Haryana,Panipat,"Sector-18, Panipat - HSPCB",13-05-2024 14:00:00,29.497973,76.993331,OZONE,30,30,30
India,Haryana,Sirsa,"F-Block, Sirsa - HSPCB",13-05-2024 14:00:00,29.536400,75.015800,PM2.5,38,93,64
India,Haryana,Sonipat,"Murthal, Sonipat - HSPCB",13-05-2024 14:00:00,29.027200,77.062100,NH3,7,10,9
India,Haryana,Sonipat,"Murthal, Sonipat - HSPCB",13-05-2024 14:00:00,29.027200,77.062100,SO2,13,29,20
India,Haryana,Yamuna Nagar,"Gobind Pura, Yamuna Nagar - HSPCB",13-05-2024 14:00:00,30.1480566,77.2893471,PM2.5,62,97,75
India,Haryana,Yamuna Nagar,"Gobind Pura, Yamuna Nagar - HSPCB",13-05-2024 14:00:00,30.1480566,77.2893471,OZONE,42,74,55
India,Himachal Pradesh,Baddi,"HIMUDA Complex Phase-1, Baddi - HPPCB",13-05-2024 14:00:00,30.943887,76.801991,PM2.5,18,100,54
India,Himachal Pradesh,Baddi,"HIMUDA Complex Phase-1, Baddi - HPPCB",13-05-2024 14:00:00,30.943887,76.801991,PM10,54,135,102
India,Himachal Pradesh,Baddi,"HIMUDA Complex Phase-1, Baddi - HPPCB",13-05-2024 14:00:00,30.943887,76.801991,SO2,8,43,17
India,Jammu_and_Kashmir,Srinagar,"Rajbagh, Srinagar - JKSPCB",13-05-2024 14:00:00,34.066206,74.819820,CO,19,26,22
India,Jharkhand,Dhanbad,"Kalakusuma, Dhanbad - DMC",13-05-2024 14:00:00,23.811548,86.481238,PM10,11,106,49
India,Jharkhand,Dhanbad,"Kalakusuma, Dhanbad - DMC",13-05-2024 14:00:00,23.811548,86.481238,NO2,13,14,14
India,Jharkhand,Dhanbad,"Kalakusuma, Dhanbad - DMC",13-05-2024 14:00:00,23.811548,86.481238,SO2,NA,NA,NA
India,Jharkhand,Dhanbad,"Sardar Patel Nagar, Dhanbad - JSPCB",13-05-2024 14:00:00,23.80569,86.44268,PM10,52,104,79
India,Jharkhand,Dhanbad,"Sardar Patel Nagar, Dhanbad - JSPCB",13-05-2024 14:00:00,23.80569,86.44268,SO2,1,63,10
India,Karnataka,Bagalkot,"Vidayagiri, Bagalkot - KSPCB",13-05-2024 14:00:00,16.172806,75.659694,PM2.5,36,38,37
India,Karnataka,Belgaum,"Ramteerth Nagar, Belgaum - KSPCB",13-05-2024 14:00:00,15.888653,74.541751,PM10,23,60,35
India,Karnataka,Belgaum,"Ramteerth Nagar, Belgaum - KSPCB",13-05-2024 14:00:00,15.888653,74.541751,NO2,5,90,25
India,Karnataka,Bengaluru,"Bapuji Nagar, Bengaluru - KSPCB",13-05-2024 14:00:00,12.951913,77.539784,NO2,10,11,11
India,Karnataka,Bengaluru,"Bapuji Nagar, Bengaluru - KSPCB",13-05-2024 14:00:00,12.951913,77.539784,NH3,1,1,1
India,Karnataka,Bengaluru,"Hebbal, Bengaluru - KSPCB",13-05-2024 14:00:00,13.029152,77.585901,CO,6,31,20
India,Karnataka,Bengaluru,"Kasturi Nagar, Bengaluru - KSPCB",13-05-2024 14:00:00,13.003872,77.664217,NH3,3,4,4
India,Karnataka,Bengaluru,"RVCE-Mailasandra, Bengaluru - KSPCB",13-05-2024 14:00:00,12.921418,77.502466,SO2,7,9,8
India,Karnataka,Bengaluru,"Shivapura_Peenya, Bengaluru - KSPCB",13-05-2024 14:00:00,13.0246342,77.5080115,NH3,4,4,4
India,Karnataka,Bengaluru,"Silk Board, Bengaluru - KSPCB",13-05-2024 14:00:00,12.917348,77.622813,PM2.5,22,127,56
India,Karnataka,Bengaluru,"Silk Board, Bengaluru - KSPCB",13-05-2024 14:00:00,12.917348,77.622813,PM10,32,141,77
India,Karnataka,Bengaluru,"Silk Board, Bengaluru - KSPCB",13-05-2024 14:00:00,12.917348,77.622813,NH3,NA,NA,NA
India,Karnataka,Bidar,"Naubad, Bidar - KSPCB",13-05-2024 14:00:00,17.930306,77.482194,SO2,13,21,18
India,Karnataka,Chamarajanagar,"Urban, Chamarajanagar - KSPCB",13-05-2024 14:00:00,11.55358,76.55521,NH3,1,2,2
India,Karnataka,Chamarajanagar,"Urban, Chamarajanagar - KSPCB",13-05-2024 14:00:00,11.55358,76.55521,OZONE,14,36,18
India,Karnataka,Chikkaballapur,"Chikkaballapur Rural, Chikkaballapur - KSPCB",13-05-2024 14:00:00,13.428828,77.731418,SO2,20,26,22
India,Karnataka,Chikkaballapur,"Chikkaballapur Rural, Chikkaballapur - KSPCB",13-05-2024 14:00:00,13.428828,77.731418,OZONE,24,25,25
India,Karnataka,Chikkamagaluru,"Kalyana Nagara, Chikkamagaluru - KSPCB",13-05-2024 14:00:00,13.328028,75.797056,NH3,NA,NA,NA
India,Karnataka,Chikkamagaluru,"Kalyana Nagara, Chikkamagaluru - KSPCB",13-05-2024 14:00:00,13.328028,75.797056,CO,11,111,52
India,Karnataka,Davanagere,"Devaraj Urs Badavane, Davanagere - KSPCB",13-05-2024 14:00:00,14.475800,75.905200,SO2,2,9,5
India,Karnataka,Dharwad,"Kalabhavan, Dharwad - KSPCB",13-05-2024 14:00:00,15.459706,75.008381,PM2.5,23,63,39
India,Karnataka,Dharwad,"Kalabhavan, Dharwad - KSPCB",13-05-2024 14:00:00,15.459706,75.008381,PM10,35,97,60
