country,state,city,station,last_update,latitude,longitude,pollutant_id,pollutant_min,pollutant_max,pollutant_avg
India,Andhra_Pradesh,Amaravati,"Secretariat, Amaravati - APPCB",16-04-2024 14:00:00,16.5150833,80.5181667,PM10,35,69,48
India,Andhra_Pradesh,Amaravati,"Secretariat, Amaravati - APPCB",16-04-2024 14:00:00,16.5150833,80.5181667,NH3,3,4,4
India,Andhra_Pradesh,Amaravati,"Secretariat, Amaravati - APPCB",16-04-2024 14:00:00,16.5150833,80.5181667,OZONE,4,61,37
India,Andhra_Pradesh,Anantapur,"Gulzarpet, Anantapur - APPCB",16-04-2024 14:00:00,14.675886,77.593027,PM2.5,16,54,32
India,Andhra_Pradesh,Chittoor,"Gangineni Cheruvu, Chittoor - APPCB",16-04-2024 14:00:00,13.204880,79.097889,SO2,5,40,12
India,Andhra_Pradesh,Tirupati,"Tirumala, Tirupati - APPCB",16-04-2024 14:00:00,13.67,79.35,NH3,1,2,1
India,Andhra_Pradesh,Tirupati,"Vaikuntapuram, Tirupati - APPCB",16-04-2024 14:00:00,13.615387,79.409230,OZONE,11,51,26
India,Andhra_Pradesh,Vijayawada,"HB Colony, Vijayawada - APPCB",16-04-2024 14:00:00,16.536107,80.594233,OZONE,10,44,22
India,Andhra_Pradesh,Vijayawada,"Rajiv Gandhi Park, Vijayawada - APPCB",16-04-2024 14:00:00,16.509717,80.612222,NO2,8,49,24
India,Andhra_Pradesh,Visakhapatnam,"GVM Corporation, Visakhapatnam - APPCB",16-04-2024 14:00:00,17.72,83.3,NO2,28,65,44
India,Andhra_Pradesh,Visakhapatnam,"GVM Corporation, Visakhapatnam - APPCB",16-04-2024 14:00:00,17.72,83.3,SO2,10,17,14
India,Arunachal_Pradesh,Naharlagun,"Naharlagun, Naharlagun - APSPCB",16-04-2024 14:00:00,27.103358,93.679645,PM2.5,NA,NA,NA
India,Arunachal_Pradesh,Naharlagun,"Naharlagun, Naharlagun - APSPCB",16-04-2024 14:00:00,27.103358,93.679645,CO,19,24,22
India,Assam,Guwahati,"IITG, Guwahati - PCBA",16-04-2024 14:00:00,26.2028636,91.70046436,OZONE,16,30,23
India,Assam,Guwahati,"Pan Bazaar, Guwahati - PCBA",16-04-2024 14:00:00,26.187500,91.744194,SO2,32,59,46
India,Assam,Guwahati,"Railway Colony, Guwahati - PCBA",16-04-2024 14:00:00,26.181742,91.78063,CO,26,110,34
India,Assam,Nagaon,"Christianpatty, Nagaon - PCBA",16-04-2024 14:00:00,26.349082,92.68449,PM2.5,70,167,96
India,Assam,Silchar,"Tarapur, Silchar - PCBA",16-04-2024 14:00:00,24.82827,92.79525,NO2,13,13,13
India,Assam,Silchar,"Tarapur, Silchar - PCBA",16-04-2024 14:00:00,24.82827,92.79525,NH3,1,1,1
India,Assam,Sivasagar,"Girls College, Sivasagar - PCBA",16-04-2024 14:00:00,26.987634,94.636574,PM2.5,39,57,47
India,Assam,Sivasagar,"Girls College, Sivasagar - PCBA",16-04-2024 14:00:00,26.987634,94.636574,NH3,2,2,2
India,Bihar,Arrah,"New DM Office, Arrah - BSPCB",16-04-2024 14:00:00,25.5626095,84.663264,PM10,73,296,114
India,Bihar,Arrah,"New DM Office, Arrah - BSPCB",16-04-2024 14:00:00,25.5626095,84.663264,NH3,4,5,4
India,Bihar,Aurangabad,"Gurdeo Nagar, Aurangabad - BSPCB",16-04-2024 14:00:00,24.75746,84.366208,PM10,47,165,94
India,Bihar,Aurangabad,"Gurdeo Nagar, Aurangabad - BSPCB",16-04-2024 14:00:00,24.75746,84.366208,OZONE,14,79,49
India,Bihar,Bettiah,"Kamalnath Nagar, Bettiah - BSPCB",16-04-2024 14:00:00,26.80365,84.51954,PM10,65,421,121
India,Bihar,Bhagalpur,"Mayaganj, Bhagalpur - BSPCB",16-04-2024 14:00:00,25.265194,87.012947,NO2,4,11,7
India,Bihar,Bhagalpur,"Mayaganj, Bhagalpur - BSPCB",16-04-2024 14:00:00,25.265194,87.012947,SO2,3,12,11
India,Bihar,Bihar Sharif,"D M Colony, Bihar Sharif - BSPCB",16-04-2024 14:00:00,25.204762,85.514960,PM10,48,122,80
India,Bihar,Bihar Sharif,"D M Colony, Bihar Sharif - BSPCB",16-04-2024 14:00:00,25.204762,85.514960,CO,45,71,51
India,Bihar,Chhapra,"Darshan Nagar, Chhapra - BSPCB",16-04-2024 14:00:00,25.7808257,84.7446768,PM10,81,181,144
India,Bihar,Chhapra,"Darshan Nagar, Chhapra - BSPCB",16-04-2024 14:00:00,25.7808257,84.7446768,CO,42,77,53
India,Bihar,Gaya,"Collectorate, Gaya - BSPCB",16-04-2024 14:00:00,24.7955,84.9994,NO2,1,3,1
India,Bihar,Gaya,"Collectorate, Gaya - BSPCB",16-04-2024 14:00:00,24.7955,84.9994,CO,3,70,11
India,Bihar,Gaya,"Kareemganj, Gaya - BSPCB",16-04-2024 14:00:00,24.792403,84.992416,PM2.5,7,95,49
India,Bihar,Gaya,"Kareemganj, Gaya - BSPCB",16-04-2024 14:00:00,24.792403,84.992416,PM10,46,136,90
India,Bihar,Gaya,"Kareemganj, Gaya - BSPCB",16-04-2024 14:00:00,24.792403,84.992416,SO2,8,12,11
India,Bihar,Gaya,"Kareemganj, Gaya - BSPCB",16-04-2024 14:00:00,24.792403,84.992416,OZONE,1,29,11
India,Bihar,Gaya,"SFTI Kusdihra, Gaya - BSPCB",16-04-2024 14:00:00,24.762518,84.982348,PM2.5,28,172,87
India,Bihar,Gaya,"SFTI Kusdihra, Gaya - BSPCB",16-04-2024 14:00:00,24.762518,84.982348,NO2,21,116,40
India,Bihar,Kishanganj,"SDM Office_Khagra, Kishanganj - BSPCB",16-04-2024 14:00:00,26.0881305,87.93840336,PM10,128,419,182
India,Bihar,Manguraha,"Forest Rest House, Manguraha - BSPCB",16-04-2024 14:00:00,27.308328,84.531742,PM2.5,75,183,120
India,Bihar,Motihari,"Gandak Colony, Motihari - BSPCB",16-04-2024 14:00:00,26.63086,84.90051,NO2,48,116,85
India,Bihar,Motihari,"Gandak Colony, Motihari - BSPCB",16-04-2024 14:00:00,26.63086,84.90051,NH3,8,19,14
India,Bihar,Motihari,"Gandak Colony, Motihari - BSPCB",16-04-2024 14:00:00,26.63086,84.90051,OZONE,19,93,64
India,Bihar,Munger,"Town Hall, Munger - BSPCB",16-04-2024 14:00:00,25.376776,86.471523,SO2,11,17,14
India,Bihar,Muzaffarpur,"Buddha Colony, Muzaffarpur - BSPCB",16-04-2024 14:00:00,26.11442,85.39813,CO,12,109,35
India,Bihar,Muzaffarpur,"Muzaffarpur Collectorate, Muzaffarpur - BSPCB",16-04-2024 14:00:00,26.1209,85.3647,CO,21,76,41
India,Bihar,Patna,"DRM Office Danapur, Patna - BSPCB",16-04-2024 14:00:00,25.586562,85.043586,PM10,90,181,148
India,Bihar,Patna,"DRM Office Danapur, Patna - BSPCB",16-04-2024 14:00:00,25.586562,85.043586,CO,10,103,24
India,Bihar,Patna,"Muradpur, Patna - BSPCB",16-04-2024 14:00:00,25.619651,85.147382,OZONE,4,83,72
India,Bihar,Patna,"Samanpura, Patna - BSPCB",16-04-2024 14:00:00,25.596727,85.085624,PM10,124,500,278
India,Bihar,Purnia,"Mariam Nagar, Purnia - BSPCB",16-04-2024 14:00:00,25.366336,87.117468,NH3,7,28,11
India,Bihar,Rajgir,"Dangi Tola, Rajgir - BSPCB",16-04-2024 14:00:00,25.03280,85.41948,NO2,18,31,22
India,Bihar,Saharsa,"Police Line, Saharsa - BSPCB",16-04-2024 14:00:00,25.892357,86.590325,NH3,9,9,9
India,Bihar,Samastipur,"DM Office_Kasipur, Samastipur - BSPCB",16-04-2024 14:00:00,25.859655,85.77944,SO2,1,15,8
India,Bihar,Sasaram,"Dada Peer, Sasaram - BSPCB",16-04-2024 14:00:00,24.952822,84.002396,SO2,21,23,22
India,Chandigarh,Chandigarh,"Sector 22, Chandigarh - CPCC",16-04-2024 14:00:00,30.735567,76.775714,PM10,50,180,101
India,Chandigarh,Chandigarh,"Sector 22, Chandigarh - CPCC",16-04-2024 14:00:00,30.735567,76.775714,NO2,23,169,57
India,Chandigarh,Chandigarh,"Sector 22, Chandigarh - CPCC",16-04-2024 14:00:00,30.735567,76.775714,NH3,7,12,9
India,Chandigarh,Chandigarh,"Sector-25, Chandigarh - CPCC",16-04-2024 14:00:00,30.751462,76.762879,PM10,110,167,132
India,Chhattisgarh,Bhilai,"Civic Center, Bhilai - Bhilai Steel Plant",16-04-2024 14:00:00,21.185571,81.343175,NH3,4,5,5
India,Chhattisgarh,Chhal,"Nawapara SECL Colony, Chhal - CECB",16-04-2024 14:00:00,22.118125,83.140608,NH3,2,2,2
India,Chhattisgarh,Chhal,"Nawapara SECL Colony, Chhal - CECB",16-04-2024 14:00:00,22.118125,83.140608,SO2,8,39,22
India,Chhattisgarh,Korba,"Rampur, Korba - CECB",16-04-2024 14:00:00,22.368195,82.746431,CO,NA,NA,NA
India,Chhattisgarh,Korba,"Urja Nagar, Korba - CECB",16-04-2024 14:00:00,22.348441,82.549611,PM2.5,2,31,8
India,Chhattisgarh,Kunjemura,"OP Jindal School, Kunjemura - CECB",16-04-2024 14:00:00,22.126650,83.483212,NO2,11,98,53
India,Chhattisgarh,Raipur,"AIIMS, Raipur - CECB",16-04-2024 14:00:00,21.258815,81.578979,NO2,17,30,22
India,Chhattisgarh,Raipur,"AIIMS, Raipur - CECB",16-04-2024 14:00:00,21.258815,81.578979,NH3,6,6,6
India,Chhattisgarh,Raipur,"AIIMS, Raipur - CECB",16-04-2024 14:00:00,21.258815,81.578979,SO2,5,19,7
India,Chhattisgarh,Raipur,"AIIMS, Raipur - CECB",16-04-2024 14:00:00,21.258815,81.578979,CO,27,42,34
India,Chhattisgarh,Raipur,"Bhatagaon New ISBT, Raipur - CECB",16-04-2024 14:00:00,21.219665,81.630094,PM2.5,25,46,37
India,Chhattisgarh,Raipur,"Siltara Phase-II, Raipur - CECB",16-04-2024 14:00:00,21.371751,81.664929,NH3,3,3,3
India,Chhattisgarh,Raipur,"Siltara Phase-II, Raipur - CECB",16-04-2024 14:00:00,21.371751,81.664929,CO,2,42,22
India,Chhattisgarh,Tumidih,"OP Jindal Industrial Park, Tumidih - CECB",16-04-2024 14:00:00,22.06631475,83.33820077,NH3,NA,NA,NA
India,Delhi,Delhi,"Ashok Vihar, Delhi - DPCC",16-04-2024 14:00:00,28.695381,77.181665,PM2.5,30,400,224
India,Delhi,Delhi,"Ashok Vihar, Delhi - DPCC",16-04-2024 14:00:00,28.695381,77.181665,PM10,104,422,277
India,Delhi,Delhi,"Bawana, Delhi - DPCC",16-04-2024 14:00:00,28.776200,77.051074,NO2,11,87,49
India,Delhi,Delhi,"Bawana, Delhi - DPCC",16-04-2024 14:00:00,28.776200,77.051074,SO2,10,58,27
India,Delhi,Delhi,"Chandni Chowk, Delhi - IITM",16-04-2024 14:00:00,28.656756,77.227234,SO2,16,52,33
India,Delhi,Delhi,"DTU, Delhi - CPCB",16-04-2024 14:00:00,28.7500499,77.1112615,PM10,75,456,268
India,Delhi,Delhi,"DTU, Delhi - CPCB",16-04-2024 14:00:00,28.7500499,77.1112615,NO2,7,23,13
India,Delhi,Delhi,"DTU, Delhi - CPCB",16-04-2024 14:00:00,28.7500499,77.1112615,NH3,12,19,15
India,Delhi,Delhi,"IHBAS, Dilshad Garden, Delhi - CPCB",16-04-2024 14:00:00,28.6811736,77.3025234,PM2.5,33,195,99
India,Delhi,Delhi,"IHBAS, Dilshad Garden, Delhi - CPCB",16-04-2024 14:00:00,28.6811736,77.3025234,NO2,28,112,61
India,Delhi,Delhi,"ITO, Delhi - CPCB",16-04-2024 14:00:00,28.628624,77.241060,SO2,1,26,12
India,Delhi,Delhi,"ITO, Delhi - CPCB",16-04-2024 14:00:00,28.628624,77.241060,CO,27,140,37
India,Delhi,Delhi,"Jahangirpuri, Delhi - DPCC",16-04-2024 14:00:00,28.732820,77.170633,PM2.5,41,442,253
India,Delhi,Delhi,"Jawaharlal Nehru Stadium, Delhi - DPCC",16-04-2024 14:00:00,28.580280,77.233829,PM2.5,38,324,164
India,Delhi,Delhi,"Jawaharlal Nehru Stadium, Delhi - DPCC",16-04-2024 14:00:00,28.580280,77.233829,NO2,23,150,90
India,Delhi,Delhi,"Jawaharlal Nehru Stadium, Delhi - DPCC",16-04-2024 14:00:00,28.580280,77.233829,CO,21,126,35
India,Delhi,Delhi,"Lodhi Road, Delhi - IITM",16-04-2024 14:00:00,28.588333,77.221667,NO2,NA,NA,NA
India,Delhi,Delhi,"Lodhi Road, Delhi - IITM",16-04-2024 14:00:00,28.588333,77.221667,CO,60,68,66
India,Delhi,Delhi,"Lodhi Road, Delhi - IITM",16-04-2024 14:00:00,28.588333,77.221667,OZONE,16,19,16
India,Delhi,Delhi,"Major Dhyan Chand National Stadium, Delhi - DPCC",16-04-2024 14:00:00,28.611281,77.237738,PM2.5,46,353,205
India,Delhi,Delhi,"Major Dhyan Chand National Stadium, Delhi - DPCC",16-04-2024 14:00:00,28.611281,77.237738,CO,3,139,46
India,Delhi,Delhi,"Mandir Marg, Delhi - DPCC",16-04-2024 14:00:00,28.636429,77.201067,PM2.5,34,338,170
India,Delhi,Delhi,"Mundka, Delhi - DPCC",16-04-2024 14:00:00,28.684678,77.076574,SO2,10,74,27
India,Delhi,Delhi,"Mundka, Delhi - DPCC",16-04-2024 14:00:00,28.684678,77.076574,OZONE,5,66,26
India,Delhi,Delhi,"NSIT Dwarka, Delhi - CPCB",16-04-2024 14:00:00,28.60909,77.0325413,NO2,10,69,44
India,Delhi,Delhi,"NSIT Dwarka, Delhi - CPCB",16-04-2024 14:00:00,28.60909,77.0325413,NH3,6,31,20
India,Delhi,Delhi,"NSIT Dwarka, Delhi - CPCB",16-04-2024 14:00:00,28.60909,77.0325413,OZONE,2,58,18
India,Delhi,Delhi,"Najafgarh, Delhi - DPCC",16-04-2024 14:00:00,28.570173,76.933762,OZONE,7,186,60
India,Delhi,Delhi,"Narela, Delhi - DPCC",16-04-2024 14:00:00,28.822836,77.101981,NO2,8,112,53
India,Delhi,Delhi,"Narela, Delhi - DPCC",16-04-2024 14:00:00,28.822836,77.101981,NH3,9,14,11
India,Delhi,Delhi,"Narela, Delhi - DPCC",16-04-2024 14:00:00,28.822836,77.101981,CO,12,86,34
India,Delhi,Delhi,"Narela, Delhi - DPCC",16-04-2024 14:00:00,28.822836,77.101981,OZONE,3,143,41
India,Delhi,Delhi,"Nehru Nagar, Delhi - DPCC",16-04-2024 14:00:00,28.567890,77.250515,OZONE,1,238,60
India,Delhi,Delhi,"New Moti Bagh, Delhi - MHUA",16-04-2024 14:00:00,28.57834,77.18400,CO,27,130,55
India,Delhi,Delhi,"Okhla Phase-2, Delhi - DPCC",16-04-2024 14:00:00,28.530785,77.271255,PM2.5,37,322,191
India,Delhi,Delhi,"Okhla Phase-2, Delhi - DPCC",16-04-2024 14:00:00,28.530785,77.271255,SO2,13,29,18
India,Delhi,Delhi,"Patparganj, Delhi - DPCC",16-04-2024 14:00:00,28.623763,77.287209,PM10,109,380,225
India,Delhi,Delhi,"Punjabi Bagh, Delhi - DPCC",16-04-2024 14:00:00,28.674045,77.131023,PM10,99,405,251
India,Delhi,Delhi,"Punjabi Bagh, Delhi - DPCC",16-04-2024 14:00:00,28.674045,77.131023,NO2,29,69,45
India,Delhi,Delhi,"R K Puram, Delhi - DPCC",16-04-2024 14:00:00,28.563262,77.186937,CO,24,152,43
India,Delhi,Delhi,"Rohini, Delhi - DPCC",16-04-2024 14:00:00,28.732528,77.119920,NH3,14,26,19
India,Delhi,Delhi,"Shadipur, Delhi - CPCB",16-04-2024 14:00:00,28.6514781,77.1473105,PM2.5,NA,NA,NA
India,Delhi,Delhi,"Shadipur, Delhi - CPCB",16-04-2024 14:00:00,28.6514781,77.1473105,OZONE,32,122,57
India,Delhi,Delhi,"Sirifort, Delhi - CPCB",16-04-2024 14:00:00,28.5504249,77.2159377,SO2,24,32,29
India,Delhi,Delhi,"Sonia Vihar, Delhi - DPCC",16-04-2024 14:00:00,28.710508,77.249485,SO2,10,50,20
India,Delhi,Delhi,"Sonia Vihar, Delhi - DPCC",16-04-2024 14:00:00,28.710508,77.249485,OZONE,4,118,20
India,Delhi,Delhi,"Vivek Vihar, Delhi - DPCC",16-04-2024 14:00:00,28.672342,77.315260,PM10,111,406,238
India,Delhi,Delhi,"Wazirpur, Delhi - DPCC",16-04-2024 14:00:00,28.699793,77.165453,NH3,12,13,13
India,Gujarat,Ahmedabad,"Chandkheda, Ahmedabad - IITM",16-04-2024 14:00:00,23.107969,72.574648,NO2,30,87,32
India,Gujarat,Ahmedabad,"Gyaspur, Ahmedabad - IITM",16-04-2024 14:00:00,22.977134,72.553024,NH3,11,11,11
India,Gujarat,Ahmedabad,"Gyaspur, Ahmedabad - IITM",16-04-2024 14:00:00,22.977134,72.553024,SO2,3,5,4
India,Gujarat,Ahmedabad,"Maninagar, Ahmedabad - GPCB",16-04-2024 14:00:00,23.002657,72.591912,CO,26,94,59
India,Gujarat,Ahmedabad,"Raikhad, Ahmedabad - IITM",16-04-2024 14:00:00,23.020509,72.579261,SO2,6,16,8
India,Gujarat,Ahmedabad,"Raikhad, Ahmedabad - IITM",16-04-2024 14:00:00,23.020509,72.579261,CO,14,64,36
India,Gujarat,Ahmedabad,"Rakhial, Ahmedabad - IITM",16-04-2024 14:00:00,23.016834,72.625775,SO2,5,16,9
India,Gujarat,Ahmedabad,"SAC ISRO Satellite, Ahmedabad - IITM",16-04-2024 14:00:00,23.023389,72.515201,PM10,81,100,91
India,Gujarat,Ahmedabad,"Sardar Vallabhbhai Patel Stadium, Ahmedabad - IITM",16-04-2024 14:00:00,23.043070,72.562968,NO2,39,41,40
India,Gujarat,Ahmedabad,"Sardar Vallabhbhai Patel Stadium, Ahmedabad - IITM",16-04-2024 14:00:00,23.043070,72.562968,SO2,2,21,12
India,Gujarat,Ankleshwar,"GIDC, Ankleshwar - GPCB",16-04-2024 14:00:00,21.613267,73.010555,PM10,47,80,69
India,Gujarat,Gandhinagar,"IIPHG Lekawada, Gandhinagar - IITM",16-04-2024 14:00:00,23.243639,72.68994,OZONE,14,48,28
India,Gujarat,Gandhinagar,"Sector-10, Gandhinagar - GPCB",16-04-2024 14:00:00,23.221714,72.654328,PM10,27,61,47
India,Gujarat,Gandhinagar,"Sector-10, Gandhinagar - GPCB",16-04-2024 14:00:00,23.221714,72.654328,NH3,1,1,1
India,Gujarat,Gandhinagar,"Sector-10, Gandhinagar - GPCB",16-04-2024 14:00:00,23.221714,72.654328,OZONE,8,64,25
India,Gujarat,Vapi,"Phase-1 GIDC, Vapi - GPCB",16-04-2024 14:00:00,20.362421,72.918013,NO2,6,7,7
India,Gujarat,Vapi,"Phase-1 GIDC, Vapi - GPCB",16-04-2024 14:00:00,20.362421,72.918013,NH3,2,2,2
India,Gujarat,Vatva,"Phase-4 GIDC, Vatva - GPCB",16-04-2024 14:00:00,22.969611,72.643500,PM2.5,25,43,34
India,Gujarat,Vatva,"Phase-4 GIDC, Vatva - GPCB",16-04-2024 14:00:00,22.969611,72.643500,NO2,22,58,39
India,Gujarat,Vatva,"Phase-4 GIDC, Vatva - GPCB",16-04-2024 14:00:00,22.969611,72.643500,NH3,1,10,4
India,Gujarat,Vatva,"Phase-4 GIDC, Vatva - GPCB",16-04-2024 14:00:00,22.969611,72.643500,SO2,8,23,15
India,Gujarat,Vatva,"Phase-4 GIDC, Vatva - GPCB",16-04-2024 14:00:00,22.969611,72.643500,OZONE,9,27,16
India,Haryana,Ambala,"Patti Mehar, Ambala - HSPCB",16-04-2024 14:00:00,30.379589,76.778328,PM2.5,42,91,71
India,Haryana,Ambala,"Patti Mehar, Ambala - HSPCB",16-04-2024 14:00:00,30.379589,76.778328,PM10,52,98,66
India,Haryana,Ambala,"Patti Mehar, Ambala - HSPCB",16-04-2024 14:00:00,30.379589,76.778328,NO2,3,4,4
India,Haryana,Ballabgarh,"Nathu Colony, Ballabgarh - HSPCB",16-04-2024 14:00:00,28.3419248,77.319699,CO,6,84,21
India,Haryana,Charkhi Dadri,"Mini Secretariat, Charkhi Dadri - HSPCB",16-04-2024 14:00:00,28.593883,76.270653,PM2.5,52,310,130
India,Haryana,Charkhi Dadri,"Mini Secretariat, Charkhi Dadri - HSPCB",16-04-2024 14:00:00,28.593883,76.270653,PM10,52,181,101
India,Haryana,Charkhi Dadri,"Mini Secretariat, Charkhi Dadri - HSPCB",16-04-2024 14:00:00,28.593883,76.270653,NH3,6,8,7
India,Haryana,Charkhi Dadri,"Mini Secretariat, Charkhi Dadri - HSPCB",16-04-2024 14:00:00,28.593883,76.270653,CO,18,107,35
India,Haryana,Dharuhera,"Municipal Corporation Office, Dharuhera -  HSPCB",16-04-2024 14:00:00,28.206800,76.799700,PM10,97,332,175
India,Haryana,Dharuhera,"Municipal Corporation Office, Dharuhera -  HSPCB",16-04-2024 14:00:00,28.206800,76.799700,NH3,9,26,18
India,Haryana,Faridabad,"Sector 11, Faridabad - HSPCB",16-04-2024 14:00:00,28.376058,77.315741,OZONE,5,78,9
India,Haryana,Faridabad,"Sector 30, Faridabad - HSPCB",16-04-2024 14:00:00,28.4417,77.3217,NO2,30,33,31
India,Haryana,Faridabad,"Sector 30, Faridabad - HSPCB",16-04-2024 14:00:00,28.4417,77.3217,SO2,6,13,12
India,Haryana,Faridabad,"Sector- 16A, Faridabad - HSPCB",16-04-2024 14:00:00,28.4088421,77.3099081,PM2.5,NA,NA,NA
India,Haryana,Faridabad,"Sector- 16A, Faridabad - HSPCB",16-04-2024 14:00:00,28.4088421,77.3099081,OZONE,14,14,14
India,Haryana,Fatehabad,"Huda Sector, Fatehabad - HSPCB",16-04-2024 14:00:00,29.503664,75.467934,PM2.5,19,81,47
India,Haryana,Fatehabad,"Huda Sector, Fatehabad - HSPCB",16-04-2024 14:00:00,29.503664,75.467934,NH3,9,10,10
India,Haryana,Gurugram,"Sector-51, Gurugram - HSPCB",16-04-2024 14:00:00,28.4227,77.0667,PM2.5,188,408,327
India,Haryana,Gurugram,"Sector-51, Gurugram - HSPCB",16-04-2024 14:00:00,28.4227,77.0667,PM10,116,332,196
India,Haryana,Gurugram,"Sector-51, Gurugram - HSPCB",16-04-2024 14:00:00,28.4227,77.0667,SO2,1,6,3
India,Haryana,Gurugram,"Teri Gram, Gurugram - HSPCB",16-04-2024 14:00:00,28.4275,77.1465,PM10,138,351,234
India,Haryana,Gurugram,"Teri Gram, Gurugram - HSPCB",16-04-2024 14:00:00,28.4275,77.1465,NO2,30,46,38
India,Haryana,Gurugram,"Teri Gram, Gurugram - HSPCB",16-04-2024 14:00:00,28.4275,77.1465,CO,16,38,28
India,Haryana,Gurugram,"Vikas Sadan, Gurugram - HSPCB",16-04-2024 14:00:00,28.4501238,77.0263051,SO2,9,46,30
India,Haryana,Gurugram,"Vikas Sadan, Gurugram - HSPCB",16-04-2024 14:00:00,28.4501238,77.0263051,CO,54,149,105
India,Haryana,Hisar,"Urban Estate-II, Hisar - HSPCB",16-04-2024 14:00:00,29.140560,75.744941,SO2,6,50,34
India,Haryana,Jind,"Police Lines, Jind - HSPCB",16-04-2024 14:00:00,29.307814,76.337619,PM2.5,36,96,64
India,Haryana,Kaithal,"Rishi Nagar, Kaithal - HSPCB",16-04-2024 14:00:00,29.8006,76.4155,CO,2,57,14
India,Haryana,Karnal,"Sector-12, Karnal - HSPCB",16-04-2024 14:00:00,29.695300,77.002700,PM2.5,86,165,111
India,Haryana,Kurukshetra,"Sector-7, Kurukshetra - HSPCB",16-04-2024 14:00:00,29.966942,76.875879,OZONE,19,56,37
India,Haryana,Mandikhera,"General Hospital, Mandikhera - HSPCB",16-04-2024 14:00:00,27.9002,76.9938,NH3,16,19,18
India,Haryana,Mandikhera,"General Hospital, Mandikhera - HSPCB",16-04-2024 14:00:00,27.9002,76.9938,SO2,30,36,34
India,Haryana,Mandikhera,"General Hospital, Mandikhera - HSPCB",16-04-2024 14:00:00,27.9002,76.9938,OZONE,22,30,26
India,Haryana,Manesar,"Sector-2 IMT, Manesar - HSPCB",16-04-2024 14:00:00,28.360699,76.936090,PM10,54,145,93
India,Haryana,Manesar,"Sector-2 IMT, Manesar - HSPCB",16-04-2024 14:00:00,28.360699,76.936090,OZONE,1,77,36
India,Haryana,Narnaul,"Shastri Nagar, Narnaul - HSPCB",16-04-2024 14:00:00,28.060249,76.113115,NO2,NA,NA,NA
India,Haryana,Panipat,"Sector-18, Panipat - HSPCB",16-04-2024 14:00:00,29.497973,76.993331,CO,24,26,25
India,Haryana,Panipat,"Sector-18, Panipat - HSPCB",16-04-2024 14:00:00,29.497973,76.993331,OZONE,30,30,30
India,Haryana,Rohtak,"MD University, Rohtak - HSPCB",16-04-2024 14:00:00,28.52123,76.37138,OZONE,45,55,49
India,Haryana,Sirsa,"F-Block, Sirsa - HSPCB",16-04-2024 14:00:00,29.536400,75.015800,SO2,2,36,24
India,Haryana,Sirsa,"F-Block, Sirsa - HSPCB",16-04-2024 14:00:00,29.536400,75.015800,OZONE,28,91,67
India,Haryana,Sonipat,"Murthal, Sonipat - HSPCB",16-04-2024 14:00:00,29.027200,77.062100,OZONE,17,36,27
India,Haryana,Yamuna Nagar,"Gobind Pura, Yamuna Nagar - HSPCB",16-04-2024 14:00:00,30.1480566,77.2893471,PM10,54,253,133
India,Haryana,Yamuna Nagar,"Gobind Pura, Yamuna Nagar - HSPCB",16-04-2024 14:00:00,30.1480566,77.2893471,NO2,3,29,7
India,Haryana,Yamuna Nagar,"Gobind Pura, Yamuna Nagar - HSPCB",16-04-2024 14:00:00,30.1480566,77.2893471,SO2,2,11,7
India,Jharkhand,Dhanbad,"Kalakusuma, Dhanbad - DMC",16-04-2024 14:00:00,23.811548,86.481238,NO2,14,402,177
India,Jharkhand,Dhanbad,"Kalakusuma, Dhanbad - DMC",16-04-2024 14:00:00,23.811548,86.481238,CO,130,134,131
India,Jharkhand,Dhanbad,"Sardar Patel Nagar, Dhanbad - JSPCB",16-04-2024 14:00:00,23.80569,86.44268,PM2.5,2,244,64
India,Jharkhand,Dhanbad,"Sardar Patel Nagar, Dhanbad - JSPCB",16-04-2024 14:00:00,23.80569,86.44268,NO2,3,400,177
India,Karnataka,Bagalkot,"Vidayagiri, Bagalkot - KSPCB",16-04-2024 14:00:00,16.172806,75.659694,OZONE,NA,NA,NA
India,Karnataka,Belgaum,"Ramteerth Nagar, Belgaum - KSPCB",16-04-2024 14:00:00,15.888653,74.541751,CO,27,37,34
India,Karnataka,Bengaluru,"Bapuji Nagar, Bengaluru - KSPCB",16-04-2024 14:00:00,12.951913,77.539784,NO2,10,11,11
India,Karnataka,Bengaluru,"Bapuji Nagar, Bengaluru - KSPCB",16-04-2024 14:00:00,12.951913,77.539784,SO2,6,9,8
India,Karnataka,Bengaluru,"Hombegowda Nagar, Bengaluru - KSPCB",16-04-2024 14:00:00,12.938539,77.590100,SO2,3,4,4
India,Karnataka,Bengaluru,"Kasturi Nagar, Bengaluru - KSPCB",16-04-2024 14:00:00,13.003872,77.664217,PM2.5,39,343,99
India,Karnataka,Bengaluru,"Kasturi Nagar, Bengaluru - KSPCB",16-04-2024 14:00:00,13.003872,77.664217,PM10,50,319,106
India,Karnataka,Bengaluru,"Kasturi Nagar, Bengaluru - KSPCB",16-04-2024 14:00:00,13.003872,77.664217,NO2,16,17,17
India,Karnataka,Bengaluru,"Peenya, Bengaluru - CPCB",16-04-2024 14:00:00,13.0270199,77.494094,PM2.5,19,47,35
India,Karnataka,Bengaluru,"Peenya, Bengaluru - CPCB",16-04-2024 14:00:00,13.0270199,77.494094,PM10,23,59,43
India,Karnataka,Bengaluru,"Peenya, Bengaluru - CPCB",16-04-2024 14:00:00,13.0270199,77.494094,SO2,9,13,11
India,Karnataka,Bengaluru,"RVCE-Mailasandra, Bengaluru - KSPCB",16-04-2024 14:00:00,12.921418,77.502466,PM2.5,37,103,73
India,Karnataka,Bengaluru,"RVCE-Mailasandra, Bengaluru - KSPCB",16-04-2024 14:00:00,12.921418,77.502466,SO2,7,11,8
India,Karnataka,Bengaluru,"Shivapura_Peenya, Bengaluru - KSPCB",16-04-2024 14:00:00,13.0246342,77.5080115,CO,24,49,34
India,Karnataka,Bengaluru,"Silk Board, Bengaluru - KSPCB",16-04-2024 14:00:00,12.917348,77.622813,OZONE,20,26,24
India,Karnataka,Chikkaballapur,"Chikkaballapur Rural, Chikkaballapur - KSPCB",16-04-2024 14:00:00,13.428828,77.731418,NO2,6,17,8
India,Karnataka,Chikkaballapur,"Chikkaballapur Rural, Chikkaballapur - KSPCB",16-04-2024 14:00:00,13.428828,77.731418,CO,13,18,16
India,Karnataka,Chikkamagaluru,"Kalyana Nagara, Chikkamagaluru - KSPCB",16-04-2024 14:00:00,13.328028,75.797056,PM2.5,6,33,17
India,Karnataka,Chikkamagaluru,"Kalyana Nagara, Chikkamagaluru - KSPCB",16-04-2024 14:00:00,13.328028,75.797056,NO2,16,31,22
India,Karnataka,Davanagere,"Devaraj Urs Badavane, Davanagere - KSPCB",16-04-2024 14:00:00,14.475800,75.905200,NH3,1,2,1
India,Karnataka,Davanagere,"Devaraj Urs Badavane, Davanagere - KSPCB",16-04-2024 14:00:00,14.475800,75.905200,OZONE,20,25,21
India,Karnataka,Dharwad,"Kalabhavan, Dharwad - KSPCB",16-04-2024 14:00:00,15.459706,75.008381,NO2,1,26,14
India,Karnataka,Gadag,"Panchal Nagar, Gadag - KSPCB",16-04-2024 14:00:00,15.411456,75.638133,CO,42,56,45
India,Karnataka,Hassan,"B.Katihalli, Hassan - KSPCB",16-04-2024 14:00:00,13.008556,76.125258,PM2.5,NA,NA,NA
India,Karnataka,Hassan,"B.Katihalli, Hassan - KSPCB",16-04-2024 14:00:00,13.008556,76.125258,NO2,NA,NA,NA
India,Karnataka,Haveri,"Ashwini Nagar, Haveri - KSPCB",16-04-2024 14:00:00,14.791800,75.389600,PM2.5,33,67,51
India,Karnataka,Haveri,"Ashwini Nagar, Haveri - KSPCB",16-04-2024 14:00:00,14.791800,75.389600,SO2,14,14,14
India,Karnataka,Haveri,"Ashwini Nagar, Haveri - KSPCB",16-04-2024 14:00:00,14.791800,75.389600,CO,36,38,38
India,Karnataka,Hubballi,"Deshpande Nagar, Hubballi - KSPCB",16-04-2024 14:00:00,15.351773,75.140726,PM10,NA,NA,NA
India,Karnataka,Kalaburagi,"Lal Bahadur Shastri Nagar, Kalaburagi - KSPCB",16-04-2024 14:00:00,17.321993,76.822628,PM2.5,5,152,39
India,Karnataka,Kalaburagi,"Lal Bahadur Shastri Nagar, Kalaburagi - KSPCB",16-04-2024 14:00:00,17.321993,76.822628,SO2,9,11,10
India,Karnataka,Kalaburagi,"Mahatma Basaveswar Colony, Kalaburgi - KSPCB",16-04-2024 14:00:00,17.336318,76.847397,NO2,11,17,13
India,Karnataka,Karwar,"KHB Colony, Karwar - KSPCB",16-04-2024 14:00:00,14.816666,74.141003,NO2,1,34,6
India,Karnataka,Kolar,"Tamaka Ind. Area, Kolar - KSPCB",16-04-2024 14:00:00,13.1276288,78.1570122,PM2.5,24,302,52
India,Karnataka,Madikeri,"Stuart Hill, Madikeri - KSPCB",16-04-2024 14:00:00,12.415911,75.735050,NH3,1,1,1
India,Karnataka,Mangalore,"Kadri, Mangalore - KSPCB",16-04-2024 14:00:00,12.889250,74.853000,PM2.5,25,60,39
India,Karnataka,Mysuru,"Hebbal 1st Stage, Mysuru - KSPCB",16-04-2024 14:00:00,12.21041,76.37376,PM10,39,89,53
India,Karnataka,Mysuru,"Hebbal 1st Stage, Mysuru - KSPCB",16-04-2024 14:00:00,12.21041,76.37376,SO2,1,7,3
India,Karnataka,Mysuru,"Hebbal 1st Stage, Mysuru - KSPCB",16-04-2024 14:00:00,12.21041,76.37376,CO,2,36,24
India,Karnataka,Mysuru,"Hebbal 1st Stage, Mysuru - KSPCB",16-04-2024 14:00:00,12.21041,76.37376,OZONE,21,101,35
India,Karnataka,Ramanagara,"Vijay Nagar, Ramanagara - KSPCB",16-04-2024 14:00:00,12.733409,77.298051,PM2.5,23,60,41
India,Karnataka,Ramanagara,"Vijay Nagar, Ramanagara - KSPCB",16-04-2024 14:00:00,12.733409,77.298051,PM10,26,50,36
India,Karnataka,Ramanagara,"Vijay Nagar, Ramanagara - KSPCB",16-04-2024 14:00:00,12.733409,77.298051,OZONE,28,30,29
India,Karnataka,Shivamogga,"Vinoba Nagara, Shivamogga - KSPCB",16-04-2024 14:00:00,13.940000,75.555917,PM2.5,37,60,41
India,Karnataka,Vijayapura,"Ibrahimpur, Vijayapura - KSPCB",16-04-2024 14:00:00,16.802639,75.722694,NO2,17,19,19
India,Kerala,Eloor,"Udyogamandal, Eloor - Kerala PCB",16-04-2024 14:00:00,10.073232,76.302765,PM2.5,32,54,42
India,Kerala,Eloor,"Udyogamandal, Eloor - Kerala PCB",16-04-2024 14:00:00,10.073232,76.302765,PM10,35,48,40
India,Kerala,Eloor,"Udyogamandal, Eloor - Kerala PCB",16-04-2024 14:00:00,10.073232,76.302765,OZONE,12,28,17
India,Kerala,Kollam,"Polayathode, Kollam - Kerala PCB",16-04-2024 14:00:00,8.8787,76.6073,CO,38,40,39
India,Kerala,Thiruvananthapuram,"Kariavattom, Thiruvananthapuram - Kerala PCB",16-04-2024 14:00:00,8.563700,76.886500,PM10,78,91,86
India,Kerala,Thiruvananthapuram,"Plammoodu, Thiruvananthapuram - Kerala PCB",16-04-2024 14:00:00,8.5149093,76.9435879,PM2.5,2,67,33
India,Kerala,Thiruvananthapuram,"Plammoodu, Thiruvananthapuram - Kerala PCB",16-04-2024 14:00:00,8.5149093,76.9435879,PM10,17,77,41
India,Kerala,Thiruvananthapuram,"Plammoodu, Thiruvananthapuram - Kerala PCB",16-04-2024 14:00:00,8.5149093,76.9435879,NH3,1,1,1
India,Kerala,Thrissur,"Corporation Ground, Thrissur - Kerala PCB",16-04-2024 14:00:00,10.532400,76.215900,CO,14,32,14
India,Kerala,Thrissur,"Corporation Ground, Thrissur - Kerala PCB",16-04-2024 14:00:00,10.532400,76.215900,OZONE,28,32,30
India,Madhya Pradesh,Bhopal,"Paryavaran Parisar, Bhopal - MPPCB",16-04-2024 14:00:00,23.210494,77.425409,NO2,10,64,32
India,Madhya Pradesh,Bhopal,"T T Nagar, Bhopal - MPPCB",16-04-2024 14:00:00,23.233584,77.400574,PM2.5,35,84,63
India,Madhya Pradesh,Gwalior,"City Center, Gwalior - MPPCB",16-04-2024 14:00:00,26.203442,78.193251,NH3,NA,NA,NA
India,Madhya Pradesh,Gwalior,"Deen Dayal Nagar, Gwalior - MPPCB",16-04-2024 14:00:00,26.259242,78.216432,PM10,86,229,142
India,Madhya Pradesh,Gwalior,"Deen Dayal Nagar, Gwalior - MPPCB",16-04-2024 14:00:00,26.259242,78.216432,NO2,9,54,25
India,Madhya Pradesh,Gwalior,"Deen Dayal Nagar, Gwalior - MPPCB",16-04-2024 14:00:00,26.259242,78.216432,NH3,2,10,6
India,Madhya Pradesh,Indore,"Chhoti Gwaltoli, Indore - MPPCB",16-04-2024 14:00:00,22.4310,75.5213,SO2,10,105,44
India,Madhya Pradesh,Indore,"Chhoti Gwaltoli, Indore - MPPCB",16-04-2024 14:00:00,22.4310,75.5213,CO,32,165,81
India,Madhya Pradesh,Indore,"Regional Park, Indore - IMC",16-04-2024 14:00:00,22.6780,75.8559,NH3,1,4,2
India,Madhya Pradesh,Indore,"Regional Park, Indore - IMC",16-04-2024 14:00:00,22.6780,75.8559,SO2,37,42,40
India,Madhya Pradesh,Indore,"Regional Park, Indore - IMC",16-04-2024 14:00:00,22.6780,75.8559,CO,26,62,49
India,Madhya Pradesh,Jabalpur,"Gupteshwar, Jabalpur - JMC",16-04-2024 14:00:00,23.142888,79.916147,PM10,34,119,65
India,Madhya Pradesh,Jabalpur,"Marhatal, Jabalpur - MPPCB",16-04-2024 14:00:00,23.168606,79.932247,SO2,8,14,11
India,Madhya Pradesh,Jabalpur,"Suhagi, Jabalpur - JMC",16-04-2024 14:00:00,23.218135,79.957770,PM2.5,NA,NA,NA
India,Madhya Pradesh,Jabalpur,"Suhagi, Jabalpur - JMC",16-04-2024 14:00:00,23.218135,79.957770,CO,22,46,38
India,Madhya Pradesh,Katni,"Gole Bazar, Katni - MPPCB",16-04-2024 14:00:00,23.50016,80.23284,PM10,56,281,95
India,Madhya Pradesh,Maihar,"Sahilara, Maihar - KJS Cements",16-04-2024 14:00:00,24.2613009,80.7231783,PM2.5,8,75,29
India,Madhya Pradesh,Mandideep,"Sector-D Industrial Area, Mandideep - MPPCB",16-04-2024 14:00:00,23.108440,77.511428,SO2,5,119,55
India,Madhya Pradesh,Pithampur,"Sector-2 Industrial Area, Pithampur - MPPCB",16-04-2024 14:00:00,22.624758,75.675238,CO,24,53,34
India,Madhya Pradesh,Pithampur,"Sector-2 Industrial Area, Pithampur - MPPCB",16-04-2024 14:00:00,22.624758,75.675238,OZONE,27,67,41
India,Madhya Pradesh,Sagar,"Civil Lines, Sagar - MPPCB",16-04-2024 14:00:00,23.838586,78.759431,SO2,1,9,4
India,Madhya Pradesh,Sagar,"Deen Dayal Nagar, Sagar - MPPCB",16-04-2024 14:00:00,23.8640158,78.80289321,PM10,16,94,45
India,Madhya Pradesh,Sagar,"Deen Dayal Nagar, Sagar - MPPCB",16-04-2024 14:00:00,23.8640158,78.80289321,NO2,7,24,23
India,Madhya Pradesh,Satna,"Bandhavgar Colony, Satna - Birla Cement",16-04-2024 14:00:00,24.58434363,80.8549414,PM10,5,71,41
India,Madhya Pradesh,Singrauli,"Suryakiran Bhawan NCL, Singrauli - MPPCB",16-04-2024 14:00:00,24.108970,82.645580,NH3,3,5,4
India,Madhya Pradesh,Ujjain,"Mahakaleshwar Temple, Ujjain - MPPCB",16-04-2024 14:00:00,23.182719 ,75.768218 ,CO,12,131,58
India,Madhya Pradesh,Ujjain,"Mahakaleshwar Temple, Ujjain - MPPCB",16-04-2024 14:00:00,23.182719 ,75.768218 ,OZONE,78,127,108
India,Maharashtra,Akola,"Ramdaspeth, Akola - MPCB",16-04-2024 14:00:00,20.719516,77.000253,PM2.5,30,71,44
India,Maharashtra,Amravati,"Shri Shivaji Science College, Amaravati - MPCB",16-04-2024 14:00:00,20.939198,77.765701,PM10,38,82,56
India,Maharashtra,Aurangabad,"MIDC Chilkalthana, Aurangabad - MPCB",16-04-2024 14:00:00,19.875620,75.387310,SO2,4,8,5
India,Maharashtra,Badlapur,"Katrap, Badlapur - MPCB",16-04-2024 14:00:00,19.16485,73.23409,PM10,NA,NA,NA
India,Maharashtra,Belapur,"CBD Belapur, Belapur - MPCB",16-04-2024 14:00:00,19.0243902,73.0406721,CO,31,58,49
India,Maharashtra,Bhiwandi,"Gokul Nagar, Bhiwandi - MPCB",16-04-2024 14:00:00,19.309073,73.057223,PM2.5,58,213,135
India,Maharashtra,Bhiwandi,"Gokul Nagar, Bhiwandi - MPCB",16-04-2024 14:00:00,19.309073,73.057223,SO2,20,36,25
India,Maharashtra,Bhiwandi,"Gokul Nagar, Bhiwandi - MPCB",16-04-2024 14:00:00,19.309073,73.057223,CO,17,94,39
India,Maharashtra,Boisar,"Khaira, Boisar - MPCB",16-04-2024 14:00:00,19.786089,72.757971,PM2.5,13,301,117
India,Maharashtra,Boisar,"Khaira, Boisar - MPCB",16-04-2024 14:00:00,19.786089,72.757971,NO2,29,101,60
India,Maharashtra,Boisar,"Khaira, Boisar - MPCB",16-04-2024 14:00:00,19.786089,72.757971,SO2,1,114,24
India,Maharashtra,Boisar,"Khaira, Boisar - MPCB",16-04-2024 14:00:00,19.786089,72.757971,CO,10,74,23
India,Maharashtra,Boisar,"Khaira, Boisar - MPCB",16-04-2024 14:00:00,19.786089,72.757971,OZONE,8,118,37
India,Maharashtra,Chandrapur,"Chauhan Colony, Chandrapur - MPCB",16-04-2024 14:00:00,19.962900,79.298714,NO2,12,43,19
India,Maharashtra,Chandrapur,"MIDC Khutala, Chandrapur - MPCB",16-04-2024 14:00:00,19.9775302,79.2337086,PM2.5,5,225,100
India,Maharashtra,Chandrapur,"MIDC Khutala, Chandrapur - MPCB",16-04-2024 14:00:00,19.9775302,79.2337086,SO2,20,22,21
India,Maharashtra,Dhule,"Deopur, Dhule - MPCB",16-04-2024 14:00:00,20.918946,74.776388,NO2,3,13,7
India,Maharashtra,Dhule,"Deopur, Dhule - MPCB",16-04-2024 14:00:00,20.918946,74.776388,SO2,12,19,15
India,Maharashtra,Jalgaon,"Prabhat Colony, Jalgaon - MPCB",16-04-2024 14:00:00,21.001264,75.565602,PM2.5,86,181,118
India,Maharashtra,Jalgaon,"Prabhat Colony, Jalgaon - MPCB",16-04-2024 14:00:00,21.001264,75.565602,PM10,82,287,143
India,Maharashtra,Jalgaon,"Prabhat Colony, Jalgaon - MPCB",16-04-2024 14:00:00,21.001264,75.565602,NH3,8,31,18
India,Maharashtra,Jalna,"Old MIDC, Jalna - MPCB",16-04-2024 14:00:00,19.854616,75.905894,CO,22,30,28
India,Maharashtra,Kolhapur,"Shivaji University, Kolhapur - MPCB",16-04-2024 14:00:00,16.6870449,74.2505872,SO2,3,8,5
India,Maharashtra,Kolhapur,"Sinchan Bhavan, Kolhapur - MPCB",16-04-2024 14:00:00,16.7143745,74.2426398,PM10,62,107,82
India,Maharashtra,Kolhapur,"Sinchan Bhavan, Kolhapur - MPCB",16-04-2024 14:00:00,16.7143745,74.2426398,NO2,13,101,30
India,Maharashtra,Kolhapur,"Sinchan Bhavan, Kolhapur - MPCB",16-04-2024 14:00:00,16.7143745,74.2426398,OZONE,14,176,79
India,Maharashtra,Mahad,"Kamble Tarf Birwadi, Mahad - MPCB",16-04-2024 14:00:00,18.1023399,73.4783687,PM10,57,128,81
India,Maharashtra,Mahad,"Kamble Tarf Birwadi, Mahad - MPCB",16-04-2024 14:00:00,18.1023399,73.4783687,NO2,24,83,53
India,Maharashtra,Malegaon,"Mahesh Nagar, Malegaon - MPCB",16-04-2024 14:00:00,20.555712,74.529236,PM2.5,96,194,142
India,Maharashtra,Malegaon,"Mahesh Nagar, Malegaon - MPCB",16-04-2024 14:00:00,20.555712,74.529236,NO2,1,18,7
India,Maharashtra,Malegaon,"Mahesh Nagar, Malegaon - MPCB",16-04-2024 14:00:00,20.555712,74.529236,NH3,3,9,5
India,Maharashtra,Malegaon,"Mahesh Nagar, Malegaon - MPCB",16-04-2024 14:00:00,20.555712,74.529236,SO2,2,10,5
India,Maharashtra,Mumbai,"Bandra Kurla Complex, Mumbai - MPCB",16-04-2024 14:00:00,19.065931,72.862131,SO2,1,3,2
India,Maharashtra,Mumbai,"Bandra Kurla Complex, Mumbai - MPCB",16-04-2024 14:00:00,19.065931,72.862131,CO,19,103,38
India,Maharashtra,Mumbai,"Bandra Kurla Complex, Mumbai - MPCB",16-04-2024 14:00:00,19.065931,72.862131,OZONE,5,154,56
India,Maharashtra,Mumbai,"Borivali East, Mumbai - IITM",16-04-2024 14:00:00,19.23241,72.86895,PM2.5,68,103,84
India,Maharashtra,Mumbai,"Borivali East, Mumbai - IITM",16-04-2024 14:00:00,19.23241,72.86895,NO2,95,231,139
India,Maharashtra,Mumbai,"Borivali East, Mumbai - MPCB",16-04-2024 14:00:00,19.2243333,72.8658113,PM10,57,199,113
India,Maharashtra,Mumbai,"Borivali East, Mumbai - MPCB",16-04-2024 14:00:00,19.2243333,72.8658113,SO2,6,14,8
India,Maharashtra,Mumbai,"Byculla, Mumbai - BMC",16-04-2024 14:00:00,18.9767,72.8380,NO2,8,35,16
India,Maharashtra,Mumbai,"Byculla, Mumbai - BMC",16-04-2024 14:00:00,18.9767,72.8380,OZONE,4,169,150
India,Maharashtra,Mumbai,"Chakala-Andheri East, Mumbai - IITM",16-04-2024 14:00:00,19.11074,72.86084,NO2,73,200,121
India,Maharashtra,Mumbai,"Chakala-Andheri East, Mumbai - IITM",16-04-2024 14:00:00,19.11074,72.86084,NH3,15,57,28
India,Maharashtra,Mumbai,"Chakala-Andheri East, Mumbai - IITM",16-04-2024 14:00:00,19.11074,72.86084,SO2,40,105,66
India,Maharashtra,Mumbai,"Chembur, Mumbai - MPCB",16-04-2024 14:00:00,19.0364585,72.8954371,PM2.5,87,204,147
India,Maharashtra,Mumbai,"Chembur, Mumbai - MPCB",16-04-2024 14:00:00,19.0364585,72.8954371,NH3,3,5,4
India,Maharashtra,Mumbai,"Chembur, Mumbai - MPCB",16-04-2024 14:00:00,19.0364585,72.8954371,SO2,1,8,3
India,Maharashtra,Mumbai,"Chhatrapati Shivaji Intl. Airport (T2), Mumbai - MPCB",16-04-2024 14:00:00,19.10078,72.87462,CO,63,109,78
India,Maharashtra,Mumbai,"Colaba, Mumbai - MPCB",16-04-2024 14:00:00,18.910000,72.820000,PM10,68,122,95
India,Maharashtra,Mumbai,"Colaba, Mumbai - MPCB",16-04-2024 14:00:00,18.910000,72.820000,OZONE,10,11,11
India,Maharashtra,Mumbai,"Ghatkopar, Mumbai - BMC",16-04-2024 14:00:00,19.083694,72.920967,NO2,6,28,16
India,Maharashtra,Mumbai,"Kandivali East, Mumbai - MPCB",16-04-2024 14:00:00,19.205800,72.868200,PM10,66,426,170
India,Maharashtra,Mumbai,"Kandivali East, Mumbai - MPCB",16-04-2024 14:00:00,19.205800,72.868200,NO2,25,81,41
India,Maharashtra,Mumbai,"Kandivali West, Mumbai - BMC",16-04-2024 14:00:00,19.215859,72.831718,SO2,1,3,2
India,Maharashtra,Mumbai,"Kherwadi_Bandra East, Mumbai - MPCB",16-04-2024 14:00:00,19.0632143,72.8456324,NO2,10,108,38
India,Maharashtra,Mumbai,"Kherwadi_Bandra East, Mumbai - MPCB",16-04-2024 14:00:00,19.0632143,72.8456324,NH3,3,18,8
India,Maharashtra,Mumbai,"Kurla, Mumbai - MPCB",16-04-2024 14:00:00,19.0863,72.8888,OZONE,28,68,40
India,Maharashtra,Mumbai,"Mazgaon, Mumbai - IITM",16-04-2024 14:00:00,18.96702,72.84214,PM10,60,422,146
India,Maharashtra,Mumbai,"Mazgaon, Mumbai - IITM",16-04-2024 14:00:00,18.96702,72.84214,NO2,92,266,163
India,Maharashtra,Mumbai,"Mazgaon, Mumbai - IITM",16-04-2024 14:00:00,18.96702,72.84214,NH3,18,56,35
India,Maharashtra,Mumbai,"Mindspace-Malad West, Mumbai - MPCB",16-04-2024 14:00:00,19.1878657,72.8304069,PM2.5,60,157,106
India,Maharashtra,Mumbai,"Mindspace-Malad West, Mumbai - MPCB",16-04-2024 14:00:00,19.1878657,72.8304069,NO2,17,86,48
India,Maharashtra,Mumbai,"Mulund West, Mumbai - MPCB",16-04-2024 14:00:00,19.1750,72.9419,PM10,98,230,144
India,Maharashtra,Mumbai,"Powai, Mumbai - MPCB",16-04-2024 14:00:00,19.137500,72.915056,OZONE,25,122,64
India,Maharashtra,Mumbai,"Shivaji Nagar, Mumbai - BMC",16-04-2024 14:00:00,19.060498,72.923356,SO2,1,21,10
India,Maharashtra,Mumbai,"Sion, Mumbai - MPCB",16-04-2024 14:00:00,19.047000,72.874600,PM2.5,57,249,107
India,Maharashtra,Mumbai,"Sion, Mumbai - MPCB",16-04-2024 14:00:00,19.047000,72.874600,NO2,21,73,43
India,Maharashtra,Mumbai,"Vile Parle West, Mumbai - MPCB",16-04-2024 14:00:00,19.10861,72.83622,CO,68,132,89
India,Maharashtra,Mumbai,"Vile Parle West, Mumbai - MPCB",16-04-2024 14:00:00,19.10861,72.83622,OZONE,3,3,3
India,Maharashtra,Mumbai,"Worli, Mumbai - MPCB",16-04-2024 14:00:00,18.9936162,72.8128113,CO,27,29,28
India,Maharashtra,Mumbai,"Worli, Mumbai - MPCB",16-04-2024 14:00:00,18.9936162,72.8128113,OZONE,5,11,7
India,Maharashtra,Nagpur,"Ambazari, Nagpur - MPCB",16-04-2024 14:00:00,21.121801,79.04952,CO,10,60,24
India,Maharashtra,Nagpur,"Mahal, Nagpur - MPCB",16-04-2024 14:00:00,21.14472,79.107595,PM10,53,99,78
India,Maharashtra,Nagpur,"Mahal, Nagpur - MPCB",16-04-2024 14:00:00,21.14472,79.107595,NH3,2,9,5
India,Maharashtra,Nagpur,"Opp GPO Civil Lines, Nagpur - MPCB",16-04-2024 14:00:00,21.152875,79.0517531,NO2,19,59,36
India,Maharashtra,Nagpur,"Opp GPO Civil Lines, Nagpur - MPCB",16-04-2024 14:00:00,21.152875,79.0517531,CO,20,104,41
India,Maharashtra,Nanded,"Sneh Nagar, Nanded - MPCB",16-04-2024 14:00:00,19.173852,77.296291,NH3,1,2,1
India,Maharashtra,Nanded,"Sneh Nagar, Nanded - MPCB",16-04-2024 14:00:00,19.173852,77.296291,CO,32,40,36
India,Maharashtra,Nanded,"Sneh Nagar, Nanded - MPCB",16-04-2024 14:00:00,19.173852,77.296291,OZONE,2,113,72
India,Maharashtra,Nashik,"Gangapur Road, Nashik - MPCB",16-04-2024 14:00:00,20.0073285,73.7762427,PM2.5,37,79,56
India,Maharashtra,Nashik,"Gangapur Road, Nashik - MPCB",16-04-2024 14:00:00,20.0073285,73.7762427,NO2,10,20,14
India,Maharashtra,Nashik,"Hirawadi, Nashik - MPCB",16-04-2024 14:00:00,20.021503,73.813844,PM2.5,40,83,63
India,Maharashtra,Nashik,"MIDC Ambad, Nashik - MPCB",16-04-2024 14:00:00,19.950220,73.731480,PM10,51,83,67
India,Maharashtra,Navi Mumbai,"Kopripada-Vashi, Navi Mumbai - MPCB",16-04-2024 14:00:00,19.090337,73.014232,CO,16,65,32
India,Maharashtra,Navi Mumbai,"Mahape, Navi Mumbai - MPCB",16-04-2024 14:00:00,19.1135051,73.008978,PM10,118,271,165
India,Maharashtra,Navi Mumbai,"Mahape, Navi Mumbai - MPCB",16-04-2024 14:00:00,19.1135051,73.008978,NO2,84,89,86
India,Maharashtra,Navi Mumbai,"Nerul, Navi Mumbai - MPCB",16-04-2024 14:00:00,19.008751,73.016620,NH3,4,7,5
India,Maharashtra,Navi Mumbai,"Sanpada, Navi Mumbai - MPCB",16-04-2024 14:00:00,19.0575752,73.0151367,PM2.5,NA,NA,NA
India,Maharashtra,Navi Mumbai,"Sanpada, Navi Mumbai - MPCB",16-04-2024 14:00:00,19.0575752,73.0151367,PM10,NA,NA,NA
India,Maharashtra,Navi Mumbai,"Sanpada, Navi Mumbai - MPCB",16-04-2024 14:00:00,19.0575752,73.0151367,SO2,NA,NA,NA
India,Maharashtra,Navi Mumbai,"Sanpada, Navi Mumbai - MPCB",16-04-2024 14:00:00,19.0575752,73.0151367,OZONE,64,113,105
India,Maharashtra,Navi Mumbai,"Sector-19A Nerul, Navi Mumbai - IITM",16-04-2024 14:00:00,19.044,73.0325,PM2.5,88,245,144
India,Maharashtra,Navi Mumbai,"Sector-2E Kalamboli, Navi Mumbai - MPCB",16-04-2024 14:00:00,19.02579,73.10297,CO,12,56,30
India,Maharashtra,Navi Mumbai,"Tondare-Taloja, Navi Mumbai - MPCB",16-04-2024 14:00:00,19.0630,73.1209,NH3,3,6,4
India,Maharashtra,Parbhani,"Masoom Colony, Parbhani - MPCB",16-04-2024 14:00:00,19.265594,76.761463,PM2.5,52,316,106
India,Maharashtra,Parbhani,"Masoom Colony, Parbhani - MPCB",16-04-2024 14:00:00,19.265594,76.761463,NO2,19,109,39
India,Maharashtra,Parbhani,"Masoom Colony, Parbhani - MPCB",16-04-2024 14:00:00,19.265594,76.761463,SO2,1,9,4
India,Maharashtra,Pimpri-Chinchwad,"Gavalinagar, Pimpri Chinchwad - MPCB",16-04-2024 14:00:00,18.63673,73.82487,NO2,14,84,40
India,Maharashtra,Pimpri-Chinchwad,"Gavalinagar, Pimpri Chinchwad - MPCB",16-04-2024 14:00:00,18.63673,73.82487,OZONE,6,141,63
India,Maharashtra,Pimpri-Chinchwad,"Park Street Wakad, Pimpri Chinchwad - MPCB",16-04-2024 14:00:00,18.59051,73.77946,PM2.5,9,86,52
India,Maharashtra,Pimpri-Chinchwad,"Park Street Wakad, Pimpri Chinchwad - MPCB",16-04-2024 14:00:00,18.59051,73.77946,SO2,6,15,9
India,Maharashtra,Pimpri-Chinchwad,"Thergaon, Pimpri Chinchwad - MPCB",16-04-2024 14:00:00,18.616318,73.765797,OZONE,25,129,71
India,Maharashtra,Pune,"Bhosari, Pune - IITM",16-04-2024 14:00:00,18.640051,73.848956,CO,32,58,44
India,Maharashtra,Pune,"Bhosari, Pune - IITM",16-04-2024 14:00:00,18.640051,73.848956,OZONE,6,85,44
India,Maharashtra,Pune,"Katraj Dairy, Pune - MPCB",16-04-2024 14:00:00,18.454450,73.854155,NH3,2,5,3
India,Maharashtra,Pune,"Mhada Colony, Pune - IITM",16-04-2024 14:00:00,18.573040,73.927715,PM10,15,94,74
India,Maharashtra,Pune,"Mhada Colony, Pune - IITM",16-04-2024 14:00:00,18.573040,73.927715,NO2,1,9,1
India,Maharashtra,Pune,"Savitribai Phule Pune University, Pune - MPCB",16-04-2024 14:00:00,18.547056,73.826908,PM10,61,117,88
India,Maharashtra,Pune,"Savitribai Phule Pune University, Pune - MPCB",16-04-2024 14:00:00,18.547056,73.826908,NH3,2,5,3
India,Maharashtra,Pune,"Savitribai Phule Pune University, Pune - MPCB",16-04-2024 14:00:00,18.547056,73.826908,OZONE,1,179,179
India,Maharashtra,Sangli,"Vijay Nagar, Sangli - MPCB",16-04-2024 14:00:00, 16.5038,74.3623,SO2,6,22,11
India,Maharashtra,Sangli,"Vijay Nagar, Sangli - MPCB",16-04-2024 14:00:00, 16.5038,74.3623,CO,15,46,28
India,Maharashtra,Solapur,"Ratandeep Housing Society, Solapur - MPCB",16-04-2024 14:00:00,17.65439,75.90649,CO,16,50,22
India,Maharashtra,Solapur,"Solapur, Solapur - MPCB",16-04-2024 14:00:00,17.6599188,75.9063906,NO2,53,55,54
India,Maharashtra,Solapur,"Solapur, Solapur - MPCB",16-04-2024 14:00:00,17.6599188,75.9063906,SO2,98,105,103
India,Maharashtra,Thane,"Kasarvadavali, Thane - MPCB",16-04-2024 14:00:00,19.26777,72.97182,PM2.5,57,106,76
India,Maharashtra,Thane,"Kasarvadavali, Thane - MPCB",16-04-2024 14:00:00,19.26777,72.97182,SO2,1,21,7
India,Maharashtra,Thane,"Kasarvadavali, Thane - MPCB",16-04-2024 14:00:00,19.26777,72.97182,CO,6,48,18
India,Maharashtra,Thane,"Pimpleshwar Mandir, Thane - MPCB",16-04-2024 14:00:00,19.192056,72.9585188,PM10,51,323,149
India,Maharashtra,Thane,"Upvan Fort, Thane - MPCB",16-04-2024 14:00:00,19.222279,72.957979,PM10,86,147,114
India,Maharashtra,Ulhasnagar,"Sidhi Vinayak Nagar, Ulhasnagar - MPCB",16-04-2024 14:00:00,19.235581,73.159121,NO2,7,29,15
India,Maharashtra,Ulhasnagar,"Sidhi Vinayak Nagar, Ulhasnagar - MPCB",16-04-2024 14:00:00,19.235581,73.159121,SO2,8,40,15
India,Maharashtra,Ulhasnagar,"Sidhi Vinayak Nagar, Ulhasnagar - MPCB",16-04-2024 14:00:00,19.235581,73.159121,CO,15,88,23
India,Maharashtra,Virar,"Bolinj, Virar - MPCB",16-04-2024 14:00:00,19.4458210,72.7988231,PM10,77,173,111
India,Manipur,Imphal,"Manipur University, Imphal - Manipur PCB",16-04-2024 14:00:00,24.7524239,93.9286218,PM2.5,NA,NA,NA
India,Manipur,Imphal,"Manipur University, Imphal - Manipur PCB",16-04-2024 14:00:00,24.7524239,93.9286218,OZONE,1,86,41
India,Meghalaya,Shillong,"Lumpyngngad, Shillong - Meghalaya PCB",16-04-2024 14:00:00,25.5586,91.8985,PM10,NA,NA,NA
India,Meghalaya,Shillong,"Lumpyngngad, Shillong - Meghalaya PCB",16-04-2024 14:00:00,25.5586,91.8985,CO,13,18,14
India,Nagaland,Kohima,"PWD Juction, Kohima - NPCB",16-04-2024 14:00:00,25.6635413,94.0989878,PM10,74,158,119
India,Nagaland,Kohima,"PWD Juction, Kohima - NPCB",16-04-2024 14:00:00,25.6635413,94.0989878,OZONE,8,97,37
India,Odisha,Angul,"Hakimapada, Angul - OSPCB",16-04-2024 14:00:00,20.832874,85.104082,SO2,9,118,36
India,Odisha,Angul,"Hakimapada, Angul - OSPCB",16-04-2024 14:00:00,20.832874,85.104082,CO,4,88,46
India,Odisha,Balasore,"Kalidaspur, Balasore - OSPCB",16-04-2024 14:00:00,21.51161,86.89088,CO,22,57,33
India,Odisha,Barbil,"Forest Office, Barbil - OSPCB",16-04-2024 14:00:00,22.1166054,85.3945546,PM10,87,231,148
India,Odisha,Bhubaneswar,"Lingraj Mandir, Bhubaneswar - OSPCB",16-04-2024 14:00:00,20.240790,85.836784,NH3,2,4,3
India,Odisha,Bhubaneswar,"Patia, Bhubaneswar - OSPCB",16-04-2024 14:00:00,20.34652,85.81630,PM2.5,28,116,68
India,Odisha,Bileipada,"Tata Township, Bileipada - OSPCB",16-04-2024 14:00:00,22.06156703,85.47409613,PM10,20,410,234
India,Odisha,Bileipada,"Tata Township, Bileipada - OSPCB",16-04-2024 14:00:00,22.06156703,85.47409613,NO2,10,15,12
India,Odisha,Bileipada,"Tata Township, Bileipada - OSPCB",16-04-2024 14:00:00,22.06156703,85.47409613,CO,22,101,51
India,Odisha,Brajrajnagar,"GM Office, Brajrajnagar - OSPCB",16-04-2024 14:00:00,21.8004996,83.8396977,NO2,15,22,16
India,Odisha,Byasanagar,"Ferro Chrome Colony, Byasanagar - OSPCB",16-04-2024 14:00:00,20.94185,86.11510,PM10,56,147,102
India,Odisha,Byasanagar,"Ferro Chrome Colony, Byasanagar - OSPCB",16-04-2024 14:00:00,20.94185,86.11510,SO2,6,104,31
India,Odisha,Byasanagar,"Ferro Chrome Colony, Byasanagar - OSPCB",16-04-2024 14:00:00,20.94185,86.11510,CO,66,104,90
India,Odisha,Byasanagar,"Ferro Chrome Colony, Byasanagar - OSPCB",16-04-2024 14:00:00,20.94185,86.11510,OZONE,33,269,269
India,Odisha,Cuttack,"CDA Area, Cuttack - OSPCB",16-04-2024 14:00:00,20.48891     ,85.84768     ,PM10,56,116,90
India,Odisha,Cuttack,"CDA Area, Cuttack - OSPCB",16-04-2024 14:00:00,20.48891     ,85.84768     ,NO2,14,36,21
India,Odisha,Cuttack,"CDA Area, Cuttack - OSPCB",16-04-2024 14:00:00,20.48891     ,85.84768     ,CO,6,34,30
India,Odisha,Keonjhar,"Jagamohanpur, Keonjhar - OSPCB",16-04-2024 14:00:00,21.643900,85.599355,PM10,72,115,98
India,Odisha,Rairangpur,"Divisional Forest Office, Rairangpur - OSPCB",16-04-2024 14:00:00,22.265816,86.174829,PM2.5,113,254,171
India,Odisha,Rairangpur,"Divisional Forest Office, Rairangpur - OSPCB",16-04-2024 14:00:00,22.265816,86.174829,SO2,5,11,7
India,Odisha,Rourkela,"Raghunathpali, Rourkela - OSPCB",16-04-2024 14:00:00,22.220833,84.809444,PM10,78,175,137
India,Odisha,Rourkela,"Raghunathpali, Rourkela - OSPCB",16-04-2024 14:00:00,22.220833,84.809444,NH3,1,3,2
India,Odisha,Rourkela,"Raghunathpali, Rourkela - OSPCB",16-04-2024 14:00:00,22.220833,84.809444,CO,22,64,48
India,Odisha,Rourkela,"Raghunathpali, Rourkela - OSPCB",16-04-2024 14:00:00,22.220833,84.809444,OZONE,4,94,48
India,Odisha,Suakati,"OMC Colony, Suakati - OSPCB",16-04-2024 14:00:00,21.606865,85.510538,NH3,3,5,4
India,Odisha,Suakati,"OMC Colony, Suakati - OSPCB",16-04-2024 14:00:00,21.606865,85.510538,SO2,14,62,32
India,Odisha,Talcher,"Talcher Coalfields,Talcher - OSPCB",16-04-2024 14:00:00,20.9360711,85.1707021,PM2.5,45,350,139
India,Odisha,Talcher,"Talcher Coalfields,Talcher - OSPCB",16-04-2024 14:00:00,20.9360711,85.1707021,NO2,18,23,20
India,Odisha,Talcher,"Talcher Coalfields,Talcher - OSPCB",16-04-2024 14:00:00,20.9360711,85.1707021,SO2,92,103,98
India,Odisha,Tensa,"Barsua Iron Ore Mines, Tensa - OSPCB",16-04-2024 14:00:00,21.869985,85.167016,PM10,82,120,102
India,Punjab,Bathinda,"Hardev Nagar, Bathinda - PPCB",16-04-2024 14:00:00,30.233011,74.907758,PM2.5,14,321,93
India,Punjab,Jalandhar,"Civil Line, Jalandhar - PPCB",16-04-2024 14:00:00,31.321907,75.578914,PM2.5,28,71,53
India,Punjab,Jalandhar,"Civil Line, Jalandhar - PPCB",16-04-2024 14:00:00,31.321907,75.578914,PM10,35,112,75
India,Punjab,Jalandhar,"Civil Line, Jalandhar - PPCB",16-04-2024 14:00:00,31.321907,75.578914,CO,22,44,28
India,Punjab,Khanna,"Kalal Majra, Khanna - PPCB",16-04-2024 14:00:00,30.736056 ,76.209694,PM2.5,69,186,105
India,Punjab,Khanna,"Kalal Majra, Khanna - PPCB",16-04-2024 14:00:00,30.736056 ,76.209694,SO2,5,33,12
India,Punjab,Khanna,"Kalal Majra, Khanna - PPCB",16-04-2024 14:00:00,30.736056 ,76.209694,CO,20,30,22
India,Punjab,Ludhiana,"Punjab Agricultural University, Ludhiana - PPCB",16-04-2024 14:00:00,30.9028,75.8086,NH3,3,5,4
India,Punjab,Patiala,"Model Town, Patiala - PPCB",16-04-2024 14:00:00,30.349388,76.366642,PM10,58,111,87
India,Punjab,Patiala,"Model Town, Patiala - PPCB",16-04-2024 14:00:00,30.349388,76.366642,NH3,6,7,6
India,Punjab,Patiala,"Model Town, Patiala - PPCB",16-04-2024 14:00:00,30.349388,76.366642,CO,16,60,26
India,Punjab,Rupnagar,"Ratanpura, Rupnagar - Ambuja Cements",16-04-2024 14:00:00,31.0325454,76.5623046,PM10,48,129,84
India,Rajasthan,Ajmer,"Civil Lines,  Ajmer - RSPCB",16-04-2024 14:00:00,26.470859,74.646594,NH3,8,11,9
India,Rajasthan,Ajmer,"Civil Lines,  Ajmer - RSPCB",16-04-2024 14:00:00,26.470859,74.646594,SO2,11,12,12
India,Rajasthan,Ajmer,"Civil Lines,  Ajmer - RSPCB",16-04-2024 14:00:00,26.470859,74.646594,CO,10,39,26
India,Rajasthan,Alwar,"Moti Doongri, Alwar - RSPCB",16-04-2024 14:00:00,27.554793,76.611536,PM10,98,163,131
India,Rajasthan,Banswara,"Rati Talai, Banswara - RSPCB",16-04-2024 14:00:00,23.555190,74.440010,PM2.5,65,328,186
India,Rajasthan,Baran,"Bamboliya, Baran - RSPCB",16-04-2024 14:00:00,25.106006,76.469948,OZONE,8,77,48
India,Rajasthan,Barmer,"Railway Colony, Barmer - RSPCB",16-04-2024 14:00:00,25.747299,71.393989,CO,2,23,15
India,Rajasthan,Barmer,"Railway Colony, Barmer - RSPCB",16-04-2024 14:00:00,25.747299,71.393989,OZONE,44,94,63
India,Rajasthan,Bharatpur,"Krishna Nagar, Bharatpur - RSPCB",16-04-2024 14:00:00,27.215415,77.50873,NO2,11,53,28
India,Rajasthan,Bharatpur,"Krishna Nagar, Bharatpur - RSPCB",16-04-2024 14:00:00,27.215415,77.50873,NH3,2,6,4
India,Rajasthan,Bharatpur,"Krishna Nagar, Bharatpur - RSPCB",16-04-2024 14:00:00,27.215415,77.50873,SO2,4,24,14
India,Rajasthan,Bhilwara,"Pratap Nagar, Bhilwara - RSPCB",16-04-2024 14:00:00,25.339605,74.618883,NO2,12,45,23
India,Rajasthan,Bhiwadi,"RIICO Ind. Area III, Bhiwadi - RSPCB",16-04-2024 14:00:00,28.194909,76.862296,PM10,67,281,177
India,Rajasthan,Bhiwadi,"RIICO Ind. Area III, Bhiwadi - RSPCB",16-04-2024 14:00:00,28.194909,76.862296,NO2,6,37,19
India,Rajasthan,Bhiwadi,"RIICO Ind. Area III, Bhiwadi - RSPCB",16-04-2024 14:00:00,28.194909,76.862296,SO2,8,58,33
India,Rajasthan,Bikaner,"MM Ground, Bikaner - RSPCB",16-04-2024 14:00:00,28.018792,73.292658,PM2.5,NA,NA,NA
India,Rajasthan,Bikaner,"MM Ground, Bikaner - RSPCB",16-04-2024 14:00:00,28.018792,73.292658,NH3,12,22,14
India,Rajasthan,Bikaner,"MM Ground, Bikaner - RSPCB",16-04-2024 14:00:00,28.018792,73.292658,OZONE,16,80,60
India,Rajasthan,Bundi,"New Colony, Bundi - RSPCB",16-04-2024 14:00:00,25.435774,75.644272,PM2.5,2,67,21
India,Rajasthan,Chittorgarh,"Shastri Nagar, Chittorgarh - RSPCB",16-04-2024 14:00:00,24.892047,74.623527,PM2.5,8,120,60
India,Rajasthan,Chittorgarh,"Shastri Nagar, Chittorgarh - RSPCB",16-04-2024 14:00:00,24.892047,74.623527,NH3,4,14,8
India,Rajasthan,Churu,"Subash Chowk, Churu - RSPCB",16-04-2024 14:00:00,28.296139,74.961696,PM10,21,78,46
India,Rajasthan,Churu,"Subash Chowk, Churu - RSPCB",16-04-2024 14:00:00,28.296139,74.961696,CO,12,30,18
India,Rajasthan,Dausa,"Khatikan Mohalla, Dausa - RSPCB",16-04-2024 14:00:00,26.895552,76.334753,PM10,12,135,72
India,Rajasthan,Dausa,"Khatikan Mohalla, Dausa - RSPCB",16-04-2024 14:00:00,26.895552,76.334753,CO,14,109,33
India,Rajasthan,Dungarpur,"Bhoiwada, Dungarpur - RSPCB",16-04-2024 14:00:00,23.837789,73.714926,PM10,45,105,67
India,Rajasthan,Dungarpur,"Bhoiwada, Dungarpur - RSPCB",16-04-2024 14:00:00,23.837789,73.714926,CO,10,26,18
India,Rajasthan,Dungarpur,"Bhoiwada, Dungarpur - RSPCB",16-04-2024 14:00:00,23.837789,73.714926,OZONE,8,65,34
India,Rajasthan,Hanumangarh,"Housing Board, Hanumangarh - RSPCB",16-04-2024 14:00:00,29.610750,74.283608,PM2.5,10,187,55
India,Rajasthan,Jaipur,"Mansarovar Sector-12, Jaipur - RSPCB",16-04-2024 14:00:00,26.843698,75.766894,NO2,9,73,27
India,Rajasthan,Jaipur,"Police Commissionerate, Jaipur - RSPCB",16-04-2024 14:00:00,26.9164092,75.7994901,PM10,46,126,76
India,Rajasthan,Jaipur,"RIICO Sitapura, Jaipur - RSPCB",16-04-2024 14:00:00,26.786682,75.827928,NH3,14,31,21
India,Rajasthan,Jaipur,"Shastri Nagar, Jaipur - RSPCB",16-04-2024 14:00:00,26.9502929,75.730943,PM2.5,39,89,57
India,Rajasthan,Jaipur,"Shastri Nagar, Jaipur - RSPCB",16-04-2024 14:00:00,26.9502929,75.730943,PM10,64,112,92
India,Rajasthan,Jhunjhunu,"Indra Nagar, Jhunjhunu - RSPCB",16-04-2024 14:00:00,28.108988,75.386577,PM10,27,124,63
India,Rajasthan,Jodhpur,"Collectorate, Jodhpur - RSPCB",16-04-2024 14:00:00,26.268249,73.0193853,PM2.5,1,480,83
India,Rajasthan,Jodhpur,"Digari Kalan, Jodhpur - RSPCB",16-04-2024 14:00:00,26.295810,73.082283,SO2,3,5,4
India,Rajasthan,Jodhpur,"Digari Kalan, Jodhpur - RSPCB",16-04-2024 14:00:00,26.295810,73.082283,CO,9,30,14
India,Rajasthan,Jodhpur,"Jhalamand, Jodhpur - RSPCB",16-04-2024 14:00:00,26.215415,73.070156,NH3,6,22,12
India,Rajasthan,Jodhpur,"Jhalamand, Jodhpur - RSPCB",16-04-2024 14:00:00,26.215415,73.070156,SO2,1,14,4
India,Rajasthan,Jodhpur,"Mandor, Jodhpur - RSPCB",16-04-2024 14:00:00,26.358805,73.047444,NO2,19,52,35
India,Rajasthan,Jodhpur,"Samrat Ashok Udhyan, Jodhpur - RSPCB",16-04-2024 14:00:00,26.253384,72.976571,NH3,5,9,6
India,Rajasthan,Karauli,"Satyawati Vihar, Karauli - RSPCB",16-04-2024 14:00:00,26.506177,77.025989,SO2,3,25,19
India,Rajasthan,Kota,"Dhanmandi, Kota - RSPCB",16-04-2024 14:00:00,25.164090,75.858137,PM10,48,121,74
India,Rajasthan,Kota,"Dhanmandi, Kota - RSPCB",16-04-2024 14:00:00,25.164090,75.858137,SO2,8,12,9
India,Rajasthan,Kota,"Nayapura, Kota - RSPCB",16-04-2024 14:00:00,25.196024,75.855668,PM2.5,10,63,28
India,Rajasthan,Kota,"Nayapura, Kota - RSPCB",16-04-2024 14:00:00,25.196024,75.855668,OZONE,1,96,61
India,Rajasthan,Nagaur,"Karni Colony, Nagaur - RSPCB",16-04-2024 14:00:00,27.213494,73.734444,NO2,9,29,20
India,Rajasthan,Nagaur,"Karni Colony, Nagaur - RSPCB",16-04-2024 14:00:00,27.213494,73.734444,SO2,3,5,4
India,Rajasthan,Pali,"Indira Colony Vistar, Pali - RSPCB",16-04-2024 14:00:00,25.771061, 73.340227,OZONE,13,77,49
India,Rajasthan,Pratapgarh,"Pragati Nagar, Pratapgarh - RSPCB",16-04-2024 14:00:00,24.041198,74.780702,NO2,6,40,17
India,Rajasthan,Pratapgarh,"Pragati Nagar, Pratapgarh - RSPCB",16-04-2024 14:00:00,24.041198,74.780702,SO2,3,18,7
India,Rajasthan,Rajsamand,"Dhoinda, Rajsamand - RSPCB",16-04-2024 14:00:00,25.036360,73.883502,NH3,NA,NA,NA
India,Rajasthan,Sawai Madhopur,"Sahu Nagar, Sawai Madhopur - RSPCB",16-04-2024 14:00:00,26.031443,76.359327,NH3,1,11,5
India,Rajasthan,Sawai Madhopur,"Sahu Nagar, Sawai Madhopur - RSPCB",16-04-2024 14:00:00,26.031443,76.359327,SO2,5,50,13
India,Rajasthan,Sikar,"Radhakishan Pura, Sikar - RSPCB",16-04-2024 14:00:00,27.608912,75.153302,PM10,29,132,71
India,Rajasthan,Sirohi,"Vedhaynath Colony, Sirohi - RSPCB",16-04-2024 14:00:00,24.885261,72.857549,PM2.5,11,45,27
India,Rajasthan,Sirohi,"Vedhaynath Colony, Sirohi - RSPCB",16-04-2024 14:00:00,24.885261,72.857549,SO2,1,21,10
India,Rajasthan,Sri Ganganagar,"Old City, Sri Ganganagar - RSPCB",16-04-2024 14:00:00,29.931624,73.864511,SO2,1,7,2
India,Rajasthan,Tonk,"Shastri Nagar, Tonk - RSPCB",16-04-2024 14:00:00,26.159933,75.780517,OZONE,18,68,48
India,Rajasthan,Udaipur,"Ashok Nagar, Udaipur - RSPCB",16-04-2024 14:00:00,24.5886166,73.6321397,PM2.5,33,89,52
India,Sikkim,Gangtok,"Zero Point GICI, Gangtok - SSPCB",16-04-2024 14:00:00,27.338530,88.614099,PM10,21,73,47
India,Sikkim,Gangtok,"Zero Point GICI, Gangtok - SSPCB",16-04-2024 14:00:00,27.338530,88.614099,NO2,1,10,2
India,Sikkim,Gangtok,"Zero Point GICI, Gangtok - SSPCB",16-04-2024 14:00:00,27.338530,88.614099,OZONE,30,113,52
India,TamilNadu,Chennai,"Alandur Bus Depot, Chennai - CPCB",16-04-2024 14:00:00,12.9099161,80.1076538,PM2.5,28,41,35
India,TamilNadu,Chennai,"Alandur Bus Depot, Chennai - CPCB",16-04-2024 14:00:00,12.9099161,80.1076538,PM10,28,41,35
India,TamilNadu,Chennai,"Alandur Bus Depot, Chennai - CPCB",16-04-2024 14:00:00,12.9099161,80.1076538,SO2,1,8,3
India,TamilNadu,Chennai,"Kodungaiyur, Chennai - TNPCB",16-04-2024 14:00:00,13.1278,80.2642,SO2,2,14,7
India,TamilNadu,Chennai,"Manali, Chennai - CPCB",16-04-2024 14:00:00,13.164544,80.26285,NH3,4,4,4
India,TamilNadu,Chennai,"Royapuram, Chennai - TNPCB",16-04-2024 14:00:00,13.1036,80.2909,PM10,24,91,47
India,TamilNadu,Chennai,"Royapuram, Chennai - TNPCB",16-04-2024 14:00:00,13.1036,80.2909,NO2,8,22,14
India,TamilNadu,Chennai,"Velachery Res. Area, Chennai - CPCB",16-04-2024 14:00:00,13.0052189,80.2398125,PM2.5,30,55,41
India,TamilNadu,Chennai,"Velachery Res. Area, Chennai - CPCB",16-04-2024 14:00:00,13.0052189,80.2398125,SO2,10,11,11
India,TamilNadu,Chennai,"Velachery Res. Area, Chennai - CPCB",16-04-2024 14:00:00,13.0052189,80.2398125,OZONE,6,50,25
India,TamilNadu,Coimbatore,"PSG College of Arts and Science, Coimbatore - TNPCB",16-04-2024 14:00:00,11.0328,77.0349,PM2.5,15,68,42
India,TamilNadu,Kanchipuram,"Kilambi, Kanchipuram - TNPCB",16-04-2024 14:00:00,12.864618,79.659968,NO2,1,17,6
India,TamilNadu,Ooty,"Bombay Castel, Ooty - TNPCB",16-04-2024 14:00:00,11.4068288,76.7138973,OZONE,5,6,5
India,TamilNadu,Palkalaiperur,"Bharathidasan University, Palkalaiperur - TNPCB",16-04-2024 14:00:00,10.681158,78.741746,CO,2,6,3
India,TamilNadu,Ramanathapuram,"Chalai Bazaar, Ramanathapuram - TNPCB",16-04-2024 14:00:00,9.36399,78.831977,NH3,1,1,1
India,TamilNadu,Thoothukudi,"Meelavittan, Thoothukudi - TNPCB",16-04-2024 14:00:00,8.816428 ,78.099039,PM10,8,32,23
India,TamilNadu,Tirupur,"Kumaran College, Tirupur - TNPCB",16-04-2024 14:00:00,11.0973603,77.3228673,NH3,NA,NA,NA
India,TamilNadu,Virudhunagar,"Collectorate Office, Virudhunagar - TNPCB",16-04-2024 14:00:00,9.559382,77.948828,PM10,32,77,48
India,TamilNadu,Virudhunagar,"Collectorate Office, Virudhunagar - TNPCB",16-04-2024 14:00:00,9.559382,77.948828,NH3,6,6,6
India,Telangana,Hyderabad,"Bollaram Industrial Area, Hyderabad - TSPCB",16-04-2024 14:00:00,17.540891,78.358528,NH3,2,4,3
India,Telangana,Hyderabad,"Central University, Hyderabad - TSPCB",16-04-2024 14:00:00,17.460103,78.334361,OZONE,3,4,3
India,Telangana,Hyderabad,"ECIL Kapra, Hyderabad - TSPCB",16-04-2024 14:00:00,17.470431,78.566959,NO2,9,13,9
India,Telangana,Hyderabad,"IITH Kandi, Hyderabad - TSPCB",16-04-2024 14:00:00,17.585705,78.126199,PM2.5,NA,NA,NA
India,Telangana,Hyderabad,"IITH Kandi, Hyderabad - TSPCB",16-04-2024 14:00:00,17.585705,78.126199,NH3,NA,NA,NA
India,Telangana,Hyderabad,"Kokapet, Hyderabad - TSPCB",16-04-2024 14:00:00,17.393559,78.339194,NO2,6,10,10
India,Telangana,Hyderabad,"Kokapet, Hyderabad - TSPCB",16-04-2024 14:00:00,17.393559,78.339194,OZONE,3,11,6
India,Telangana,Hyderabad,"Kompally Municipal Office, Hyderabad - TSPCB",16-04-2024 14:00:00,17.544899,78.486949,NH3,7,7,7
India,Telangana,Hyderabad,"Nacharam_TSIIC IALA, Hyderabad - TSPCB",16-04-2024 14:00:00,17.429398,78.569354,PM2.5,NA,NA,NA
India,Telangana,Hyderabad,"Nacharam_TSIIC IALA, Hyderabad - TSPCB",16-04-2024 14:00:00,17.429398,78.569354,PM10,NA,NA,NA
India,Telangana,Hyderabad,"Nacharam_TSIIC IALA, Hyderabad - TSPCB",16-04-2024 14:00:00,17.429398,78.569354,SO2,NA,NA,NA
India,Telangana,Hyderabad,"Nacharam_TSIIC IALA, Hyderabad - TSPCB",16-04-2024 14:00:00,17.429398,78.569354,OZONE,37,79,40
India,Telangana,Hyderabad,"New Malakpet, Hyderabad - TSPCB",16-04-2024 14:00:00,17.37206,78.50864,SO2,7,13,9
India,Telangana,Hyderabad,"New Malakpet, Hyderabad - TSPCB",16-04-2024 14:00:00,17.37206,78.50864,OZONE,9,55,40
India,Telangana,Hyderabad,"Ramachandrapuram, Hyderabad - TSPCB",16-04-2024 14:00:00,17.528544,78.286195,OZONE,NA,NA,NA
India,Telangana,Hyderabad,"Sanathnagar, Hyderabad - TSPCB",16-04-2024 14:00:00,17.4559458,78.4332152,CO,33,48,42
India,Telangana,Hyderabad,"Somajiguda, Hyderabad - TSPCB",16-04-2024 14:00:00,17.417094,78.457437,PM10,70,84,75
India,Telangana,Hyderabad,"Somajiguda, Hyderabad - TSPCB",16-04-2024 14:00:00,17.417094,78.457437,OZONE,10,54,29
India,Telangana,Hyderabad,"Zoo Park, Hyderabad - TSPCB",16-04-2024 14:00:00,17.349694,78.451437,PM2.5,33,140,72
India,Tripura,Agartala,"Bardowali, Agartala - Tripura SPCB",16-04-2024 14:00:00,23.8175497,91.2726974,CO,26,96,30
India,Uttar_Pradesh,Agra,"Manoharpur, Agra - UPPCB",16-04-2024 14:00:00,27.23711,78.01936,CO,6,14,11
India,Uttar_Pradesh,Agra,"Rohta, Agra - UPPCB",16-04-2024 14:00:00,27.106972,78.000111,CO,6,35,12
India,Uttar_Pradesh,Agra,"Sanjay Palace, Agra - UPPCB",16-04-2024 14:00:00,27.19865833,78.00598056,PM2.5,10,38,24
India,Uttar_Pradesh,Agra,"Sanjay Palace, Agra - UPPCB",16-04-2024 14:00:00,27.19865833,78.00598056,CO,10,84,35
India,Uttar_Pradesh,Agra,"Shahjahan Garden, Agra - UPPCB",16-04-2024 14:00:00,27.169338,78.03582,NO2,24,25,25
India,Uttar_Pradesh,Agra,"Shahjahan Garden, Agra - UPPCB",16-04-2024 14:00:00,27.169338,78.03582,SO2,37,50,42
India,Uttar_Pradesh,Agra,"Shahjahan Garden, Agra - UPPCB",16-04-2024 14:00:00,27.169338,78.03582,CO,12,28,22
India,Uttar_Pradesh,Agra,"Shahjahan Garden, Agra - UPPCB",16-04-2024 14:00:00,27.169338,78.03582,OZONE,1,15,4
India,Uttar_Pradesh,Agra,"Shastripuram, Agra - UPPCB",16-04-2024 14:00:00,27.19862,77.92066,PM2.5,22,108,57
India,Uttar_Pradesh,Agra,"Shastripuram, Agra - UPPCB",16-04-2024 14:00:00,27.19862,77.92066,SO2,14,15,15
India,Uttar_Pradesh,Baghpat,"Sardar Patel Inter College, Baghpat - UPPCB",16-04-2024 14:00:00,28.964949,77.278761,NH3,1,8,4
India,Uttar_Pradesh,Bareilly,"Civil Lines, Bareilly - UPPCB",16-04-2024 14:00:00,28.359581,79.414455,PM2.5,7,10,8
India,Uttar_Pradesh,Bareilly,"Civil Lines, Bareilly - UPPCB",16-04-2024 14:00:00,28.359581,79.414455,PM10,50,91,80
India,Uttar_Pradesh,Bareilly,"Rajendra Nagar, Bareilly - UPPCB",16-04-2024 14:00:00,28.38910936,79.42963708,PM10,42,96,66
India,Uttar_Pradesh,Bulandshahr,"Yamunapuram, Bulandshahr - UPPCB",16-04-2024 14:00:00,28.406963,77.849831,PM10,95,246,145
India,Uttar_Pradesh,Firozabad,"Nagla Bhau, Firozabad - UPPCB",16-04-2024 14:00:00,27.168897,78.376960,OZONE,16,21,18
India,Uttar_Pradesh,Firozabad,"Vibhab Nagar, Firozabad - UPPCB",16-04-2024 14:00:00,27.1594,78.3953,SO2,12,67,26
India,Uttar_Pradesh,Ghaziabad,"Indirapuram, Ghaziabad - UPPCB",16-04-2024 14:00:00,28.646233,77.358075,PM2.5,37,323,179
India,Uttar_Pradesh,Ghaziabad,"Loni, Ghaziabad - UPPCB",16-04-2024 14:00:00,28.757294,77.278792,NH3,1,8,4
India,Uttar_Pradesh,Ghaziabad,"Loni, Ghaziabad - UPPCB",16-04-2024 14:00:00,28.757294,77.278792,CO,14,111,62
India,Uttar_Pradesh,Ghaziabad,"Sanjay Nagar, Ghaziabad - UPPCB",16-04-2024 14:00:00,28.685382,77.453839,PM10,86,408,169
India,Uttar_Pradesh,Ghaziabad,"Sanjay Nagar, Ghaziabad - UPPCB",16-04-2024 14:00:00,28.685382,77.453839,SO2,15,67,29
India,Uttar_Pradesh,Ghaziabad,"Vasundhara, Ghaziabad - UPPCB",16-04-2024 14:00:00,28.6603346,77.3572563,NH3,8,18,12
India,Uttar_Pradesh,Gorakhpur,"Madan Mohan Malaviya University of Technology, Gorakhpur - UPPCB",16-04-2024 14:00:00,26.730136,83.433859,PM2.5,40,194,76
India,Uttar_Pradesh,Gorakhpur,"Madan Mohan Malaviya University of Technology, Gorakhpur - UPPCB",16-04-2024 14:00:00,26.730136,83.433859,CO,8,22,18
India,Uttar_Pradesh,Greater Noida,"Knowledge Park - III, Greater Noida - UPPCB",16-04-2024 14:00:00,28.47272,77.482000,PM2.5,46,346,215
India,Uttar_Pradesh,Greater Noida,"Knowledge Park - III, Greater Noida - UPPCB",16-04-2024 14:00:00,28.47272,77.482000,NH3,13,55,28
India,Uttar_Pradesh,Greater Noida,"Knowledge Park - V, Greater Noida - UPPCB",16-04-2024 14:00:00,28.557054,77.453663,PM2.5,94,382,254
India,Uttar_Pradesh,Hapur,"Anand Vihar, Hapur - UPPCB",16-04-2024 14:00:00,28.725645,77.749675,CO,24,48,37
India,Uttar_Pradesh,Kanpur,"FTI Kidwai Nagar, Kanpur - UPPCB",16-04-2024 14:00:00,26.428282,80.327067,OZONE,3,5,4
India,Uttar_Pradesh,Kanpur,"NSI Kalyanpur, Kanpur - UPPCB",16-04-2024 14:00:00,26.509954,80.249612,OZONE,35,71,54
India,Uttar_Pradesh,Kanpur,"Nehru Nagar, Kanpur - UPPCB",16-04-2024 14:00:00,26.4703136,80.3229863,OZONE,75,150,117
India,Uttar_Pradesh,Khurja,"Kalindi Kunj, Khurja - UPPCB",16-04-2024 14:00:00,28.2348927,77.8683002,PM10,38,192,89
India,Uttar_Pradesh,Khurja,"Kalindi Kunj, Khurja - UPPCB",16-04-2024 14:00:00,28.2348927,77.8683002,NO2,3,4,3
India,Uttar_Pradesh,Khurja,"Kalindi Kunj, Khurja - UPPCB",16-04-2024 14:00:00,28.2348927,77.8683002,CO,35,72,58
India,Uttar_Pradesh,Lucknow,"B R Ambedkar University, Lucknow - UPPCB",16-04-2024 14:00:00,26.766433,80.927299,PM2.5,34,135,82
India,Uttar_Pradesh,Lucknow,"B R Ambedkar University, Lucknow - UPPCB",16-04-2024 14:00:00,26.766433,80.927299,PM10,76,134,115
India,Uttar_Pradesh,Lucknow,"B R Ambedkar University, Lucknow - UPPCB",16-04-2024 14:00:00,26.766433,80.927299,NH3,6,7,6
India,Uttar_Pradesh,Lucknow,"B R Ambedkar University, Lucknow - UPPCB",16-04-2024 14:00:00,26.766433,80.927299,SO2,32,40,35
India,Uttar_Pradesh,Lucknow,"B R Ambedkar University, Lucknow - UPPCB",16-04-2024 14:00:00,26.766433,80.927299,OZONE,21,80,51
India,Uttar_Pradesh,Lucknow,"Gomti Nagar, Lucknow - UPPCB",16-04-2024 14:00:00,26.868120,81.005119,NO2,9,12,11
India,Uttar_Pradesh,Lucknow,"Kendriya Vidyalaya, Lucknow - CPCB",16-04-2024 14:00:00,26.906111,80.948222,PM10,102,125,113
India,Uttar_Pradesh,Lucknow,"Kukrail Picnic Spot-1, Lucknow - UPPCB",16-04-2024 14:00:00,26.90723,80.98579,NO2,8,9,8
India,Uttar_Pradesh,Lucknow,"Lalbagh, Lucknow - CPCB",16-04-2024 14:00:00,26.8458805,80.9365541,CO,6,56,27
India,Uttar_Pradesh,Lucknow,"Talkatora District Industries Center, Lucknow - CPCB",16-04-2024 14:00:00,26.83399722,80.8917361,PM2.5,36,193,77
India,Uttar_Pradesh,Lucknow,"Talkatora District Industries Center, Lucknow - CPCB",16-04-2024 14:00:00,26.83399722,80.8917361,PM10,119,152,135
India,Uttar_Pradesh,Meerut,"Ganga Nagar, Meerut - UPPCB",16-04-2024 14:00:00,28.999264,77.7590354,SO2,15,39,23
India,Uttar_Pradesh,Meerut,"Ganga Nagar, Meerut - UPPCB",16-04-2024 14:00:00,28.999264,77.7590354,CO,23,98,48
India,Uttar_Pradesh,Meerut,"Jai Bhim Nagar, Meerut - UPPCB",16-04-2024 14:00:00,28.9535882,77.7622941,PM2.5,23,259,113
India,Uttar_Pradesh,Meerut,"Pallavpuram Phase 2, Meerut - UPPCB",16-04-2024 14:00:00,29.063510,77.709723,OZONE,9,95,47
India,Uttar_Pradesh,Moradabad,"Eco Herbal Park, Moradabad - UPPCB",16-04-2024 14:00:00,28.840739,78.697531,CO,14,88,60
India,Uttar_Pradesh,Moradabad,"Employment Office, Moradabad - UPPCB",16-04-2024 14:00:00,28.88528,78.73880,PM2.5,38,92,61
India,Uttar_Pradesh,Moradabad,"Employment Office, Moradabad - UPPCB",16-04-2024 14:00:00,28.88528,78.73880,NO2,17,19,19
India,Uttar_Pradesh,Moradabad,"Employment Office, Moradabad - UPPCB",16-04-2024 14:00:00,28.88528,78.73880,CO,21,60,35
India,Uttar_Pradesh,Moradabad,"Jigar Colony, Moradabad - UPPCB",16-04-2024 14:00:00,28.856664,78.772638,PM2.5,21,79,52
India,Uttar_Pradesh,Moradabad,"Jigar Colony, Moradabad - UPPCB",16-04-2024 14:00:00,28.856664,78.772638,PM10,64,127,102
India,Uttar_Pradesh,Moradabad,"Jigar Colony, Moradabad - UPPCB",16-04-2024 14:00:00,28.856664,78.772638,NH3,3,5,4
India,Uttar_Pradesh,Moradabad,"Jigar Colony, Moradabad - UPPCB",16-04-2024 14:00:00,28.856664,78.772638,SO2,30,37,33
India,Uttar_Pradesh,Moradabad,"Kashiram Nagar, Moradabad - UPPCB",16-04-2024 14:00:00,28.849399,78.742362,PM10,58,143,107
India,Uttar_Pradesh,Moradabad,"Kashiram Nagar, Moradabad - UPPCB",16-04-2024 14:00:00,28.849399,78.742362,CO,28,72,38
India,Uttar_Pradesh,Moradabad,"Transport Nagar, Moradabad - UPPCB",16-04-2024 14:00:00,28.802625,78.753728,NH3,5,5,5
India,Uttar_Pradesh,Noida,"Sector-1, Noida - UPPCB",16-04-2024 14:00:00,28.5898,77.3101,CO,10,116,23
India,Uttar_Pradesh,Noida,"Sector-116, Noida - UPPCB",16-04-2024 14:00:00,28.569230,77.393848,PM2.5,49,341,207
India,Uttar_Pradesh,Noida,"Sector-116, Noida - UPPCB",16-04-2024 14:00:00,28.569230,77.393848,NO2,15,121,71
India,Uttar_Pradesh,Prayagraj,"Nagar Nigam, Prayagraj - UPPCB",16-04-2024 14:00:00,25.44919916 ,81.82735986 ,NO2,5,5,5
India,Uttar_Pradesh,Varanasi,"Ardhali Bazar, Varanasi - UPPCB",16-04-2024 14:00:00,25.3505986,82.9083074,PM10,14,49,31
India,Uttar_Pradesh,Varanasi,"Ardhali Bazar, Varanasi - UPPCB",16-04-2024 14:00:00,25.3505986,82.9083074,NO2,20,42,27
India,Uttar_Pradesh,Varanasi,"Bhelupur, Varanasi - UPPCB",16-04-2024 14:00:00,25.301778,82.996789,PM2.5,5,15,10
India,Uttar_Pradesh,Varanasi,"Bhelupur, Varanasi - UPPCB",16-04-2024 14:00:00,25.301778,82.996789,SO2,27,32,28
India,Uttar_Pradesh,Varanasi,"Bhelupur, Varanasi - UPPCB",16-04-2024 14:00:00,25.301778,82.996789,CO,15,51,22
India,Uttar_Pradesh,Varanasi,"IESD Banaras Hindu University, Varanasi - UPPCB",16-04-2024 14:00:00,25.262326,82.995408,PM2.5,NA,NA,NA
India,Uttar_Pradesh,Varanasi,"IESD Banaras Hindu University, Varanasi - UPPCB",16-04-2024 14:00:00,25.262326,82.995408,NO2,2,3,2
India,Uttar_Pradesh,Varanasi,"Maldahiya, Varanasi - UPPCB",16-04-2024 14:00:00,25.32393,82.99687,CO,7,31,17
India,Uttar_Pradesh,Varanasi,"Maldahiya, Varanasi - UPPCB",16-04-2024 14:00:00,25.32393,82.99687,OZONE,1,24,9
India,Uttarakhand,Dehradun,"Doon University, Dehradun - UKPCB",16-04-2024 14:00:00,30.269444,78.044167,NO2,1,12,5
India,Uttarakhand,Dehradun,"Doon University, Dehradun - UKPCB",16-04-2024 14:00:00,30.269444,78.044167,OZONE,22,111,54
India,Uttarakhand,Rishikesh,"Shivaji Nagar, Rishikesh - UKPCB",16-04-2024 14:00:00,30.075911,78.2859547,PM2.5,52,89,69
India,West_Bengal,Barrackpore,"SVSPA Campus, Barrackpore - WBPCB",16-04-2024 14:00:00,22.7605581,88.3617589,PM2.5,NA,NA,NA
India,West_Bengal,Barrackpore,"SVSPA Campus, Barrackpore - WBPCB",16-04-2024 14:00:00,22.7605581,88.3617589,CO,2,16,2
India,West_Bengal,Haldia,"Priyambada Housing Estate, Haldia - WBPCB",16-04-2024 14:00:00,22.06047,88.109737,OZONE,11,35,24
India,West_Bengal,Howrah,"Belur Math, Howrah - WBPCB",16-04-2024 14:00:00,22.629801,88.352017,NO2,8,18,15
India,West_Bengal,Howrah,"Ghusuri, Howrah - WBPCB",16-04-2024 14:00:00,22.611968,88.347422,NH3,3,3,3
India,West_Bengal,Howrah,"Ghusuri, Howrah - WBPCB",16-04-2024 14:00:00,22.611968,88.347422,SO2,3,6,5
India,West_Bengal,Howrah,"Ghusuri, Howrah - WBPCB",16-04-2024 14:00:00,22.611968,88.347422,CO,1,30,12
India,West_Bengal,Howrah,"Padmapukur, Howrah - WBPCB",16-04-2024 14:00:00,22.5687319,88.2797276,NO2,7,8,8
India,West_Bengal,Kolkata,"Ballygunge, Kolkata - WBPCB",16-04-2024 14:00:00,22.5367507,88.3638022,NH3,7,16,9
India,West_Bengal,Kolkata,"Ballygunge, Kolkata - WBPCB",16-04-2024 14:00:00,22.5367507,88.3638022,CO,10,32,24
India,West_Bengal,Kolkata,"Bidhannagar, Kolkata - WBPCB",16-04-2024 14:00:00,22.58157048,88.41002457,NO2,9,25,14
India,West_Bengal,Kolkata,"Fort William, Kolkata - WBPCB",16-04-2024 14:00:00,22.556640,88.342674,NH3,4,18,5
India,West_Bengal,Kolkata,"Jadavpur, Kolkata - WBPCB",16-04-2024 14:00:00,22.49929,88.36917,PM10,47,91,68
India,West_Bengal,Kolkata,"Jadavpur, Kolkata - WBPCB",16-04-2024 14:00:00,22.49929,88.36917,SO2,4,27,10
India,West_Bengal,Kolkata,"Rabindra Bharati University, Kolkata - WBPCB",16-04-2024 14:00:00,22.627847,88.380669,SO2,5,8,7
India,West_Bengal,Kolkata,"Rabindra Sarobar, Kolkata - WBPCB",16-04-2024 14:00:00,22.51106,88.35142,SO2,8,63,20
India,West_Bengal,Kolkata,"Rabindra Sarobar, Kolkata - WBPCB",16-04-2024 14:00:00,22.51106,88.35142,OZONE,28,148,59
India,West_Bengal,Kolkata,"Victoria, Kolkata - WBPCB",16-04-2024 14:00:00,22.5448082,88.3403691,PM10,57,113,85
India,West_Bengal,Kolkata,"Victoria, Kolkata - WBPCB",16-04-2024 14:00:00,22.5448082,88.3403691,NO2,8,11,9
India,West_Bengal,Kolkata,"Victoria, Kolkata - WBPCB",16-04-2024 14:00:00,22.5448082,88.3403691,SO2,9,37,15
India,Andhra_Pradesh,Amaravati,"Secretariat, Amaravati - APPCB",16-04-2024 14:00:00,16.5150833,80.5181667,CO,12,50,34
India,Andhra_Pradesh,Anantapur,"Gulzarpet, Anantapur - APPCB",16-04-2024 14:00:00,14.675886,77.593027,CO,22,40,33
India,Andhra_Pradesh,Chittoor,"Gangineni Cheruvu, Chittoor - APPCB",16-04-2024 14:00:00,13.204880,79.097889,PM2.5,41,116,65
India,Andhra_Pradesh,Chittoor,"Gangineni Cheruvu, Chittoor - APPCB",16-04-2024 14:00:00,13.204880,79.097889,CO,1,30,14
India,Andhra_Pradesh,Rajamahendravaram,"Anand Kala Kshetram, Rajamahendravaram - APPCB",16-04-2024 14:00:00,16.9872867,81.7363176,NO2,11,26,18
India,Andhra_Pradesh,Tirupati,"Tirumala, Tirupati - APPCB",16-04-2024 14:00:00,13.67,79.35,PM2.5,31,63,45
India,Andhra_Pradesh,Tirupati,"Tirumala, Tirupati - APPCB",16-04-2024 14:00:00,13.67,79.35,NO2,16,44,26
India,Andhra_Pradesh,Tirupati,"Tirumala, Tirupati - APPCB",16-04-2024 14:00:00,13.67,79.35,CO,34,50,39
India,Andhra_Pradesh,Tirupati,"Vaikuntapuram, Tirupati - APPCB",16-04-2024 14:00:00,13.615387,79.409230,PM2.5,15,88,48
India,Andhra_Pradesh,Vijayawada,"HB Colony, Vijayawada - APPCB",16-04-2024 14:00:00,16.536107,80.594233,PM2.5,44,52,47
India,Andhra_Pradesh,Vijayawada,"HB Colony, Vijayawada - APPCB",16-04-2024 14:00:00,16.536107,80.594233,PM10,58,74,64
India,Andhra_Pradesh,Vijayawada,"HB Colony, Vijayawada - APPCB",16-04-2024 14:00:00,16.536107,80.594233,NO2,6,11,8
India,Andhra_Pradesh,Vijayawada,"HB Colony, Vijayawada - APPCB",16-04-2024 14:00:00,16.536107,80.594233,NH3,4,4,4
India,Andhra_Pradesh,Vijayawada,"HB Colony, Vijayawada - APPCB",16-04-2024 14:00:00,16.536107,80.594233,CO,28,28,28
India,Andhra_Pradesh,Vijayawada,"Rajiv Gandhi Park, Vijayawada - APPCB",16-04-2024 14:00:00,16.509717,80.612222,NH3,6,8,8
India,Andhra_Pradesh,Vijayawada,"Rajiv Gandhi Park, Vijayawada - APPCB",16-04-2024 14:00:00,16.509717,80.612222,OZONE,6,79,25
India,Andhra_Pradesh,Vijayawada,"Rajiv Nagar, Vijayawada - APPCB",16-04-2024 14:00:00,16.554731,80.649110,SO2,6,15,11
India,Andhra_Pradesh,Vijayawada,"Rajiv Nagar, Vijayawada - APPCB",16-04-2024 14:00:00,16.554731,80.649110,OZONE,8,40,12
India,Andhra_Pradesh,Visakhapatnam,"GVM Corporation, Visakhapatnam - APPCB",16-04-2024 14:00:00,17.72,83.3,PM2.5,30,120,70
India,Andhra_Pradesh,Visakhapatnam,"GVM Corporation, Visakhapatnam - APPCB",16-04-2024 14:00:00,17.72,83.3,PM10,64,179,109
India,Andhra_Pradesh,Visakhapatnam,"GVM Corporation, Visakhapatnam - APPCB",16-04-2024 14:00:00,17.72,83.3,OZONE,2,115,48
India,Arunachal_Pradesh,Naharlagun,"Naharlagun, Naharlagun - APSPCB",16-04-2024 14:00:00,27.103358,93.679645,PM10,NA,NA,NA
India,Arunachal_Pradesh,Naharlagun,"Naharlagun, Naharlagun - APSPCB",16-04-2024 14:00:00,27.103358,93.679645,OZONE,2,3,2
India,Assam,Guwahati,"IITG, Guwahati - PCBA",16-04-2024 14:00:00,26.2028636,91.70046436,PM10,NA,NA,NA
India,Assam,Guwahati,"LGBI Airport, Guwahati - PCBA",16-04-2024 14:00:00,26.10887,91.589544,NO2,25,118,69
India,Assam,Guwahati,"Pan Bazaar, Guwahati - PCBA",16-04-2024 14:00:00,26.187500,91.744194,CO,36,103,42
India,Assam,Guwahati,"Railway Colony, Guwahati - PCBA",16-04-2024 14:00:00,26.181742,91.78063,OZONE,1,23,15
India,Assam,Nagaon,"Christianpatty, Nagaon - PCBA",16-04-2024 14:00:00,26.349082,92.68449,PM10,76,121,96
India,Assam,Nagaon,"Christianpatty, Nagaon - PCBA",16-04-2024 14:00:00,26.349082,92.68449,NH3,3,5,5
India,Assam,Nagaon,"Christianpatty, Nagaon - PCBA",16-04-2024 14:00:00,26.349082,92.68449,OZONE,32,179,53
India,Assam,Nalbari,"Bata Chowk, Nalbari - PCBA",16-04-2024 14:00:00,26.446912,91.439057,PM10,53,403,171
India,Assam,Nalbari,"Bata Chowk, Nalbari - PCBA",16-04-2024 14:00:00,26.446912,91.439057,SO2,4,11,7
India,Assam,Sivasagar,"Girls College, Sivasagar - PCBA",16-04-2024 14:00:00,26.987634,94.636574,SO2,4,4,4
India,Assam,Sivasagar,"Girls College, Sivasagar - PCBA",16-04-2024 14:00:00,26.987634,94.636574,OZONE,1,13,6
India,Bihar,Arrah,"New DM Office, Arrah - BSPCB",16-04-2024 14:00:00,25.5626095,84.663264,NO2,6,24,15
India,Bihar,Aurangabad,"Gurdeo Nagar, Aurangabad - BSPCB",16-04-2024 14:00:00,24.75746,84.366208,SO2,1,9,6
India,Bihar,Bettiah,"Kamalnath Nagar, Bettiah - BSPCB",16-04-2024 14:00:00,26.80365,84.51954,CO,61,64,63
India,Bihar,Bettiah,"Kamalnath Nagar, Bettiah - BSPCB",16-04-2024 14:00:00,26.80365,84.51954,OZONE,2,13,8
India,Bihar,Bhagalpur,"DM Office_Kachari Chowk, Bhagalpur - BSPCB",16-04-2024 14:00:00,25.251013,86.989001,PM2.5,63,283,148
India,Bihar,Bhagalpur,"DM Office_Kachari Chowk, Bhagalpur - BSPCB",16-04-2024 14:00:00,25.251013,86.989001,PM10,112,276,156
India,Bihar,Bhagalpur,"DM Office_Kachari Chowk, Bhagalpur - BSPCB",16-04-2024 14:00:00,25.251013,86.989001,NO2,58,128,88
India,Bihar,Bhagalpur,"Mayaganj, Bhagalpur - BSPCB",16-04-2024 14:00:00,25.265194,87.012947,OZONE,12,74,39
India,Bihar,Bihar Sharif,"D M Colony, Bihar Sharif - BSPCB",16-04-2024 14:00:00,25.204762,85.514960,NH3,2,2,2
India,Bihar,Bihar Sharif,"D M Colony, Bihar Sharif - BSPCB",16-04-2024 14:00:00,25.204762,85.514960,SO2,5,15,11
India,Bihar,Bihar Sharif,"D M Colony, Bihar Sharif - BSPCB",16-04-2024 14:00:00,25.204762,85.514960,OZONE,17,63,36
India,Bihar,Gaya,"SFTI Kusdihra, Gaya - BSPCB",16-04-2024 14:00:00,24.762518,84.982348,NH3,4,6,5
India,Bihar,Gaya,"SFTI Kusdihra, Gaya - BSPCB",16-04-2024 14:00:00,24.762518,84.982348,SO2,8,11,9
India,Bihar,Gaya,"SFTI Kusdihra, Gaya - BSPCB",16-04-2024 14:00:00,24.762518,84.982348,CO,15,49,30
India,Bihar,Hajipur,"Industrial Area, Hajipur - BSPCB",16-04-2024 14:00:00,25.697189,85.245900,PM10,111,458,240
India,Bihar,Hajipur,"Industrial Area, Hajipur - BSPCB",16-04-2024 14:00:00,25.697189,85.245900,CO,22,80,37
India,Bihar,Katihar,"Mirchaibari, Katihar - BSPCB",16-04-2024 14:00:00,25.560083,87.553265,NO2,26,39,31
India,Bihar,Kishanganj,"SDM Office_Khagra, Kishanganj - BSPCB",16-04-2024 14:00:00,26.0881305,87.93840336,NH3,9,11,10
India,Bihar,Manguraha,"Forest Rest House, Manguraha - BSPCB",16-04-2024 14:00:00,27.308328,84.531742,PM10,NA,NA,NA
India,Bihar,Manguraha,"Forest Rest House, Manguraha - BSPCB",16-04-2024 14:00:00,27.308328,84.531742,NO2,17,21,19
India,Bihar,Munger,"Town Hall, Munger - BSPCB",16-04-2024 14:00:00,25.376776,86.471523,PM2.5,73,297,158
India,Bihar,Munger,"Town Hall, Munger - BSPCB",16-04-2024 14:00:00,25.376776,86.471523,PM10,88,191,134
India,Bihar,Munger,"Town Hall, Munger - BSPCB",16-04-2024 14:00:00,25.376776,86.471523,NO2,7,9,8
India,Bihar,Muzaffarpur,"Buddha Colony, Muzaffarpur - BSPCB",16-04-2024 14:00:00,26.11442,85.39813,PM2.5,311,382,353
India,Bihar,Muzaffarpur,"Buddha Colony, Muzaffarpur - BSPCB",16-04-2024 14:00:00,26.11442,85.39813,PM10,224,414,348
India,Bihar,Muzaffarpur,"Buddha Colony, Muzaffarpur - BSPCB",16-04-2024 14:00:00,26.11442,85.39813,OZONE,2,49,33
India,Bihar,Muzaffarpur,"MIT-Daudpur Kothi, Muzaffarpur - BSPCB",16-04-2024 14:00:00,26.1403345,85.3650192,NH3,3,4,4
India,Bihar,Muzaffarpur,"MIT-Daudpur Kothi, Muzaffarpur - BSPCB",16-04-2024 14:00:00,26.1403345,85.3650192,CO,22,119,50
India,Bihar,Patna,"DRM Office Danapur, Patna - BSPCB",16-04-2024 14:00:00,25.586562,85.043586,OZONE,1,46,26
India,Bihar,Patna,"Govt. High School Shikarpur, Patna - BSPCB",16-04-2024 14:00:00,25.592539,85.227158,PM10,125,273,169
India,Bihar,Patna,"Govt. High School Shikarpur, Patna - BSPCB",16-04-2024 14:00:00,25.592539,85.227158,NO2,19,27,22
India,Bihar,Patna,"Govt. High School Shikarpur, Patna - BSPCB",16-04-2024 14:00:00,25.592539,85.227158,SO2,9,12,11
India,Bihar,Patna,"Govt. High School Shikarpur, Patna - BSPCB",16-04-2024 14:00:00,25.592539,85.227158,CO,30,96,42
India,Bihar,Patna,"Muradpur, Patna - BSPCB",16-04-2024 14:00:00,25.619651,85.147382,PM10,141,419,234
India,Bihar,Patna,"Rajbansi Nagar, Patna - BSPCB",16-04-2024 14:00:00,25.599486,85.113666,PM2.5,107,282,189
India,Bihar,Patna,"Rajbansi Nagar, Patna - BSPCB",16-04-2024 14:00:00,25.599486,85.113666,NO2,15,52,28
India,Bihar,Patna,"Samanpura, Patna - BSPCB",16-04-2024 14:00:00,25.596727,85.085624,SO2,8,15,10
India,Bihar,Purnia,"Mariam Nagar, Purnia - BSPCB",16-04-2024 14:00:00,25.366336,87.117468,PM10,NA,NA,NA
India,Bihar,Purnia,"Mariam Nagar, Purnia - BSPCB",16-04-2024 14:00:00,25.366336,87.117468,CO,12,75,22
India,Bihar,Purnia,"Mariam Nagar, Purnia - BSPCB",16-04-2024 14:00:00,25.366336,87.117468,OZONE,6,17,12
India,Bihar,Saharsa,"Police Line, Saharsa - BSPCB",16-04-2024 14:00:00,25.892357,86.590325,CO,24,32,28
India,Bihar,Samastipur,"DM Office_Kasipur, Samastipur - BSPCB",16-04-2024 14:00:00,25.859655,85.77944,NH3,1,5,3
India,Bihar,Sasaram,"Dada Peer, Sasaram - BSPCB",16-04-2024 14:00:00,24.952822,84.002396,PM2.5,14,197,49
India,Bihar,Sasaram,"Dada Peer, Sasaram - BSPCB",16-04-2024 14:00:00,24.952822,84.002396,NO2,8,24,15
India,Bihar,Siwan,"Chitragupta Nagar, Siwan - BSPCB",16-04-2024 14:00:00,26.2271665,84.3570427,PM2.5,32,97,61
India,Bihar,Siwan,"Chitragupta Nagar, Siwan - BSPCB",16-04-2024 14:00:00,26.2271665,84.3570427,NH3,2,14,4
India,Chandigarh,Chandigarh,"Sector-25, Chandigarh - CPCC",16-04-2024 14:00:00,30.751462,76.762879,CO,14,104,28
India,Chandigarh,Chandigarh,"Sector-53, Chandigarh - CPCC",16-04-2024 14:00:00,30.719859,76.738637,OZONE,3,54,34
India,Chhattisgarh,Bhilai,"32Bungalows, Bhilai - CECB",16-04-2024 14:00:00,21.194815,81.314770,SO2,4,7,6
India,Chhattisgarh,Bhilai,"32Bungalows, Bhilai - CECB",16-04-2024 14:00:00,21.194815,81.314770,CO,16,32,28
India,Chhattisgarh,Bhilai,"32Bungalows, Bhilai - CECB",16-04-2024 14:00:00,21.194815,81.314770,OZONE,5,35,16
India,Chhattisgarh,Bhilai,"Civic Center, Bhilai - Bhilai Steel Plant",16-04-2024 14:00:00,21.185571,81.343175,PM2.5,22,45,37
India,Chhattisgarh,Bhilai,"Civic Center, Bhilai - Bhilai Steel Plant",16-04-2024 14:00:00,21.185571,81.343175,SO2,8,15,10
India,Chhattisgarh,Bhilai,"Hathkhoj, Bhilai - CECB",16-04-2024 14:00:00,21.224231,81.408350,PM2.5,30,132,74
India,Chhattisgarh,Bhilai,"Hathkhoj, Bhilai - CECB",16-04-2024 14:00:00,21.224231,81.408350,NO2,28,94,57
India,Chhattisgarh,Bilaspur,"Mangala, Bilaspur - NTPC",16-04-2024 14:00:00,22.08815,82.13737,SO2,12,20,16
India,Chhattisgarh,Korba,"Rampur, Korba - CECB",16-04-2024 14:00:00,22.368195,82.746431,PM2.5,NA,NA,NA
India,Chhattisgarh,Kunjemura,"OP Jindal School, Kunjemura - CECB",16-04-2024 14:00:00,22.126650,83.483212,PM10,40,236,132
India,Chhattisgarh,Kunjemura,"OP Jindal School, Kunjemura - CECB",16-04-2024 14:00:00,22.126650,83.483212,SO2,6,28,14
India,Chhattisgarh,Kunjemura,"OP Jindal School, Kunjemura - CECB",16-04-2024 14:00:00,22.126650,83.483212,CO,24,80,51
India,Chhattisgarh,Raipur,"Bhatagaon New ISBT, Raipur - CECB",16-04-2024 14:00:00,21.219665,81.630094,PM10,30,98,60
India,Chhattisgarh,Raipur,"Bhatagaon New ISBT, Raipur - CECB",16-04-2024 14:00:00,21.219665,81.630094,OZONE,3,8,4
India,Chhattisgarh,Raipur,"Krishak Nagar, Raipur - CECB",16-04-2024 14:00:00,21.237755,81.705301,NO2,1,30,11
India,Chhattisgarh,Raipur,"Krishak Nagar, Raipur - CECB",16-04-2024 14:00:00,21.237755,81.705301,CO,26,63,42
India,Chhattisgarh,Raipur,"Siltara Phase-II, Raipur - CECB",16-04-2024 14:00:00,21.371751,81.664929,PM2.5,37,314,124
India,Chhattisgarh,Raipur,"Siltara Phase-II, Raipur - CECB",16-04-2024 14:00:00,21.371751,81.664929,OZONE,3,49,15
India,Chhattisgarh,Tumidih,"OP Jindal Industrial Park, Tumidih - CECB",16-04-2024 14:00:00,22.06631475,83.33820077,PM10,NA,NA,NA
India,Delhi,Delhi,"Alipur, Delhi - DPCC",16-04-2024 14:00:00,28.815329,77.153010,CO,36,82,52
India,Delhi,Delhi,"Ashok Vihar, Delhi - DPCC",16-04-2024 14:00:00,28.695381,77.181665,NH3,10,19,15
India,Delhi,Delhi,"Ashok Vihar, Delhi - DPCC",16-04-2024 14:00:00,28.695381,77.181665,CO,4,133,15
India,Delhi,Delhi,"Bawana, Delhi - DPCC",16-04-2024 14:00:00,28.776200,77.051074,CO,8,78,31
India,Delhi,Delhi,"Bawana, Delhi - DPCC",16-04-2024 14:00:00,28.776200,77.051074,OZONE,3,92,27
India,Delhi,Delhi,"Chandni Chowk, Delhi - IITM",16-04-2024 14:00:00,28.656756,77.227234,CO,42,50,49
India,Delhi,Delhi,"DTU, Delhi - CPCB",16-04-2024 14:00:00,28.7500499,77.1112615,CO,26,105,67
India,Delhi,Delhi,"Dr. Karni Singh Shooting Range, Delhi - DPCC",16-04-2024 14:00:00,28.498571,77.264840,PM2.5,45,309,189
India,Delhi,Delhi,"Dr. Karni Singh Shooting Range, Delhi - DPCC",16-04-2024 14:00:00,28.498571,77.264840,PM10,89,262,177
India,Delhi,Delhi,"Dr. Karni Singh Shooting Range, Delhi - DPCC",16-04-2024 14:00:00,28.498571,77.264840,NH3,9,14,11
India,Delhi,Delhi,"Dr. Karni Singh Shooting Range, Delhi - DPCC",16-04-2024 14:00:00,28.498571,77.264840,OZONE,2,265,94
India,Delhi,Delhi,"IHBAS, Dilshad Garden, Delhi - CPCB",16-04-2024 14:00:00,28.6811736,77.3025234,SO2,3,67,23
India,Delhi,Delhi,"IHBAS, Dilshad Garden, Delhi - CPCB",16-04-2024 14:00:00,28.6811736,77.3025234,CO,12,65,31
India,Delhi,Delhi,"ITO, Delhi - CPCB",16-04-2024 14:00:00,28.628624,77.241060,PM2.5,43,338,191
India,Delhi,Delhi,"ITO, Delhi - CPCB",16-04-2024 14:00:00,28.628624,77.241060,PM10,62,216,145
India,Delhi,Delhi,"ITO, Delhi - CPCB",16-04-2024 14:00:00,28.628624,77.241060,NO2,28,217,102
India,Delhi,Delhi,"Jahangirpuri, Delhi - DPCC",16-04-2024 14:00:00,28.732820,77.170633,PM10,109,457,288
India,Delhi,Delhi,"Jahangirpuri, Delhi - DPCC",16-04-2024 14:00:00,28.732820,77.170633,NH3,1,29,20
India,Delhi,Delhi,"Jahangirpuri, Delhi - DPCC",16-04-2024 14:00:00,28.732820,77.170633,OZONE,5,63,28
India,Delhi,Delhi,"Jawaharlal Nehru Stadium, Delhi - DPCC",16-04-2024 14:00:00,28.580280,77.233829,PM10,78,261,164
India,Delhi,Delhi,"Jawaharlal Nehru Stadium, Delhi - DPCC",16-04-2024 14:00:00,28.580280,77.233829,SO2,6,62,34
India,Delhi,Delhi,"Lodhi Road, Delhi - IITM",16-04-2024 14:00:00,28.588333,77.221667,SO2,NA,NA,NA
India,Delhi,Delhi,"Major Dhyan Chand National Stadium, Delhi - DPCC",16-04-2024 14:00:00,28.611281,77.237738,NH3,10,15,12
India,Delhi,Delhi,"Mandir Marg, Delhi - DPCC",16-04-2024 14:00:00,28.636429,77.201067,PM10,82,208,139
India,Delhi,Delhi,"Mandir Marg, Delhi - DPCC",16-04-2024 14:00:00,28.636429,77.201067,CO,4,89,21
India,Delhi,Delhi,"Mandir Marg, Delhi - DPCC",16-04-2024 14:00:00,28.636429,77.201067,OZONE,1,25,7
India,Delhi,Delhi,"Najafgarh, Delhi - DPCC",16-04-2024 14:00:00,28.570173,76.933762,NH3,5,10,8
India,Delhi,Delhi,"Narela, Delhi - DPCC",16-04-2024 14:00:00,28.822836,77.101981,PM10,109,472,272
India,Delhi,Delhi,"Nehru Nagar, Delhi - DPCC",16-04-2024 14:00:00,28.567890,77.250515,PM2.5,43,338,203
India,Delhi,Delhi,"Okhla Phase-2, Delhi - DPCC",16-04-2024 14:00:00,28.530785,77.271255,NO2,38,133,86
India,Delhi,Delhi,"Okhla Phase-2, Delhi - DPCC",16-04-2024 14:00:00,28.530785,77.271255,OZONE,9,172,44
India,Delhi,Delhi,"Patparganj, Delhi - DPCC",16-04-2024 14:00:00,28.623763,77.287209,CO,46,118,64
India,Delhi,Delhi,"R K Puram, Delhi - DPCC",16-04-2024 14:00:00,28.563262,77.186937,SO2,2,68,27
India,Delhi,Delhi,"Rohini, Delhi - DPCC",16-04-2024 14:00:00,28.732528,77.119920,NO2,12,128,57
India,Delhi,Delhi,"Rohini, Delhi - DPCC",16-04-2024 14:00:00,28.732528,77.119920,CO,24,146,45
India,Delhi,Delhi,"Rohini, Delhi - DPCC",16-04-2024 14:00:00,28.732528,77.119920,OZONE,3,86,14
India,Delhi,Delhi,"Shadipur, Delhi - CPCB",16-04-2024 14:00:00,28.6514781,77.1473105,CO,16,30,24
India,Delhi,Delhi,"Sirifort, Delhi - CPCB",16-04-2024 14:00:00,28.5504249,77.2159377,NH3,12,23,17
India,Delhi,Delhi,"Vivek Vihar, Delhi - DPCC",16-04-2024 14:00:00,28.672342,77.315260,PM2.5,50,401,224
India,Delhi,Delhi,"Vivek Vihar, Delhi - DPCC",16-04-2024 14:00:00,28.672342,77.315260,NH3,14,16,15
India,Gujarat,Ahmedabad,"Gyaspur, Ahmedabad - IITM",16-04-2024 14:00:00,22.977134,72.553024,PM10,61,108,83
India,Gujarat,Ahmedabad,"Gyaspur, Ahmedabad - IITM",16-04-2024 14:00:00,22.977134,72.553024,OZONE,5,40,16
India,Gujarat,Ahmedabad,"Maninagar, Ahmedabad - GPCB",16-04-2024 14:00:00,23.002657,72.591912,NO2,25,62,36
India,Gujarat,Ahmedabad,"Rakhial, Ahmedabad - IITM",16-04-2024 14:00:00,23.016834,72.625775,PM2.5,37,78,58
India,Gujarat,Ahmedabad,"SAC ISRO Satellite, Ahmedabad - IITM",16-04-2024 14:00:00,23.023389,72.515201,NO2,17,17,17
India,Gujarat,Ahmedabad,"SVPI Airport Hansol, Ahmedabad - IITM",16-04-2024 14:00:00,23.076793,72.627874,PM10,NA,NA,NA
India,Gujarat,Ahmedabad,"SVPI Airport Hansol, Ahmedabad - IITM",16-04-2024 14:00:00,23.076793,72.627874,NO2,NA,NA,NA
India,Gujarat,Ahmedabad,"Sardar Vallabhbhai Patel Stadium, Ahmedabad - IITM",16-04-2024 14:00:00,23.043070,72.562968,OZONE,12,29,16
India,Gujarat,Ankleshwar,"GIDC, Ankleshwar - GPCB",16-04-2024 14:00:00,21.613267,73.010555,NH3,7,7,7
India,Gujarat,Gandhinagar,"IIPHG Lekawada, Gandhinagar - IITM",16-04-2024 14:00:00,23.243639,72.68994,PM2.5,35,55,46
India,Gujarat,Gandhinagar,"IIPHG Lekawada, Gandhinagar - IITM",16-04-2024 14:00:00,23.243639,72.68994,NH3,6,7,6
India,Gujarat,Gandhinagar,"Sector-10, Gandhinagar - GPCB",16-04-2024 14:00:00,23.221714,72.654328,NO2,16,20,18
India,Gujarat,Surat,"Science Center, Surat - SMC",16-04-2024 14:00:00,21.170046,72.795405,SO2,1,7,4
India,Gujarat,Surat,"Science Center, Surat - SMC",16-04-2024 14:00:00,21.170046,72.795405,CO,30,62,33
India,Gujarat,Vatva,"Phase-4 GIDC, Vatva - GPCB",16-04-2024 14:00:00,22.969611,72.643500,CO,35,36,36
India,Haryana,Ambala,"Patti Mehar, Ambala - HSPCB",16-04-2024 14:00:00,30.379589,76.778328,CO,30,60,51
India,Haryana,Ambala,"Patti Mehar, Ambala - HSPCB",16-04-2024 14:00:00,30.379589,76.778328,OZONE,33,57,37
India,Haryana,Bahadurgarh,"Arya Nagar, Bahadurgarh - HSPCB",16-04-2024 14:00:00,28.6701,76.9254,PM2.5,68,317,168
India,Haryana,Ballabgarh,"Nathu Colony, Ballabgarh - HSPCB",16-04-2024 14:00:00,28.3419248,77.319699,SO2,9,54,27
India,Haryana,Bhiwani,"H.B. Colony, Bhiwani - HSPCB",16-04-2024 14:00:00,28.806223,76.141105,PM2.5,53,117,83
India,Haryana,Bhiwani,"H.B. Colony, Bhiwani - HSPCB",16-04-2024 14:00:00,28.806223,76.141105,NH3,5,6,6
India,Haryana,Bhiwani,"H.B. Colony, Bhiwani - HSPCB",16-04-2024 14:00:00,28.806223,76.141105,CO,30,98,61
India,Haryana,Bhiwani,"H.B. Colony, Bhiwani - HSPCB",16-04-2024 14:00:00,28.806223,76.141105,OZONE,6,24,14
India,Haryana,Charkhi Dadri,"Mini Secretariat, Charkhi Dadri - HSPCB",16-04-2024 14:00:00,28.593883,76.270653,SO2,1,23,8
India,Haryana,Dharuhera,"Municipal Corporation Office, Dharuhera -  HSPCB",16-04-2024 14:00:00,28.206800,76.799700,OZONE,22,47,36
India,Haryana,Faridabad,"New Industrial Town, Faridabad - HSPCB",16-04-2024 14:00:00,28.39072,77.30059,PM2.5,134,403,316
India,Haryana,Faridabad,"New Industrial Town, Faridabad - HSPCB",16-04-2024 14:00:00,28.39072,77.30059,NO2,5,18,13
India,Haryana,Faridabad,"New Industrial Town, Faridabad - HSPCB",16-04-2024 14:00:00,28.39072,77.30059,NH3,1,9,5
India,Haryana,Faridabad,"New Industrial Town, Faridabad - HSPCB",16-04-2024 14:00:00,28.39072,77.30059,OZONE,20,110,34
India,Haryana,Faridabad,"Sector 11, Faridabad - HSPCB",16-04-2024 14:00:00,28.376058,77.315741,NO2,30,32,31
India,Haryana,Faridabad,"Sector 11, Faridabad - HSPCB",16-04-2024 14:00:00,28.376058,77.315741,NH3,6,7,6
India,Haryana,Faridabad,"Sector 30, Faridabad - HSPCB",16-04-2024 14:00:00,28.4417,77.3217,CO,58,64,60
India,Haryana,Fatehabad,"Huda Sector, Fatehabad - HSPCB",16-04-2024 14:00:00,29.503664,75.467934,PM10,56,129,81
India,Haryana,Gurugram,"Sector-51, Gurugram - HSPCB",16-04-2024 14:00:00,28.4227,77.0667,NO2,13,29,23
India,Haryana,Gurugram,"Sector-51, Gurugram - HSPCB",16-04-2024 14:00:00,28.4227,77.0667,CO,43,97,55
India,Haryana,Gurugram,"Teri Gram, Gurugram - HSPCB",16-04-2024 14:00:00,28.4275,77.1465,PM2.5,81,384,205
India,Haryana,Hisar,"Urban Estate-II, Hisar - HSPCB",16-04-2024 14:00:00,29.140560,75.744941,PM2.5,36,99,53
India,Haryana,Jind,"Police Lines, Jind - HSPCB",16-04-2024 14:00:00,29.307814,76.337619,PM10,53,131,90
India,Haryana,Jind,"Police Lines, Jind - HSPCB",16-04-2024 14:00:00,29.307814,76.337619,NH3,2,6,4
India,Haryana,Kaithal,"Rishi Nagar, Kaithal - HSPCB",16-04-2024 14:00:00,29.8006,76.4155,NH3,8,9,8
India,Haryana,Kurukshetra,"Sector-7, Kurukshetra - HSPCB",16-04-2024 14:00:00,29.966942,76.875879,PM2.5,55,141,93
India,Haryana,Kurukshetra,"Sector-7, Kurukshetra - HSPCB",16-04-2024 14:00:00,29.966942,76.875879,NH3,4,5,5
India,Haryana,Manesar,"Sector-2 IMT, Manesar - HSPCB",16-04-2024 14:00:00,28.360699,76.936090,NH3,15,17,16
India,Haryana,Narnaul,"Shastri Nagar, Narnaul - HSPCB",16-04-2024 14:00:00,28.060249,76.113115,SO2,NA,NA,NA
India,Haryana,Rohtak,"MD University, Rohtak - HSPCB",16-04-2024 14:00:00,28.52123,76.37138,CO,10,109,36
India,Haryana,Yamuna Nagar,"Gobind Pura, Yamuna Nagar - HSPCB",16-04-2024 14:00:00,30.1480566,77.2893471,CO,27,118,39
India,Himachal Pradesh,Baddi,"HIMUDA Complex Phase-1, Baddi - HPPCB",16-04-2024 14:00:00,30.943887,76.801991,PM2.5,27,217,83
India,Himachal Pradesh,Baddi,"HIMUDA Complex Phase-1, Baddi - HPPCB",16-04-2024 14:00:00,30.943887,76.801991,CO,6,42,19
India,Himachal Pradesh,Baddi,"HIMUDA Complex Phase-1, Baddi - HPPCB",16-04-2024 14:00:00,30.943887,76.801991,OZONE,29,174,91
India,Jharkhand,Dhanbad,"Kalakusuma, Dhanbad - DMC",16-04-2024 14:00:00,23.811548,86.481238,PM10,15,405,144
India,Karnataka,Bagalkot,"Vidayagiri, Bagalkot - KSPCB",16-04-2024 14:00:00,16.172806,75.659694,PM2.5,25,37,36
India,Karnataka,Bagalkot,"Vidayagiri, Bagalkot - KSPCB",16-04-2024 14:00:00,16.172806,75.659694,PM10,45,46,46
India,Karnataka,Bagalkot,"Vidayagiri, Bagalkot - KSPCB",16-04-2024 14:00:00,16.172806,75.659694,NH3,1,2,1
India,Karnataka,Bengaluru,"BTM Layout, Bengaluru - CPCB",16-04-2024 14:00:00,12.9135218,77.5950804,NH3,NA,NA,NA
India,Karnataka,Bengaluru,"BTM Layout, Bengaluru - CPCB",16-04-2024 14:00:00,12.9135218,77.5950804,SO2,NA,NA,NA
India,Karnataka,Bengaluru,"Bapuji Nagar, Bengaluru - KSPCB",16-04-2024 14:00:00,12.951913,77.539784,PM10,NA,NA,NA
India,Karnataka,Bengaluru,"Hebbal, Bengaluru - KSPCB",16-04-2024 14:00:00,13.029152,77.585901,PM10,44,94,66
India,Karnataka,Bengaluru,"Hebbal, Bengaluru - KSPCB",16-04-2024 14:00:00,13.029152,77.585901,CO,2,32,18
India,Karnataka,Bengaluru,"Hombegowda Nagar, Bengaluru - KSPCB",16-04-2024 14:00:00,12.938539,77.590100,NO2,11,24,17
India,Karnataka,Bengaluru,"Hombegowda Nagar, Bengaluru - KSPCB",16-04-2024 14:00:00,12.938539,77.590100,CO,11,15,12
India,Karnataka,Bengaluru,"Hombegowda Nagar, Bengaluru - KSPCB",16-04-2024 14:00:00,12.938539,77.590100,OZONE,3,5,4
India,Karnataka,Bengaluru,"Jayanagar 5th Block, Bengaluru - KSPCB",16-04-2024 14:00:00,12.920984,77.584908,PM10,44,153,82
India,Karnataka,Bengaluru,"Kasturi Nagar, Bengaluru - KSPCB",16-04-2024 14:00:00,13.003872,77.664217,NH3,3,4,4
India,Karnataka,Bengaluru,"Kasturi Nagar, Bengaluru - KSPCB",16-04-2024 14:00:00,13.003872,77.664217,CO,21,26,24
India,Karnataka,Bengaluru,"Sanegurava Halli, Bengaluru - KSPCB",16-04-2024 14:00:00,12.990328,77.5431385,CO,12,36,17
India,Karnataka,Bengaluru,"Shivapura_Peenya, Bengaluru - KSPCB",16-04-2024 14:00:00,13.0246342,77.5080115,SO2,1,18,5
India,Karnataka,Bengaluru,"Silk Board, Bengaluru - KSPCB",16-04-2024 14:00:00,12.917348,77.622813,NO2,NA,NA,NA
India,Karnataka,Bidar,"Naubad, Bidar - KSPCB",16-04-2024 14:00:00,17.930306,77.482194,SO2,13,23,17
India,Karnataka,Bidar,"Naubad, Bidar - KSPCB",16-04-2024 14:00:00,17.930306,77.482194,OZONE,23,48,34
India,Karnataka,Chamarajanagar,"Urban, Chamarajanagar - KSPCB",16-04-2024 14:00:00,11.55358,76.55521,PM10,34,66,46
India,Karnataka,Chamarajanagar,"Urban, Chamarajanagar - KSPCB",16-04-2024 14:00:00,11.55358,76.55521,NH3,1,2,2
India,Karnataka,Chikkamagaluru,"Kalyana Nagara, Chikkamagaluru - KSPCB",16-04-2024 14:00:00,13.328028,75.797056,PM10,15,268,48
India,Karnataka,Chikkamagaluru,"Kalyana Nagara, Chikkamagaluru - KSPCB",16-04-2024 14:00:00,13.328028,75.797056,NH3,2,4,3
India,Karnataka,Dharwad,"Kalabhavan, Dharwad - KSPCB",16-04-2024 14:00:00,15.459706,75.008381,PM2.5,23,285,115
India,Karnataka,Dharwad,"Kalabhavan, Dharwad - KSPCB",16-04-2024 14:00:00,15.459706,75.008381,NH3,2,3,3
India,Karnataka,Dharwad,"Kalabhavan, Dharwad - KSPCB",16-04-2024 14:00:00,15.459706,75.008381,OZONE,2,39,13
India,Karnataka,Gadag,"Panchal Nagar, Gadag - KSPCB",16-04-2024 14:00:00,15.411456,75.638133,NO2,2,24,14
India,Karnataka,Hassan,"B.Katihalli, Hassan - KSPCB",16-04-2024 14:00:00,13.008556,76.125258,SO2,NA,NA,NA
India,Karnataka,Haveri,"Ashwini Nagar, Haveri - KSPCB",16-04-2024 14:00:00,14.791800,75.389600,NH3,3,3,3
India,Karnataka,Hubballi,"Deshpande Nagar, Hubballi - KSPCB",16-04-2024 14:00:00,15.351773,75.140726,OZONE,10,23,15
India,Karnataka,Kalaburagi,"Mahatma Basaveswar Colony, Kalaburgi - KSPCB",16-04-2024 14:00:00,17.336318,76.847397,SO2,1,64,17
India,Karnataka,Karwar,"KHB Colony, Karwar - KSPCB",16-04-2024 14:00:00,14.816666,74.141003,SO2,18,20,19
India,Karnataka,Karwar,"KHB Colony, Karwar - KSPCB",16-04-2024 14:00:00,14.816666,74.141003,CO,7,8,8
India,Karnataka,Kolar,"Tamaka Ind. Area, Kolar - KSPCB",16-04-2024 14:00:00,13.1276288,78.1570122,NH3,15,27,20
India,Karnataka,Koppal,"Diwator Nagar, Koppal - KSPCB",16-04-2024 14:00:00,15.347630,76.181767,NH3,5,10,8
India,Karnataka,Koppal,"Diwator Nagar, Koppal - KSPCB",16-04-2024 14:00:00,15.347630,76.181767,SO2,27,28,28
India,Karnataka,Koppal,"Diwator Nagar, Koppal - KSPCB",16-04-2024 14:00:00,15.347630,76.181767,OZONE,26,83,55
India,Karnataka,Madikeri,"Stuart Hill, Madikeri - KSPCB",16-04-2024 14:00:00,12.415911,75.735050,PM2.5,11,52,35
India,Karnataka,Mangalore,"Kadri, Mangalore - KSPCB",16-04-2024 14:00:00,12.889250,74.853000,PM10,62,95,79
India,Karnataka,Mangalore,"Kadri, Mangalore - KSPCB",16-04-2024 14:00:00,12.889250,74.853000,SO2,8,17,14
India,Karnataka,Mysuru,"Hebbal 1st Stage, Mysuru - KSPCB",16-04-2024 14:00:00,12.21041,76.37376,NO2,14,28,20
India,Karnataka,Ramanagara,"Vijay Nagar, Ramanagara - KSPCB",16-04-2024 14:00:00,12.733409,77.298051,NO2,2,11,4
India,Karnataka,Shivamogga,"Vinoba Nagara, Shivamogga - KSPCB",16-04-2024 14:00:00,13.940000,75.555917,PM10,50,80,57
India,Karnataka,Shivamogga,"Vinoba Nagara, Shivamogga - KSPCB",16-04-2024 14:00:00,13.940000,75.555917,NH3,2,11,3
India,Karnataka,Tumakuru,"Thimmalapura, Tumakuru - KSPCB",16-04-2024 14:00:00,13.377516,77.099072,PM2.5,NA,NA,NA
India,Karnataka,Tumakuru,"Thimmalapura, Tumakuru - KSPCB",16-04-2024 14:00:00,13.377516,77.099072,OZONE,8,53,32
India,Karnataka,Vijayapura,"Ibrahimpur, Vijayapura - KSPCB",16-04-2024 14:00:00,16.802639,75.722694,CO,NA,NA,NA
India,Karnataka,Vijayapura,"Ibrahimpur, Vijayapura - KSPCB",16-04-2024 14:00:00,16.802639,75.722694,OZONE,14,16,15
India,Kerala,Eloor,"Udyogamandal, Eloor - Kerala PCB",16-04-2024 14:00:00,10.073232,76.302765,SO2,1,18,3
India,Kerala,Eloor,"Udyogamandal, Eloor - Kerala PCB",16-04-2024 14:00:00,10.073232,76.302765,CO,12,96,39
India,Kerala,Thiruvananthapuram,"Kariavattom, Thiruvananthapuram - Kerala PCB",16-04-2024 14:00:00,8.563700,76.886500,NO2,8,9,9
India,Kerala,Thiruvananthapuram,"Kariavattom, Thiruvananthapuram - Kerala PCB",16-04-2024 14:00:00,8.563700,76.886500,SO2,1,14,7
India,Kerala,Thrissur,"Corporation Ground, Thrissur - Kerala PCB",16-04-2024 14:00:00,10.532400,76.215900,NO2,7,8,7
India,Kerala,Thrissur,"Corporation Ground, Thrissur - Kerala PCB",16-04-2024 14:00:00,10.532400,76.215900,SO2,NA,NA,NA
India,Madhya Pradesh,Bhopal,"Idgah Hills, Bhopal - MPPCB",16-04-2024 14:00:00,23.264759,77.381568,PM10,63,131,82
India,Madhya Pradesh,Bhopal,"Idgah Hills, Bhopal - MPPCB",16-04-2024 14:00:00,23.264759,77.381568,NH3,8,40,12
India,Madhya Pradesh,Bhopal,"Idgah Hills, Bhopal - MPPCB",16-04-2024 14:00:00,23.264759,77.381568,SO2,16,26,20
India,Madhya Pradesh,Bhopal,"Paryavaran Parisar, Bhopal - MPPCB",16-04-2024 14:00:00,23.210494,77.425409,OZONE,7,112,61
India,Madhya Pradesh,Gwalior,"City Center, Gwalior - MPPCB",16-04-2024 14:00:00,26.203442,78.193251,OZONE,NA,NA,NA
India,Madhya Pradesh,Gwalior,"Deen Dayal Nagar, Gwalior - MPPCB",16-04-2024 14:00:00,26.259242,78.216432,SO2,10,14,12
India,Madhya Pradesh,Gwalior,"Maharaj Bada, Gwalior - MPPCB",16-04-2024 14:00:00,26.200388,78.147714,NO2,12,44,26
