country,state,city,station,last_update,latitude,longitude,pollutant_id,pollutant_min,pollutant_max,pollutant_avg
India,Andhra_Pradesh,Amaravati,"Secretariat, Amaravati - APPCB",08-06-2024 00:00:00,16.5150833,80.5181667,PM2.5,15,91,31
India,Andhra_Pradesh,Anantapur,"Gulzarpet, Anantapur - APPCB",08-06-2024 00:00:00,14.675886,77.593027,NO2,12,13,13
India,Andhra_Pradesh,Rajamahendravaram,"Anand Kala Kshetram, Rajamahendravaram - APPCB",08-06-2024 00:00:00,16.9872867,81.7363176,OZONE,27,46,38
India,Andhra_Pradesh,Tirupati,"Tirumala, Tirupati - APPCB",08-06-2024 00:00:00,13.67,79.35,SO2,2,8,5
India,Andhra_Pradesh,Vijayawada,"HB Colony, Vijayawada - APPCB",08-06-2024 00:00:00,16.536107,80.594233,PM10,45,141,62
India,Andhra_Pradesh,Vijayawada,"HB Colony, Vijayawada - APPCB",08-06-2024 00:00:00,16.536107,80.594233,SO2,6,8,6
India,Andhra_Pradesh,Vijayawada,"Kanuru, Vijayawada - APPCB",08-06-2024 00:00:00,16.486692,80.699436,PM10,52,74,58
India,Andhra_Pradesh,Vijayawada,"Rajiv Gandhi Park, Vijayawada - APPCB",08-06-2024 00:00:00,16.509717,80.612222,NH3,4,6,5
India,Andhra_Pradesh,Vijayawada,"Rajiv Nagar, Vijayawada - APPCB",08-06-2024 00:00:00,16.554731,80.649110,PM2.5,47,91,54
India,Andhra_Pradesh,Vijayawada,"Rajiv Nagar, Vijayawada - APPCB",08-06-2024 00:00:00,16.554731,80.649110,PM10,53,104,62
India,Arunachal_Pradesh,Naharlagun,"Naharlagun, Naharlagun - APSPCB",08-06-2024 00:00:00,27.103358,93.679645,PM2.5,NA,NA,NA
India,Assam,Guwahati,"IITG, Guwahati - PCBA",08-06-2024 00:00:00,26.2028636,91.70046436,NO2,1,6,1
India,Assam,Guwahati,"IITG, Guwahati - PCBA",08-06-2024 00:00:00,26.2028636,91.70046436,CO,8,17,10
India,Assam,Guwahati,"IITG, Guwahati - PCBA",08-06-2024 00:00:00,26.2028636,91.70046436,OZONE,3,48,20
India,Assam,Guwahati,"Pan Bazaar, Guwahati - PCBA",08-06-2024 00:00:00,26.187500,91.744194,PM2.5,23,80,46
India,Assam,Guwahati,"Pan Bazaar, Guwahati - PCBA",08-06-2024 00:00:00,26.187500,91.744194,NO2,1,2,1
India,Assam,Guwahati,"Pan Bazaar, Guwahati - PCBA",08-06-2024 00:00:00,26.187500,91.744194,SO2,40,67,50
India,Assam,Guwahati,"Railway Colony, Guwahati - PCBA",08-06-2024 00:00:00,26.181742,91.78063,SO2,9,18,13
India,Assam,Nalbari,"Bata Chowk, Nalbari - PCBA",08-06-2024 00:00:00,26.446912,91.439057,PM10,40,140,74
India,Assam,Nalbari,"Bata Chowk, Nalbari - PCBA",08-06-2024 00:00:00,26.446912,91.439057,NH3,1,1,1
India,Assam,Silchar,"Tarapur, Silchar - PCBA",08-06-2024 00:00:00,24.82827,92.79525,PM2.5,33,43,36
India,Assam,Silchar,"Tarapur, Silchar - PCBA",08-06-2024 00:00:00,24.82827,92.79525,NH3,1,1,1
India,Assam,Sivasagar,"Girls College, Sivasagar - PCBA",08-06-2024 00:00:00,26.987634,94.636574,PM2.5,31,56,39
India,Assam,Sivasagar,"Girls College, Sivasagar - PCBA",08-06-2024 00:00:00,26.987634,94.636574,NH3,2,2,2
India,Bihar,Arrah,"New DM Office, Arrah - BSPCB",08-06-2024 00:00:00,25.5626095,84.663264,NO2,9,16,12
India,Bihar,Aurangabad,"Gurdeo Nagar, Aurangabad - BSPCB",08-06-2024 00:00:00,24.75746,84.366208,NO2,1,17,6
India,Bihar,Bettiah,"Kamalnath Nagar, Bettiah - BSPCB",08-06-2024 00:00:00,26.80365,84.51954,CO,32,58,43
India,Bihar,Bettiah,"Kamalnath Nagar, Bettiah - BSPCB",08-06-2024 00:00:00,26.80365,84.51954,OZONE,1,13,8
India,Bihar,Bhagalpur,"DM Office_Kachari Chowk, Bhagalpur - BSPCB",08-06-2024 00:00:00,25.251013,86.989001,CO,36,92,78
India,Bihar,Bhagalpur,"Mayaganj, Bhagalpur - BSPCB",08-06-2024 00:00:00,25.265194,87.012947,NH3,8,10,9
India,Bihar,Bihar Sharif,"D M Colony, Bihar Sharif - BSPCB",08-06-2024 00:00:00,25.204762,85.514960,NO2,4,5,5
India,Bihar,Buxar,"Charitra Van, Buxar - BSPCB (Formerly known as Central Jail)",08-06-2024 00:00:00,25.567520,83.966379,PM10,101,500,238
India,Bihar,Buxar,"Charitra Van, Buxar - BSPCB (Formerly known as Central Jail)",08-06-2024 00:00:00,25.567520,83.966379,SO2,2,4,4
India,Bihar,Buxar,"Charitra Van, Buxar - BSPCB (Formerly known as Central Jail)",08-06-2024 00:00:00,25.567520,83.966379,CO,27,90,50
India,Bihar,Chhapra,"Darshan Nagar, Chhapra - BSPCB",08-06-2024 00:00:00,25.7808257,84.7446768,PM10,NA,NA,NA
India,Bihar,Chhapra,"Darshan Nagar, Chhapra - BSPCB",08-06-2024 00:00:00,25.7808257,84.7446768,SO2,NA,NA,NA
India,Bihar,Gaya,"Kareemganj, Gaya - BSPCB",08-06-2024 00:00:00,24.792403,84.992416,NO2,17,23,21
India,Bihar,Gaya,"SFTI Kusdihra, Gaya - BSPCB",08-06-2024 00:00:00,24.762518,84.982348,NO2,6,48,28
India,Bihar,Hajipur,"Industrial Area, Hajipur - BSPCB",08-06-2024 00:00:00,25.697189,85.245900,PM10,40,153,102
India,Bihar,Hajipur,"Industrial Area, Hajipur - BSPCB",08-06-2024 00:00:00,25.697189,85.245900,CO,22,38,31
India,Bihar,Hajipur,"Industrial Area, Hajipur - BSPCB",08-06-2024 00:00:00,25.697189,85.245900,OZONE,5,68,23
India,Bihar,Katihar,"Mirchaibari, Katihar - BSPCB",08-06-2024 00:00:00,25.560083,87.553265,NO2,4,4,4
India,Bihar,Katihar,"Mirchaibari, Katihar - BSPCB",08-06-2024 00:00:00,25.560083,87.553265,SO2,4,14,10
India,Bihar,Manguraha,"Forest Rest House, Manguraha - BSPCB",08-06-2024 00:00:00,27.308328,84.531742,SO2,3,6,4
India,Bihar,Motihari,"Gandak Colony, Motihari - BSPCB",08-06-2024 00:00:00,26.63086,84.90051,PM10,30,144,72
India,Bihar,Motihari,"Gandak Colony, Motihari - BSPCB",08-06-2024 00:00:00,26.63086,84.90051,CO,4,28,14
India,Bihar,Munger,"Town Hall, Munger - BSPCB",08-06-2024 00:00:00,25.376776,86.471523,SO2,16,31,24
India,Bihar,Muzaffarpur,"Buddha Colony, Muzaffarpur - BSPCB",08-06-2024 00:00:00,26.11442,85.39813,NH3,5,9,7
India,Bihar,Muzaffarpur,"MIT-Daudpur Kothi, Muzaffarpur - BSPCB",08-06-2024 00:00:00,26.1403345,85.3650192,PM2.5,35,313,146
India,Bihar,Muzaffarpur,"MIT-Daudpur Kothi, Muzaffarpur - BSPCB",08-06-2024 00:00:00,26.1403345,85.3650192,OZONE,23,83,56
India,Bihar,Muzaffarpur,"Muzaffarpur Collectorate, Muzaffarpur - BSPCB",08-06-2024 00:00:00,26.1209,85.3647,PM2.5,22,122,62
India,Bihar,Muzaffarpur,"Muzaffarpur Collectorate, Muzaffarpur - BSPCB",08-06-2024 00:00:00,26.1209,85.3647,OZONE,44,77,57
India,Bihar,Patna,"DRM Office Danapur, Patna - BSPCB",08-06-2024 00:00:00,25.586562,85.043586,PM10,87,156,120
India,Bihar,Patna,"DRM Office Danapur, Patna - BSPCB",08-06-2024 00:00:00,25.586562,85.043586,OZONE,28,135,87
India,Bihar,Patna,"IGSC Planetarium Complex, Patna - BSPCB",08-06-2024 00:00:00,25.610369,85.132568,PM2.5,42,253,115
India,Bihar,Patna,"Rajbansi Nagar, Patna - BSPCB",08-06-2024 00:00:00,25.599486,85.113666,NO2,9,115,32
India,Bihar,Patna,"Rajbansi Nagar, Patna - BSPCB",08-06-2024 00:00:00,25.599486,85.113666,CO,11,103,42
India,Bihar,Patna,"Rajbansi Nagar, Patna - BSPCB",08-06-2024 00:00:00,25.599486,85.113666,OZONE,28,108,67
India,Bihar,Patna,"Samanpura, Patna - BSPCB",08-06-2024 00:00:00,25.596727,85.085624,PM10,46,349,173
India,Bihar,Saharsa,"Police Line, Saharsa - BSPCB",08-06-2024 00:00:00,25.892357,86.590325,PM10,57,232,93
India,Bihar,Saharsa,"Police Line, Saharsa - BSPCB",08-06-2024 00:00:00,25.892357,86.590325,NO2,6,9,7
India,Bihar,Saharsa,"Police Line, Saharsa - BSPCB",08-06-2024 00:00:00,25.892357,86.590325,CO,54,56,55
India,Bihar,Samastipur,"DM Office_Kasipur, Samastipur - BSPCB",08-06-2024 00:00:00,25.859655,85.77944,PM10,8,67,30
India,Bihar,Samastipur,"DM Office_Kasipur, Samastipur - BSPCB",08-06-2024 00:00:00,25.859655,85.77944,SO2,52,69,60
India,Bihar,Samastipur,"DM Office_Kasipur, Samastipur - BSPCB",08-06-2024 00:00:00,25.859655,85.77944,CO,1,50,14
India,Bihar,Siwan,"Chitragupta Nagar, Siwan - BSPCB",08-06-2024 00:00:00,26.2271665,84.3570427,PM2.5,NA,NA,NA
India,Bihar,Siwan,"Chitragupta Nagar, Siwan - BSPCB",08-06-2024 00:00:00,26.2271665,84.3570427,OZONE,10,109,50
India,Chandigarh,Chandigarh,"Sector 22, Chandigarh - CPCC",08-06-2024 00:00:00,30.735567,76.775714,NH3,6,17,9
India,Chandigarh,Chandigarh,"Sector-25, Chandigarh - CPCC",08-06-2024 00:00:00,30.751462,76.762879,PM10,112,161,131
India,Chandigarh,Chandigarh,"Sector-25, Chandigarh - CPCC",08-06-2024 00:00:00,30.751462,76.762879,NO2,9,26,15
India,Chandigarh,Chandigarh,"Sector-25, Chandigarh - CPCC",08-06-2024 00:00:00,30.751462,76.762879,OZONE,20,51,41
India,Chandigarh,Chandigarh,"Sector-53, Chandigarh - CPCC",08-06-2024 00:00:00,30.719859,76.738637,PM2.5,30,95,61
India,Chandigarh,Chandigarh,"Sector-53, Chandigarh - CPCC",08-06-2024 00:00:00,30.719859,76.738637,NH3,5,7,6
India,Chandigarh,Chandigarh,"Sector-53, Chandigarh - CPCC",08-06-2024 00:00:00,30.719859,76.738637,OZONE,27,64,51
India,Chhattisgarh,Bhilai,"32Bungalows, Bhilai - CECB",08-06-2024 00:00:00,21.194815,81.314770,PM2.5,28,55,43
India,Chhattisgarh,Bhilai,"32Bungalows, Bhilai - CECB",08-06-2024 00:00:00,21.194815,81.314770,CO,12,19,15
India,Chhattisgarh,Bhilai,"Civic Center, Bhilai - Bhilai Steel Plant",08-06-2024 00:00:00,21.185571,81.343175,NO2,7,8,8
India,Chhattisgarh,Bhilai,"Civic Center, Bhilai - Bhilai Steel Plant",08-06-2024 00:00:00,21.185571,81.343175,NH3,3,4,4
India,Chhattisgarh,Bhilai,"Hathkhoj, Bhilai - CECB",08-06-2024 00:00:00,21.224231,81.408350,OZONE,NA,NA,NA
India,Chhattisgarh,Bilaspur,"Mangala, Bilaspur - NTPC",08-06-2024 00:00:00,22.08815,82.13737,PM2.5,46,99,66
India,Chhattisgarh,Bilaspur,"Mangala, Bilaspur - NTPC",08-06-2024 00:00:00,22.08815,82.13737,PM10,45,102,65
India,Chhattisgarh,Chhal,"Nawapara SECL Colony, Chhal - CECB",08-06-2024 00:00:00,22.118125,83.140608,CO,24,54,32
India,Chhattisgarh,Chhal,"Nawapara SECL Colony, Chhal - CECB",08-06-2024 00:00:00,22.118125,83.140608,OZONE,14,209,109
India,Chhattisgarh,Korba,"Urja Nagar, Korba - CECB",08-06-2024 00:00:00,22.348441,82.549611,SO2,7,14,9
India,Chhattisgarh,Korba,"Urja Nagar, Korba - CECB",08-06-2024 00:00:00,22.348441,82.549611,OZONE,2,54,16
India,Chhattisgarh,Kunjemura,"OP Jindal School, Kunjemura - CECB",08-06-2024 00:00:00,22.126650,83.483212,PM2.5,39,314,117
India,Chhattisgarh,Kunjemura,"OP Jindal School, Kunjemura - CECB",08-06-2024 00:00:00,22.126650,83.483212,CO,28,61,37
India,Chhattisgarh,Milupara,"Govt. Higher Secondary School, Milupara - CECB",08-06-2024 00:00:00,22.1910172,83.5197009,SO2,NA,NA,NA
India,Chhattisgarh,Raipur,"AIIMS, Raipur - CECB",08-06-2024 00:00:00,21.258815,81.578979,PM10,33,67,50
India,Chhattisgarh,Raipur,"AIIMS, Raipur - CECB",08-06-2024 00:00:00,21.258815,81.578979,OZONE,3,28,16
India,Chhattisgarh,Raipur,"Bhatagaon New ISBT, Raipur - CECB",08-06-2024 00:00:00,21.219665,81.630094,NH3,2,2,2
India,Chhattisgarh,Raipur,"Bhatagaon New ISBT, Raipur - CECB",08-06-2024 00:00:00,21.219665,81.630094,SO2,1,3,2
India,Chhattisgarh,Raipur,"Bhatagaon New ISBT, Raipur - CECB",08-06-2024 00:00:00,21.219665,81.630094,CO,13,28,20
India,Chhattisgarh,Raipur,"Krishak Nagar, Raipur - CECB",08-06-2024 00:00:00,21.237755,81.705301,NH3,1,1,1
India,Chhattisgarh,Raipur,"Krishak Nagar, Raipur - CECB",08-06-2024 00:00:00,21.237755,81.705301,SO2,10,30,15
India,Chhattisgarh,Raipur,"Krishak Nagar, Raipur - CECB",08-06-2024 00:00:00,21.237755,81.705301,OZONE,8,49,23
India,Chhattisgarh,Raipur,"Siltara Phase-II, Raipur - CECB",08-06-2024 00:00:00,21.371751,81.664929,SO2,NA,NA,NA
India,Delhi,Delhi,"Anand Vihar, Delhi - DPCC",08-06-2024 00:00:00,28.647622,77.3158090,NH3,5,13,8
India,Delhi,Delhi,"Aya Nagar, Delhi - IMD",08-06-2024 00:00:00,28.4706914,77.1099364,PM10,121,500,273
India,Delhi,Delhi,"Aya Nagar, Delhi - IMD",08-06-2024 00:00:00,28.4706914,77.1099364,CO,68,86,74
India,Delhi,Delhi,"Bawana, Delhi - DPCC",08-06-2024 00:00:00,28.776200,77.051074,CO,32,71,60
India,Delhi,Delhi,"Bawana, Delhi - DPCC",08-06-2024 00:00:00,28.776200,77.051074,OZONE,23,122,81
India,Delhi,Delhi,"Burari Crossing, Delhi - IMD",08-06-2024 00:00:00,28.7256504,77.2011573,PM2.5,71,445,198
India,Delhi,Delhi,"CRRI Mathura Road, Delhi - IMD",08-06-2024 00:00:00,28.5512005,77.2735737,NO2,NA,NA,NA
India,Delhi,Delhi,"Chandni Chowk, Delhi - IITM",08-06-2024 00:00:00,28.656756,77.227234,CO,52,73,60
India,Delhi,Delhi,"DTU, Delhi - CPCB",08-06-2024 00:00:00,28.7500499,77.1112615,SO2,38,47,43
India,Delhi,Delhi,"DTU, Delhi - CPCB",08-06-2024 00:00:00,28.7500499,77.1112615,OZONE,39,122,90
India,Delhi,Delhi,"Dr. Karni Singh Shooting Range, Delhi - DPCC",08-06-2024 00:00:00,28.498571,77.264840,PM2.5,43,268,87
India,Delhi,Delhi,"Dwarka-Sector 8, Delhi - DPCC ",08-06-2024 00:00:00,28.5710274,77.0719006,PM10,135,500,279
India,Delhi,Delhi,"Dwarka-Sector 8, Delhi - DPCC ",08-06-2024 00:00:00,28.5710274,77.0719006,CO,8,46,28
India,Delhi,Delhi,"IGI Airport (T3), Delhi - IMD",08-06-2024 00:00:00,28.5627763,77.1180053,PM2.5,31,161,83
India,Delhi,Delhi,"IGI Airport (T3), Delhi - IMD",08-06-2024 00:00:00,28.5627763,77.1180053,NO2,15,46,28
India,Delhi,Delhi,"IHBAS, Dilshad Garden, Delhi - CPCB",08-06-2024 00:00:00,28.6811736,77.3025234,NH3,3,10,7
India,Delhi,Delhi,"IHBAS, Dilshad Garden, Delhi - CPCB",08-06-2024 00:00:00,28.6811736,77.3025234,SO2,3,35,16
India,Delhi,Delhi,"IHBAS, Dilshad Garden, Delhi - CPCB",08-06-2024 00:00:00,28.6811736,77.3025234,CO,8,52,20
India,Delhi,Delhi,"ITO, Delhi - CPCB",08-06-2024 00:00:00,28.628624,77.241060,NO2,46,92,62
India,Delhi,Delhi,"ITO, Delhi - CPCB",08-06-2024 00:00:00,28.628624,77.241060,SO2,6,20,11
India,Delhi,Delhi,"Jahangirpuri, Delhi - DPCC",08-06-2024 00:00:00,28.732820,77.170633,PM10,167,403,269
India,Delhi,Delhi,"Jahangirpuri, Delhi - DPCC",08-06-2024 00:00:00,28.732820,77.170633,NH3,5,31,12
India,Delhi,Delhi,"Jawaharlal Nehru Stadium, Delhi - DPCC",08-06-2024 00:00:00,28.580280,77.233829,OZONE,1,195,99
India,Delhi,Delhi,"Lodhi Road, Delhi - IITM",08-06-2024 00:00:00,28.588333,77.221667,PM2.5,33,165,64
India,Delhi,Delhi,"Major Dhyan Chand National Stadium, Delhi - DPCC",08-06-2024 00:00:00,28.611281,77.237738,NO2,14,90,45
India,Delhi,Delhi,"Mandir Marg, Delhi - DPCC",08-06-2024 00:00:00,28.636429,77.201067,NH3,3,5,4
India,Delhi,Delhi,"Mandir Marg, Delhi - DPCC",08-06-2024 00:00:00,28.636429,77.201067,SO2,7,24,12
India,Delhi,Delhi,"Mundka, Delhi - DPCC",08-06-2024 00:00:00,28.684678,77.076574,CO,32,68,38
India,Delhi,Delhi,"NSIT Dwarka, Delhi - CPCB",08-06-2024 00:00:00,28.60909,77.0325413,PM10,146,500,291
India,Delhi,Delhi,"Najafgarh, Delhi - DPCC",08-06-2024 00:00:00,28.570173,76.933762,PM2.5,12,187,67
India,Delhi,Delhi,"Najafgarh, Delhi - DPCC",08-06-2024 00:00:00,28.570173,76.933762,OZONE,37,103,77
India,Delhi,Delhi,"New Moti Bagh, Delhi - MHUA",08-06-2024 00:00:00,28.57834,77.18400,PM2.5,35,397,137
India,Delhi,Delhi,"New Moti Bagh, Delhi - MHUA",08-06-2024 00:00:00,28.57834,77.18400,NO2,5,24,13
India,Delhi,Delhi,"New Moti Bagh, Delhi - MHUA",08-06-2024 00:00:00,28.57834,77.18400,CO,16,49,32
India,Delhi,Delhi,"North Campus, DU, Delhi - IMD",08-06-2024 00:00:00,28.6573814,77.1585447,PM2.5,NA,NA,NA
India,Delhi,Delhi,"North Campus, DU, Delhi - IMD",08-06-2024 00:00:00,28.6573814,77.1585447,OZONE,27,54,39
India,Delhi,Delhi,"Okhla Phase-2, Delhi - DPCC",08-06-2024 00:00:00,28.530785,77.271255,NH3,8,14,12
India,Delhi,Delhi,"Okhla Phase-2, Delhi - DPCC",08-06-2024 00:00:00,28.530785,77.271255,SO2,7,13,9
India,Delhi,Delhi,"Patparganj, Delhi - DPCC",08-06-2024 00:00:00,28.623763,77.287209,SO2,6,22,12
India,Delhi,Delhi,"Patparganj, Delhi - DPCC",08-06-2024 00:00:00,28.623763,77.287209,CO,12,60,38
India,Delhi,Delhi,"Patparganj, Delhi - DPCC",08-06-2024 00:00:00,28.623763,77.287209,OZONE,4,200,80
India,Delhi,Delhi,"Punjabi Bagh, Delhi - DPCC",08-06-2024 00:00:00,28.674045,77.131023,NO2,10,57,27
India,Delhi,Delhi,"Pusa, Delhi - DPCC",08-06-2024 00:00:00,28.639652,77.146275,SO2,4,33,14
India,Delhi,Delhi,"Pusa, Delhi - DPCC",08-06-2024 00:00:00,28.639652,77.146275,CO,17,82,51
India,Delhi,Delhi,"R K Puram, Delhi - DPCC",08-06-2024 00:00:00,28.563262,77.186937,NH3,4,10,7
India,Delhi,Delhi,"R K Puram, Delhi - DPCC",08-06-2024 00:00:00,28.563262,77.186937,OZONE,27,155,93
India,Delhi,Delhi,"Rohini, Delhi - DPCC",08-06-2024 00:00:00,28.732528,77.119920,NO2,10,78,35
India,Delhi,Delhi,"Rohini, Delhi - DPCC",08-06-2024 00:00:00,28.732528,77.119920,NH3,11,14,12
India,Delhi,Delhi,"Shadipur, Delhi - CPCB",08-06-2024 00:00:00,28.6514781,77.1473105,OZONE,8,99,17
India,Delhi,Delhi,"Sirifort, Delhi - CPCB",08-06-2024 00:00:00,28.5504249,77.2159377,PM10,137,500,251
India,Delhi,Delhi,"Sirifort, Delhi - CPCB",08-06-2024 00:00:00,28.5504249,77.2159377,NH3,20,22,21
India,Delhi,Delhi,"Sirifort, Delhi - CPCB",08-06-2024 00:00:00,28.5504249,77.2159377,CO,10,29,19
India,Delhi,Delhi,"Sonia Vihar, Delhi - DPCC",08-06-2024 00:00:00,28.710508,77.249485,PM2.5,50,230,85
India,Delhi,Delhi,"Sonia Vihar, Delhi - DPCC",08-06-2024 00:00:00,28.710508,77.249485,SO2,3,30,12
India,Delhi,Delhi,"Vivek Vihar, Delhi - DPCC",08-06-2024 00:00:00,28.672342,77.315260,NO2,14,83,34
India,Delhi,Delhi,"Vivek Vihar, Delhi - DPCC",08-06-2024 00:00:00,28.672342,77.315260,CO,56,104,80
India,Delhi,Delhi,"Wazirpur, Delhi - DPCC",08-06-2024 00:00:00,28.699793,77.165453,PM2.5,50,242,102
India,Delhi,Delhi,"Wazirpur, Delhi - DPCC",08-06-2024 00:00:00,28.699793,77.165453,PM10,133,500,207
India,Gujarat,Ahmedabad,"Chandkheda, Ahmedabad - IITM",08-06-2024 00:00:00,23.107969,72.574648,PM10,58,127,80
India,Gujarat,Ahmedabad,"Gyaspur, Ahmedabad - IITM",08-06-2024 00:00:00,22.977134,72.553024,OZONE,48,94,77
India,Gujarat,Ahmedabad,"Raikhad, Ahmedabad - IITM",08-06-2024 00:00:00,23.020509,72.579261,CO,2,30,18
India,Gujarat,Ahmedabad,"Raikhad, Ahmedabad - IITM",08-06-2024 00:00:00,23.020509,72.579261,OZONE,NA,NA,NA
India,Gujarat,Ahmedabad,"Rakhial, Ahmedabad - IITM",08-06-2024 00:00:00,23.016834,72.625775,PM10,56,105,79
India,Gujarat,Ahmedabad,"SVPI Airport Hansol, Ahmedabad - IITM",08-06-2024 00:00:00,23.076793,72.627874,OZONE,2,58,36
India,Gujarat,Ankleshwar,"GIDC, Ankleshwar - GPCB",08-06-2024 00:00:00,21.613267,73.010555,PM2.5,37,74,47
India,Gujarat,Gandhinagar,"GIFT City, Gandhinagar - IITM",08-06-2024 00:00:00,23.163798,72.677768,PM2.5,NA,NA,NA
India,Gujarat,Gandhinagar,"GIFT City, Gandhinagar - IITM",08-06-2024 00:00:00,23.163798,72.677768,PM10,NA,NA,NA
India,Gujarat,Gandhinagar,"GIFT City, Gandhinagar - IITM",08-06-2024 00:00:00,23.163798,72.677768,NH3,NA,NA,NA
India,Gujarat,Gandhinagar,"GIFT City, Gandhinagar - IITM",08-06-2024 00:00:00,23.163798,72.677768,SO2,NA,NA,NA
India,Gujarat,Gandhinagar,"Sector-10, Gandhinagar - GPCB",08-06-2024 00:00:00,23.221714,72.654328,CO,14,24,20
India,Gujarat,Nandesari,"GIDC, Nandesari - Nandesari Ind. Association",08-06-2024 00:00:00,22.410802,73.097923,PM2.5,35,301,107
India,Gujarat,Surat,"Science Center, Surat - SMC",08-06-2024 00:00:00,21.170046,72.795405,PM2.5,1,41,18
India,Gujarat,Vapi,"Phase-1 GIDC, Vapi - GPCB",08-06-2024 00:00:00,20.362421,72.918013,PM2.5,20,44,29
India,Gujarat,Vatva,"Phase-4 GIDC, Vatva - GPCB",08-06-2024 00:00:00,22.969611,72.643500,NH3,7,14,11
India,Haryana,Bahadurgarh,"Arya Nagar, Bahadurgarh - HSPCB",08-06-2024 00:00:00,28.6701,76.9254,NH3,NA,NA,NA
India,Haryana,Bahadurgarh,"Arya Nagar, Bahadurgarh - HSPCB",08-06-2024 00:00:00,28.6701,76.9254,CO,NA,NA,NA
India,Haryana,Bahadurgarh,"Arya Nagar, Bahadurgarh - HSPCB",08-06-2024 00:00:00,28.6701,76.9254,OZONE,NA,NA,NA
India,Haryana,Ballabgarh,"Nathu Colony, Ballabgarh - HSPCB",08-06-2024 00:00:00,28.3419248,77.319699,PM10,121,465,223
India,Haryana,Bhiwani,"H.B. Colony, Bhiwani - HSPCB",08-06-2024 00:00:00,28.806223,76.141105,PM10,91,230,125
India,Haryana,Bhiwani,"H.B. Colony, Bhiwani - HSPCB",08-06-2024 00:00:00,28.806223,76.141105,NH3,4,6,6
India,Haryana,Dharuhera,"Municipal Corporation Office, Dharuhera -  HSPCB",08-06-2024 00:00:00,28.206800,76.799700,PM10,NA,NA,NA
India,Haryana,Dharuhera,"Municipal Corporation Office, Dharuhera -  HSPCB",08-06-2024 00:00:00,28.206800,76.799700,NO2,47,113,73
India,Haryana,Dharuhera,"Municipal Corporation Office, Dharuhera -  HSPCB",08-06-2024 00:00:00,28.206800,76.799700,OZONE,10,43,24
India,Haryana,Faridabad,"Sector 11, Faridabad - HSPCB",08-06-2024 00:00:00,28.376058,77.315741,SO2,3,116,13
India,Haryana,Faridabad,"Sector 30, Faridabad - HSPCB",08-06-2024 00:00:00,28.4417,77.3217,PM10,73,243,121
India,Haryana,Fatehabad,"Huda Sector, Fatehabad - HSPCB",08-06-2024 00:00:00,29.503664,75.467934,PM2.5,9,91,39
India,Haryana,Fatehabad,"Huda Sector, Fatehabad - HSPCB",08-06-2024 00:00:00,29.503664,75.467934,PM10,26,166,92
India,Haryana,Fatehabad,"Huda Sector, Fatehabad - HSPCB",08-06-2024 00:00:00,29.503664,75.467934,SO2,1,24,9
India,Haryana,Fatehabad,"Huda Sector, Fatehabad - HSPCB",08-06-2024 00:00:00,29.503664,75.467934,OZONE,10,49,26
India,Haryana,Gurugram,"Teri Gram, Gurugram - HSPCB",08-06-2024 00:00:00,28.4275,77.1465,PM10,108,498,260
India,Haryana,Gurugram,"Vikas Sadan, Gurugram - HSPCB",08-06-2024 00:00:00,28.4501238,77.0263051,PM2.5,30,375,229
India,Haryana,Gurugram,"Vikas Sadan, Gurugram - HSPCB",08-06-2024 00:00:00,28.4501238,77.0263051,NO2,5,24,14
India,Haryana,Jind,"Police Lines, Jind - HSPCB",08-06-2024 00:00:00,29.307814,76.337619,PM10,NA,NA,NA
India,Haryana,Jind,"Police Lines, Jind - HSPCB",08-06-2024 00:00:00,29.307814,76.337619,NO2,NA,NA,NA
India,Haryana,Jind,"Police Lines, Jind - HSPCB",08-06-2024 00:00:00,29.307814,76.337619,OZONE,25,57,30
India,Haryana,Kaithal,"Rishi Nagar, Kaithal - HSPCB",08-06-2024 00:00:00,29.8006,76.4155,PM2.5,50,84,62
India,Haryana,Kaithal,"Rishi Nagar, Kaithal - HSPCB",08-06-2024 00:00:00,29.8006,76.4155,NO2,24,26,25
India,Haryana,Karnal,"Sector-12, Karnal - HSPCB",08-06-2024 00:00:00,29.695300,77.002700,PM10,94,194,112
India,Haryana,Karnal,"Sector-12, Karnal - HSPCB",08-06-2024 00:00:00,29.695300,77.002700,NH3,10,13,11
India,Haryana,Kurukshetra,"Sector-7, Kurukshetra - HSPCB",08-06-2024 00:00:00,29.966942,76.875879,PM10,128,258,145
India,Haryana,Mandikhera,"General Hospital, Mandikhera - HSPCB",08-06-2024 00:00:00,27.9002,76.9938,PM10,106,500,292
India,Haryana,Mandikhera,"General Hospital, Mandikhera - HSPCB",08-06-2024 00:00:00,27.9002,76.9938,NH3,15,19,18
India,Haryana,Mandikhera,"General Hospital, Mandikhera - HSPCB",08-06-2024 00:00:00,27.9002,76.9938,SO2,29,39,34
India,Haryana,Manesar,"Sector-2 IMT, Manesar - HSPCB",08-06-2024 00:00:00,28.360699,76.936090,NH3,3,4,3
India,Haryana,Narnaul,"Shastri Nagar, Narnaul - HSPCB",08-06-2024 00:00:00,28.060249,76.113115,PM10,91,500,216
India,Haryana,Narnaul,"Shastri Nagar, Narnaul - HSPCB",08-06-2024 00:00:00,28.060249,76.113115,CO,11,31,20
India,Haryana,Palwal,"Shyam Nagar, Palwal - HSPCB",08-06-2024 00:00:00,28.1485564,77.3320667,SO2,4,21,12
India,Haryana,Rohtak,"MD University, Rohtak - HSPCB",08-06-2024 00:00:00,28.52123,76.37138,NO2,47,54,51
India,Haryana,Rohtak,"MD University, Rohtak - HSPCB",08-06-2024 00:00:00,28.52123,76.37138,SO2,6,8,7
India,Haryana,Rohtak,"MD University, Rohtak - HSPCB",08-06-2024 00:00:00,28.52123,76.37138,CO,14,63,46
India,Haryana,Yamuna Nagar,"Gobind Pura, Yamuna Nagar - HSPCB",08-06-2024 00:00:00,30.1480566,77.2893471,PM2.5,NA,NA,NA
India,Himachal Pradesh,Baddi,"HIMUDA Complex Phase-1, Baddi - HPPCB",08-06-2024 00:00:00,30.943887,76.801991,NO2,8,60,22
India,Himachal Pradesh,Baddi,"HIMUDA Complex Phase-1, Baddi - HPPCB",08-06-2024 00:00:00,30.943887,76.801991,OZONE,84,235,165
India,Jammu_and_Kashmir,Srinagar,"Rajbagh, Srinagar - JKSPCB",08-06-2024 00:00:00,34.066206,74.819820,PM10,NA,NA,NA
India,Jharkhand,Dhanbad,"Sardar Patel Nagar, Dhanbad - JSPCB",08-06-2024 00:00:00,23.80569,86.44268,NO2,NA,NA,NA
India,Karnataka,Bagalkot,"Vidayagiri, Bagalkot - KSPCB",08-06-2024 00:00:00,16.172806,75.659694,CO,29,57,38
India,Karnataka,Belgaum,"Ramteerth Nagar, Belgaum - KSPCB",08-06-2024 00:00:00,15.888653,74.541751,SO2,NA,NA,NA
India,Karnataka,Bengaluru,"Bapuji Nagar, Bengaluru - KSPCB",08-06-2024 00:00:00,12.951913,77.539784,PM10,5,41,23
India,Karnataka,Bengaluru,"Bapuji Nagar, Bengaluru - KSPCB",08-06-2024 00:00:00,12.951913,77.539784,NO2,14,16,15
India,Karnataka,Bengaluru,"Bapuji Nagar, Bengaluru - KSPCB",08-06-2024 00:00:00,12.951913,77.539784,CO,11,47,30
India,Karnataka,Bengaluru,"Bapuji Nagar, Bengaluru - KSPCB",08-06-2024 00:00:00,12.951913,77.539784,OZONE,24,26,25
India,Karnataka,Bengaluru,"Hebbal, Bengaluru - KSPCB",08-06-2024 00:00:00,13.029152,77.585901,SO2,12,27,20
India,Karnataka,Bengaluru,"Hebbal, Bengaluru - KSPCB",08-06-2024 00:00:00,13.029152,77.585901,CO,5,26,17
India,Karnataka,Bengaluru,"Jayanagar 5th Block, Bengaluru - KSPCB",08-06-2024 00:00:00,12.920984,77.584908,NO2,9,11,9
India,Karnataka,Bengaluru,"Jigani, Bengaluru - KSPCB",08-06-2024 00:00:00,12.7816279,77.6299145,PM10,NA,NA,NA
India,Karnataka,Bengaluru,"Jigani, Bengaluru - KSPCB",08-06-2024 00:00:00,12.7816279,77.6299145,OZONE,18,38,26
India,Karnataka,Bengaluru,"Kasturi Nagar, Bengaluru - KSPCB",08-06-2024 00:00:00,13.003872,77.664217,NO2,16,17,16
India,Karnataka,Bengaluru,"Peenya, Bengaluru - CPCB",08-06-2024 00:00:00,13.0270199,77.494094,PM2.5,34,40,37
India,Karnataka,Bengaluru,"RVCE-Mailasandra, Bengaluru - KSPCB",08-06-2024 00:00:00,12.921418,77.502466,PM10,3,32,16
India,Karnataka,Bengaluru,"RVCE-Mailasandra, Bengaluru - KSPCB",08-06-2024 00:00:00,12.921418,77.502466,OZONE,39,39,39
India,Karnataka,Bengaluru,"Sanegurava Halli, Bengaluru - KSPCB",08-06-2024 00:00:00,12.990328,77.5431385,NO2,20,28,23
India,Karnataka,Bengaluru,"Sanegurava Halli, Bengaluru - KSPCB",08-06-2024 00:00:00,12.990328,77.5431385,CO,15,32,23
India,Karnataka,Bengaluru,"Shivapura_Peenya, Bengaluru - KSPCB",08-06-2024 00:00:00,13.0246342,77.5080115,PM10,3,55,31
India,Karnataka,Bengaluru,"Shivapura_Peenya, Bengaluru - KSPCB",08-06-2024 00:00:00,13.0246342,77.5080115,NH3,4,4,4
India,Karnataka,Bengaluru,"Shivapura_Peenya, Bengaluru - KSPCB",08-06-2024 00:00:00,13.0246342,77.5080115,OZONE,53,55,54
India,Karnataka,Bengaluru,"Silk Board, Bengaluru - KSPCB",08-06-2024 00:00:00,12.917348,77.622813,SO2,9,15,11
India,Karnataka,Chamarajanagar,"Urban, Chamarajanagar - KSPCB",08-06-2024 00:00:00,11.55358,76.55521,NO2,16,19,19
India,Karnataka,Chamarajanagar,"Urban, Chamarajanagar - KSPCB",08-06-2024 00:00:00,11.55358,76.55521,NH3,2,2,2
India,Karnataka,Chamarajanagar,"Urban, Chamarajanagar - KSPCB",08-06-2024 00:00:00,11.55358,76.55521,SO2,6,8,6
India,Karnataka,Chikkaballapur,"Chikkaballapur Rural, Chikkaballapur - KSPCB",08-06-2024 00:00:00,13.428828,77.731418,PM10,7,36,18
India,Karnataka,Chikkaballapur,"Chikkaballapur Rural, Chikkaballapur - KSPCB",08-06-2024 00:00:00,13.428828,77.731418,SO2,16,26,21
India,Karnataka,Chikkamagaluru,"Kalyana Nagara, Chikkamagaluru - KSPCB",08-06-2024 00:00:00,13.328028,75.797056,PM2.5,4,37,16
India,Karnataka,Chikkamagaluru,"Kalyana Nagara, Chikkamagaluru - KSPCB",08-06-2024 00:00:00,13.328028,75.797056,PM10,24,96,36
India,Karnataka,Chikkamagaluru,"Kalyana Nagara, Chikkamagaluru - KSPCB",08-06-2024 00:00:00,13.328028,75.797056,SO2,1,5,3
India,Karnataka,Davanagere,"Devaraj Urs Badavane, Davanagere - KSPCB",08-06-2024 00:00:00,14.475800,75.905200,SO2,5,8,7
India,Karnataka,Gadag,"Panchal Nagar, Gadag - KSPCB",08-06-2024 00:00:00,15.411456,75.638133,PM2.5,NA,NA,NA
India,Karnataka,Gadag,"Panchal Nagar, Gadag - KSPCB",08-06-2024 00:00:00,15.411456,75.638133,NH3,1,4,2
India,Karnataka,Gadag,"Panchal Nagar, Gadag - KSPCB",08-06-2024 00:00:00,15.411456,75.638133,SO2,4,26,13
India,Karnataka,Hassan,"B.Katihalli, Hassan - KSPCB",08-06-2024 00:00:00,13.008556,76.125258,NH3,1,4,2
India,Karnataka,Hassan,"B.Katihalli, Hassan - KSPCB",08-06-2024 00:00:00,13.008556,76.125258,OZONE,1,18,13
India,Karnataka,Hubballi,"Lingaraj Nagar, Hubballi - KSPCB",08-06-2024 00:00:00,15.3714823,75.1160168,OZONE,11,40,26
India,Karnataka,Kalaburagi,"Lal Bahadur Shastri Nagar, Kalaburagi - KSPCB",08-06-2024 00:00:00,17.321993,76.822628,NH3,2,3,2
India,Karnataka,Kalaburagi,"Mahatma Basaveswar Colony, Kalaburgi - KSPCB",08-06-2024 00:00:00,17.336318,76.847397,PM2.5,NA,NA,NA
India,Karnataka,Kalaburagi,"Mahatma Basaveswar Colony, Kalaburgi - KSPCB",08-06-2024 00:00:00,17.336318,76.847397,NO2,NA,NA,NA
India,Karnataka,Kalaburagi,"Mahatma Basaveswar Colony, Kalaburgi - KSPCB",08-06-2024 00:00:00,17.336318,76.847397,CO,NA,NA,NA
India,Karnataka,Karwar,"KHB Colony, Karwar - KSPCB",08-06-2024 00:00:00,14.816666,74.141003,PM2.5,5,30,13
India,Karnataka,Koppal,"Diwator Nagar, Koppal - KSPCB",08-06-2024 00:00:00,15.347630,76.181767,PM2.5,NA,NA,NA
India,Karnataka,Koppal,"Diwator Nagar, Koppal - KSPCB",08-06-2024 00:00:00,15.347630,76.181767,NO2,NA,NA,NA
India,Karnataka,Koppal,"Diwator Nagar, Koppal - KSPCB",08-06-2024 00:00:00,15.347630,76.181767,SO2,24,25,24
India,Karnataka,Madikeri,"Stuart Hill, Madikeri - KSPCB",08-06-2024 00:00:00,12.415911,75.735050,CO,2,54,24
India,Karnataka,Mangalore,"Kadri, Mangalore - KSPCB",08-06-2024 00:00:00,12.889250,74.853000,PM2.5,13,34,24
India,Karnataka,Mangalore,"Kadri, Mangalore - KSPCB",08-06-2024 00:00:00,12.889250,74.853000,SO2,9,10,10
India,Karnataka,Raichur,"Haji Colony, Raichur - KSPCB",08-06-2024 00:00:00,16.208139,77.348417,CO,61,92,66
India,Karnataka,Ramanagara,"Vijay Nagar, Ramanagara - KSPCB",08-06-2024 00:00:00,12.733409,77.298051,PM2.5,2,19,9
India,Karnataka,Shivamogga,"Vinoba Nagara, Shivamogga - KSPCB",08-06-2024 00:00:00,13.940000,75.555917,SO2,2,8,4
India,Karnataka,Tumakuru,"Thimmalapura, Tumakuru - KSPCB",08-06-2024 00:00:00,13.377516,77.099072,OZONE,15,23,17
India,Karnataka,Udupi,"Brahmagiri, Udupi - KSPCB",08-06-2024 00:00:00,13.34194444,74.74694444,SO2,20,22,21
India,Karnataka,Vijayapura,"Ibrahimpur, Vijayapura - KSPCB",08-06-2024 00:00:00,16.802639,75.722694,PM2.5,26,31,30
India,Karnataka,Vijayapura,"Ibrahimpur, Vijayapura - KSPCB",08-06-2024 00:00:00,16.802639,75.722694,NH3,2,2,2
India,Kerala,Thiruvananthapuram,"Kariavattom, Thiruvananthapuram - Kerala PCB",08-06-2024 00:00:00,8.563700,76.886500,PM2.5,34,41,37
India,Kerala,Thiruvananthapuram,"Plammoodu, Thiruvananthapuram - Kerala PCB",08-06-2024 00:00:00,8.5149093,76.9435879,PM10,2,37,13
India,Kerala,Thrissur,"Corporation Ground, Thrissur - Kerala PCB",08-06-2024 00:00:00,10.532400,76.215900,CO,14,70,31
India,Madhya Pradesh,Bhopal,"Idgah Hills, Bhopal - MPPCB",08-06-2024 00:00:00,23.264759,77.381568,NO2,11,50,26
India,Madhya Pradesh,Bhopal,"Paryavaran Parisar, Bhopal - MPPCB",08-06-2024 00:00:00,23.210494,77.425409,PM2.5,38,143,79
India,Madhya Pradesh,Bhopal,"T T Nagar, Bhopal - MPPCB",08-06-2024 00:00:00,23.233584,77.400574,NO2,23,84,34
India,Madhya Pradesh,Dewas,"Bhopal Chauraha, Dewas - MPPCB",08-06-2024 00:00:00,22.9682591,76.064118,PM10,34,80,45
India,Madhya Pradesh,Dewas,"Bhopal Chauraha, Dewas - MPPCB",08-06-2024 00:00:00,22.9682591,76.064118,CO,23,40,36
India,Madhya Pradesh,Gwalior,"City Center, Gwalior - MPPCB",08-06-2024 00:00:00,26.203442,78.193251,PM2.5,57,310,108
India,Madhya Pradesh,Gwalior,"Deen Dayal Nagar, Gwalior - MPPCB",08-06-2024 00:00:00,26.259242,78.216432,CO,1,148,44
India,Madhya Pradesh,Gwalior,"Maharaj Bada, Gwalior - MPPCB",08-06-2024 00:00:00,26.200388,78.147714,CO,2,60,27
India,Madhya Pradesh,Gwalior,"Phool Bagh, Gwalior - Mondelez Ind. Food",08-06-2024 00:00:00,26.210536,78.171,PM2.5,69,243,133
India,Madhya Pradesh,Gwalior,"Phool Bagh, Gwalior - Mondelez Ind. Food",08-06-2024 00:00:00,26.210536,78.171,NO2,4,5,4
India,Madhya Pradesh,Indore,"Maguda Nagar, Indore - IMC",08-06-2024 00:00:00,22.7524,75.8872,PM2.5,55,92,66
India,Madhya Pradesh,Indore,"Maguda Nagar, Indore - IMC",08-06-2024 00:00:00,22.7524,75.8872,PM10,36,64,48
India,Madhya Pradesh,Indore,"Maguda Nagar, Indore - IMC",08-06-2024 00:00:00,22.7524,75.8872,CO,22,30,25
India,Madhya Pradesh,Indore,"Regional Park, Indore - IMC",08-06-2024 00:00:00,22.6780,75.8559,SO2,47,51,49
India,Madhya Pradesh,Indore,"Regional Park, Indore - IMC",08-06-2024 00:00:00,22.6780,75.8559,OZONE,5,19,10
India,Madhya Pradesh,Indore,"Residency Area, Indore - IMC",08-06-2024 00:00:00,22.7084,75.8815,NO2,26,76,56
India,Madhya Pradesh,Indore,"Residency Area, Indore - IMC",08-06-2024 00:00:00,22.7084,75.8815,SO2,30,80,42
India,Madhya Pradesh,Jabalpur,"Govindh Bhavan Colony, Jabalpur - JMC",08-06-2024 00:00:00,23.163174,79.973061,PM2.5,38,68,50
India,Madhya Pradesh,Jabalpur,"Govindh Bhavan Colony, Jabalpur - JMC",08-06-2024 00:00:00,23.163174,79.973061,SO2,13,31,17
India,Madhya Pradesh,Jabalpur,"Govindh Bhavan Colony, Jabalpur - JMC",08-06-2024 00:00:00,23.163174,79.973061,CO,14,19,16
India,Madhya Pradesh,Jabalpur,"Marhatal, Jabalpur - MPPCB",08-06-2024 00:00:00,23.168606,79.932247,PM2.5,34,57,43
India,Madhya Pradesh,Jabalpur,"Marhatal, Jabalpur - MPPCB",08-06-2024 00:00:00,23.168606,79.932247,NO2,8,32,18
India,Madhya Pradesh,Jabalpur,"Suhagi, Jabalpur - JMC",08-06-2024 00:00:00,23.218135,79.957770,NO2,36,55,42
India,Madhya Pradesh,Jabalpur,"Suhagi, Jabalpur - JMC",08-06-2024 00:00:00,23.218135,79.957770,SO2,13,24,17
India,Madhya Pradesh,Katni,"Gole Bazar, Katni - MPPCB",08-06-2024 00:00:00,23.50016,80.23284,PM10,61,153,98
India,Madhya Pradesh,Katni,"Gole Bazar, Katni - MPPCB",08-06-2024 00:00:00,23.50016,80.23284,CO,22,40,28
India,Madhya Pradesh,Katni,"Gole Bazar, Katni - MPPCB",08-06-2024 00:00:00,23.50016,80.23284,OZONE,36,121,62
India,Madhya Pradesh,Maihar,"Sahilara, Maihar - KJS Cements",08-06-2024 00:00:00,24.2613009,80.7231783,NO2,10,20,16
India,Madhya Pradesh,Ratlam,"Shasthri Nagar, Ratlam - IPCA Lab",08-06-2024 00:00:00,23.331731,75.045981,PM10,69,201,121
India,Madhya Pradesh,Ratlam,"Shasthri Nagar, Ratlam - IPCA Lab",08-06-2024 00:00:00,23.331731,75.045981,NO2,13,14,13
India,Madhya Pradesh,Ratlam,"Shasthri Nagar, Ratlam - IPCA Lab",08-06-2024 00:00:00,23.331731,75.045981,SO2,29,31,30
India,Madhya Pradesh,Sagar,"Deen Dayal Nagar, Sagar - MPPCB",08-06-2024 00:00:00,23.8640158,78.80289321,NO2,20,25,23
India,Madhya Pradesh,Sagar,"Deen Dayal Nagar, Sagar - MPPCB",08-06-2024 00:00:00,23.8640158,78.80289321,CO,52,80,66
India,Madhya Pradesh,Satna,"Bandhavgar Colony, Satna - Birla Cement",08-06-2024 00:00:00,24.58434363,80.8549414,PM2.5,7,37,21
India,Madhya Pradesh,Ujjain,"Mahakaleshwar Temple, Ujjain - MPPCB",08-06-2024 00:00:00,23.182719 ,75.768218 ,CO,14,44,22
India,Maharashtra,Ahmednagar,"Tarakpur, Ahmednagar - MPCB",08-06-2024 00:00:00,19.10122,74.73339,PM2.5,27,131,58
India,Maharashtra,Ahmednagar,"Tarakpur, Ahmednagar - MPCB",08-06-2024 00:00:00,19.10122,74.73339,PM10,37,198,74
India,Maharashtra,Ahmednagar,"Tarakpur, Ahmednagar - MPCB",08-06-2024 00:00:00,19.10122,74.73339,SO2,1,23,13
India,Maharashtra,Akola,"Ramdaspeth, Akola - MPCB",08-06-2024 00:00:00,20.719516,77.000253,PM10,36,102,74
India,Maharashtra,Amravati,"Shivneri Colony, Amravati - MPCB",08-06-2024 00:00:00,20.9402359,77.7895248,SO2,3,5,4
India,Maharashtra,Amravati,"Shivneri Colony, Amravati - MPCB",08-06-2024 00:00:00,20.9402359,77.7895248,CO,12,30,21
India,Maharashtra,Amravati,"Shri Shivaji Science College, Amaravati - MPCB",08-06-2024 00:00:00,20.939198,77.765701,NO2,7,21,12
India,Maharashtra,Amravati,"Shri Shivaji Science College, Amaravati - MPCB",08-06-2024 00:00:00,20.939198,77.765701,NH3,2,12,4
India,Maharashtra,Aurangabad,"MIDC Chilkalthana, Aurangabad - MPCB",08-06-2024 00:00:00,19.875620,75.387310,SO2,NA,NA,NA
India,Maharashtra,Aurangabad,"MIDC Chilkalthana, Aurangabad - MPCB",08-06-2024 00:00:00,19.875620,75.387310,CO,NA,NA,NA
India,Maharashtra,Aurangabad,"More Chowk Waluj, Aurangabad - MPCB",08-06-2024 00:00:00,19.8389439,75.244448,NO2,11,45,26
India,Maharashtra,Aurangabad,"Rachnakar Colony, Aurangabad - MPCB",08-06-2024 00:00:00,19.863756,75.321188,NO2,19,73,29
India,Maharashtra,Badlapur,"Katrap, Badlapur - MPCB",08-06-2024 00:00:00,19.16485,73.23409,NO2,8,69,25
India,Maharashtra,Badlapur,"Katrap, Badlapur - MPCB",08-06-2024 00:00:00,19.16485,73.23409,CO,22,62,36
India,Maharashtra,Belapur,"CBD Belapur, Belapur - MPCB",08-06-2024 00:00:00,19.0243902,73.0406721,OZONE,5,68,37
India,Maharashtra,Bhiwandi,"Gokul Nagar, Bhiwandi - MPCB",08-06-2024 00:00:00,19.309073,73.057223,NO2,5,53,15
India,Maharashtra,Bhiwandi,"Gokul Nagar, Bhiwandi - MPCB",08-06-2024 00:00:00,19.309073,73.057223,NH3,2,5,3
India,Maharashtra,Boisar,"Khaira, Boisar - MPCB",08-06-2024 00:00:00,19.786089,72.757971,PM10,NA,NA,NA
India,Maharashtra,Chandrapur,"Chauhan Colony, Chandrapur - MPCB",08-06-2024 00:00:00,19.962900,79.298714,PM10,35,69,51
India,Maharashtra,Chandrapur,"MIDC Khutala, Chandrapur - MPCB",08-06-2024 00:00:00,19.9775302,79.2337086,NH3,7,14,10
India,Maharashtra,Dhule,"Deopur, Dhule - MPCB",08-06-2024 00:00:00,20.918946,74.776388,CO,19,48,31
India,Maharashtra,Jalgaon,"Prabhat Colony, Jalgaon - MPCB",08-06-2024 00:00:00,21.001264,75.565602,PM10,50,144,104
India,Maharashtra,Jalgaon,"Prabhat Colony, Jalgaon - MPCB",08-06-2024 00:00:00,21.001264,75.565602,NO2,1,40,18
India,Maharashtra,Jalgaon,"Prabhat Colony, Jalgaon - MPCB",08-06-2024 00:00:00,21.001264,75.565602,SO2,3,8,6
India,Maharashtra,Jalna,"Old MIDC, Jalna - MPCB",08-06-2024 00:00:00,19.854616,75.905894,NH3,1,2,1
India,Maharashtra,Kalyan,"Khadakpada, Kalyan - MPCB",08-06-2024 00:00:00,19.25292,73.142019,SO2,19,25,21
India,Maharashtra,Kolhapur,"Shivaji University, Kolhapur - MPCB",08-06-2024 00:00:00,16.6870449,74.2505872,SO2,2,5,3
India,Maharashtra,Kolhapur,"Sinchan Bhavan, Kolhapur - MPCB",08-06-2024 00:00:00,16.7143745,74.2426398,SO2,1,4,1
India,Maharashtra,Latur,"Sawe Wadi, Latur - MPCB",08-06-2024 00:00:00,18.39963,76.57452,NO2,NA,NA,NA
India,Maharashtra,Latur,"Sawe Wadi, Latur - MPCB",08-06-2024 00:00:00,18.39963,76.57452,SO2,1,6,4
India,Maharashtra,Mahad,"Kamble Tarf Birwadi, Mahad - MPCB",08-06-2024 00:00:00,18.1023399,73.4783687,NH3,3,5,4
India,Maharashtra,Mahad,"Kamble Tarf Birwadi, Mahad - MPCB",08-06-2024 00:00:00,18.1023399,73.4783687,SO2,1,35,20
India,Maharashtra,Malegaon,"Mahesh Nagar, Malegaon - MPCB",08-06-2024 00:00:00,20.555712,74.529236,PM2.5,37,245,89
India,Maharashtra,Malegaon,"Mahesh Nagar, Malegaon - MPCB",08-06-2024 00:00:00,20.555712,74.529236,NH3,1,16,7
India,Maharashtra,Mira-Bhayandar,"Bhayandar West, Mira-Bhayandar - MPCB",08-06-2024 00:00:00,19.296481,72.840923,PM2.5,21,42,33
India,Maharashtra,Mumbai,"Bandra Kurla Complex, Mumbai - MPCB",08-06-2024 00:00:00,19.065931,72.862131,OZONE,17,70,44
India,Maharashtra,Mumbai,"Borivali East, Mumbai - MPCB",08-06-2024 00:00:00,19.2243333,72.8658113,PM10,37,59,48
India,Maharashtra,Mumbai,"Byculla, Mumbai - BMC",08-06-2024 00:00:00,18.9767,72.8380,PM2.5,10,20,14
India,Maharashtra,Mumbai,"Byculla, Mumbai - BMC",08-06-2024 00:00:00,18.9767,72.8380,CO,6,13,11
India,Maharashtra,Mumbai,"Byculla, Mumbai - BMC",08-06-2024 00:00:00,18.9767,72.8380,OZONE,17,39,27
India,Maharashtra,Mumbai,"Chakala-Andheri East, Mumbai - IITM",08-06-2024 00:00:00,19.11074,72.86084,NH3,5,12,8
India,Maharashtra,Mumbai,"Chembur, Mumbai - MPCB",08-06-2024 00:00:00,19.0364585,72.8954371,OZONE,8,47,32
India,Maharashtra,Mumbai,"Chhatrapati Shivaji Intl. Airport (T2), Mumbai - MPCB",08-06-2024 00:00:00,19.10078,72.87462,CO,29,47,38
India,Maharashtra,Mumbai,"Chhatrapati Shivaji Intl. Airport (T2), Mumbai - MPCB",08-06-2024 00:00:00,19.10078,72.87462,OZONE,1,12,2
India,Maharashtra,Mumbai,"Colaba, Mumbai - MPCB",08-06-2024 00:00:00,18.910000,72.820000,PM2.5,24,61,42
India,Maharashtra,Mumbai,"Deonar, Mumbai - IITM",08-06-2024 00:00:00,19.04946,72.9230,PM10,71,102,84
India,Maharashtra,Mumbai,"Ghatkopar, Mumbai - BMC",08-06-2024 00:00:00,19.083694,72.920967,OZONE,2,19,4
India,Maharashtra,Mumbai,"Kandivali East, Mumbai - MPCB",08-06-2024 00:00:00,19.205800,72.868200,NO2,13,36,24
India,Maharashtra,Mumbai,"Kandivali East, Mumbai - MPCB",08-06-2024 00:00:00,19.205800,72.868200,CO,29,33,32
India,Maharashtra,Mumbai,"Kandivali West, Mumbai - BMC",08-06-2024 00:00:00,19.215859,72.831718,PM10,17,42,30
India,Maharashtra,Mumbai,"Kherwadi_Bandra East, Mumbai - MPCB",08-06-2024 00:00:00,19.0632143,72.8456324,NO2,3,14,6
India,Maharashtra,Mumbai,"Khindipada-Bhandup West, Mumbai - IITM",08-06-2024 00:00:00,19.1653323,72.922099,PM2.5,17,59,35
India,Maharashtra,Mumbai,"Khindipada-Bhandup West, Mumbai - IITM",08-06-2024 00:00:00,19.1653323,72.922099,PM10,17,64,34
India,Maharashtra,Mumbai,"Khindipada-Bhandup West, Mumbai - IITM",08-06-2024 00:00:00,19.1653323,72.922099,NH3,1,3,2
India,Maharashtra,Mumbai,"Mazgaon, Mumbai - IITM",08-06-2024 00:00:00,18.96702,72.84214,NO2,41,67,50
India,Maharashtra,Mumbai,"Mazgaon, Mumbai - IITM",08-06-2024 00:00:00,18.96702,72.84214,CO,4,92,55
India,Maharashtra,Mumbai,"Mindspace-Malad West, Mumbai - MPCB",08-06-2024 00:00:00,19.1878657,72.8304069,PM2.5,29,52,41
India,Maharashtra,Mumbai,"Mindspace-Malad West, Mumbai - MPCB",08-06-2024 00:00:00,19.1878657,72.8304069,NH3,5,6,5
India,Maharashtra,Mumbai,"Navy Nagar-Colaba, Mumbai - IITM",08-06-2024 00:00:00,18.897756,72.813320,NH3,10,12,11
India,Maharashtra,Mumbai,"Powai, Mumbai - MPCB",08-06-2024 00:00:00,19.137500,72.915056,CO,32,40,36
India,Maharashtra,Mumbai,"Siddharth Nagar-Worli, Mumbai - IITM",08-06-2024 00:00:00,19.000083,72.813993,PM2.5,3,28,10
India,Maharashtra,Mumbai,"Siddharth Nagar-Worli, Mumbai - IITM",08-06-2024 00:00:00,19.000083,72.813993,CO,64,82,77
India,Maharashtra,Mumbai,"Sion, Mumbai - MPCB",08-06-2024 00:00:00,19.047000,72.874600,PM10,63,84,70
India,Maharashtra,Mumbai,"Sion, Mumbai - MPCB",08-06-2024 00:00:00,19.047000,72.874600,NO2,2,45,30
India,Maharashtra,Mumbai,"Sion, Mumbai - MPCB",08-06-2024 00:00:00,19.047000,72.874600,CO,46,52,51
India,Maharashtra,Mumbai,"Vasai West, Mumbai - MPCB",08-06-2024 00:00:00,19.383200,72.820400,NO2,25,59,29
India,Maharashtra,Mumbai,"Vasai West, Mumbai - MPCB",08-06-2024 00:00:00,19.383200,72.820400,NH3,4,6,4
India,Maharashtra,Mumbai,"Vasai West, Mumbai - MPCB",08-06-2024 00:00:00,19.383200,72.820400,CO,11,52,16
India,Maharashtra,Mumbai,"Worli, Mumbai - MPCB",08-06-2024 00:00:00,18.9936162,72.8128113,NO2,13,13,13
India,Maharashtra,Mumbai,"Worli, Mumbai - MPCB",08-06-2024 00:00:00,18.9936162,72.8128113,SO2,12,12,12
India,Maharashtra,Nagpur,"Mahal, Nagpur - MPCB",08-06-2024 00:00:00,21.14472,79.107595,PM2.5,36,92,62
India,Maharashtra,Nagpur,"Mahal, Nagpur - MPCB",08-06-2024 00:00:00,21.14472,79.107595,CO,14,103,63
India,Maharashtra,Nagpur,"Opp GPO Civil Lines, Nagpur - MPCB",08-06-2024 00:00:00,21.152875,79.0517531,SO2,6,51,14
India,Maharashtra,Nagpur,"Opp GPO Civil Lines, Nagpur - MPCB",08-06-2024 00:00:00,21.152875,79.0517531,OZONE,8,66,42
India,Maharashtra,Nanded,"Sneh Nagar, Nanded - MPCB",08-06-2024 00:00:00,19.173852,77.296291,NH3,1,2,2
India,Maharashtra,Nashik,"Gangapur Road, Nashik - MPCB",08-06-2024 00:00:00,20.0073285,73.7762427,PM2.5,36,108,65
India,Maharashtra,Nashik,"Gangapur Road, Nashik - MPCB",08-06-2024 00:00:00,20.0073285,73.7762427,SO2,8,15,11
India,Maharashtra,Nashik,"Hirawadi, Nashik - MPCB",08-06-2024 00:00:00,20.021503,73.813844,SO2,6,26,18
India,Maharashtra,Nashik,"Hirawadi, Nashik - MPCB",08-06-2024 00:00:00,20.021503,73.813844,CO,10,44,27
India,Maharashtra,Nashik,"Pandav Nagari, Nashik - MPCB",08-06-2024 00:00:00,19.9591346,73.7788008,PM2.5,24,79,47
India,Maharashtra,Nashik,"Pandav Nagari, Nashik - MPCB",08-06-2024 00:00:00,19.9591346,73.7788008,NH3,2,3,3
India,Maharashtra,Navi Mumbai,"Kopripada-Vashi, Navi Mumbai - MPCB",08-06-2024 00:00:00,19.090337,73.014232,PM2.5,16,32,21
India,Maharashtra,Navi Mumbai,"Kopripada-Vashi, Navi Mumbai - MPCB",08-06-2024 00:00:00,19.090337,73.014232,NH3,5,6,5
India,Maharashtra,Navi Mumbai,"Nerul, Navi Mumbai - MPCB",08-06-2024 00:00:00,19.008751,73.016620,OZONE,15,23,20
India,Maharashtra,Navi Mumbai,"Sanpada, Navi Mumbai - MPCB",08-06-2024 00:00:00,19.0575752,73.0151367,NH3,2,4,3
India,Maharashtra,Navi Mumbai,"Sanpada, Navi Mumbai - MPCB",08-06-2024 00:00:00,19.0575752,73.0151367,SO2,1,5,2
India,Maharashtra,Navi Mumbai,"Sanpada, Navi Mumbai - MPCB",08-06-2024 00:00:00,19.0575752,73.0151367,CO,10,20,16
India,Maharashtra,Navi Mumbai,"Sector-19A Nerul, Navi Mumbai - IITM",08-06-2024 00:00:00,19.044,73.0325,PM10,NA,NA,NA
India,Maharashtra,Navi Mumbai,"Sector-2E Kalamboli, Navi Mumbai - MPCB",08-06-2024 00:00:00,19.02579,73.10297,NO2,9,29,19
India,Maharashtra,Navi Mumbai,"Tondare-Taloja, Navi Mumbai - MPCB",08-06-2024 00:00:00,19.0630,73.1209,NH3,2,4,3
India,Maharashtra,Navi Mumbai,"Tondare-Taloja, Navi Mumbai - MPCB",08-06-2024 00:00:00,19.0630,73.1209,CO,2,27,13
India,Maharashtra,Parbhani,"Masoom Colony, Parbhani - MPCB",08-06-2024 00:00:00,19.265594,76.761463,NO2,14,27,18
India,Maharashtra,Parbhani,"Masoom Colony, Parbhani - MPCB",08-06-2024 00:00:00,19.265594,76.761463,SO2,5,16,9
India,Maharashtra,Pune,"Alandi, Pune - IITM",08-06-2024 00:00:00,18.675076,73.892743,CO,38,64,48
India,Maharashtra,Pune,"Bhosari, Pune - IITM",08-06-2024 00:00:00,18.640051,73.848956,PM2.5,4,32,14
India,Maharashtra,Pune,"Bhosari, Pune - IITM",08-06-2024 00:00:00,18.640051,73.848956,OZONE,4,135,62
India,Maharashtra,Pune,"Karve Road, Pune - MPCB",08-06-2024 00:00:00,18.5011743,73.8165527,PM2.5,1,93,30
India,Maharashtra,Pune,"Mhada Colony, Pune - IITM",08-06-2024 00:00:00,18.573040,73.927715,PM2.5,12,61,37
India,Maharashtra,Pune,"Revenue Colony-Shivajinagar, Pune - IITM",08-06-2024 00:00:00,18.530085,73.849598,NO2,3,76,17
India,Maharashtra,Pune,"Savitribai Phule Pune University, Pune - MPCB",08-06-2024 00:00:00,18.547056,73.826908,SO2,1,21,4
India,Maharashtra,Sangli,"Vijay Nagar, Sangli - MPCB",08-06-2024 00:00:00, 16.5038,74.3623,NH3,NA,NA,NA
India,Maharashtra,Solapur,"Dnyaneshwar Nagar, Solapur - MPCB",08-06-2024 00:00:00,17.6336264,75.9132495,NO2,2,22,8
India,Maharashtra,Solapur,"Dnyaneshwar Nagar, Solapur - MPCB",08-06-2024 00:00:00,17.6336264,75.9132495,SO2,1,2,2
India,Maharashtra,Thane,"Pimpleshwar Mandir, Thane - MPCB",08-06-2024 00:00:00,19.192056,72.9585188,NH3,1,3,2
India,Maharashtra,Thane,"Pimpleshwar Mandir, Thane - MPCB",08-06-2024 00:00:00,19.192056,72.9585188,OZONE,2,36,16
India,Maharashtra,Thane,"Upvan Fort, Thane - MPCB",08-06-2024 00:00:00,19.222279,72.957979,PM2.5,15,39,25
India,Maharashtra,Thane,"Upvan Fort, Thane - MPCB",08-06-2024 00:00:00,19.222279,72.957979,NO2,4,17,9
India,Maharashtra,Ulhasnagar,"Sidhi Vinayak Nagar, Ulhasnagar - MPCB",08-06-2024 00:00:00,19.235581,73.159121,NO2,19,30,25
India,Maharashtra,Ulhasnagar,"Sidhi Vinayak Nagar, Ulhasnagar - MPCB",08-06-2024 00:00:00,19.235581,73.159121,NH3,1,3,2
India,Maharashtra,Ulhasnagar,"Sidhi Vinayak Nagar, Ulhasnagar - MPCB",08-06-2024 00:00:00,19.235581,73.159121,SO2,4,90,19
India,Maharashtra,Virar,"Bolinj, Virar - MPCB",08-06-2024 00:00:00,19.4458210,72.7988231,PM10,23,93,74
India,Maharashtra,Virar,"Bolinj, Virar - MPCB",08-06-2024 00:00:00,19.4458210,72.7988231,NH3,9,9,9
India,Manipur,Imphal,"Manipur University, Imphal - Manipur PCB",08-06-2024 00:00:00,24.7524239,93.9286218,NH3,1,2,1
India,Manipur,Imphal,"Manipur University, Imphal - Manipur PCB",08-06-2024 00:00:00,24.7524239,93.9286218,CO,10,26,17
India,Meghalaya,Shillong,"Lumpyngngad, Shillong - Meghalaya PCB",08-06-2024 00:00:00,25.5586,91.8985,PM10,NA,NA,NA
India,Nagaland,Kohima,"PWD Juction, Kohima - NPCB",08-06-2024 00:00:00,25.6635413,94.0989878,CO,4,26,21
India,Odisha,Angul,"Hakimapada, Angul - OSPCB",08-06-2024 00:00:00,20.832874,85.104082,NO2,2,24,10
India,Odisha,Balasore,"Kalidaspur, Balasore - OSPCB",08-06-2024 00:00:00,21.51161,86.89088,NH3,1,7,1
India,Odisha,Balasore,"Kalidaspur, Balasore - OSPCB",08-06-2024 00:00:00,21.51161,86.89088,SO2,16,21,17
India,Odisha,Barbil,"Forest Office, Barbil - OSPCB",08-06-2024 00:00:00,22.1166054,85.3945546,PM2.5,62,183,90
India,Odisha,Baripada,"Meher Colony, Baripada - OSPCB",08-06-2024 00:00:00,21.941841,86.728318,PM10,NA,NA,NA
India,Odisha,Baripada,"Meher Colony, Baripada - OSPCB",08-06-2024 00:00:00,21.941841,86.728318,CO,28,52,32
India,Odisha,Baripada,"Meher Colony, Baripada - OSPCB",08-06-2024 00:00:00,21.941841,86.728318,OZONE,57,130,82
India,Odisha,Bhubaneswar,"Lingraj Mandir, Bhubaneswar - OSPCB",08-06-2024 00:00:00,20.240790,85.836784,CO,18,86,52
India,Odisha,Bhubaneswar,"Patia, Bhubaneswar - OSPCB",08-06-2024 00:00:00,20.34652,85.81630,NO2,7,36,14
India,Odisha,Bhubaneswar,"Patia, Bhubaneswar - OSPCB",08-06-2024 00:00:00,20.34652,85.81630,SO2,2,5,3
India,Odisha,Bileipada,"Tata Township, Bileipada - OSPCB",08-06-2024 00:00:00,22.06156703,85.47409613,NH3,11,12,12
India,Odisha,Bileipada,"Tata Township, Bileipada - OSPCB",08-06-2024 00:00:00,22.06156703,85.47409613,CO,14,28,15
India,Odisha,Brajrajnagar,"GM Office, Brajrajnagar - OSPCB",08-06-2024 00:00:00,21.8004996,83.8396977,NO2,21,24,22
India,Odisha,Brajrajnagar,"GM Office, Brajrajnagar - OSPCB",08-06-2024 00:00:00,21.8004996,83.8396977,CO,20,115,32
India,Odisha,Cuttack,"CDA Area, Cuttack - OSPCB",08-06-2024 00:00:00,20.48891     ,85.84768     ,PM10,20,91,51
India,Odisha,Cuttack,"CDA Area, Cuttack - OSPCB",08-06-2024 00:00:00,20.48891     ,85.84768     ,SO2,2,22,5
India,Odisha,Keonjhar,"Jagamohanpur, Keonjhar - OSPCB",08-06-2024 00:00:00,21.643900,85.599355,PM10,NA,NA,NA
India,Odisha,Keonjhar,"Jagamohanpur, Keonjhar - OSPCB",08-06-2024 00:00:00,21.643900,85.599355,CO,30,94,94
India,Odisha,Nayagarh,"Dabuna, Nayagarh - OSPCB",08-06-2024 00:00:00,21.847279,85.416905,NO2,6,54,20
India,Odisha,Rairangpur,"Divisional Forest Office, Rairangpur - OSPCB",08-06-2024 00:00:00,22.265816,86.174829,PM2.5,NA,NA,NA
India,Odisha,Rourkela,"Raghunathpali, Rourkela - OSPCB",08-06-2024 00:00:00,22.220833,84.809444,PM2.5,75,147,99
India,Odisha,Talcher,"Talcher Coalfields,Talcher - OSPCB",08-06-2024 00:00:00,20.9360711,85.1707021,SO2,17,22,20
India,Odisha,Talcher,"Talcher Coalfields,Talcher - OSPCB",08-06-2024 00:00:00,20.9360711,85.1707021,CO,42,100,63
India,Punjab,Amritsar,"Golden Temple, Amritsar - PPCB",08-06-2024 00:00:00,31.620000,74.876512,SO2,1,17,12
India,Punjab,Bathinda,"Hardev Nagar, Bathinda - PPCB",08-06-2024 00:00:00,30.233011,74.907758,PM2.5,40,232,111
India,Punjab,Bathinda,"Hardev Nagar, Bathinda - PPCB",08-06-2024 00:00:00,30.233011,74.907758,PM10,NA,NA,NA
India,Punjab,Bathinda,"Hardev Nagar, Bathinda - PPCB",08-06-2024 00:00:00,30.233011,74.907758,NO2,32,33,33
India,Punjab,Bathinda,"Hardev Nagar, Bathinda - PPCB",08-06-2024 00:00:00,30.233011,74.907758,CO,2,118,63
India,Punjab,Khanna,"Kalal Majra, Khanna - PPCB",08-06-2024 00:00:00,30.736056 ,76.209694,CO,37,45,41
India,Punjab,Ludhiana,"Punjab Agricultural University, Ludhiana - PPCB",08-06-2024 00:00:00,30.9028,75.8086,NH3,3,4,3
India,Punjab,Mandi Gobindgarh,"RIMT University, Mandi Gobindgarh - PPCB",08-06-2024 00:00:00,30.649961,76.331442,PM10,120,396,233
India,Punjab,Rupnagar,"Ratanpura, Rupnagar - Ambuja Cements",08-06-2024 00:00:00,31.0325454,76.5623046,CO,15,44,32
India,Rajasthan,Alwar,"Moti Doongri, Alwar - RSPCB",08-06-2024 00:00:00,27.554793,76.611536,NO2,24,43,33
India,Rajasthan,Alwar,"Moti Doongri, Alwar - RSPCB",08-06-2024 00:00:00,27.554793,76.611536,NH3,2,5,4
India,Rajasthan,Alwar,"Moti Doongri, Alwar - RSPCB",08-06-2024 00:00:00,27.554793,76.611536,SO2,15,65,34
India,Rajasthan,Baran,"Bamboliya, Baran - RSPCB",08-06-2024 00:00:00,25.106006,76.469948,NO2,6,55,12
India,Rajasthan,Barmer,"Railway Colony, Barmer - RSPCB",08-06-2024 00:00:00,25.747299,71.393989,SO2,4,7,5
India,Rajasthan,Bharatpur,"Krishna Nagar, Bharatpur - RSPCB",08-06-2024 00:00:00,27.215415,77.50873,PM2.5,57,500,288
India,Rajasthan,Bharatpur,"Krishna Nagar, Bharatpur - RSPCB",08-06-2024 00:00:00,27.215415,77.50873,SO2,2,6,3
India,Rajasthan,Bharatpur,"Krishna Nagar, Bharatpur - RSPCB",08-06-2024 00:00:00,27.215415,77.50873,OZONE,29,110,74
India,Rajasthan,Bhilwara,"Pratap Nagar, Bhilwara - RSPCB",08-06-2024 00:00:00,25.339605,74.618883,PM2.5,30,95,42
India,Rajasthan,Bhilwara,"Pratap Nagar, Bhilwara - RSPCB",08-06-2024 00:00:00,25.339605,74.618883,NH3,1,5,1
India,Rajasthan,Bhilwara,"Pratap Nagar, Bhilwara - RSPCB",08-06-2024 00:00:00,25.339605,74.618883,CO,2,31,17
India,Rajasthan,Bhiwadi,"RIICO Ind. Area III, Bhiwadi - RSPCB",08-06-2024 00:00:00,28.194909,76.862296,PM10,118,500,304
India,Rajasthan,Bikaner,"MM Ground, Bikaner - RSPCB",08-06-2024 00:00:00,28.018792,73.292658,PM10,NA,NA,NA
India,Rajasthan,Bikaner,"MM Ground, Bikaner - RSPCB",08-06-2024 00:00:00,28.018792,73.292658,OZONE,46,86,75
India,Rajasthan,Bundi,"New Colony, Bundi - RSPCB",08-06-2024 00:00:00,25.435774,75.644272,PM2.5,21,490,196
India,Rajasthan,Bundi,"New Colony, Bundi - RSPCB",08-06-2024 00:00:00,25.435774,75.644272,PM10,NA,NA,NA
India,Rajasthan,Churu,"Subash Chowk, Churu - RSPCB",08-06-2024 00:00:00,28.296139,74.961696,NO2,7,47,21
India,Rajasthan,Churu,"Subash Chowk, Churu - RSPCB",08-06-2024 00:00:00,28.296139,74.961696,OZONE,34,93,62
India,Rajasthan,Dausa,"Khatikan Mohalla, Dausa - RSPCB",08-06-2024 00:00:00,26.895552,76.334753,NO2,6,54,24
India,Rajasthan,Dausa,"Khatikan Mohalla, Dausa - RSPCB",08-06-2024 00:00:00,26.895552,76.334753,SO2,2,7,5
India,Rajasthan,Dungarpur,"Bhoiwada, Dungarpur - RSPCB",08-06-2024 00:00:00,23.837789,73.714926,PM10,78,158,114
India,Rajasthan,Dungarpur,"Bhoiwada, Dungarpur - RSPCB",08-06-2024 00:00:00,23.837789,73.714926,SO2,2,8,3
India,Rajasthan,Hanumangarh,"Housing Board, Hanumangarh - RSPCB",08-06-2024 00:00:00,29.610750,74.283608,PM10,37,368,196
India,Rajasthan,Hanumangarh,"Housing Board, Hanumangarh - RSPCB",08-06-2024 00:00:00,29.610750,74.283608,NH3,7,14,8
India,Rajasthan,Jaipur,"Police Commissionerate, Jaipur - RSPCB",08-06-2024 00:00:00,26.9164092,75.7994901,NH3,6,11,8
India,Rajasthan,Jaipur,"Police Commissionerate, Jaipur - RSPCB",08-06-2024 00:00:00,26.9164092,75.7994901,CO,3,52,44
India,Rajasthan,Jaipur,"RIICO Sitapura, Jaipur - RSPCB",08-06-2024 00:00:00,26.786682,75.827928,PM10,NA,NA,NA
India,Rajasthan,Jaipur,"RIICO Sitapura, Jaipur - RSPCB",08-06-2024 00:00:00,26.786682,75.827928,NO2,17,121,48
India,Rajasthan,Jaipur,"RIICO Sitapura, Jaipur - RSPCB",08-06-2024 00:00:00,26.786682,75.827928,NH3,11,15,13
India,Rajasthan,Jaipur,"RIICO Sitapura, Jaipur - RSPCB",08-06-2024 00:00:00,26.786682,75.827928,CO,9,88,45
India,Rajasthan,Jaipur,"RIICO Sitapura, Jaipur - RSPCB",08-06-2024 00:00:00,26.786682,75.827928,OZONE,19,171,65
India,Rajasthan,Jaipur,"Sector-2 Murlipura, Jaipur - RSPCB",08-06-2024 00:00:00,26.960669,75.771817,PM2.5,36,479,238
India,Rajasthan,Jaipur,"Sector-2 Murlipura, Jaipur - RSPCB",08-06-2024 00:00:00,26.960669,75.771817,NH3,1,8,3
India,Rajasthan,Jaipur,"Shastri Nagar, Jaipur - RSPCB",08-06-2024 00:00:00,26.9502929,75.730943,CO,10,44,33
India,Rajasthan,Jaisalmer,"Sadar Bazar, Jaisalmer - RSPCB",08-06-2024 00:00:00,26.912329,70.909168,PM2.5,29,401,132
India,Rajasthan,Jaisalmer,"Sadar Bazar, Jaisalmer - RSPCB",08-06-2024 00:00:00,26.912329,70.909168,SO2,3,4,3
India,Rajasthan,Jaisalmer,"Sadar Bazar, Jaisalmer - RSPCB",08-06-2024 00:00:00,26.912329,70.909168,OZONE,34,82,58
India,Rajasthan,Jalore,"Mudtra Sili, Jalore - RSPCB",08-06-2024 00:00:00,25.344694,72.626208,PM2.5,32,61,45
India,Rajasthan,Jalore,"Mudtra Sili, Jalore - RSPCB",08-06-2024 00:00:00,25.344694,72.626208,NO2,3,25,10
India,Rajasthan,Jalore,"Mudtra Sili, Jalore - RSPCB",08-06-2024 00:00:00,25.344694,72.626208,SO2,1,7,3
India,Rajasthan,Jhalawar,"Rajlaxmi Nagar, Jhalawar - RSPCB",08-06-2024 00:00:00,24.588397,76.172782,PM10,66,500,257
India,Rajasthan,Jhunjhunu,"Indra Nagar, Jhunjhunu - RSPCB",08-06-2024 00:00:00,28.108988,75.386577,NH3,24,33,29
India,Rajasthan,Jhunjhunu,"Indra Nagar, Jhunjhunu - RSPCB",08-06-2024 00:00:00,28.108988,75.386577,SO2,3,4,3
India,Rajasthan,Jhunjhunu,"Indra Nagar, Jhunjhunu - RSPCB",08-06-2024 00:00:00,28.108988,75.386577,CO,4,15,11
India,Rajasthan,Jodhpur,"Digari Kalan, Jodhpur - RSPCB",08-06-2024 00:00:00,26.295810,73.082283,PM10,73,500,233
India,Rajasthan,Jodhpur,"Samrat Ashok Udhyan, Jodhpur - RSPCB",08-06-2024 00:00:00,26.253384,72.976571,OZONE,32,81,68
India,Rajasthan,Karauli,"Satyawati Vihar, Karauli - RSPCB",08-06-2024 00:00:00,26.506177,77.025989,NO2,4,14,8
India,Rajasthan,Karauli,"Satyawati Vihar, Karauli - RSPCB",08-06-2024 00:00:00,26.506177,77.025989,SO2,1,15,7
India,Rajasthan,Kota,"Dhanmandi, Kota - RSPCB",08-06-2024 00:00:00,25.164090,75.858137,PM10,56,500,277
India,Rajasthan,Kota,"Dhanmandi, Kota - RSPCB",08-06-2024 00:00:00,25.164090,75.858137,NO2,10,104,30
India,Rajasthan,Kota,"Dhanmandi, Kota - RSPCB",08-06-2024 00:00:00,25.164090,75.858137,CO,22,72,48
India,Rajasthan,Kota,"Nayapura, Kota - RSPCB",08-06-2024 00:00:00,25.196024,75.855668,CO,12,26,19
India,Rajasthan,Kota,"Shrinath Puram, Kota - RSPCB",08-06-2024 00:00:00,25.14389,75.821256,PM10,62,376,170
India,Rajasthan,Kota,"Shrinath Puram, Kota - RSPCB",08-06-2024 00:00:00,25.14389,75.821256,NO2,16,74,30
India,Rajasthan,Kota,"Shrinath Puram, Kota - RSPCB",08-06-2024 00:00:00,25.14389,75.821256,NH3,3,8,5
India,Rajasthan,Kota,"Shrinath Puram, Kota - RSPCB",08-06-2024 00:00:00,25.14389,75.821256,SO2,1,112,27
India,Rajasthan,Kota,"Shrinath Puram, Kota - RSPCB",08-06-2024 00:00:00,25.14389,75.821256,OZONE,9,113,94
India,Rajasthan,Nagaur,"Karni Colony, Nagaur - RSPCB",08-06-2024 00:00:00,27.213494,73.734444,PM2.5,33,500,243
India,Rajasthan,Nagaur,"Karni Colony, Nagaur - RSPCB",08-06-2024 00:00:00,27.213494,73.734444,SO2,2,5,4
India,Rajasthan,Pali,"Indira Colony Vistar, Pali - RSPCB",08-06-2024 00:00:00,25.771061, 73.340227,NO2,24,48,34
India,Rajasthan,Pali,"Indira Colony Vistar, Pali - RSPCB",08-06-2024 00:00:00,25.771061, 73.340227,NH3,3,11,6
India,Rajasthan,Pratapgarh,"Pragati Nagar, Pratapgarh - RSPCB",08-06-2024 00:00:00,24.041198,74.780702,CO,10,30,18
India,Rajasthan,Rajsamand,"Dhoinda, Rajsamand - RSPCB",08-06-2024 00:00:00,25.036360,73.883502,CO,12,28,14
India,Rajasthan,Sawai Madhopur,"Sahu Nagar, Sawai Madhopur - RSPCB",08-06-2024 00:00:00,26.031443,76.359327,PM2.5,42,500,329
India,Rajasthan,Sawai Madhopur,"Sahu Nagar, Sawai Madhopur - RSPCB",08-06-2024 00:00:00,26.031443,76.359327,NH3,5,28,11
India,Rajasthan,Sikar,"Radhakishan Pura, Sikar - RSPCB",08-06-2024 00:00:00,27.608912,75.153302,PM2.5,27,445,251
India,Rajasthan,Sikar,"Radhakishan Pura, Sikar - RSPCB",08-06-2024 00:00:00,27.608912,75.153302,PM10,NA,NA,NA
India,Rajasthan,Sikar,"Radhakishan Pura, Sikar - RSPCB",08-06-2024 00:00:00,27.608912,75.153302,NH3,5,7,6
India,Rajasthan,Sirohi,"Vedhaynath Colony, Sirohi - RSPCB",08-06-2024 00:00:00,24.885261,72.857549,OZONE,11,87,48
India,Rajasthan,Sri Ganganagar,"Old City, Sri Ganganagar - RSPCB",08-06-2024 00:00:00,29.931624,73.864511,CO,2,108,37
India,Rajasthan,Sri Ganganagar,"Old City, Sri Ganganagar - RSPCB",08-06-2024 00:00:00,29.931624,73.864511,OZONE,17,60,34
India,Rajasthan,Tonk,"Shastri Nagar, Tonk - RSPCB",08-06-2024 00:00:00,26.159933,75.780517,OZONE,18,72,48
India,Rajasthan,Udaipur,"Ashok Nagar, Udaipur - RSPCB",08-06-2024 00:00:00,24.5886166,73.6321397,NH3,4,9,6
India,Rajasthan,Udaipur,"Ashok Nagar, Udaipur - RSPCB",08-06-2024 00:00:00,24.5886166,73.6321397,OZONE,24,54,43
India,Sikkim,Gangtok,"Zero Point GICI, Gangtok - SSPCB",08-06-2024 00:00:00,27.338530,88.614099,NH3,1,1,1
India,TamilNadu,Ariyalur,"Keelapalur, Ariyalur - TNPCB",08-06-2024 00:00:00,11.06825,79.07033,PM10,NA,NA,NA
India,TamilNadu,Ariyalur,"Keelapalur, Ariyalur - TNPCB",08-06-2024 00:00:00,11.06825,79.07033,NH3,NA,NA,NA
India,TamilNadu,Ariyalur,"Keelapalur, Ariyalur - TNPCB",08-06-2024 00:00:00,11.06825,79.07033,SO2,20,106,35
India,TamilNadu,Chennai,"Alandur Bus Depot, Chennai - CPCB",08-06-2024 00:00:00,12.9099161,80.1076538,OZONE,1,7,4
India,TamilNadu,Chennai,"Arumbakkam, Chennai - TNPCB",08-06-2024 00:00:00,13.0664,80.2112 ,PM2.5,3,37,19
India,TamilNadu,Chennai,"Kodungaiyur, Chennai - TNPCB",08-06-2024 00:00:00,13.1278,80.2642,PM2.5,2,21,12
India,TamilNadu,Chennai,"Perungudi, Chennai - TNPCB",08-06-2024 00:00:00,12.9533,80.2357,PM2.5,3,27,15
India,TamilNadu,Chennai,"Perungudi, Chennai - TNPCB",08-06-2024 00:00:00,12.9533,80.2357,NO2,2,14,7
India,TamilNadu,Chennai,"Perungudi, Chennai - TNPCB",08-06-2024 00:00:00,12.9533,80.2357,NH3,3,4,3
India,TamilNadu,Chennai,"Perungudi, Chennai - TNPCB",08-06-2024 00:00:00,12.9533,80.2357,OZONE,9,18,13
India,TamilNadu,Chennai,"Royapuram, Chennai - TNPCB",08-06-2024 00:00:00,13.1036,80.2909,PM2.5,NA,NA,NA
India,TamilNadu,Chennai,"Royapuram, Chennai - TNPCB",08-06-2024 00:00:00,13.1036,80.2909,PM10,NA,NA,NA
India,TamilNadu,Chennai,"Royapuram, Chennai - TNPCB",08-06-2024 00:00:00,13.1036,80.2909,CO,26,54,31
India,TamilNadu,Chennai,"Royapuram, Chennai - TNPCB",08-06-2024 00:00:00,13.1036,80.2909,OZONE,7,9,8
India,TamilNadu,Chennai,"Velachery Res. Area, Chennai - CPCB",08-06-2024 00:00:00,13.0052189,80.2398125,NH3,14,23,18
India,TamilNadu,Chennai,"Velachery Res. Area, Chennai - CPCB",08-06-2024 00:00:00,13.0052189,80.2398125,SO2,4,90,30
India,TamilNadu,Cuddalore,"Kudikadu, Cuddalore - TNPCB",08-06-2024 00:00:00,11.6829898,79.7532099,PM2.5,5,40,17
India,TamilNadu,Cuddalore,"Kudikadu, Cuddalore - TNPCB",08-06-2024 00:00:00,11.6829898,79.7532099,NH3,3,3,3
India,TamilNadu,Gummidipoondi,"Anthoni Pillai Nagar, Gummidipoondi - TNPCB",08-06-2024 00:00:00,13.4127,80.1081,NH3,2,6,4
India,TamilNadu,Ooty,"Bombay Castel, Ooty - TNPCB",08-06-2024 00:00:00,11.4068288,76.7138973,PM2.5,2,58,19
India,TamilNadu,Ooty,"Bombay Castel, Ooty - TNPCB",08-06-2024 00:00:00,11.4068288,76.7138973,PM10,11,55,27
India,TamilNadu,Ramanathapuram,"Chalai Bazaar, Ramanathapuram - TNPCB",08-06-2024 00:00:00,9.36399,78.831977,NH3,1,1,1
India,TamilNadu,Salem,"Sona College of Technology, Salem - TNPCB",08-06-2024 00:00:00,11.679111,78.125052,PM10,8,33,19
India,TamilNadu,Salem,"Sona College of Technology, Salem - TNPCB",08-06-2024 00:00:00,11.679111,78.125052,NH3,1,2,1
India,TamilNadu,Salem,"Sona College of Technology, Salem - TNPCB",08-06-2024 00:00:00,11.679111,78.125052,SO2,82,84,83
India,TamilNadu,Salem,"Sona College of Technology, Salem - TNPCB",08-06-2024 00:00:00,11.679111,78.125052,CO,38,40,40
India,TamilNadu,Thoothukudi,"Meelavittan, Thoothukudi - TNPCB",08-06-2024 00:00:00,8.816428 ,78.099039,OZONE,1,44,7
India,TamilNadu,Tirupur,"Kumaran College, Tirupur - TNPCB",08-06-2024 00:00:00,11.0973603,77.3228673,SO2,NA,NA,NA
India,TamilNadu,Vellore,"Vasanthapuram, Vellore - TNPCB",08-06-2024 00:00:00,12.909494,79.131861,NO2,NA,NA,NA
India,Telangana,Hyderabad,"Bollaram Industrial Area, Hyderabad - TSPCB",08-06-2024 00:00:00,17.540891,78.358528,PM2.5,20,65,37
India,Telangana,Hyderabad,"Central University, Hyderabad - TSPCB",08-06-2024 00:00:00,17.460103,78.334361,PM10,21,57,36
India,Telangana,Hyderabad,"Central University, Hyderabad - TSPCB",08-06-2024 00:00:00,17.460103,78.334361,NO2,2,28,17
India,Telangana,Hyderabad,"Central University, Hyderabad - TSPCB",08-06-2024 00:00:00,17.460103,78.334361,SO2,1,8,5
India,Telangana,Hyderabad,"Central University, Hyderabad - TSPCB",08-06-2024 00:00:00,17.460103,78.334361,CO,15,42,24
India,Telangana,Hyderabad,"ICRISAT Patancheru, Hyderabad - TSPCB",08-06-2024 00:00:00,17.518400,78.278777,CO,4,69,26
India,Telangana,Hyderabad,"IITH Kandi, Hyderabad - TSPCB",08-06-2024 00:00:00,17.585705,78.126199,NH3,6,7,7
India,Telangana,Hyderabad,"Kokapet, Hyderabad - TSPCB",08-06-2024 00:00:00,17.393559,78.339194,OZONE,1,4,1
India,Telangana,Hyderabad,"Kompally Municipal Office, Hyderabad - TSPCB",08-06-2024 00:00:00,17.544899,78.486949,NO2,10,13,11
India,Telangana,Hyderabad,"Kompally Municipal Office, Hyderabad - TSPCB",08-06-2024 00:00:00,17.544899,78.486949,NH3,5,8,7
India,Telangana,Hyderabad,"Nacharam_TSIIC IALA, Hyderabad - TSPCB",08-06-2024 00:00:00,17.429398,78.569354,NO2,12,13,13
India,Telangana,Hyderabad,"Nacharam_TSIIC IALA, Hyderabad - TSPCB",08-06-2024 00:00:00,17.429398,78.569354,CO,25,41,35
India,Telangana,Hyderabad,"Ramachandrapuram, Hyderabad - TSPCB",08-06-2024 00:00:00,17.528544,78.286195,PM2.5,NA,NA,NA
India,Telangana,Hyderabad,"Ramachandrapuram, Hyderabad - TSPCB",08-06-2024 00:00:00,17.528544,78.286195,NO2,NA,NA,NA
India,Telangana,Hyderabad,"Ramachandrapuram, Hyderabad - TSPCB",08-06-2024 00:00:00,17.528544,78.286195,OZONE,37,37,37
India,Telangana,Hyderabad,"Sanathnagar, Hyderabad - TSPCB",08-06-2024 00:00:00,17.4559458,78.4332152,SO2,6,27,11
India,Telangana,Hyderabad,"Zoo Park, Hyderabad - TSPCB",08-06-2024 00:00:00,17.349694,78.451437,PM2.5,12,157,36
India,Telangana,Hyderabad,"Zoo Park, Hyderabad - TSPCB",08-06-2024 00:00:00,17.349694,78.451437,SO2,1,10,3
India,Telangana,Hyderabad,"Zoo Park, Hyderabad - TSPCB",08-06-2024 00:00:00,17.349694,78.451437,CO,23,69,33
India,Tripura,Agartala,"Bardowali, Agartala - Tripura SPCB",08-06-2024 00:00:00,23.8175497,91.2726974,NO2,2,8,5
India,Tripura,Agartala,"Bardowali, Agartala - Tripura SPCB",08-06-2024 00:00:00,23.8175497,91.2726974,CO,14,24,18
India,Uttar_Pradesh,Agra,"Shahjahan Garden, Agra - UPPCB",08-06-2024 00:00:00,27.169338,78.03582,PM2.5,35,334,124
India,Uttar_Pradesh,Agra,"Shahjahan Garden, Agra - UPPCB",08-06-2024 00:00:00,27.169338,78.03582,NO2,19,19,19
India,Uttar_Pradesh,Agra,"Shastripuram, Agra - UPPCB",08-06-2024 00:00:00,27.19862,77.92066,SO2,5,8,6
India,Uttar_Pradesh,Baghpat,"Sardar Patel Inter College, Baghpat - UPPCB",08-06-2024 00:00:00,28.964949,77.278761,NO2,16,61,30
India,Uttar_Pradesh,Baghpat,"Sardar Patel Inter College, Baghpat - UPPCB",08-06-2024 00:00:00,28.964949,77.278761,SO2,4,94,42
India,Uttar_Pradesh,Bareilly,"Civil Lines, Bareilly - UPPCB",08-06-2024 00:00:00,28.359581,79.414455,NO2,2,3,2
India,Uttar_Pradesh,Bareilly,"Rajendra Nagar, Bareilly - UPPCB",08-06-2024 00:00:00,28.38910936,79.42963708,PM2.5,21,35,26
India,Uttar_Pradesh,Bareilly,"Rajendra Nagar, Bareilly - UPPCB",08-06-2024 00:00:00,28.38910936,79.42963708,PM10,47,135,83
India,Uttar_Pradesh,Bareilly,"Rajendra Nagar, Bareilly - UPPCB",08-06-2024 00:00:00,28.38910936,79.42963708,CO,4,20,12
India,Uttar_Pradesh,Bareilly,"Rajendra Nagar, Bareilly - UPPCB",08-06-2024 00:00:00,28.38910936,79.42963708,OZONE,1,6,2
India,Uttar_Pradesh,Bulandshahr,"Yamunapuram, Bulandshahr - UPPCB",08-06-2024 00:00:00,28.406963,77.849831,CO,13,48,27
India,Uttar_Pradesh,Firozabad,"Nagla Bhau, Firozabad - UPPCB",08-06-2024 00:00:00,27.168897,78.376960,PM10,43,460,168
India,Uttar_Pradesh,Firozabad,"Nagla Bhau, Firozabad - UPPCB",08-06-2024 00:00:00,27.168897,78.376960,CO,1,30,9
India,Uttar_Pradesh,Firozabad,"Vibhab Nagar, Firozabad - UPPCB",08-06-2024 00:00:00,27.1594,78.3953,PM10,NA,NA,NA
India,Uttar_Pradesh,Firozabad,"Vibhab Nagar, Firozabad - UPPCB",08-06-2024 00:00:00,27.1594,78.3953,NO2,13,16,14
India,Uttar_Pradesh,Firozabad,"Vibhab Nagar, Firozabad - UPPCB",08-06-2024 00:00:00,27.1594,78.3953,NH3,2,2,2
India,Uttar_Pradesh,Firozabad,"Vibhab Nagar, Firozabad - UPPCB",08-06-2024 00:00:00,27.1594,78.3953,SO2,5,27,15
India,Uttar_Pradesh,Ghaziabad,"Indirapuram, Ghaziabad - UPPCB",08-06-2024 00:00:00,28.646233,77.358075,PM10,179,325,222
India,Uttar_Pradesh,Ghaziabad,"Indirapuram, Ghaziabad - UPPCB",08-06-2024 00:00:00,28.646233,77.358075,OZONE,7,103,47
India,Uttar_Pradesh,Ghaziabad,"Loni, Ghaziabad - UPPCB",08-06-2024 00:00:00,28.757294,77.278792,OZONE,3,41,24
India,Uttar_Pradesh,Ghaziabad,"Sanjay Nagar, Ghaziabad - UPPCB",08-06-2024 00:00:00,28.685382,77.453839,PM2.5,35,86,58
India,Uttar_Pradesh,Greater Noida,"Knowledge Park - III, Greater Noida - UPPCB",08-06-2024 00:00:00,28.47272,77.482000,PM2.5,65,472,195
India,Uttar_Pradesh,Greater Noida,"Knowledge Park - V, Greater Noida - UPPCB",08-06-2024 00:00:00,28.557054,77.453663,CO,3,94,56
India,Uttar_Pradesh,Hapur,"Anand Vihar, Hapur - UPPCB",08-06-2024 00:00:00,28.725645,77.749675,PM2.5,28,75,49
India,Uttar_Pradesh,Hapur,"Anand Vihar, Hapur - UPPCB",08-06-2024 00:00:00,28.725645,77.749675,PM10,110,404,169
India,Uttar_Pradesh,Hapur,"Anand Vihar, Hapur - UPPCB",08-06-2024 00:00:00,28.725645,77.749675,NO2,19,87,47
India,Uttar_Pradesh,Hapur,"Anand Vihar, Hapur - UPPCB",08-06-2024 00:00:00,28.725645,77.749675,NH3,12,17,14
India,Uttar_Pradesh,Hapur,"Anand Vihar, Hapur - UPPCB",08-06-2024 00:00:00,28.725645,77.749675,SO2,3,32,14
India,Uttar_Pradesh,Kanpur,"FTI Kidwai Nagar, Kanpur - UPPCB",08-06-2024 00:00:00,26.428282,80.327067,NH3,2,3,2
India,Uttar_Pradesh,Kanpur,"FTI Kidwai Nagar, Kanpur - UPPCB",08-06-2024 00:00:00,26.428282,80.327067,CO,26,60,39
India,Uttar_Pradesh,Lucknow,"B R Ambedkar University, Lucknow - UPPCB",08-06-2024 00:00:00,26.766433,80.927299,PM10,109,159,129
India,Uttar_Pradesh,Lucknow,"Kendriya Vidyalaya, Lucknow - CPCB",08-06-2024 00:00:00,26.906111,80.948222,PM10,93,154,121
India,Uttar_Pradesh,Lucknow,"Kukrail Picnic Spot-1, Lucknow - UPPCB",08-06-2024 00:00:00,26.90723,80.98579,PM2.5,40,120,65
India,Uttar_Pradesh,Lucknow,"Kukrail Picnic Spot-1, Lucknow - UPPCB",08-06-2024 00:00:00,26.90723,80.98579,PM10,63,114,92
India,Uttar_Pradesh,Lucknow,"Kukrail Picnic Spot-1, Lucknow - UPPCB",08-06-2024 00:00:00,26.90723,80.98579,SO2,32,37,34
India,Uttar_Pradesh,Lucknow,"Kukrail Picnic Spot-1, Lucknow - UPPCB",08-06-2024 00:00:00,26.90723,80.98579,CO,10,24,17
India,Uttar_Pradesh,Lucknow,"Lalbagh, Lucknow - CPCB",08-06-2024 00:00:00,26.8458805,80.9365541,PM2.5,70,230,115
India,Uttar_Pradesh,Lucknow,"Lalbagh, Lucknow - CPCB",08-06-2024 00:00:00,26.8458805,80.9365541,PM10,99,187,144
India,Uttar_Pradesh,Lucknow,"Lalbagh, Lucknow - CPCB",08-06-2024 00:00:00,26.8458805,80.9365541,OZONE,15,189,81
India,Uttar_Pradesh,Meerut,"Jai Bhim Nagar, Meerut - UPPCB",08-06-2024 00:00:00,28.9535882,77.7622941,PM2.5,42,104,67
India,Uttar_Pradesh,Meerut,"Jai Bhim Nagar, Meerut - UPPCB",08-06-2024 00:00:00,28.9535882,77.7622941,NH3,7,14,10
India,Uttar_Pradesh,Meerut,"Jai Bhim Nagar, Meerut - UPPCB",08-06-2024 00:00:00,28.9535882,77.7622941,OZONE,28,116,74
India,Uttar_Pradesh,Meerut,"Pallavpuram Phase 2, Meerut - UPPCB",08-06-2024 00:00:00,29.063510,77.709723,NH3,4,7,5
India,Uttar_Pradesh,Meerut,"Pallavpuram Phase 2, Meerut - UPPCB",08-06-2024 00:00:00,29.063510,77.709723,SO2,11,88,32
India,Uttar_Pradesh,Meerut,"Pallavpuram Phase 2, Meerut - UPPCB",08-06-2024 00:00:00,29.063510,77.709723,CO,18,62,46
India,Uttar_Pradesh,Moradabad,"Buddhi Vihar, Moradabad - UPPCB",08-06-2024 00:00:00,28.83526,78.74460,NH3,3,3,3
India,Uttar_Pradesh,Moradabad,"Eco Herbal Park, Moradabad - UPPCB",08-06-2024 00:00:00,28.840739,78.697531,NH3,6,10,8
India,Uttar_Pradesh,Moradabad,"Eco Herbal Park, Moradabad - UPPCB",08-06-2024 00:00:00,28.840739,78.697531,OZONE,36,182,109
India,Uttar_Pradesh,Moradabad,"Employment Office, Moradabad - UPPCB",08-06-2024 00:00:00,28.88528,78.73880,NH3,4,4,4
India,Uttar_Pradesh,Moradabad,"Jigar Colony, Moradabad - UPPCB",08-06-2024 00:00:00,28.856664,78.772638,SO2,17,21,19
India,Uttar_Pradesh,Moradabad,"Kashiram Nagar, Moradabad - UPPCB",08-06-2024 00:00:00,28.849399,78.742362,PM2.5,41,109,67
India,Uttar_Pradesh,Moradabad,"Kashiram Nagar, Moradabad - UPPCB",08-06-2024 00:00:00,28.849399,78.742362,NH3,4,4,4
India,Uttar_Pradesh,Moradabad,"Transport Nagar, Moradabad - UPPCB",08-06-2024 00:00:00,28.802625,78.753728,OZONE,17,43,29
India,Uttar_Pradesh,Muzaffarnagar,"New Mandi, Muzaffarnagar - UPPCB",08-06-2024 00:00:00,29.4723508,77.7194031,PM2.5,69,138,94
India,Uttar_Pradesh,Muzaffarnagar,"New Mandi, Muzaffarnagar - UPPCB",08-06-2024 00:00:00,29.4723508,77.7194031,NH3,9,12,11
India,Uttar_Pradesh,Muzaffarnagar,"New Mandi, Muzaffarnagar - UPPCB",08-06-2024 00:00:00,29.4723508,77.7194031,SO2,13,44,27
India,Uttar_Pradesh,Muzaffarnagar,"New Mandi, Muzaffarnagar - UPPCB",08-06-2024 00:00:00,29.4723508,77.7194031,OZONE,30,85,68
India,Uttar_Pradesh,Noida,"Sector - 125, Noida - UPPCB",08-06-2024 00:00:00,28.5447608,77.3231257,SO2,NA,NA,NA
India,Uttar_Pradesh,Noida,"Sector - 62, Noida - IMD",08-06-2024 00:00:00,28.6245479,77.3577104,PM2.5,61,225,100
India,Uttar_Pradesh,Noida,"Sector - 62, Noida - IMD",08-06-2024 00:00:00,28.6245479,77.3577104,PM10,152,445,234
India,Uttar_Pradesh,Noida,"Sector - 62, Noida - IMD",08-06-2024 00:00:00,28.6245479,77.3577104,NO2,7,20,11
India,Uttar_Pradesh,Noida,"Sector-1, Noida - UPPCB",08-06-2024 00:00:00,28.5898,77.3101,PM2.5,44,180,74
India,Uttar_Pradesh,Noida,"Sector-1, Noida - UPPCB",08-06-2024 00:00:00,28.5898,77.3101,PM10,160,438,253
India,Uttar_Pradesh,Noida,"Sector-1, Noida - UPPCB",08-06-2024 00:00:00,28.5898,77.3101,OZONE,8,164,69
India,Uttar_Pradesh,Noida,"Sector-116, Noida - UPPCB",08-06-2024 00:00:00,28.569230,77.393848,NO2,22,116,53
India,Uttar_Pradesh,Prayagraj,"Jhunsi, Prayagraj - UPPCB",08-06-2024 00:00:00,25.425602,81.917152,PM2.5,34,119,60
India,Uttar_Pradesh,Prayagraj,"Jhunsi, Prayagraj - UPPCB",08-06-2024 00:00:00,25.425602,81.917152,NO2,5,6,6
India,Uttar_Pradesh,Prayagraj,"Jhunsi, Prayagraj - UPPCB",08-06-2024 00:00:00,25.425602,81.917152,NH3,5,5,5
India,Uttar_Pradesh,Prayagraj,"Jhunsi, Prayagraj - UPPCB",08-06-2024 00:00:00,25.425602,81.917152,CO,2,76,27
India,Uttar_Pradesh,Prayagraj,"Motilal Nehru NIT, Prayagraj - UPPCB",08-06-2024 00:00:00,25.494,81.863,PM10,57,116,94
India,Uttar_Pradesh,Prayagraj,"Motilal Nehru NIT, Prayagraj - UPPCB",08-06-2024 00:00:00,25.494,81.863,OZONE,3,102,31
India,Uttar_Pradesh,Prayagraj,"Nagar Nigam, Prayagraj - UPPCB",08-06-2024 00:00:00,25.44919916 ,81.82735986 ,CO,18,94,54
India,Uttar_Pradesh,Varanasi,"Ardhali Bazar, Varanasi - UPPCB",08-06-2024 00:00:00,25.3505986,82.9083074,NO2,45,86,61
India,Uttar_Pradesh,Varanasi,"Ardhali Bazar, Varanasi - UPPCB",08-06-2024 00:00:00,25.3505986,82.9083074,SO2,47,73,52
India,Uttar_Pradesh,Varanasi,"Maldahiya, Varanasi - UPPCB",08-06-2024 00:00:00,25.32393,82.99687,NH3,1,2,1
India,Uttar_Pradesh,Vrindavan,"Omex Eternity, Vrindavan - UPPCB",08-06-2024 00:00:00,27.5714090,77.6557570,PM10,38,413,168
India,Uttar_Pradesh,Vrindavan,"Omex Eternity, Vrindavan - UPPCB",08-06-2024 00:00:00,27.5714090,77.6557570,NH3,2,4,2
India,Uttar_Pradesh,Vrindavan,"Omex Eternity, Vrindavan - UPPCB",08-06-2024 00:00:00,27.5714090,77.6557570,OZONE,20,24,21
India,Uttarakhand,Kashipur,"Govt. Girls Inter College, Kashipur - UKPCB",08-06-2024 00:00:00,29.2124114,78.9611753,NO2,3,20,14
India,Uttarakhand,Rishikesh,"Shivaji Nagar, Rishikesh - UKPCB",08-06-2024 00:00:00,30.075911,78.2859547,OZONE,33,116,58
India,West_Bengal,Asansol,"Asansol Court Area, Asansol - WBPCB",08-06-2024 00:00:00,23.685297,86.945968,CO,20,50,29
India,West_Bengal,Asansol,"Evelyn Lodge, Asansol - WBPCB",08-06-2024 00:00:00,23.6979360,86.9443950,SO2,11,15,12
India,West_Bengal,Asansol,"Evelyn Lodge, Asansol - WBPCB",08-06-2024 00:00:00,23.6979360,86.9443950,OZONE,5,95,55
India,West_Bengal,Barrackpore,"SVSPA Campus, Barrackpore - WBPCB",08-06-2024 00:00:00,22.7605581,88.3617589,SO2,4,14,8
India,West_Bengal,Barrackpore,"SVSPA Campus, Barrackpore - WBPCB",08-06-2024 00:00:00,22.7605581,88.3617589,OZONE,9,117,44
India,West_Bengal,Durgapur,"Sidhu Kanhu Indoor Stadium, Durgapur - WBPCB",08-06-2024 00:00:00,23.5404352,87.2892225,SO2,10,44,29
India,West_Bengal,Howrah,"Belur Math, Howrah - WBPCB",08-06-2024 00:00:00,22.629801,88.352017,CO,5,22,11
India,West_Bengal,Howrah,"Belur Math, Howrah - WBPCB",08-06-2024 00:00:00,22.629801,88.352017,OZONE,17,60,41
India,West_Bengal,Howrah,"Ghusuri, Howrah - WBPCB",08-06-2024 00:00:00,22.611968,88.347422,PM2.5,NA,NA,NA
India,West_Bengal,Howrah,"Ghusuri, Howrah - WBPCB",08-06-2024 00:00:00,22.611968,88.347422,PM10,NA,NA,NA
India,West_Bengal,Howrah,"Ghusuri, Howrah - WBPCB",08-06-2024 00:00:00,22.611968,88.347422,SO2,NA,NA,NA
India,West_Bengal,Howrah,"Ghusuri, Howrah - WBPCB",08-06-2024 00:00:00,22.611968,88.347422,OZONE,20,44,31
India,West_Bengal,Howrah,"Padmapukur, Howrah - WBPCB",08-06-2024 00:00:00,22.5687319,88.2797276,PM2.5,59,84,76
India,West_Bengal,Howrah,"Padmapukur, Howrah - WBPCB",08-06-2024 00:00:00,22.5687319,88.2797276,OZONE,21,39,32
India,West_Bengal,Kolkata,"Ballygunge, Kolkata - WBPCB",08-06-2024 00:00:00,22.5367507,88.3638022,PM10,48,79,63
India,West_Bengal,Kolkata,"Ballygunge, Kolkata - WBPCB",08-06-2024 00:00:00,22.5367507,88.3638022,NO2,12,26,19
India,West_Bengal,Kolkata,"Ballygunge, Kolkata - WBPCB",08-06-2024 00:00:00,22.5367507,88.3638022,NH3,7,10,8
India,West_Bengal,Kolkata,"Bidhannagar, Kolkata - WBPCB",08-06-2024 00:00:00,22.58157048,88.41002457,PM10,60,80,71
India,West_Bengal,Kolkata,"Fort William, Kolkata - WBPCB",08-06-2024 00:00:00,22.556640,88.342674,PM10,60,83,71
India,West_Bengal,Kolkata,"Jadavpur, Kolkata - WBPCB",08-06-2024 00:00:00,22.49929,88.36917,CO,14,21,17
India,West_Bengal,Kolkata,"Jadavpur, Kolkata - WBPCB",08-06-2024 00:00:00,22.49929,88.36917,OZONE,41,80,55
India,West_Bengal,Kolkata,"Rabindra Bharati University, Kolkata - WBPCB",08-06-2024 00:00:00,22.627847,88.380669,NH3,4,13,10
India,West_Bengal,Kolkata,"Rabindra Bharati University, Kolkata - WBPCB",08-06-2024 00:00:00,22.627847,88.380669,SO2,5,11,7
India,West_Bengal,Kolkata,"Rabindra Sarobar, Kolkata - WBPCB",08-06-2024 00:00:00,22.51106,88.35142,PM2.5,28,45,37
India,West_Bengal,Siliguri,"Ward-32 Bapupara, Siliguri - WBPCB",08-06-2024 00:00:00,26.6879226,88.4152495,NO2,22,32,25
India,Andhra_Pradesh,Anantapur,"Gulzarpet, Anantapur - APPCB",08-06-2024 00:00:00,14.675886,77.593027,PM2.5,22,55,33
India,Andhra_Pradesh,Kadapa,"Yerramukkapalli, Kadapa - APPCB",08-06-2024 00:00:00,14.465052,78.824187,SO2,2,3,2
India,Andhra_Pradesh,Rajamahendravaram,"Anand Kala Kshetram, Rajamahendravaram - APPCB",08-06-2024 00:00:00,16.9872867,81.7363176,PM10,17,64,36
India,Andhra_Pradesh,Tirupati,"Tirumala, Tirupati - APPCB",08-06-2024 00:00:00,13.67,79.35,NO2,12,26,20
India,Andhra_Pradesh,Tirupati,"Tirumala, Tirupati - APPCB",08-06-2024 00:00:00,13.67,79.35,OZONE,14,30,23
India,Andhra_Pradesh,Tirupati,"Vaikuntapuram, Tirupati - APPCB",08-06-2024 00:00:00,13.615387,79.409230,NH3,NA,NA,NA
India,Andhra_Pradesh,Vijayawada,"HB Colony, Vijayawada - APPCB",08-06-2024 00:00:00,16.536107,80.594233,PM2.5,35,203,55
India,Andhra_Pradesh,Vijayawada,"HB Colony, Vijayawada - APPCB",08-06-2024 00:00:00,16.536107,80.594233,NO2,14,25,17
India,Andhra_Pradesh,Vijayawada,"HB Colony, Vijayawada - APPCB",08-06-2024 00:00:00,16.536107,80.594233,OZONE,15,46,19
India,Andhra_Pradesh,Vijayawada,"Kanuru, Vijayawada - APPCB",08-06-2024 00:00:00,16.486692,80.699436,NO2,14,20,16
India,Andhra_Pradesh,Vijayawada,"Rajiv Gandhi Park, Vijayawada - APPCB",08-06-2024 00:00:00,16.509717,80.612222,CO,38,40,40
India,Andhra_Pradesh,Visakhapatnam,"GVM Corporation, Visakhapatnam - APPCB",08-06-2024 00:00:00,17.72,83.3,SO2,11,21,15
India,Arunachal_Pradesh,Naharlagun,"Naharlagun, Naharlagun - APSPCB",08-06-2024 00:00:00,27.103358,93.679645,PM10,NA,NA,NA
India,Assam,Guwahati,"IITG, Guwahati - PCBA",08-06-2024 00:00:00,26.2028636,91.70046436,PM10,NA,NA,NA
India,Assam,Guwahati,"IITG, Guwahati - PCBA",08-06-2024 00:00:00,26.2028636,91.70046436,SO2,13,15,14
India,Assam,Guwahati,"Railway Colony, Guwahati - PCBA",08-06-2024 00:00:00,26.181742,91.78063,PM10,42,219,72
India,Assam,Guwahati,"Railway Colony, Guwahati - PCBA",08-06-2024 00:00:00,26.181742,91.78063,OZONE,1,18,8
India,Assam,Nagaon,"Christianpatty, Nagaon - PCBA",08-06-2024 00:00:00,26.349082,92.68449,PM2.5,NA,NA,NA
India,Assam,Nagaon,"Christianpatty, Nagaon - PCBA",08-06-2024 00:00:00,26.349082,92.68449,SO2,1,69,13
India,Assam,Nagaon,"Christianpatty, Nagaon - PCBA",08-06-2024 00:00:00,26.349082,92.68449,CO,25,93,69
India,Assam,Nagaon,"Christianpatty, Nagaon - PCBA",08-06-2024 00:00:00,26.349082,92.68449,OZONE,7,57,36
India,Assam,Silchar,"Tarapur, Silchar - PCBA",08-06-2024 00:00:00,24.82827,92.79525,NO2,16,16,16
India,Assam,Silchar,"Tarapur, Silchar - PCBA",08-06-2024 00:00:00,24.82827,92.79525,SO2,1,9,4
India,Assam,Sivasagar,"Girls College, Sivasagar - PCBA",08-06-2024 00:00:00,26.987634,94.636574,SO2,5,13,9
India,Assam,Sivasagar,"Girls College, Sivasagar - PCBA",08-06-2024 00:00:00,26.987634,94.636574,OZONE,1,10,4
India,Bihar,Arrah,"New DM Office, Arrah - BSPCB",08-06-2024 00:00:00,25.5626095,84.663264,OZONE,7,63,21
India,Bihar,Aurangabad,"Gurdeo Nagar, Aurangabad - BSPCB",08-06-2024 00:00:00,24.75746,84.366208,NH3,NA,NA,NA
India,Bihar,Bhagalpur,"DM Office_Kachari Chowk, Bhagalpur - BSPCB",08-06-2024 00:00:00,25.251013,86.989001,PM2.5,60,220,106
India,Bihar,Bhagalpur,"DM Office_Kachari Chowk, Bhagalpur - BSPCB",08-06-2024 00:00:00,25.251013,86.989001,NH3,3,8,5
India,Bihar,Bhagalpur,"DM Office_Kachari Chowk, Bhagalpur - BSPCB",08-06-2024 00:00:00,25.251013,86.989001,SO2,29,34,32
India,Bihar,Bhagalpur,"Mayaganj, Bhagalpur - BSPCB",08-06-2024 00:00:00,25.265194,87.012947,PM10,44,143,83
India,Bihar,Bhagalpur,"Mayaganj, Bhagalpur - BSPCB",08-06-2024 00:00:00,25.265194,87.012947,NO2,4,11,7
India,Bihar,Bhagalpur,"Mayaganj, Bhagalpur - BSPCB",08-06-2024 00:00:00,25.265194,87.012947,SO2,11,12,12
India,Bihar,Bihar Sharif,"D M Colony, Bihar Sharif - BSPCB",08-06-2024 00:00:00,25.204762,85.514960,PM10,6,136,63
India,Bihar,Buxar,"Charitra Van, Buxar - BSPCB (Formerly known as Central Jail)",08-06-2024 00:00:00,25.567520,83.966379,OZONE,4,172,67
India,Bihar,Chhapra,"Darshan Nagar, Chhapra - BSPCB",08-06-2024 00:00:00,25.7808257,84.7446768,NO2,NA,NA,NA
India,Bihar,Chhapra,"Darshan Nagar, Chhapra - BSPCB",08-06-2024 00:00:00,25.7808257,84.7446768,NH3,NA,NA,NA
India,Bihar,Chhapra,"Darshan Nagar, Chhapra - BSPCB",08-06-2024 00:00:00,25.7808257,84.7446768,CO,24,42,38
India,Bihar,Gaya,"Collectorate, Gaya - BSPCB",08-06-2024 00:00:00,24.7955,84.9994,PM2.5,26,108,73
India,Bihar,Gaya,"Kareemganj, Gaya - BSPCB",08-06-2024 00:00:00,24.792403,84.992416,NH3,2,17,6
India,Bihar,Gaya,"Kareemganj, Gaya - BSPCB",08-06-2024 00:00:00,24.792403,84.992416,CO,18,23,22
India,Bihar,Gaya,"Kareemganj, Gaya - BSPCB",08-06-2024 00:00:00,24.792403,84.992416,OZONE,7,37,19
India,Bihar,Gaya,"SFTI Kusdihra, Gaya - BSPCB",08-06-2024 00:00:00,24.762518,84.982348,SO2,6,11,8
India,Bihar,Hajipur,"Industrial Area, Hajipur - BSPCB",08-06-2024 00:00:00,25.697189,85.245900,NO2,14,40,24
India,Bihar,Hajipur,"Industrial Area, Hajipur - BSPCB",08-06-2024 00:00:00,25.697189,85.245900,SO2,3,7,6
India,Bihar,Kishanganj,"SDM Office_Khagra, Kishanganj - BSPCB",08-06-2024 00:00:00,26.0881305,87.93840336,OZONE,18,71,70
India,Bihar,Manguraha,"Forest Rest House, Manguraha - BSPCB",08-06-2024 00:00:00,27.308328,84.531742,PM10,16,64,46
India,Bihar,Motihari,"Gandak Colony, Motihari - BSPCB",08-06-2024 00:00:00,26.63086,84.90051,NO2,17,35,26
India,Bihar,Motihari,"Gandak Colony, Motihari - BSPCB",08-06-2024 00:00:00,26.63086,84.90051,OZONE,18,80,47
India,Bihar,Munger,"Town Hall, Munger - BSPCB",08-06-2024 00:00:00,25.376776,86.471523,PM2.5,35,233,101
India,Bihar,Munger,"Town Hall, Munger - BSPCB",08-06-2024 00:00:00,25.376776,86.471523,NO2,3,6,5
India,Bihar,Muzaffarpur,"Buddha Colony, Muzaffarpur - BSPCB",08-06-2024 00:00:00,26.11442,85.39813,NO2,16,40,22
India,Bihar,Muzaffarpur,"Buddha Colony, Muzaffarpur - BSPCB",08-06-2024 00:00:00,26.11442,85.39813,SO2,3,7,4
India,Bihar,Muzaffarpur,"Buddha Colony, Muzaffarpur - BSPCB",08-06-2024 00:00:00,26.11442,85.39813,OZONE,58,145,103
India,Bihar,Muzaffarpur,"MIT-Daudpur Kothi, Muzaffarpur - BSPCB",08-06-2024 00:00:00,26.1403345,85.3650192,CO,14,110,109
India,Bihar,Patna,"DRM Office Danapur, Patna - BSPCB",08-06-2024 00:00:00,25.586562,85.043586,NO2,8,21,12
India,Bihar,Patna,"DRM Office Danapur, Patna - BSPCB",08-06-2024 00:00:00,25.586562,85.043586,NH3,2,3,3
India,Bihar,Patna,"Muradpur, Patna - BSPCB",08-06-2024 00:00:00,25.619651,85.147382,SO2,3,12,8
India,Bihar,Patna,"Muradpur, Patna - BSPCB",08-06-2024 00:00:00,25.619651,85.147382,OZONE,5,62,27
India,Bihar,Patna,"Samanpura, Patna - BSPCB",08-06-2024 00:00:00,25.596727,85.085624,PM2.5,56,140,84
India,Bihar,Patna,"Samanpura, Patna - BSPCB",08-06-2024 00:00:00,25.596727,85.085624,CO,29,70,53
India,Bihar,Rajgir,"Dangi Tola, Rajgir - BSPCB",08-06-2024 00:00:00,25.03280,85.41948,CO,26,47,38
India,Bihar,Saharsa,"Police Line, Saharsa - BSPCB",08-06-2024 00:00:00,25.892357,86.590325,PM2.5,NA,NA,NA
India,Bihar,Saharsa,"Police Line, Saharsa - BSPCB",08-06-2024 00:00:00,25.892357,86.590325,NH3,9,9,9
India,Bihar,Samastipur,"DM Office_Kasipur, Samastipur - BSPCB",08-06-2024 00:00:00,25.859655,85.77944,NO2,4,5,4
India,Bihar,Samastipur,"DM Office_Kasipur, Samastipur - BSPCB",08-06-2024 00:00:00,25.859655,85.77944,NH3,4,4,4
India,Bihar,Sasaram,"Dada Peer, Sasaram - BSPCB",08-06-2024 00:00:00,24.952822,84.002396,PM2.5,10,80,26
India,Bihar,Sasaram,"Dada Peer, Sasaram - BSPCB",08-06-2024 00:00:00,24.952822,84.002396,PM10,28,174,68
India,Chandigarh,Chandigarh,"Sector 22, Chandigarh - CPCC",08-06-2024 00:00:00,30.735567,76.775714,NO2,10,51,27
India,Chandigarh,Chandigarh,"Sector-25, Chandigarh - CPCC",08-06-2024 00:00:00,30.751462,76.762879,PM2.5,92,136,114
India,Chhattisgarh,Bhilai,"32Bungalows, Bhilai - CECB",08-06-2024 00:00:00,21.194815,81.314770,NH3,6,7,6
India,Chhattisgarh,Bhilai,"32Bungalows, Bhilai - CECB",08-06-2024 00:00:00,21.194815,81.314770,SO2,9,11,10
India,Chhattisgarh,Bhilai,"Civic Center, Bhilai - Bhilai Steel Plant",08-06-2024 00:00:00,21.185571,81.343175,PM2.5,21,33,27
India,Chhattisgarh,Bhilai,"Civic Center, Bhilai - Bhilai Steel Plant",08-06-2024 00:00:00,21.185571,81.343175,CO,29,60,46
India,Chhattisgarh,Bhilai,"Hathkhoj, Bhilai - CECB",08-06-2024 00:00:00,21.224231,81.408350,PM10,NA,NA,NA
India,Chhattisgarh,Bhilai,"Hathkhoj, Bhilai - CECB",08-06-2024 00:00:00,21.224231,81.408350,CO,NA,NA,NA
India,Chhattisgarh,Chhal,"Nawapara SECL Colony, Chhal - CECB",08-06-2024 00:00:00,22.118125,83.140608,SO2,12,36,19
India,Chhattisgarh,Korba,"Urja Nagar, Korba - CECB",08-06-2024 00:00:00,22.348441,82.549611,CO,10,102,36
India,Chhattisgarh,Milupara,"Govt. Higher Secondary School, Milupara - CECB",08-06-2024 00:00:00,22.1910172,83.5197009,PM2.5,NA,NA,NA
India,Chhattisgarh,Raipur,"AIIMS, Raipur - CECB",08-06-2024 00:00:00,21.258815,81.578979,PM2.5,25,44,36
India,Chhattisgarh,Raipur,"AIIMS, Raipur - CECB",08-06-2024 00:00:00,21.258815,81.578979,CO,18,34,24
India,Chhattisgarh,Raipur,"Bhatagaon New ISBT, Raipur - CECB",08-06-2024 00:00:00,21.219665,81.630094,PM2.5,15,32,24
India,Chhattisgarh,Raipur,"Bhatagaon New ISBT, Raipur - CECB",08-06-2024 00:00:00,21.219665,81.630094,NO2,1,1,1
India,Chhattisgarh,Raipur,"Siltara Phase-II, Raipur - CECB",08-06-2024 00:00:00,21.371751,81.664929,PM2.5,21,92,58
India,Chhattisgarh,Raipur,"Siltara Phase-II, Raipur - CECB",08-06-2024 00:00:00,21.371751,81.664929,NO2,21,74,36
India,Chhattisgarh,Raipur,"Siltara Phase-II, Raipur - CECB",08-06-2024 00:00:00,21.371751,81.664929,NH3,3,3,3
India,Delhi,Delhi,"Alipur, Delhi - DPCC",08-06-2024 00:00:00,28.815329,77.153010,PM2.5,NA,NA,NA
India,Delhi,Delhi,"Alipur, Delhi - DPCC",08-06-2024 00:00:00,28.815329,77.153010,CO,44,56,49
India,Delhi,Delhi,"Anand Vihar, Delhi - DPCC",08-06-2024 00:00:00,28.647622,77.3158090,SO2,19,36,26
India,Delhi,Delhi,"Ashok Vihar, Delhi - DPCC",08-06-2024 00:00:00,28.695381,77.181665,PM10,119,500,191
India,Delhi,Delhi,"Ashok Vihar, Delhi - DPCC",08-06-2024 00:00:00,28.695381,77.181665,SO2,18,46,28
India,Delhi,Delhi,"Aya Nagar, Delhi - IMD",08-06-2024 00:00:00,28.4706914,77.1099364,PM2.5,9,195,90
India,Delhi,Delhi,"Bawana, Delhi - DPCC",08-06-2024 00:00:00,28.776200,77.051074,NO2,11,39,24
India,Delhi,Delhi,"Bawana, Delhi - DPCC",08-06-2024 00:00:00,28.776200,77.051074,SO2,10,64,22
India,Delhi,Delhi,"Burari Crossing, Delhi - IMD",08-06-2024 00:00:00,28.7256504,77.2011573,NO2,8,16,13
India,Delhi,Delhi,"Burari Crossing, Delhi - IMD",08-06-2024 00:00:00,28.7256504,77.2011573,OZONE,13,76,36
India,Delhi,Delhi,"CRRI Mathura Road, Delhi - IMD",08-06-2024 00:00:00,28.5512005,77.2735737,PM2.5,NA,NA,NA
India,Delhi,Delhi,"CRRI Mathura Road, Delhi - IMD",08-06-2024 00:00:00,28.5512005,77.2735737,CO,25,84,51
India,Delhi,Delhi,"Chandni Chowk, Delhi - IITM",08-06-2024 00:00:00,28.656756,77.227234,SO2,17,59,41
India,Delhi,Delhi,"Chandni Chowk, Delhi - IITM",08-06-2024 00:00:00,28.656756,77.227234,OZONE,1,8,3
India,Delhi,Delhi,"DTU, Delhi - CPCB",08-06-2024 00:00:00,28.7500499,77.1112615,PM10,123,500,224
India,Delhi,Delhi,"DTU, Delhi - CPCB",08-06-2024 00:00:00,28.7500499,77.1112615,CO,26,46,36
India,Delhi,Delhi,"Dr. Karni Singh Shooting Range, Delhi - DPCC",08-06-2024 00:00:00,28.498571,77.264840,NH3,5,7,6
India,Delhi,Delhi,"Dr. Karni Singh Shooting Range, Delhi - DPCC",08-06-2024 00:00:00,28.498571,77.264840,SO2,13,35,18
India,Delhi,Delhi,"Dr. Karni Singh Shooting Range, Delhi - DPCC",08-06-2024 00:00:00,28.498571,77.264840,OZONE,52,240,123
India,Delhi,Delhi,"IGI Airport (T3), Delhi - IMD",08-06-2024 00:00:00,28.5627763,77.1180053,CO,35,58,44
India,Delhi,Delhi,"Jahangirpuri, Delhi - DPCC",08-06-2024 00:00:00,28.732820,77.170633,NO2,7,51,23
India,Delhi,Delhi,"Jahangirpuri, Delhi - DPCC",08-06-2024 00:00:00,28.732820,77.170633,OZONE,10,111,57
India,Delhi,Delhi,"Jawaharlal Nehru Stadium, Delhi - DPCC",08-06-2024 00:00:00,28.580280,77.233829,SO2,12,21,16
India,Delhi,Delhi,"Lodhi Road, Delhi - IITM",08-06-2024 00:00:00,28.588333,77.221667,NO2,1,70,19
India,Delhi,Delhi,"Major Dhyan Chand National Stadium, Delhi - DPCC",08-06-2024 00:00:00,28.611281,77.237738,PM10,115,469,202
India,Delhi,Delhi,"Major Dhyan Chand National Stadium, Delhi - DPCC",08-06-2024 00:00:00,28.611281,77.237738,NH3,7,11,9
India,Delhi,Delhi,"Major Dhyan Chand National Stadium, Delhi - DPCC",08-06-2024 00:00:00,28.611281,77.237738,OZONE,8,180,81
India,Delhi,Delhi,"Mundka, Delhi - DPCC",08-06-2024 00:00:00,28.684678,77.076574,NH3,7,11,9
India,Delhi,Delhi,"Najafgarh, Delhi - DPCC",08-06-2024 00:00:00,28.570173,76.933762,PM10,109,500,230
India,Delhi,Delhi,"Narela, Delhi - DPCC",08-06-2024 00:00:00,28.822836,77.101981,PM10,161,500,234
India,Delhi,Delhi,"Narela, Delhi - DPCC",08-06-2024 00:00:00,28.822836,77.101981,NO2,6,62,27
India,Delhi,Delhi,"Nehru Nagar, Delhi - DPCC",08-06-2024 00:00:00,28.567890,77.250515,NO2,6,58,23
India,Delhi,Delhi,"Nehru Nagar, Delhi - DPCC",08-06-2024 00:00:00,28.567890,77.250515,SO2,4,11,7
India,Delhi,Delhi,"Nehru Nagar, Delhi - DPCC",08-06-2024 00:00:00,28.567890,77.250515,CO,4,86,62
India,Delhi,Delhi,"North Campus, DU, Delhi - IMD",08-06-2024 00:00:00,28.6573814,77.1585447,PM10,NA,NA,NA
India,Delhi,Delhi,"North Campus, DU, Delhi - IMD",08-06-2024 00:00:00,28.6573814,77.1585447,NO2,NA,NA,NA
India,Delhi,Delhi,"Okhla Phase-2, Delhi - DPCC",08-06-2024 00:00:00,28.530785,77.271255,PM2.5,47,280,89
India,Delhi,Delhi,"Patparganj, Delhi - DPCC",08-06-2024 00:00:00,28.623763,77.287209,PM2.5,57,350,133
India,Delhi,Delhi,"Patparganj, Delhi - DPCC",08-06-2024 00:00:00,28.623763,77.287209,NO2,17,132,61
India,Delhi,Delhi,"Punjabi Bagh, Delhi - DPCC",08-06-2024 00:00:00,28.674045,77.131023,PM10,134,500,236
India,Delhi,Delhi,"Punjabi Bagh, Delhi - DPCC",08-06-2024 00:00:00,28.674045,77.131023,NH3,4,7,5
India,Delhi,Delhi,"Punjabi Bagh, Delhi - DPCC",08-06-2024 00:00:00,28.674045,77.131023,CO,38,55,45
India,Delhi,Delhi,"Pusa, Delhi - DPCC",08-06-2024 00:00:00,28.639652,77.146275,PM2.5,33,160,67
India,Delhi,Delhi,"Pusa, Delhi - DPCC",08-06-2024 00:00:00,28.639652,77.146275,NO2,51,109,78
India,Delhi,Delhi,"Pusa, Delhi - DPCC",08-06-2024 00:00:00,28.639652,77.146275,OZONE,17,80,43
India,Delhi,Delhi,"R K Puram, Delhi - DPCC",08-06-2024 00:00:00,28.563262,77.186937,PM2.5,68,322,169
India,Delhi,Delhi,"R K Puram, Delhi - DPCC",08-06-2024 00:00:00,28.563262,77.186937,NO2,17,91,50
India,Delhi,Delhi,"Rohini, Delhi - DPCC",08-06-2024 00:00:00,28.732528,77.119920,SO2,10,48,25
India,Delhi,Delhi,"Shadipur, Delhi - CPCB",08-06-2024 00:00:00,28.6514781,77.1473105,PM10,162,500,310
India,Delhi,Delhi,"Shadipur, Delhi - CPCB",08-06-2024 00:00:00,28.6514781,77.1473105,SO2,2,30,15
India,Delhi,Delhi,"Sonia Vihar, Delhi - DPCC",08-06-2024 00:00:00,28.710508,77.249485,PM10,141,289,200
India,Delhi,Delhi,"Sri Aurobindo Marg, Delhi - DPCC",08-06-2024 00:00:00,28.531346,77.190156,NH3,5,9,7
India,Delhi,Delhi,"Sri Aurobindo Marg, Delhi - DPCC",08-06-2024 00:00:00,28.531346,77.190156,OZONE,9,99,65
India,Delhi,Delhi,"Vivek Vihar, Delhi - DPCC",08-06-2024 00:00:00,28.672342,77.315260,NH3,16,17,16
India,Delhi,Delhi,"Vivek Vihar, Delhi - DPCC",08-06-2024 00:00:00,28.672342,77.315260,OZONE,18,97,53
India,Delhi,Delhi,"Wazirpur, Delhi - DPCC",08-06-2024 00:00:00,28.699793,77.165453,NO2,28,60,38
India,Delhi,Delhi,"Wazirpur, Delhi - DPCC",08-06-2024 00:00:00,28.699793,77.165453,NH3,10,14,12
India,Gujarat,Ahmedabad,"Chandkheda, Ahmedabad - IITM",08-06-2024 00:00:00,23.107969,72.574648,PM2.5,55,167,81
India,Gujarat,Ahmedabad,"Gyaspur, Ahmedabad - IITM",08-06-2024 00:00:00,22.977134,72.553024,NO2,34,59,45
India,Gujarat,Ahmedabad,"Gyaspur, Ahmedabad - IITM",08-06-2024 00:00:00,22.977134,72.553024,SO2,14,24,20
India,Gujarat,Ahmedabad,"Gyaspur, Ahmedabad - IITM",08-06-2024 00:00:00,22.977134,72.553024,CO,73,97,81
India,Gujarat,Ahmedabad,"Sardar Vallabhbhai Patel Stadium, Ahmedabad - IITM",08-06-2024 00:00:00,23.043070,72.562968,NH3,6,6,6
India,Gujarat,Ahmedabad,"Sardar Vallabhbhai Patel Stadium, Ahmedabad - IITM",08-06-2024 00:00:00,23.043070,72.562968,CO,46,50,49
India,Gujarat,Ankleshwar,"GIDC, Ankleshwar - GPCB",08-06-2024 00:00:00,21.613267,73.010555,PM10,54,88,68
India,Gujarat,Ankleshwar,"GIDC, Ankleshwar - GPCB",08-06-2024 00:00:00,21.613267,73.010555,NH3,2,4,3
India,Gujarat,Gandhinagar,"GIFT City, Gandhinagar - IITM",08-06-2024 00:00:00,23.163798,72.677768,CO,NA,NA,NA
India,Gujarat,Gandhinagar,"Sector-10, Gandhinagar - GPCB",08-06-2024 00:00:00,23.221714,72.654328,PM2.5,23,52,37
India,Gujarat,Nandesari,"GIDC, Nandesari - Nandesari Ind. Association",08-06-2024 00:00:00,22.410802,73.097923,PM10,50,188,107
India,Gujarat,Nandesari,"GIDC, Nandesari - Nandesari Ind. Association",08-06-2024 00:00:00,22.410802,73.097923,SO2,2,27,14
India,Gujarat,Surat,"Science Center, Surat - SMC",08-06-2024 00:00:00,21.170046,72.795405,NO2,16,32,24
India,Haryana,Ambala,"Patti Mehar, Ambala - HSPCB",08-06-2024 00:00:00,30.379589,76.778328,PM2.5,NA,NA,NA
India,Haryana,Ambala,"Patti Mehar, Ambala - HSPCB",08-06-2024 00:00:00,30.379589,76.778328,CO,30,42,38
India,Haryana,Ballabgarh,"Nathu Colony, Ballabgarh - HSPCB",08-06-2024 00:00:00,28.3419248,77.319699,OZONE,16,73,35
India,Haryana,Bhiwani,"H.B. Colony, Bhiwani - HSPCB",08-06-2024 00:00:00,28.806223,76.141105,PM2.5,62,208,103
India,Haryana,Faridabad,"New Industrial Town, Faridabad - HSPCB",08-06-2024 00:00:00,28.39072,77.30059,SO2,NA,NA,NA
India,Haryana,Faridabad,"Sector- 16A, Faridabad - HSPCB",08-06-2024 00:00:00,28.4088421,77.3099081,CO,2,20,20
India,Haryana,Gurugram,"NISE Gwal Pahari, Gurugram - IMD",08-06-2024 00:00:00,28.422681,77.148944,OZONE,14,74,70
India,Haryana,Gurugram,"Sector-51, Gurugram - HSPCB",08-06-2024 00:00:00,28.4227,77.0667,OZONE,28,72,39
India,Haryana,Gurugram,"Teri Gram, Gurugram - HSPCB",08-06-2024 00:00:00,28.4275,77.1465,PM2.5,111,375,243
India,Haryana,Gurugram,"Teri Gram, Gurugram - HSPCB",08-06-2024 00:00:00,28.4275,77.1465,NH3,36,67,46
India,Haryana,Gurugram,"Teri Gram, Gurugram - HSPCB",08-06-2024 00:00:00,28.4275,77.1465,SO2,5,7,6
India,Haryana,Hisar,"Urban Estate-II, Hisar - HSPCB",08-06-2024 00:00:00,29.140560,75.744941,PM2.5,NA,NA,NA
India,Haryana,Hisar,"Urban Estate-II, Hisar - HSPCB",08-06-2024 00:00:00,29.140560,75.744941,NO2,NA,NA,NA
India,Haryana,Jind,"Police Lines, Jind - HSPCB",08-06-2024 00:00:00,29.307814,76.337619,NH3,NA,NA,NA
India,Haryana,Kaithal,"Rishi Nagar, Kaithal - HSPCB",08-06-2024 00:00:00,29.8006,76.4155,NH3,8,8,8
India,Haryana,Kurukshetra,"Sector-7, Kurukshetra - HSPCB",08-06-2024 00:00:00,29.966942,76.875879,SO2,1,17,9
India,Haryana,Kurukshetra,"Sector-7, Kurukshetra - HSPCB",08-06-2024 00:00:00,29.966942,76.875879,CO,1,22,11
India,Haryana,Kurukshetra,"Sector-7, Kurukshetra - HSPCB",08-06-2024 00:00:00,29.966942,76.875879,OZONE,59,97,89
India,Haryana,Mandikhera,"General Hospital, Mandikhera - HSPCB",08-06-2024 00:00:00,27.9002,76.9938,NO2,16,23,21
India,Haryana,Mandikhera,"General Hospital, Mandikhera - HSPCB",08-06-2024 00:00:00,27.9002,76.9938,OZONE,21,34,29
India,Haryana,Narnaul,"Shastri Nagar, Narnaul - HSPCB",08-06-2024 00:00:00,28.060249,76.113115,SO2,NA,NA,NA
India,Haryana,Palwal,"Shyam Nagar, Palwal - HSPCB",08-06-2024 00:00:00,28.1485564,77.3320667,PM10,78,328,143
India,Haryana,Palwal,"Shyam Nagar, Palwal - HSPCB",08-06-2024 00:00:00,28.1485564,77.3320667,NO2,23,24,24
India,Haryana,Palwal,"Shyam Nagar, Palwal - HSPCB",08-06-2024 00:00:00,28.1485564,77.3320667,NH3,8,9,9
India,Haryana,Panchkula,"Sector-6, Panchkula - HSPCB ",08-06-2024 00:00:00,30.7057778,76.8531805555555,NO2,9,11,10
India,Haryana,Panchkula,"Sector-6, Panchkula - HSPCB ",08-06-2024 00:00:00,30.7057778,76.8531805555555,CO,8,14,11
India,Haryana,Yamuna Nagar,"Gobind Pura, Yamuna Nagar - HSPCB",08-06-2024 00:00:00,30.1480566,77.2893471,SO2,NA,NA,NA
India,Haryana,Yamuna Nagar,"Gobind Pura, Yamuna Nagar - HSPCB",08-06-2024 00:00:00,30.1480566,77.2893471,OZONE,15,24,16
India,Himachal Pradesh,Baddi,"HIMUDA Complex Phase-1, Baddi - HPPCB",08-06-2024 00:00:00,30.943887,76.801991,NH3,4,7,5
India,Jharkhand,Dhanbad,"Kalakusuma, Dhanbad - DMC",08-06-2024 00:00:00,23.811548,86.481238,PM10,11,187,34
India,Jharkhand,Dhanbad,"Kalakusuma, Dhanbad - DMC",08-06-2024 00:00:00,23.811548,86.481238,SO2,NA,NA,NA
India,Jharkhand,Dhanbad,"Kalakusuma, Dhanbad - DMC",08-06-2024 00:00:00,23.811548,86.481238,CO,117,137,127
India,Jharkhand,Dhanbad,"Sardar Patel Nagar, Dhanbad - JSPCB",08-06-2024 00:00:00,23.80569,86.44268,SO2,NA,NA,NA
India,Karnataka,Bagalkot,"Vidayagiri, Bagalkot - KSPCB",08-06-2024 00:00:00,16.172806,75.659694,PM10,NA,NA,NA
India,Karnataka,Belgaum,"Ramteerth Nagar, Belgaum - KSPCB",08-06-2024 00:00:00,15.888653,74.541751,OZONE,19,20,19
India,Karnataka,Bengaluru,"Bapuji Nagar, Bengaluru - KSPCB",08-06-2024 00:00:00,12.951913,77.539784,NH3,1,1,1
India,Karnataka,Bengaluru,"Hombegowda Nagar, Bengaluru - KSPCB",08-06-2024 00:00:00,12.938539,77.590100,NO2,8,20,14
India,Karnataka,Bengaluru,"Jayanagar 5th Block, Bengaluru - KSPCB",08-06-2024 00:00:00,12.920984,77.584908,PM10,8,23,14
India,Karnataka,Bengaluru,"Jayanagar 5th Block, Bengaluru - KSPCB",08-06-2024 00:00:00,12.920984,77.584908,CO,20,22,21
India,Karnataka,Bengaluru,"Jigani, Bengaluru - KSPCB",08-06-2024 00:00:00,12.7816279,77.6299145,NO2,NA,NA,NA
India,Karnataka,Bengaluru,"Jigani, Bengaluru - KSPCB",08-06-2024 00:00:00,12.7816279,77.6299145,NH3,NA,NA,NA
India,Karnataka,Bengaluru,"Kasturi Nagar, Bengaluru - KSPCB",08-06-2024 00:00:00,13.003872,77.664217,PM2.5,31,42,36
India,Karnataka,Bengaluru,"Kasturi Nagar, Bengaluru - KSPCB",08-06-2024 00:00:00,13.003872,77.664217,NH3,3,4,4
India,Karnataka,Bengaluru,"Kasturi Nagar, Bengaluru - KSPCB",08-06-2024 00:00:00,13.003872,77.664217,SO2,10,10,10
India,Karnataka,Bengaluru,"Kasturi Nagar, Bengaluru - KSPCB",08-06-2024 00:00:00,13.003872,77.664217,CO,25,26,26
India,Karnataka,Bengaluru,"Peenya, Bengaluru - CPCB",08-06-2024 00:00:00,13.0270199,77.494094,SO2,13,16,14
India,Karnataka,Bengaluru,"Peenya, Bengaluru - CPCB",08-06-2024 00:00:00,13.0270199,77.494094,OZONE,10,21,18
India,Karnataka,Bengaluru,"Sanegurava Halli, Bengaluru - KSPCB",08-06-2024 00:00:00,12.990328,77.5431385,SO2,2,3,3
India,Karnataka,Bengaluru,"Silk Board, Bengaluru - KSPCB",08-06-2024 00:00:00,12.917348,77.622813,NH3,1,1,1
India,Karnataka,Bidar,"Naubad, Bidar - KSPCB",08-06-2024 00:00:00,17.930306,77.482194,PM10,37,91,53
India,Karnataka,Bidar,"Naubad, Bidar - KSPCB",08-06-2024 00:00:00,17.930306,77.482194,NO2,7,8,8
India,Karnataka,Chamarajanagar,"Urban, Chamarajanagar - KSPCB",08-06-2024 00:00:00,11.55358,76.55521,PM2.5,28,36,35
India,Karnataka,Chikkaballapur,"Chikkaballapur Rural, Chikkaballapur - KSPCB",08-06-2024 00:00:00,13.428828,77.731418,CO,8,36,18
India,Karnataka,Chikkaballapur,"Chikkaballapur Rural, Chikkaballapur - KSPCB",08-06-2024 00:00:00,13.428828,77.731418,OZONE,25,27,26
India,Karnataka,Chikkamagaluru,"Kalyana Nagara, Chikkamagaluru - KSPCB",08-06-2024 00:00:00,13.328028,75.797056,NH3,2,3,3
India,Karnataka,Chikkamagaluru,"Kalyana Nagara, Chikkamagaluru - KSPCB",08-06-2024 00:00:00,13.328028,75.797056,CO,1,153,33
India,Karnataka,Davanagere,"Devaraj Urs Badavane, Davanagere - KSPCB",08-06-2024 00:00:00,14.475800,75.905200,PM2.5,4,36,17
India,Karnataka,Davanagere,"Devaraj Urs Badavane, Davanagere - KSPCB",08-06-2024 00:00:00,14.475800,75.905200,PM10,6,22,15
India,Karnataka,Davanagere,"Devaraj Urs Badavane, Davanagere - KSPCB",08-06-2024 00:00:00,14.475800,75.905200,OZONE,20,21,21
India,Karnataka,Dharwad,"Kalabhavan, Dharwad - KSPCB",08-06-2024 00:00:00,15.459706,75.008381,PM2.5,NA,NA,NA
India,Karnataka,Dharwad,"Kalabhavan, Dharwad - KSPCB",08-06-2024 00:00:00,15.459706,75.008381,SO2,1,32,5
India,Karnataka,Dharwad,"Kalabhavan, Dharwad - KSPCB",08-06-2024 00:00:00,15.459706,75.008381,CO,26,108,76
India,Karnataka,Gadag,"Panchal Nagar, Gadag - KSPCB",08-06-2024 00:00:00,15.411456,75.638133,OZONE,9,14,9
India,Karnataka,Hassan,"B.Katihalli, Hassan - KSPCB",08-06-2024 00:00:00,13.008556,76.125258,NO2,9,16,13
India,Karnataka,Hassan,"B.Katihalli, Hassan - KSPCB",08-06-2024 00:00:00,13.008556,76.125258,CO,2,18,13
India,Karnataka,Haveri,"Ashwini Nagar, Haveri - KSPCB",08-06-2024 00:00:00,14.791800,75.389600,SO2,NA,NA,NA
