country,state,city,station,last_update,latitude,longitude,pollutant_id,pollutant_min,pollutant_max,pollutant_avg
India,Andhra_Pradesh,Amaravati,"Secretariat, Amaravati - APPCB",15-05-2024 04:00:00,16.5150833,80.5181667,PM2.5,16,50,34
India,Andhra_Pradesh,Amaravati,"Secretariat, Amaravati - APPCB",15-05-2024 04:00:00,16.5150833,80.5181667,NO2,5,16,10
India,Andhra_Pradesh,Anantapur,"Gulzarpet, Anantapur - APPCB",15-05-2024 04:00:00,14.675886,77.593027,PM2.5,26,40,33
India,Andhra_Pradesh,Anantapur,"Gulzarpet, Anantapur - APPCB",15-05-2024 04:00:00,14.675886,77.593027,SO2,4,13,6
India,Andhra_Pradesh,Anantapur,"Gulzarpet, Anantapur - APPCB",15-05-2024 04:00:00,14.675886,77.593027,CO,12,33,23
India,Andhra_Pradesh,Chittoor,"Gangineni Cheruvu, Chittoor - APPCB",15-05-2024 04:00:00,13.204880,79.097889,CO,16,26,21
India,Andhra_Pradesh,Kadapa,"Yerramukkapalli, Kadapa - APPCB",15-05-2024 04:00:00,14.465052,78.824187,PM10,3,129,32
India,Andhra_Pradesh,Kadapa,"Yerramukkapalli, Kadapa - APPCB",15-05-2024 04:00:00,14.465052,78.824187,CO,8,26,11
India,Andhra_Pradesh,Kadapa,"Yerramukkapalli, Kadapa - APPCB",15-05-2024 04:00:00,14.465052,78.824187,OZONE,5,70,15
India,Andhra_Pradesh,Rajamahendravaram,"Anand Kala Kshetram, Rajamahendravaram - APPCB",15-05-2024 04:00:00,16.9872867,81.7363176,PM2.5,22,68,41
India,Andhra_Pradesh,Rajamahendravaram,"Anand Kala Kshetram, Rajamahendravaram - APPCB",15-05-2024 04:00:00,16.9872867,81.7363176,PM10,22,99,54
India,Andhra_Pradesh,Rajamahendravaram,"Anand Kala Kshetram, Rajamahendravaram - APPCB",15-05-2024 04:00:00,16.9872867,81.7363176,NH3,2,3,3
India,Andhra_Pradesh,Rajamahendravaram,"Anand Kala Kshetram, Rajamahendravaram - APPCB",15-05-2024 04:00:00,16.9872867,81.7363176,OZONE,24,79,35
India,Andhra_Pradesh,Tirupati,"Tirumala, Tirupati - APPCB",15-05-2024 04:00:00,13.67,79.35,PM10,20,96,46
India,Andhra_Pradesh,Visakhapatnam,"GVM Corporation, Visakhapatnam - APPCB",15-05-2024 04:00:00,17.72,83.3,PM2.5,27,157,61
India,Andhra_Pradesh,Visakhapatnam,"GVM Corporation, Visakhapatnam - APPCB",15-05-2024 04:00:00,17.72,83.3,NO2,2,89,28
India,Andhra_Pradesh,Visakhapatnam,"GVM Corporation, Visakhapatnam - APPCB",15-05-2024 04:00:00,17.72,83.3,NH3,3,5,4
India,Andhra_Pradesh,Visakhapatnam,"GVM Corporation, Visakhapatnam - APPCB",15-05-2024 04:00:00,17.72,83.3,CO,2,42,7
India,Arunachal_Pradesh,Naharlagun,"Naharlagun, Naharlagun - APSPCB",15-05-2024 04:00:00,27.103358,93.679645,PM2.5,2,59,27
India,Arunachal_Pradesh,Naharlagun,"Naharlagun, Naharlagun - APSPCB",15-05-2024 04:00:00,27.103358,93.679645,CO,10,21,15
India,Arunachal_Pradesh,Naharlagun,"Naharlagun, Naharlagun - APSPCB",15-05-2024 04:00:00,27.103358,93.679645,OZONE,2,2,2
India,Assam,Byrnihat,"Central Academy for SFS, Byrnihat - PCBA",15-05-2024 04:00:00,26.071318,91.87488,PM2.5,73,500,282
India,Assam,Byrnihat,"Central Academy for SFS, Byrnihat - PCBA",15-05-2024 04:00:00,26.071318,91.87488,NO2,25,50,37
India,Assam,Byrnihat,"Central Academy for SFS, Byrnihat - PCBA",15-05-2024 04:00:00,26.071318,91.87488,SO2,2,44,19
India,Assam,Guwahati,"LGBI Airport, Guwahati - PCBA",15-05-2024 04:00:00,26.10887,91.589544,NO2,8,67,28
India,Assam,Guwahati,"LGBI Airport, Guwahati - PCBA",15-05-2024 04:00:00,26.10887,91.589544,SO2,8,13,11
India,Assam,Guwahati,"Pan Bazaar, Guwahati - PCBA",15-05-2024 04:00:00,26.187500,91.744194,NO2,1,11,3
India,Assam,Guwahati,"Railway Colony, Guwahati - PCBA",15-05-2024 04:00:00,26.181742,91.78063,PM10,54,155,96
India,Assam,Nagaon,"Christianpatty, Nagaon - PCBA",15-05-2024 04:00:00,26.349082,92.68449,PM2.5,65,110,80
India,Assam,Nalbari,"Bata Chowk, Nalbari - PCBA",15-05-2024 04:00:00,26.446912,91.439057,SO2,9,11,10
India,Assam,Silchar,"Tarapur, Silchar - PCBA",15-05-2024 04:00:00,24.82827,92.79525,SO2,5,5,5
India,Assam,Sivasagar,"Girls College, Sivasagar - PCBA",15-05-2024 04:00:00,26.987634,94.636574,PM2.5,12,57,33
India,Assam,Sivasagar,"Girls College, Sivasagar - PCBA",15-05-2024 04:00:00,26.987634,94.636574,CO,18,30,29
India,Bihar,Aurangabad,"Gurdeo Nagar, Aurangabad - BSPCB",15-05-2024 04:00:00,24.75746,84.366208,NO2,4,8,5
India,Bihar,Aurangabad,"Gurdeo Nagar, Aurangabad - BSPCB",15-05-2024 04:00:00,24.75746,84.366208,NH3,9,20,16
India,Bihar,Bettiah,"Kamalnath Nagar, Bettiah - BSPCB",15-05-2024 04:00:00,26.80365,84.51954,NO2,22,330,83
India,Bihar,Bettiah,"Kamalnath Nagar, Bettiah - BSPCB",15-05-2024 04:00:00,26.80365,84.51954,CO,50,187,99
India,Bihar,Bhagalpur,"DM Office_Kachari Chowk, Bhagalpur - BSPCB",15-05-2024 04:00:00,25.251013,86.989001,OZONE,45,60,47
India,Bihar,Bhagalpur,"Mayaganj, Bhagalpur - BSPCB",15-05-2024 04:00:00,25.265194,87.012947,PM10,61,114,91
India,Bihar,Bhagalpur,"Mayaganj, Bhagalpur - BSPCB",15-05-2024 04:00:00,25.265194,87.012947,SO2,8,12,12
India,Bihar,Bihar Sharif,"D M Colony, Bihar Sharif - BSPCB",15-05-2024 04:00:00,25.204762,85.514960,NO2,6,10,9
India,Bihar,Buxar,"Charitra Van, Buxar - BSPCB (Formerly known as Central Jail)",15-05-2024 04:00:00,25.567520,83.966379,CO,48,133,95
India,Bihar,Chhapra,"Darshan Nagar, Chhapra - BSPCB",15-05-2024 04:00:00,25.7808257,84.7446768,PM2.5,57,332,190
India,Bihar,Chhapra,"Darshan Nagar, Chhapra - BSPCB",15-05-2024 04:00:00,25.7808257,84.7446768,NH3,7,18,12
India,Bihar,Gaya,"Collectorate, Gaya - BSPCB",15-05-2024 04:00:00,24.7955,84.9994,NO2,1,4,2
India,Bihar,Gaya,"Collectorate, Gaya - BSPCB",15-05-2024 04:00:00,24.7955,84.9994,CO,NA,NA,NA
India,Bihar,Gaya,"Kareemganj, Gaya - BSPCB",15-05-2024 04:00:00,24.792403,84.992416,PM2.5,NA,NA,NA
India,Bihar,Gaya,"Kareemganj, Gaya - BSPCB",15-05-2024 04:00:00,24.792403,84.992416,OZONE,NA,NA,NA
India,Bihar,Gaya,"SFTI Kusdihra, Gaya - BSPCB",15-05-2024 04:00:00,24.762518,84.982348,PM10,37,72,57
India,Bihar,Gaya,"SFTI Kusdihra, Gaya - BSPCB",15-05-2024 04:00:00,24.762518,84.982348,SO2,6,9,7
India,Bihar,Hajipur,"Industrial Area, Hajipur - BSPCB",15-05-2024 04:00:00,25.697189,85.245900,PM10,126,181,145
India,Bihar,Katihar,"Mirchaibari, Katihar - BSPCB",15-05-2024 04:00:00,25.560083,87.553265,CO,4,67,4
India,Bihar,Katihar,"Mirchaibari, Katihar - BSPCB",15-05-2024 04:00:00,25.560083,87.553265,OZONE,3,33,5
India,Bihar,Kishanganj,"SDM Office_Khagra, Kishanganj - BSPCB",15-05-2024 04:00:00,26.0881305,87.93840336,SO2,30,33,32
India,Bihar,Manguraha,"Forest Rest House, Manguraha - BSPCB",15-05-2024 04:00:00,27.308328,84.531742,PM2.5,42,107,60
India,Bihar,Manguraha,"Forest Rest House, Manguraha - BSPCB",15-05-2024 04:00:00,27.308328,84.531742,NH3,2,5,3
India,Bihar,Munger,"Town Hall, Munger - BSPCB",15-05-2024 04:00:00,25.376776,86.471523,SO2,18,30,24
India,Bihar,Patna,"DRM Office Danapur, Patna - BSPCB",15-05-2024 04:00:00,25.586562,85.043586,NO2,10,26,19
India,Bihar,Patna,"IGSC Planetarium Complex, Patna - BSPCB",15-05-2024 04:00:00,25.610369,85.132568,PM2.5,132,309,215
India,Bihar,Patna,"IGSC Planetarium Complex, Patna - BSPCB",15-05-2024 04:00:00,25.610369,85.132568,SO2,4,7,5
India,Bihar,Patna,"Muradpur, Patna - BSPCB",15-05-2024 04:00:00,25.619651,85.147382,PM2.5,176,329,286
India,Bihar,Patna,"Rajbansi Nagar, Patna - BSPCB",15-05-2024 04:00:00,25.599486,85.113666,PM2.5,97,302,173
India,Bihar,Patna,"Samanpura, Patna - BSPCB",15-05-2024 04:00:00,25.596727,85.085624,NH3,8,12,10
India,Bihar,Patna,"Samanpura, Patna - BSPCB",15-05-2024 04:00:00,25.596727,85.085624,CO,17,103,82
India,Bihar,Purnia,"Mariam Nagar, Purnia - BSPCB",15-05-2024 04:00:00,25.366336,87.117468,OZONE,6,39,12
India,Bihar,Rajgir,"Dangi Tola, Rajgir - BSPCB",15-05-2024 04:00:00,25.03280,85.41948,SO2,4,5,4
India,Bihar,Rajgir,"Dangi Tola, Rajgir - BSPCB",15-05-2024 04:00:00,25.03280,85.41948,OZONE,33,35,34
India,Bihar,Saharsa,"Police Line, Saharsa - BSPCB",15-05-2024 04:00:00,25.892357,86.590325,PM10,44,176,95
India,Bihar,Saharsa,"Police Line, Saharsa - BSPCB",15-05-2024 04:00:00,25.892357,86.590325,NH3,9,9,9
India,Bihar,Samastipur,"DM Office_Kasipur, Samastipur - BSPCB",15-05-2024 04:00:00,25.859655,85.77944,NO2,NA,NA,NA
India,Bihar,Samastipur,"DM Office_Kasipur, Samastipur - BSPCB",15-05-2024 04:00:00,25.859655,85.77944,OZONE,NA,NA,NA
India,Bihar,Sasaram,"Dada Peer, Sasaram - BSPCB",15-05-2024 04:00:00,24.952822,84.002396,PM2.5,7,36,21
India,Bihar,Sasaram,"Dada Peer, Sasaram - BSPCB",15-05-2024 04:00:00,24.952822,84.002396,PM10,18,98,56
India,Bihar,Siwan,"Chitragupta Nagar, Siwan - BSPCB",15-05-2024 04:00:00,26.2271665,84.3570427,NH3,1,4,2
India,Bihar,Siwan,"Chitragupta Nagar, Siwan - BSPCB",15-05-2024 04:00:00,26.2271665,84.3570427,SO2,20,35,32
India,Chandigarh,Chandigarh,"Sector 22, Chandigarh - CPCC",15-05-2024 04:00:00,30.735567,76.775714,CO,36,102,79
India,Chandigarh,Chandigarh,"Sector-25, Chandigarh - CPCC",15-05-2024 04:00:00,30.751462,76.762879,PM10,97,154,127
India,Chandigarh,Chandigarh,"Sector-53, Chandigarh - CPCC",15-05-2024 04:00:00,30.719859,76.738637,PM2.5,38,326,186
India,Chandigarh,Chandigarh,"Sector-53, Chandigarh - CPCC",15-05-2024 04:00:00,30.719859,76.738637,PM10,57,255,140
India,Chandigarh,Chandigarh,"Sector-53, Chandigarh - CPCC",15-05-2024 04:00:00,30.719859,76.738637,OZONE,7,87,12
India,Chhattisgarh,Bhilai,"32Bungalows, Bhilai - CECB",15-05-2024 04:00:00,21.194815,81.314770,CO,18,30,23
India,Chhattisgarh,Bhilai,"Civic Center, Bhilai - Bhilai Steel Plant",15-05-2024 04:00:00,21.185571,81.343175,PM10,28,67,50
India,Chhattisgarh,Bhilai,"Civic Center, Bhilai - Bhilai Steel Plant",15-05-2024 04:00:00,21.185571,81.343175,NO2,11,17,14
India,Chhattisgarh,Bhilai,"Civic Center, Bhilai - Bhilai Steel Plant",15-05-2024 04:00:00,21.185571,81.343175,CO,28,60,45
India,Chhattisgarh,Bhilai,"Hathkhoj, Bhilai - CECB",15-05-2024 04:00:00,21.224231,81.408350,PM10,65,137,98
India,Chhattisgarh,Bilaspur,"Mangala, Bilaspur - NTPC",15-05-2024 04:00:00,22.08815,82.13737,PM10,31,67,48
India,Chhattisgarh,Bilaspur,"Mangala, Bilaspur - NTPC",15-05-2024 04:00:00,22.08815,82.13737,NO2,14,17,16
India,Chhattisgarh,Bilaspur,"Mangala, Bilaspur - NTPC",15-05-2024 04:00:00,22.08815,82.13737,CO,40,47,43
India,Chhattisgarh,Chhal,"Nawapara SECL Colony, Chhal - CECB",15-05-2024 04:00:00,22.118125,83.140608,CO,12,59,29
India,Chhattisgarh,Korba,"Rampur, Korba - CECB",15-05-2024 04:00:00,22.368195,82.746431,NO2,19,47,39
India,Chhattisgarh,Korba,"Rampur, Korba - CECB",15-05-2024 04:00:00,22.368195,82.746431,NH3,1,1,1
India,Chhattisgarh,Kunjemura,"OP Jindal School, Kunjemura - CECB",15-05-2024 04:00:00,22.126650,83.483212,PM10,44,270,91
India,Chhattisgarh,Milupara,"Govt. Higher Secondary School, Milupara - CECB",15-05-2024 04:00:00,22.1910172,83.5197009,PM2.5,20,66,42
India,Chhattisgarh,Raipur,"Bhatagaon New ISBT, Raipur - CECB",15-05-2024 04:00:00,21.219665,81.630094,PM2.5,30,81,51
India,Chhattisgarh,Raipur,"Bhatagaon New ISBT, Raipur - CECB",15-05-2024 04:00:00,21.219665,81.630094,NH3,2,2,2
India,Chhattisgarh,Raipur,"Bhatagaon New ISBT, Raipur - CECB",15-05-2024 04:00:00,21.219665,81.630094,CO,21,42,34
India,Chhattisgarh,Raipur,"Krishak Nagar, Raipur - CECB",15-05-2024 04:00:00,21.237755,81.705301,PM2.5,26,56,39
India,Chhattisgarh,Raipur,"Siltara Phase-II, Raipur - CECB",15-05-2024 04:00:00,21.371751,81.664929,PM2.5,NA,NA,NA
India,Chhattisgarh,Raipur,"Siltara Phase-II, Raipur - CECB",15-05-2024 04:00:00,21.371751,81.664929,NO2,NA,NA,NA
India,Chhattisgarh,Tumidih,"OP Jindal Industrial Park, Tumidih - CECB",15-05-2024 04:00:00,22.06631475,83.33820077,SO2,NA,NA,NA
India,Delhi,Delhi,"Alipur, Delhi - DPCC",15-05-2024 04:00:00,28.815329,77.153010,PM2.5,47,432,244
India,Delhi,Delhi,"Alipur, Delhi - DPCC",15-05-2024 04:00:00,28.815329,77.153010,NO2,3,125,53
India,Delhi,Delhi,"Alipur, Delhi - DPCC",15-05-2024 04:00:00,28.815329,77.153010,SO2,8,66,33
India,Delhi,Delhi,"Alipur, Delhi - DPCC",15-05-2024 04:00:00,28.815329,77.153010,CO,32,105,82
India,Delhi,Delhi,"Anand Vihar, Delhi - DPCC",15-05-2024 04:00:00,28.647622,77.3158090,PM2.5,5,388,269
India,Delhi,Delhi,"Anand Vihar, Delhi - DPCC",15-05-2024 04:00:00,28.647622,77.3158090,PM10,104,500,318
India,Delhi,Delhi,"Anand Vihar, Delhi - DPCC",15-05-2024 04:00:00,28.647622,77.3158090,OZONE,6,180,14
India,Delhi,Delhi,"Ashok Vihar, Delhi - DPCC",15-05-2024 04:00:00,28.695381,77.181665,PM10,125,426,222
India,Delhi,Delhi,"Ashok Vihar, Delhi - DPCC",15-05-2024 04:00:00,28.695381,77.181665,SO2,25,96,44
India,Delhi,Delhi,"Ashok Vihar, Delhi - DPCC",15-05-2024 04:00:00,28.695381,77.181665,CO,5,110,90
India,Delhi,Delhi,"Aya Nagar, Delhi - IMD",15-05-2024 04:00:00,28.4706914,77.1099364,PM2.5,9,447,208
India,Delhi,Delhi,"Aya Nagar, Delhi - IMD",15-05-2024 04:00:00,28.4706914,77.1099364,OZONE,3,93,20
India,Delhi,Delhi,"Burari Crossing, Delhi - IMD",15-05-2024 04:00:00,28.7256504,77.2011573,OZONE,7,159,18
India,Delhi,Delhi,"CRRI Mathura Road, Delhi - IMD",15-05-2024 04:00:00,28.5512005,77.2735737,OZONE,4,124,5
India,Delhi,Delhi,"Chandni Chowk, Delhi - IITM",15-05-2024 04:00:00,28.656756,77.227234,SO2,NA,NA,NA
India,Delhi,Delhi,"Dr. Karni Singh Shooting Range, Delhi - DPCC",15-05-2024 04:00:00,28.498571,77.264840,PM10,120,259,173
India,Delhi,Delhi,"Dwarka-Sector 8, Delhi - DPCC ",15-05-2024 04:00:00,28.5710274,77.0719006,NO2,33,138,81
India,Delhi,Delhi,"IHBAS, Dilshad Garden, Delhi - CPCB",15-05-2024 04:00:00,28.6811736,77.3025234,OZONE,17,24,20
India,Delhi,Delhi,"ITO, Delhi - CPCB",15-05-2024 04:00:00,28.628624,77.241060,PM2.5,107,372,241
India,Delhi,Delhi,"ITO, Delhi - CPCB",15-05-2024 04:00:00,28.628624,77.241060,NH3,1,14,4
India,Delhi,Delhi,"ITO, Delhi - CPCB",15-05-2024 04:00:00,28.628624,77.241060,OZONE,11,143,24
India,Delhi,Delhi,"Jahangirpuri, Delhi - DPCC",15-05-2024 04:00:00,28.732820,77.170633,PM10,147,459,321
India,Delhi,Delhi,"Lodhi Road, Delhi - IMD",15-05-2024 04:00:00,28.5918245,77.2273074,NO2,9,42,24
India,Delhi,Delhi,"Major Dhyan Chand National Stadium, Delhi - DPCC",15-05-2024 04:00:00,28.611281,77.237738,CO,30,115,108
India,Delhi,Delhi,"Mandir Marg, Delhi - DPCC",15-05-2024 04:00:00,28.636429,77.201067,NO2,NA,NA,NA
India,Delhi,Delhi,"Mundka, Delhi - DPCC",15-05-2024 04:00:00,28.684678,77.076574,PM10,135,500,315
India,Delhi,Delhi,"Mundka, Delhi - DPCC",15-05-2024 04:00:00,28.684678,77.076574,SO2,7,115,50
India,Delhi,Delhi,"NSIT Dwarka, Delhi - CPCB",15-05-2024 04:00:00,28.60909,77.0325413,PM10,164,352,241
India,Delhi,Delhi,"NSIT Dwarka, Delhi - CPCB",15-05-2024 04:00:00,28.60909,77.0325413,SO2,2,60,23
India,Delhi,Delhi,"Najafgarh, Delhi - DPCC",15-05-2024 04:00:00,28.570173,76.933762,NO2,16,125,56
India,Delhi,Delhi,"Najafgarh, Delhi - DPCC",15-05-2024 04:00:00,28.570173,76.933762,NH3,7,13,9
India,Delhi,Delhi,"Najafgarh, Delhi - DPCC",15-05-2024 04:00:00,28.570173,76.933762,CO,32,71,56
India,Delhi,Delhi,"Narela, Delhi - DPCC",15-05-2024 04:00:00,28.822836,77.101981,PM2.5,66,459,277
India,Delhi,Delhi,"Nehru Nagar, Delhi - DPCC",15-05-2024 04:00:00,28.567890,77.250515,PM10,115,289,169
India,Delhi,Delhi,"Nehru Nagar, Delhi - DPCC",15-05-2024 04:00:00,28.567890,77.250515,NO2,4,78,35
India,Delhi,Delhi,"Nehru Nagar, Delhi - DPCC",15-05-2024 04:00:00,28.567890,77.250515,NH3,2,14,6
India,Delhi,Delhi,"Nehru Nagar, Delhi - DPCC",15-05-2024 04:00:00,28.567890,77.250515,CO,38,71,59
India,Delhi,Delhi,"North Campus, DU, Delhi - IMD",15-05-2024 04:00:00,28.6573814,77.1585447,CO,66,127,119
India,Delhi,Delhi,"Okhla Phase-2, Delhi - DPCC",15-05-2024 04:00:00,28.530785,77.271255,PM2.5,87,327,212
India,Delhi,Delhi,"Okhla Phase-2, Delhi - DPCC",15-05-2024 04:00:00,28.530785,77.271255,CO,61,122,110
India,Delhi,Delhi,"Patparganj, Delhi - DPCC",15-05-2024 04:00:00,28.623763,77.287209,PM10,148,417,258
India,Delhi,Delhi,"Punjabi Bagh, Delhi - DPCC",15-05-2024 04:00:00,28.674045,77.131023,PM10,99,421,224
India,Delhi,Delhi,"Pusa, Delhi - DPCC",15-05-2024 04:00:00,28.639652,77.146275,OZONE,9,177,11
India,Delhi,Delhi,"Pusa, Delhi - IMD",15-05-2024 04:00:00,28.636110,77.173332,PM2.5,NA,NA,NA
India,Delhi,Delhi,"Pusa, Delhi - IMD",15-05-2024 04:00:00,28.636110,77.173332,OZONE,4,80,5
India,Delhi,Delhi,"R K Puram, Delhi - DPCC",15-05-2024 04:00:00,28.563262,77.186937,NH3,2,5,4
India,Delhi,Delhi,"R K Puram, Delhi - DPCC",15-05-2024 04:00:00,28.563262,77.186937,SO2,12,59,30
India,Delhi,Delhi,"Rohini, Delhi - DPCC",15-05-2024 04:00:00,28.732528,77.119920,PM10,127,443,287
India,Delhi,Delhi,"Rohini, Delhi - DPCC",15-05-2024 04:00:00,28.732528,77.119920,NO2,19,183,89
India,Delhi,Delhi,"Rohini, Delhi - DPCC",15-05-2024 04:00:00,28.732528,77.119920,NH3,9,17,12
India,Delhi,Delhi,"Rohini, Delhi - DPCC",15-05-2024 04:00:00,28.732528,77.119920,OZONE,5,273,23
India,Delhi,Delhi,"Shadipur, Delhi - CPCB",15-05-2024 04:00:00,28.6514781,77.1473105,SO2,3,108,28
India,Delhi,Delhi,"Shadipur, Delhi - CPCB",15-05-2024 04:00:00,28.6514781,77.1473105,OZONE,16,130,22
India,Delhi,Delhi,"Sirifort, Delhi - CPCB",15-05-2024 04:00:00,28.5504249,77.2159377,PM2.5,79,373,213
India,Delhi,Delhi,"Sirifort, Delhi - CPCB",15-05-2024 04:00:00,28.5504249,77.2159377,NO2,NA,NA,NA
India,Delhi,Delhi,"Sirifort, Delhi - CPCB",15-05-2024 04:00:00,28.5504249,77.2159377,NH3,6,10,8
India,Delhi,Delhi,"Sonia Vihar, Delhi - DPCC",15-05-2024 04:00:00,28.710508,77.249485,PM2.5,68,406,240
India,Delhi,Delhi,"Sonia Vihar, Delhi - DPCC",15-05-2024 04:00:00,28.710508,77.249485,PM10,105,452,257
India,Delhi,Delhi,"Sonia Vihar, Delhi - DPCC",15-05-2024 04:00:00,28.710508,77.249485,SO2,8,64,23
India,Delhi,Delhi,"Sri Aurobindo Marg, Delhi - DPCC",15-05-2024 04:00:00,28.531346,77.190156,PM10,115,425,164
India,Delhi,Delhi,"Sri Aurobindo Marg, Delhi - DPCC",15-05-2024 04:00:00,28.531346,77.190156,NH3,6,12,8
India,Delhi,Delhi,"Wazirpur, Delhi - DPCC",15-05-2024 04:00:00,28.699793,77.165453,NO2,40,95,66
India,Gujarat,Ahmedabad,"Chandkheda, Ahmedabad - IITM",15-05-2024 04:00:00,23.107969,72.574648,PM10,38,184,90
India,Gujarat,Ahmedabad,"Chandkheda, Ahmedabad - IITM",15-05-2024 04:00:00,23.107969,72.574648,NO2,65,118,85
India,Gujarat,Ahmedabad,"Raikhad, Ahmedabad - IITM",15-05-2024 04:00:00,23.020509,72.579261,NH3,3,18,10
India,Gujarat,Ahmedabad,"Raikhad, Ahmedabad - IITM",15-05-2024 04:00:00,23.020509,72.579261,OZONE,3,213,21
India,Gujarat,Ahmedabad,"Rakhial, Ahmedabad - IITM",15-05-2024 04:00:00,23.016834,72.625775,NO2,19,293,76
India,Gujarat,Gandhinagar,"Sector-10, Gandhinagar - GPCB",15-05-2024 04:00:00,23.221714,72.654328,CO,23,97,63
India,Gujarat,Vapi,"Phase-1 GIDC, Vapi - GPCB",15-05-2024 04:00:00,20.362421,72.918013,PM10,NA,NA,NA
India,Gujarat,Vapi,"Phase-1 GIDC, Vapi - GPCB",15-05-2024 04:00:00,20.362421,72.918013,NO2,NA,NA,NA
India,Haryana,Bahadurgarh,"Arya Nagar, Bahadurgarh - HSPCB",15-05-2024 04:00:00,28.6701,76.9254,OZONE,33,42,37
India,Haryana,Ballabgarh,"Nathu Colony, Ballabgarh - HSPCB",15-05-2024 04:00:00,28.3419248,77.319699,PM2.5,110,336,233
India,Haryana,Ballabgarh,"Nathu Colony, Ballabgarh - HSPCB",15-05-2024 04:00:00,28.3419248,77.319699,NO2,18,19,19
India,Haryana,Ballabgarh,"Nathu Colony, Ballabgarh - HSPCB",15-05-2024 04:00:00,28.3419248,77.319699,SO2,6,133,46
India,Haryana,Bhiwani,"H.B. Colony, Bhiwani - HSPCB",15-05-2024 04:00:00,28.806223,76.141105,OZONE,8,36,11
India,Haryana,Charkhi Dadri,"Mini Secretariat, Charkhi Dadri - HSPCB",15-05-2024 04:00:00,28.593883,76.270653,NH3,6,8,7
India,Haryana,Charkhi Dadri,"Mini Secretariat, Charkhi Dadri - HSPCB",15-05-2024 04:00:00,28.593883,76.270653,OZONE,14,17,15
India,Haryana,Dharuhera,"Municipal Corporation Office, Dharuhera -  HSPCB",15-05-2024 04:00:00,28.206800,76.799700,PM2.5,79,345,218
India,Haryana,Dharuhera,"Municipal Corporation Office, Dharuhera -  HSPCB",15-05-2024 04:00:00,28.206800,76.799700,PM10,127,209,152
India,Haryana,Dharuhera,"Municipal Corporation Office, Dharuhera -  HSPCB",15-05-2024 04:00:00,28.206800,76.799700,SO2,3,101,14
India,Haryana,Faridabad,"New Industrial Town, Faridabad - HSPCB",15-05-2024 04:00:00,28.39072,77.30059,PM10,3,448,92
India,Haryana,Faridabad,"Sector 11, Faridabad - HSPCB",15-05-2024 04:00:00,28.376058,77.315741,PM10,158,480,293
India,Haryana,Faridabad,"Sector 11, Faridabad - HSPCB",15-05-2024 04:00:00,28.376058,77.315741,NO2,30,33,31
India,Haryana,Fatehabad,"Huda Sector, Fatehabad - HSPCB",15-05-2024 04:00:00,29.503664,75.467934,PM2.5,NA,NA,NA
India,Haryana,Fatehabad,"Huda Sector, Fatehabad - HSPCB",15-05-2024 04:00:00,29.503664,75.467934,OZONE,NA,NA,NA
India,Haryana,Gurugram,"Sector-51, Gurugram - HSPCB",15-05-2024 04:00:00,28.4227,77.0667,NH3,7,14,9
India,Haryana,Gurugram,"Sector-51, Gurugram - HSPCB",15-05-2024 04:00:00,28.4227,77.0667,CO,32,98,72
India,Haryana,Gurugram,"Teri Gram, Gurugram - HSPCB",15-05-2024 04:00:00,28.4275,77.1465,PM10,170,393,226
India,Haryana,Gurugram,"Vikas Sadan, Gurugram - HSPCB",15-05-2024 04:00:00,28.4501238,77.0263051,PM2.5,84,319,209
India,Haryana,Hisar,"Urban Estate-II, Hisar - HSPCB",15-05-2024 04:00:00,29.140560,75.744941,NO2,20,28,24
India,Haryana,Jind,"Police Lines, Jind - HSPCB",15-05-2024 04:00:00,29.307814,76.337619,CO,2,103,48
India,Haryana,Karnal,"Sector-12, Karnal - HSPCB",15-05-2024 04:00:00,29.695300,77.002700,NO2,7,12,10
India,Haryana,Kurukshetra,"Sector-7, Kurukshetra - HSPCB",15-05-2024 04:00:00,29.966942,76.875879,PM2.5,79,298,188
India,Haryana,Kurukshetra,"Sector-7, Kurukshetra - HSPCB",15-05-2024 04:00:00,29.966942,76.875879,CO,2,80,49
India,Haryana,Kurukshetra,"Sector-7, Kurukshetra - HSPCB",15-05-2024 04:00:00,29.966942,76.875879,OZONE,14,122,48
India,Haryana,Mandikhera,"General Hospital, Mandikhera - HSPCB",15-05-2024 04:00:00,27.9002,76.9938,SO2,31,38,34
India,Haryana,Mandikhera,"General Hospital, Mandikhera - HSPCB",15-05-2024 04:00:00,27.9002,76.9938,OZONE,23,32,28
India,Haryana,Manesar,"Sector-2 IMT, Manesar - HSPCB",15-05-2024 04:00:00,28.360699,76.936090,NO2,NA,NA,NA
India,Haryana,Manesar,"Sector-2 IMT, Manesar - HSPCB",15-05-2024 04:00:00,28.360699,76.936090,CO,8,36,26
India,Haryana,Narnaul,"Shastri Nagar, Narnaul - HSPCB",15-05-2024 04:00:00,28.060249,76.113115,PM2.5,83,231,140
India,Haryana,Narnaul,"Shastri Nagar, Narnaul - HSPCB",15-05-2024 04:00:00,28.060249,76.113115,PM10,98,164,127
India,Haryana,Narnaul,"Shastri Nagar, Narnaul - HSPCB",15-05-2024 04:00:00,28.060249,76.113115,OZONE,61,95,76
India,Haryana,Palwal,"Shyam Nagar, Palwal - HSPCB",15-05-2024 04:00:00,28.1485564,77.3320667,CO,19,41,37
India,Haryana,Panchkula,"Sector-6, Panchkula - HSPCB ",15-05-2024 04:00:00,30.7057778,76.8531805555555,CO,8,21,15
India,Haryana,Panipat,"Sector-18, Panipat - HSPCB",15-05-2024 04:00:00,29.497973,76.993331,PM10,78,96,87
India,Haryana,Panipat,"Sector-18, Panipat - HSPCB",15-05-2024 04:00:00,29.497973,76.993331,SO2,18,19,19
India,Haryana,Rohtak,"MD University, Rohtak - HSPCB",15-05-2024 04:00:00,28.52123,76.37138,OZONE,45,54,48
India,Haryana,Sirsa,"F-Block, Sirsa - HSPCB",15-05-2024 04:00:00,29.536400,75.015800,NH3,12,13,13
India,Haryana,Sonipat,"Murthal, Sonipat - HSPCB",15-05-2024 04:00:00,29.027200,77.062100,PM2.5,83,167,123
India,Haryana,Sonipat,"Murthal, Sonipat - HSPCB",15-05-2024 04:00:00,29.027200,77.062100,PM10,104,148,128
India,Haryana,Yamuna Nagar,"Gobind Pura, Yamuna Nagar - HSPCB",15-05-2024 04:00:00,30.1480566,77.2893471,SO2,3,17,9
India,Haryana,Yamuna Nagar,"Gobind Pura, Yamuna Nagar - HSPCB",15-05-2024 04:00:00,30.1480566,77.2893471,OZONE,44,69,52
India,Himachal Pradesh,Baddi,"HIMUDA Complex Phase-1, Baddi - HPPCB",15-05-2024 04:00:00,30.943887,76.801991,PM2.5,13,227,99
India,Himachal Pradesh,Baddi,"HIMUDA Complex Phase-1, Baddi - HPPCB",15-05-2024 04:00:00,30.943887,76.801991,SO2,10,125,38
India,Jharkhand,Dhanbad,"Sardar Patel Nagar, Dhanbad - JSPCB",15-05-2024 04:00:00,23.80569,86.44268,NO2,NA,NA,NA
India,Jharkhand,Dhanbad,"Sardar Patel Nagar, Dhanbad - JSPCB",15-05-2024 04:00:00,23.80569,86.44268,CO,128,159,157
India,Karnataka,Belgaum,"Ramteerth Nagar, Belgaum - KSPCB",15-05-2024 04:00:00,15.888653,74.541751,NO2,36,68,56
India,Karnataka,Bengaluru,"Hebbal, Bengaluru - KSPCB",15-05-2024 04:00:00,13.029152,77.585901,NO2,4,5,5
India,Karnataka,Bengaluru,"Hebbal, Bengaluru - KSPCB",15-05-2024 04:00:00,13.029152,77.585901,OZONE,7,92,9
India,Karnataka,Bengaluru,"Hombegowda Nagar, Bengaluru - KSPCB",15-05-2024 04:00:00,12.938539,77.590100,PM2.5,8,56,33
India,Karnataka,Bengaluru,"Hombegowda Nagar, Bengaluru - KSPCB",15-05-2024 04:00:00,12.938539,77.590100,NO2,11,40,23
India,Karnataka,Bengaluru,"Hombegowda Nagar, Bengaluru - KSPCB",15-05-2024 04:00:00,12.938539,77.590100,SO2,2,5,4
India,Karnataka,Bengaluru,"Jayanagar 5th Block, Bengaluru - KSPCB",15-05-2024 04:00:00,12.920984,77.584908,SO2,13,26,20
India,Karnataka,Bengaluru,"Kasturi Nagar, Bengaluru - KSPCB",15-05-2024 04:00:00,13.003872,77.664217,CO,24,25,25
India,Karnataka,Bengaluru,"Peenya, Bengaluru - CPCB",15-05-2024 04:00:00,13.0270199,77.494094,PM2.5,26,49,34
India,Karnataka,Bengaluru,"RVCE-Mailasandra, Bengaluru - KSPCB",15-05-2024 04:00:00,12.921418,77.502466,CO,30,54,39
India,Karnataka,Bengaluru,"Shivapura_Peenya, Bengaluru - KSPCB",15-05-2024 04:00:00,13.0246342,77.5080115,OZONE,54,56,55
India,Karnataka,Bengaluru,"Silk Board, Bengaluru - KSPCB",15-05-2024 04:00:00,12.917348,77.622813,SO2,NA,NA,NA
India,Karnataka,Bidar,"Naubad, Bidar - KSPCB",15-05-2024 04:00:00,17.930306,77.482194,PM2.5,29,93,55
India,Karnataka,Bidar,"Naubad, Bidar - KSPCB",15-05-2024 04:00:00,17.930306,77.482194,NH3,3,3,3
India,Karnataka,Chamarajanagar,"Urban, Chamarajanagar - KSPCB",15-05-2024 04:00:00,11.55358,76.55521,PM10,35,58,44
India,Karnataka,Chamarajanagar,"Urban, Chamarajanagar - KSPCB",15-05-2024 04:00:00,11.55358,76.55521,CO,22,120,33
India,Karnataka,Chikkaballapur,"Chikkaballapur Rural, Chikkaballapur - KSPCB",15-05-2024 04:00:00,13.428828,77.731418,PM2.5,25,56,38
India,Karnataka,Chikkaballapur,"Chikkaballapur Rural, Chikkaballapur - KSPCB",15-05-2024 04:00:00,13.428828,77.731418,CO,14,20,17
India,Karnataka,Chikkamagaluru,"Kalyana Nagara, Chikkamagaluru - KSPCB",15-05-2024 04:00:00,13.328028,75.797056,PM10,NA,NA,NA
India,Karnataka,Chikkamagaluru,"Kalyana Nagara, Chikkamagaluru - KSPCB",15-05-2024 04:00:00,13.328028,75.797056,NO2,NA,NA,NA
India,Karnataka,Chikkamagaluru,"Kalyana Nagara, Chikkamagaluru - KSPCB",15-05-2024 04:00:00,13.328028,75.797056,OZONE,17,23,20
India,Karnataka,Davanagere,"Devaraj Urs Badavane, Davanagere - KSPCB",15-05-2024 04:00:00,14.475800,75.905200,NH3,1,2,2
India,Karnataka,Davanagere,"Devaraj Urs Badavane, Davanagere - KSPCB",15-05-2024 04:00:00,14.475800,75.905200,CO,20,24,20
India,Karnataka,Gadag,"Panchal Nagar, Gadag - KSPCB",15-05-2024 04:00:00,15.411456,75.638133,PM10,27,44,35
India,Karnataka,Gadag,"Panchal Nagar, Gadag - KSPCB",15-05-2024 04:00:00,15.411456,75.638133,NH3,1,3,2
India,Karnataka,Hassan,"B.Katihalli, Hassan - KSPCB",15-05-2024 04:00:00,13.008556,76.125258,PM2.5,8,58,35
India,Karnataka,Hassan,"B.Katihalli, Hassan - KSPCB",15-05-2024 04:00:00,13.008556,76.125258,CO,1,1,1
India,Karnataka,Haveri,"Ashwini Nagar, Haveri - KSPCB",15-05-2024 04:00:00,14.791800,75.389600,PM2.5,25,56,41
India,Karnataka,Kalaburagi,"Mahatma Basaveswar Colony, Kalaburgi - KSPCB",15-05-2024 04:00:00,17.336318,76.847397,NO2,NA,NA,NA
India,Karnataka,Kalaburagi,"Mahatma Basaveswar Colony, Kalaburgi - KSPCB",15-05-2024 04:00:00,17.336318,76.847397,NH3,NA,NA,NA
India,Karnataka,Kalaburagi,"Mahatma Basaveswar Colony, Kalaburgi - KSPCB",15-05-2024 04:00:00,17.336318,76.847397,CO,20,36,23
India,Karnataka,Kolar,"Tamaka Ind. Area, Kolar - KSPCB",15-05-2024 04:00:00,13.1276288,78.1570122,NO2,18,33,21
India,Karnataka,Koppal,"Diwator Nagar, Koppal - KSPCB",15-05-2024 04:00:00,15.347630,76.181767,OZONE,17,77,55
India,Karnataka,Madikeri,"Stuart Hill, Madikeri - KSPCB",15-05-2024 04:00:00,12.415911,75.735050,PM2.5,2,36,14
India,Karnataka,Madikeri,"Stuart Hill, Madikeri - KSPCB",15-05-2024 04:00:00,12.415911,75.735050,PM10,4,30,14
India,Karnataka,Madikeri,"Stuart Hill, Madikeri - KSPCB",15-05-2024 04:00:00,12.415911,75.735050,NO2,2,9,4
India,Karnataka,Mangalore,"Kadri, Mangalore - KSPCB",15-05-2024 04:00:00,12.889250,74.853000,NH3,1,2,2
India,Karnataka,Mysuru,"Hebbal 1st Stage, Mysuru - KSPCB",15-05-2024 04:00:00,12.21041,76.37376,PM2.5,NA,NA,NA
India,Karnataka,Raichur,"Haji Colony, Raichur - KSPCB",15-05-2024 04:00:00,16.208139,77.348417,SO2,71,92,77
India,Karnataka,Shivamogga,"Vinoba Nagara, Shivamogga - KSPCB",15-05-2024 04:00:00,13.940000,75.555917,SO2,2,9,5
India,Karnataka,Udupi,"Brahmagiri, Udupi - KSPCB",15-05-2024 04:00:00,13.34194444,74.74694444,NH3,NA,NA,NA
India,Karnataka,Vijayapura,"Ibrahimpur, Vijayapura - KSPCB",15-05-2024 04:00:00,16.802639,75.722694,NH3,2,2,2
India,Karnataka,Vijayapura,"Ibrahimpur, Vijayapura - KSPCB",15-05-2024 04:00:00,16.802639,75.722694,CO,106,157,132
India,Karnataka,Yadgir,"Collector Office, Yadgir - KSPCB",15-05-2024 04:00:00,16.7602,77.1428,PM2.5,20,42,33
India,Karnataka,Yadgir,"Collector Office, Yadgir - KSPCB",15-05-2024 04:00:00,16.7602,77.1428,SO2,5,30,16
India,Karnataka,Yadgir,"Collector Office, Yadgir - KSPCB",15-05-2024 04:00:00,16.7602,77.1428,OZONE,18,19,18
India,Kerala,Kannur,"Thavakkara, Kannur - Kerala PCB",15-05-2024 04:00:00,11.875000,75.373200,PM10,66,81,71
India,Kerala,Kannur,"Thavakkara, Kannur - Kerala PCB",15-05-2024 04:00:00,11.875000,75.373200,SO2,1,4,1
India,Kerala,Thiruvananthapuram,"Kariavattom, Thiruvananthapuram - Kerala PCB",15-05-2024 04:00:00,8.563700,76.886500,PM2.5,79,93,84
India,Kerala,Thiruvananthapuram,"Plammoodu, Thiruvananthapuram - Kerala PCB",15-05-2024 04:00:00,8.5149093,76.9435879,PM10,6,31,15
India,Kerala,Thiruvananthapuram,"Plammoodu, Thiruvananthapuram - Kerala PCB",15-05-2024 04:00:00,8.5149093,76.9435879,NH3,1,1,1
India,Kerala,Thiruvananthapuram,"Plammoodu, Thiruvananthapuram - Kerala PCB",15-05-2024 04:00:00,8.5149093,76.9435879,OZONE,5,50,20
India,Kerala,Thrissur,"Corporation Ground, Thrissur - Kerala PCB",15-05-2024 04:00:00,10.532400,76.215900,CO,14,50,22
India,Madhya Pradesh,Bhopal,"Idgah Hills, Bhopal - MPPCB",15-05-2024 04:00:00,23.264759,77.381568,PM10,29,105,56
India,Madhya Pradesh,Bhopal,"Idgah Hills, Bhopal - MPPCB",15-05-2024 04:00:00,23.264759,77.381568,NH3,5,6,5
India,Madhya Pradesh,Bhopal,"Idgah Hills, Bhopal - MPPCB",15-05-2024 04:00:00,23.264759,77.381568,SO2,2,22,6
India,Madhya Pradesh,Bhopal,"T T Nagar, Bhopal - MPPCB",15-05-2024 04:00:00,23.233584,77.400574,PM10,27,116,63
India,Madhya Pradesh,Bhopal,"T T Nagar, Bhopal - MPPCB",15-05-2024 04:00:00,23.233584,77.400574,CO,18,41,31
India,Madhya Pradesh,Dewas,"Bhopal Chauraha, Dewas - MPPCB",15-05-2024 04:00:00,22.9682591,76.064118,NO2,11,15,13
India,Madhya Pradesh,Dewas,"Bhopal Chauraha, Dewas - MPPCB",15-05-2024 04:00:00,22.9682591,76.064118,OZONE,29,75,56
India,Madhya Pradesh,Gwalior,"City Center, Gwalior - MPPCB",15-05-2024 04:00:00,26.203442,78.193251,CO,17,66,44
India,Madhya Pradesh,Gwalior,"Deen Dayal Nagar, Gwalior - MPPCB",15-05-2024 04:00:00,26.259242,78.216432,NH3,6,10,7
India,Madhya Pradesh,Gwalior,"Deen Dayal Nagar, Gwalior - MPPCB",15-05-2024 04:00:00,26.259242,78.216432,CO,22,106,60
India,Madhya Pradesh,Gwalior,"Maharaj Bada, Gwalior - MPPCB",15-05-2024 04:00:00,26.200388,78.147714,PM2.5,2,42,26
India,Madhya Pradesh,Gwalior,"Maharaj Bada, Gwalior - MPPCB",15-05-2024 04:00:00,26.200388,78.147714,NO2,11,41,24
India,Madhya Pradesh,Gwalior,"Maharaj Bada, Gwalior - MPPCB",15-05-2024 04:00:00,26.200388,78.147714,NH3,2,7,4
India,Madhya Pradesh,Gwalior,"Maharaj Bada, Gwalior - MPPCB",15-05-2024 04:00:00,26.200388,78.147714,CO,28,59,36
India,Madhya Pradesh,Gwalior,"Phool Bagh, Gwalior - Mondelez Ind. Food",15-05-2024 04:00:00,26.210536,78.171,PM10,38,141,86
India,Madhya Pradesh,Indore,"Chhoti Gwaltoli, Indore - MPPCB",15-05-2024 04:00:00,22.4310,75.5213,PM2.5,2,40,25
India,Madhya Pradesh,Indore,"Chhoti Gwaltoli, Indore - MPPCB",15-05-2024 04:00:00,22.4310,75.5213,PM10,20,111,51
India,Madhya Pradesh,Indore,"Chhoti Gwaltoli, Indore - MPPCB",15-05-2024 04:00:00,22.4310,75.5213,NO2,39,97,55
India,Madhya Pradesh,Indore,"Chhoti Gwaltoli, Indore - MPPCB",15-05-2024 04:00:00,22.4310,75.5213,OZONE,54,117,78
India,Madhya Pradesh,Indore,"Maguda Nagar, Indore - IMC",15-05-2024 04:00:00,22.7524,75.8872,NH3,1,2,1
India,Madhya Pradesh,Indore,"Maguda Nagar, Indore - IMC",15-05-2024 04:00:00,22.7524,75.8872,SO2,31,36,34
India,Madhya Pradesh,Indore,"Regional Park, Indore - IMC",15-05-2024 04:00:00,22.6780,75.8559,SO2,48,51,50
India,Madhya Pradesh,Indore,"Residency Area, Indore - IMC",15-05-2024 04:00:00,22.7084,75.8815,OZONE,12,23,18
India,Madhya Pradesh,Jabalpur,"Govindh Bhavan Colony, Jabalpur - JMC",15-05-2024 04:00:00,23.163174,79.973061,PM2.5,25,62,37
India,Madhya Pradesh,Jabalpur,"Gupteshwar, Jabalpur - JMC",15-05-2024 04:00:00,23.142888,79.916147,PM2.5,22,84,44
India,Madhya Pradesh,Jabalpur,"Gupteshwar, Jabalpur - JMC",15-05-2024 04:00:00,23.142888,79.916147,PM10,20,105,50
India,Madhya Pradesh,Jabalpur,"Gupteshwar, Jabalpur - JMC",15-05-2024 04:00:00,23.142888,79.916147,OZONE,53,170,104
India,Madhya Pradesh,Jabalpur,"Marhatal, Jabalpur - MPPCB",15-05-2024 04:00:00,23.168606,79.932247,NH3,3,5,4
India,Madhya Pradesh,Jabalpur,"Marhatal, Jabalpur - MPPCB",15-05-2024 04:00:00,23.168606,79.932247,SO2,8,36,14
India,Madhya Pradesh,Jabalpur,"Suhagi, Jabalpur - JMC",15-05-2024 04:00:00,23.218135,79.957770,PM2.5,27,72,42
India,Madhya Pradesh,Jabalpur,"Suhagi, Jabalpur - JMC",15-05-2024 04:00:00,23.218135,79.957770,CO,15,73,48
India,Madhya Pradesh,Katni,"Gole Bazar, Katni - MPPCB",15-05-2024 04:00:00,23.50016,80.23284,PM10,37,415,82
India,Madhya Pradesh,Katni,"Gole Bazar, Katni - MPPCB",15-05-2024 04:00:00,23.50016,80.23284,NO2,28,81,44
India,Madhya Pradesh,Katni,"Gole Bazar, Katni - MPPCB",15-05-2024 04:00:00,23.50016,80.23284,NH3,2,6,4
India,Madhya Pradesh,Mandideep,"Sector-D Industrial Area, Mandideep - MPPCB",15-05-2024 04:00:00,23.108440,77.511428,PM2.5,34,188,73
India,Madhya Pradesh,Mandideep,"Sector-D Industrial Area, Mandideep - MPPCB",15-05-2024 04:00:00,23.108440,77.511428,CO,15,60,26
India,Madhya Pradesh,Pithampur,"Sector-2 Industrial Area, Pithampur - MPPCB",15-05-2024 04:00:00,22.624758,75.675238,PM2.5,18,88,43
India,Madhya Pradesh,Pithampur,"Sector-2 Industrial Area, Pithampur - MPPCB",15-05-2024 04:00:00,22.624758,75.675238,NH3,2,3,3
India,Madhya Pradesh,Pithampur,"Sector-2 Industrial Area, Pithampur - MPPCB",15-05-2024 04:00:00,22.624758,75.675238,CO,3,89,56
India,Madhya Pradesh,Sagar,"Civil Lines, Sagar - MPPCB",15-05-2024 04:00:00,23.838586,78.759431,NO2,9,16,12
India,Madhya Pradesh,Sagar,"Civil Lines, Sagar - MPPCB",15-05-2024 04:00:00,23.838586,78.759431,OZONE,53,152,97
India,Madhya Pradesh,Sagar,"Deen Dayal Nagar, Sagar - MPPCB",15-05-2024 04:00:00,23.8640158,78.80289321,PM10,16,194,70
India,Madhya Pradesh,Sagar,"Deen Dayal Nagar, Sagar - MPPCB",15-05-2024 04:00:00,23.8640158,78.80289321,CO,54,152,57
India,Madhya Pradesh,Satna,"Bandhavgar Colony, Satna - Birla Cement",15-05-2024 04:00:00,24.58434363,80.8549414,PM2.5,6,22,13
India,Madhya Pradesh,Ujjain,"Mahakaleshwar Temple, Ujjain - MPPCB",15-05-2024 04:00:00,23.182719 ,75.768218 ,CO,6,22,17
India,Madhya Pradesh,Ujjain,"Mahakaleshwar Temple, Ujjain - MPPCB",15-05-2024 04:00:00,23.182719 ,75.768218 ,OZONE,83,125,92
India,Maharashtra,Ahmednagar,"Tarakpur, Ahmednagar - MPCB",15-05-2024 04:00:00,19.10122,74.73339,NO2,30,78,48
India,Maharashtra,Akola,"Ramdaspeth, Akola - MPCB",15-05-2024 04:00:00,20.719516,77.000253,PM10,51,114,74
India,Maharashtra,Amravati,"Shivneri Colony, Amravati - MPCB",15-05-2024 04:00:00,20.9402359,77.7895248,PM10,54,118,83
India,Maharashtra,Amravati,"Shivneri Colony, Amravati - MPCB",15-05-2024 04:00:00,20.9402359,77.7895248,NO2,4,36,13
India,Maharashtra,Amravati,"Shivneri Colony, Amravati - MPCB",15-05-2024 04:00:00,20.9402359,77.7895248,NH3,1,5,2
India,Maharashtra,Amravati,"Shivneri Colony, Amravati - MPCB",15-05-2024 04:00:00,20.9402359,77.7895248,OZONE,13,115,62
India,Maharashtra,Amravati,"Shri Shivaji Science College, Amaravati - MPCB",15-05-2024 04:00:00,20.939198,77.765701,SO2,2,25,6
India,Maharashtra,Amravati,"Shri Shivaji Science College, Amaravati - MPCB",15-05-2024 04:00:00,20.939198,77.765701,OZONE,27,113,60
India,Maharashtra,Aurangabad,"MIDC Chilkalthana, Aurangabad - MPCB",15-05-2024 04:00:00,19.875620,75.387310,OZONE,1,39,6
India,Maharashtra,Aurangabad,"More Chowk Waluj, Aurangabad - MPCB",15-05-2024 04:00:00,19.8389439,75.244448,NH3,9,10,9
India,Maharashtra,Aurangabad,"Rachnakar Colony, Aurangabad - MPCB",15-05-2024 04:00:00,19.863756,75.321188,SO2,5,15,12
India,Maharashtra,Aurangabad,"Rachnakar Colony, Aurangabad - MPCB",15-05-2024 04:00:00,19.863756,75.321188,CO,12,38,26
India,Maharashtra,Badlapur,"Katrap, Badlapur - MPCB",15-05-2024 04:00:00,19.16485,73.23409,SO2,5,15,12
India,Maharashtra,Belapur,"CBD Belapur, Belapur - MPCB",15-05-2024 04:00:00,19.0243902,73.0406721,NO2,32,102,64
India,Maharashtra,Belapur,"CBD Belapur, Belapur - MPCB",15-05-2024 04:00:00,19.0243902,73.0406721,SO2,8,17,11
India,Maharashtra,Boisar,"Khaira, Boisar - MPCB",15-05-2024 04:00:00,19.786089,72.757971,OZONE,8,93,56
India,Maharashtra,Chandrapur,"Chauhan Colony, Chandrapur - MPCB",15-05-2024 04:00:00,19.962900,79.298714,PM2.5,49,123,66
India,Maharashtra,Chandrapur,"MIDC Khutala, Chandrapur - MPCB",15-05-2024 04:00:00,19.9775302,79.2337086,NH3,8,30,15
India,Maharashtra,Chandrapur,"MIDC Khutala, Chandrapur - MPCB",15-05-2024 04:00:00,19.9775302,79.2337086,OZONE,2,99,35
India,Maharashtra,Jalna,"Old MIDC, Jalna - MPCB",15-05-2024 04:00:00,19.854616,75.905894,PM10,NA,NA,NA
India,Maharashtra,Jalna,"Old MIDC, Jalna - MPCB",15-05-2024 04:00:00,19.854616,75.905894,NH3,NA,NA,NA
India,Maharashtra,Jalna,"Old MIDC, Jalna - MPCB",15-05-2024 04:00:00,19.854616,75.905894,SO2,NA,NA,NA
India,Maharashtra,Jalna,"Old MIDC, Jalna - MPCB",15-05-2024 04:00:00,19.854616,75.905894,OZONE,NA,NA,NA
India,Maharashtra,Kalyan,"Khadakpada, Kalyan - MPCB",15-05-2024 04:00:00,19.25292,73.142019,NO2,30,45,37
India,Maharashtra,Kalyan,"Khadakpada, Kalyan - MPCB",15-05-2024 04:00:00,19.25292,73.142019,SO2,26,39,33
India,Maharashtra,Kolhapur,"Shivaji University, Kolhapur - MPCB",15-05-2024 04:00:00,16.6870449,74.2505872,PM10,58,108,80
India,Maharashtra,Kolhapur,"Sinchan Bhavan, Kolhapur - MPCB",15-05-2024 04:00:00,16.7143745,74.2426398,PM2.5,NA,NA,NA
India,Maharashtra,Latur,"Sawe Wadi, Latur - MPCB",15-05-2024 04:00:00,18.39963,76.57452,NO2,13,77,32
India,Maharashtra,Mahad,"Kamble Tarf Birwadi, Mahad - MPCB",15-05-2024 04:00:00,18.1023399,73.4783687,PM10,35,105,83
India,Maharashtra,Mahad,"Kamble Tarf Birwadi, Mahad - MPCB",15-05-2024 04:00:00,18.1023399,73.4783687,NH3,5,11,9
India,Maharashtra,Mahad,"Kamble Tarf Birwadi, Mahad - MPCB",15-05-2024 04:00:00,18.1023399,73.4783687,SO2,2,64,31
India,Maharashtra,Mahad,"Kamble Tarf Birwadi, Mahad - MPCB",15-05-2024 04:00:00,18.1023399,73.4783687,OZONE,2,84,9
India,Maharashtra,Malegaon,"Mahesh Nagar, Malegaon - MPCB",15-05-2024 04:00:00,20.555712,74.529236,SO2,8,17,12
India,Maharashtra,Malegaon,"Mahesh Nagar, Malegaon - MPCB",15-05-2024 04:00:00,20.555712,74.529236,CO,11,59,30
India,Maharashtra,Mira-Bhayandar,"Bhayandar West, Mira-Bhayandar - MPCB",15-05-2024 04:00:00,19.296481,72.840923,NO2,7,54,26
India,Maharashtra,Mira-Bhayandar,"Bhayandar West, Mira-Bhayandar - MPCB",15-05-2024 04:00:00,19.296481,72.840923,NH3,2,5,4
India,Maharashtra,Mira-Bhayandar,"Bhayandar West, Mira-Bhayandar - MPCB",15-05-2024 04:00:00,19.296481,72.840923,SO2,3,7,5
India,Maharashtra,Mira-Bhayandar,"Bhayandar West, Mira-Bhayandar - MPCB",15-05-2024 04:00:00,19.296481,72.840923,OZONE,7,226,43
India,Maharashtra,Mumbai,"Bandra Kurla Complex, Mumbai - MPCB",15-05-2024 04:00:00,19.065931,72.862131,NH3,10,10,10
India,Maharashtra,Mumbai,"Borivali East, Mumbai - IITM",15-05-2024 04:00:00,19.23241,72.86895,NO2,33,91,56
India,Maharashtra,Mumbai,"Borivali East, Mumbai - MPCB",15-05-2024 04:00:00,19.2243333,72.8658113,NO2,9,31,19
India,Maharashtra,Mumbai,"Byculla, Mumbai - BMC",15-05-2024 04:00:00,18.9767,72.8380,OZONE,5,187,56
India,Maharashtra,Mumbai,"Chakala-Andheri East, Mumbai - IITM",15-05-2024 04:00:00,19.11074,72.86084,PM2.5,103,333,229
India,Maharashtra,Mumbai,"Chakala-Andheri East, Mumbai - IITM",15-05-2024 04:00:00,19.11074,72.86084,NO2,43,96,61
India,Maharashtra,Mumbai,"Chakala-Andheri East, Mumbai - IITM",15-05-2024 04:00:00,19.11074,72.86084,NH3,8,32,15
India,Maharashtra,Mumbai,"Chembur, Mumbai - MPCB",15-05-2024 04:00:00,19.0364585,72.8954371,NO2,29,94,50
India,Maharashtra,Mumbai,"Deonar, Mumbai - IITM",15-05-2024 04:00:00,19.04946,72.9230,NO2,NA,NA,NA
India,Maharashtra,Mumbai,"Deonar, Mumbai - IITM",15-05-2024 04:00:00,19.04946,72.9230,OZONE,1,133,20
India,Maharashtra,Mumbai,"Ghatkopar, Mumbai - BMC",15-05-2024 04:00:00,19.083694,72.920967,CO,8,46,23
India,Maharashtra,Mumbai,"Kandivali East, Mumbai - MPCB",15-05-2024 04:00:00,19.205800,72.868200,NH3,9,52,13
India,Maharashtra,Mumbai,"Khindipada-Bhandup West, Mumbai - IITM",15-05-2024 04:00:00,19.1653323,72.922099,CO,1,39,8
India,Maharashtra,Mumbai,"Khindipada-Bhandup West, Mumbai - IITM",15-05-2024 04:00:00,19.1653323,72.922099,OZONE,3,34,9
India,Maharashtra,Mumbai,"Kurla, Mumbai - MPCB",15-05-2024 04:00:00,19.0863,72.8888,NH3,NA,NA,NA
India,Maharashtra,Mumbai,"Kurla, Mumbai - MPCB",15-05-2024 04:00:00,19.0863,72.8888,OZONE,28,63,33
India,Maharashtra,Mumbai,"Mindspace-Malad West, Mumbai - MPCB",15-05-2024 04:00:00,19.1878657,72.8304069,SO2,8,17,12
India,Maharashtra,Mumbai,"Mindspace-Malad West, Mumbai - MPCB",15-05-2024 04:00:00,19.1878657,72.8304069,CO,21,54,38
India,Maharashtra,Mumbai,"Navy Nagar-Colaba, Mumbai - IITM",15-05-2024 04:00:00,18.897756,72.813320,PM2.5,49,168,89
India,Maharashtra,Mumbai,"Powai, Mumbai - MPCB",15-05-2024 04:00:00,19.137500,72.915056,NO2,20,44,30
India,Maharashtra,Mumbai,"Powai, Mumbai - MPCB",15-05-2024 04:00:00,19.137500,72.915056,NH3,1,1,1
India,Maharashtra,Mumbai,"Powai, Mumbai - MPCB",15-05-2024 04:00:00,19.137500,72.915056,SO2,38,44,41
India,Maharashtra,Mumbai,"Siddharth Nagar-Worli, Mumbai - IITM",15-05-2024 04:00:00,19.000083,72.813993,PM10,21,154,107
India,Maharashtra,Mumbai,"Siddharth Nagar-Worli, Mumbai - IITM",15-05-2024 04:00:00,19.000083,72.813993,NH3,1,17,6
India,Maharashtra,Mumbai,"Sion, Mumbai - MPCB",15-05-2024 04:00:00,19.047000,72.874600,NH3,2,2,2
India,Maharashtra,Mumbai,"Vile Parle West, Mumbai - MPCB",15-05-2024 04:00:00,19.10861,72.83622,NH3,6,11,10
India,Maharashtra,Mumbai,"Worli, Mumbai - MPCB",15-05-2024 04:00:00,18.9936162,72.8128113,NO2,19,57,34
India,Maharashtra,Mumbai,"Worli, Mumbai - MPCB",15-05-2024 04:00:00,18.9936162,72.8128113,OZONE,NA,NA,NA
India,Maharashtra,Nagpur,"Ambazari, Nagpur - MPCB",15-05-2024 04:00:00,21.121801,79.04952,PM10,63,105,81
India,Maharashtra,Nagpur,"Mahal, Nagpur - MPCB",15-05-2024 04:00:00,21.14472,79.107595,SO2,13,79,33
India,Maharashtra,Nagpur,"Mahal, Nagpur - MPCB",15-05-2024 04:00:00,21.14472,79.107595,OZONE,1,135,56
India,Maharashtra,Nagpur,"Opp GPO Civil Lines, Nagpur - MPCB",15-05-2024 04:00:00,21.152875,79.0517531,NO2,12,97,28
India,Maharashtra,Nanded,"Sneh Nagar, Nanded - MPCB",15-05-2024 04:00:00,19.173852,77.296291,PM2.5,35,85,59
India,Maharashtra,Nanded,"Sneh Nagar, Nanded - MPCB",15-05-2024 04:00:00,19.173852,77.296291,NO2,7,42,17
India,Maharashtra,Nashik,"Gangapur Road, Nashik - MPCB",15-05-2024 04:00:00,20.0073285,73.7762427,NO2,4,24,12
India,Maharashtra,Nashik,"Hirawadi, Nashik - MPCB",15-05-2024 04:00:00,20.021503,73.813844,PM2.5,31,57,44
India,Maharashtra,Navi Mumbai,"Kopripada-Vashi, Navi Mumbai - MPCB",15-05-2024 04:00:00,19.090337,73.014232,PM10,NA,NA,NA
India,Maharashtra,Navi Mumbai,"Kopripada-Vashi, Navi Mumbai - MPCB",15-05-2024 04:00:00,19.090337,73.014232,CO,14,63,44
India,Maharashtra,Navi Mumbai,"Mahape, Navi Mumbai - MPCB",15-05-2024 04:00:00,19.1135051,73.008978,NH3,1,2,1
India,Maharashtra,Navi Mumbai,"Mahape, Navi Mumbai - MPCB",15-05-2024 04:00:00,19.1135051,73.008978,CO,111,122,118
India,Maharashtra,Navi Mumbai,"Nerul, Navi Mumbai - MPCB",15-05-2024 04:00:00,19.008751,73.016620,PM10,98,163,119
India,Maharashtra,Navi Mumbai,"Sector-19A Nerul, Navi Mumbai - IITM",15-05-2024 04:00:00,19.044,73.0325,NH3,3,4,3
India,Maharashtra,Navi Mumbai,"Sector-2E Kalamboli, Navi Mumbai - MPCB",15-05-2024 04:00:00,19.02579,73.10297,NH3,1,5,3
India,Maharashtra,Navi Mumbai,"Tondare-Taloja, Navi Mumbai - MPCB",15-05-2024 04:00:00,19.0630,73.1209,PM10,62,112,96
India,Maharashtra,Navi Mumbai,"Tondare-Taloja, Navi Mumbai - MPCB",15-05-2024 04:00:00,19.0630,73.1209,CO,13,66,35
India,Maharashtra,Parbhani,"Masoom Colony, Parbhani - MPCB",15-05-2024 04:00:00,19.265594,76.761463,SO2,7,16,8
India,Maharashtra,Parbhani,"Masoom Colony, Parbhani - MPCB",15-05-2024 04:00:00,19.265594,76.761463,OZONE,21,76,51
India,Maharashtra,Pimpri-Chinchwad,"Gavalinagar, Pimpri Chinchwad - MPCB",15-05-2024 04:00:00,18.63673,73.82487,CO,13,45,34
India,Maharashtra,Pimpri-Chinchwad,"Park Street Wakad, Pimpri Chinchwad - MPCB",15-05-2024 04:00:00,18.59051,73.77946,CO,42,82,72
India,Maharashtra,Pune,"Alandi, Pune - IITM",15-05-2024 04:00:00,18.675076,73.892743,PM2.5,19,47,28
India,Maharashtra,Pune,"Alandi, Pune - IITM",15-05-2024 04:00:00,18.675076,73.892743,OZONE,41,207,79
India,Maharashtra,Pune,"Bhosari, Pune - IITM",15-05-2024 04:00:00,18.640051,73.848956,PM2.5,18,48,28
India,Maharashtra,Pune,"Katraj Dairy, Pune - MPCB",15-05-2024 04:00:00,18.454450,73.854155,PM10,NA,NA,NA
India,Maharashtra,Pune,"Katraj Dairy, Pune - MPCB",15-05-2024 04:00:00,18.454450,73.854155,NO2,NA,NA,NA
India,Maharashtra,Pune,"Katraj Dairy, Pune - MPCB",15-05-2024 04:00:00,18.454450,73.854155,NH3,NA,NA,NA
India,Maharashtra,Pune,"Katraj Dairy, Pune - MPCB",15-05-2024 04:00:00,18.454450,73.854155,CO,NA,NA,NA
India,Maharashtra,Pune,"Mhada Colony, Pune - IITM",15-05-2024 04:00:00,18.573040,73.927715,PM2.5,14,57,32
India,Maharashtra,Pune,"Mhada Colony, Pune - IITM",15-05-2024 04:00:00,18.573040,73.927715,PM10,37,90,57
India,Maharashtra,Pune,"Mhada Colony, Pune - IITM",15-05-2024 04:00:00,18.573040,73.927715,NO2,32,89,59
India,Maharashtra,Pune,"Transport Nagar-Nigdi, Pune - IITM",15-05-2024 04:00:00,18.664282,73.763966,PM10,38,92,65
India,Maharashtra,Sangli,"Vijay Nagar, Sangli - MPCB",15-05-2024 04:00:00, 16.5038,74.3623,NO2,10,30,20
India,Maharashtra,Solapur,"Dnyaneshwar Nagar, Solapur - MPCB",15-05-2024 04:00:00,17.6336264,75.9132495,SO2,1,3,1
India,Maharashtra,Solapur,"Ratandeep Housing Society, Solapur - MPCB",15-05-2024 04:00:00,17.65439,75.90649,SO2,3,14,6
India,Maharashtra,Thane,"Kasarvadavali, Thane - MPCB",15-05-2024 04:00:00,19.26777,72.97182,SO2,1,11,6
India,Maharashtra,Thane,"Pimpleshwar Mandir, Thane - MPCB",15-05-2024 04:00:00,19.192056,72.9585188,SO2,1,26,8
India,Maharashtra,Thane,"Pimpleshwar Mandir, Thane - MPCB",15-05-2024 04:00:00,19.192056,72.9585188,OZONE,5,77,27
India,Maharashtra,Thane,"Upvan Fort, Thane - MPCB",15-05-2024 04:00:00,19.222279,72.957979,PM10,60,139,95
India,Maharashtra,Ulhasnagar,"Sidhi Vinayak Nagar, Ulhasnagar - MPCB",15-05-2024 04:00:00,19.235581,73.159121,NH3,1,3,2
India,Maharashtra,Ulhasnagar,"Sidhi Vinayak Nagar, Ulhasnagar - MPCB",15-05-2024 04:00:00,19.235581,73.159121,CO,14,68,43
India,Maharashtra,Virar,"Bolinj, Virar - MPCB",15-05-2024 04:00:00,19.4458210,72.7988231,NO2,9,64,22
India,Manipur,Imphal,"Manipur University, Imphal - Manipur PCB",15-05-2024 04:00:00,24.7524239,93.9286218,CO,9,18,16
India,Manipur,Imphal,"Manipur University, Imphal - Manipur PCB",15-05-2024 04:00:00,24.7524239,93.9286218,OZONE,1,34,3
India,Nagaland,Kohima,"PWD Juction, Kohima - NPCB",15-05-2024 04:00:00,25.6635413,94.0989878,PM10,58,138,87
India,Nagaland,Kohima,"PWD Juction, Kohima - NPCB",15-05-2024 04:00:00,25.6635413,94.0989878,CO,8,32,24
India,Odisha,Balasore,"Kalidaspur, Balasore - OSPCB",15-05-2024 04:00:00,21.51161,86.89088,SO2,13,18,14
India,Odisha,Balasore,"Kalidaspur, Balasore - OSPCB",15-05-2024 04:00:00,21.51161,86.89088,CO,46,114,78
India,Odisha,Barbil,"Forest Office, Barbil - OSPCB",15-05-2024 04:00:00,22.1166054,85.3945546,PM10,56,173,98
India,Odisha,Barbil,"Forest Office, Barbil - OSPCB",15-05-2024 04:00:00,22.1166054,85.3945546,NO2,NA,NA,NA
India,Odisha,Baripada,"Meher Colony, Baripada - OSPCB",15-05-2024 04:00:00,21.941841,86.728318,NH3,2,4,3
India,Odisha,Bhubaneswar,"Patia, Bhubaneswar - OSPCB",15-05-2024 04:00:00,20.34652,85.81630,PM10,40,97,66
India,Odisha,Bhubaneswar,"Patia, Bhubaneswar - OSPCB",15-05-2024 04:00:00,20.34652,85.81630,SO2,3,48,11
India,Odisha,Brajrajnagar,"GM Office, Brajrajnagar - OSPCB",15-05-2024 04:00:00,21.8004996,83.8396977,NO2,15,17,16
India,Odisha,Brajrajnagar,"GM Office, Brajrajnagar - OSPCB",15-05-2024 04:00:00,21.8004996,83.8396977,NH3,8,9,8
India,Odisha,Byasanagar,"Ferro Chrome Colony, Byasanagar - OSPCB",15-05-2024 04:00:00,20.94185,86.11510,CO,60,109,94
India,Odisha,Cuttack,"CDA Area, Cuttack - OSPCB",15-05-2024 04:00:00,20.48891     ,85.84768     ,OZONE,11,88,31
India,Odisha,Nayagarh,"Dabuna, Nayagarh - OSPCB",15-05-2024 04:00:00,21.847279,85.416905,PM2.5,40,95,62
India,Odisha,Rairangpur,"Divisional Forest Office, Rairangpur - OSPCB",15-05-2024 04:00:00,22.265816,86.174829,OZONE,3,24,9
India,Odisha,Rourkela,"Raghunathpali, Rourkela - OSPCB",15-05-2024 04:00:00,22.220833,84.809444,PM2.5,NA,NA,NA
India,Odisha,Rourkela,"Raghunathpali, Rourkela - OSPCB",15-05-2024 04:00:00,22.220833,84.809444,PM10,NA,NA,NA
India,Odisha,Rourkela,"Raghunathpali, Rourkela - OSPCB",15-05-2024 04:00:00,22.220833,84.809444,NO2,NA,NA,NA
India,Odisha,Rourkela,"Raghunathpali, Rourkela - OSPCB",15-05-2024 04:00:00,22.220833,84.809444,OZONE,46,130,75
India,Odisha,Suakati,"OMC Colony, Suakati - OSPCB",15-05-2024 04:00:00,21.606865,85.510538,PM2.5,43,90,61
India,Odisha,Suakati,"OMC Colony, Suakati - OSPCB",15-05-2024 04:00:00,21.606865,85.510538,PM10,46,101,72
India,Odisha,Talcher,"Talcher Coalfields,Talcher - OSPCB",15-05-2024 04:00:00,20.9360711,85.1707021,PM2.5,25,406,162
India,Odisha,Talcher,"Talcher Coalfields,Talcher - OSPCB",15-05-2024 04:00:00,20.9360711,85.1707021,PM10,27,258,120
India,Odisha,Talcher,"Talcher Coalfields,Talcher - OSPCB",15-05-2024 04:00:00,20.9360711,85.1707021,OZONE,25,37,32
India,Puducherry,Puducherry,"Jawahar Nagar, Puducherry - PPCC",15-05-2024 04:00:00,11.9309,79.8027,PM2.5,2,82,18
India,Punjab,Amritsar,"Golden Temple, Amritsar - PPCB",15-05-2024 04:00:00,31.620000,74.876512,NO2,7,86,22
India,Punjab,Bathinda,"Hardev Nagar, Bathinda - PPCB",15-05-2024 04:00:00,30.233011,74.907758,PM10,24,195,100
India,Punjab,Bathinda,"Hardev Nagar, Bathinda - PPCB",15-05-2024 04:00:00,30.233011,74.907758,SO2,1,37,9
India,Punjab,Jalandhar,"Civil Line, Jalandhar - PPCB",15-05-2024 04:00:00,31.321907,75.578914,CO,9,92,74
India,Punjab,Khanna,"Kalal Majra, Khanna - PPCB",15-05-2024 04:00:00,30.736056 ,76.209694,NO2,21,34,22
India,Punjab,Khanna,"Kalal Majra, Khanna - PPCB",15-05-2024 04:00:00,30.736056 ,76.209694,NH3,18,19,18
India,Punjab,Patiala,"Model Town, Patiala - PPCB",15-05-2024 04:00:00,30.349388,76.366642,CO,12,64,54
India,Punjab,Rupnagar,"Ratanpura, Rupnagar - Ambuja Cements",15-05-2024 04:00:00,31.0325454,76.5623046,PM2.5,7,422,168
India,Punjab,Rupnagar,"Ratanpura, Rupnagar - Ambuja Cements",15-05-2024 04:00:00,31.0325454,76.5623046,PM10,NA,NA,NA
India,Rajasthan,Ajmer,"Civil Lines,  Ajmer - RSPCB",15-05-2024 04:00:00,26.470859,74.646594,OZONE,4,100,32
India,Rajasthan,Alwar,"Moti Doongri, Alwar - RSPCB",15-05-2024 04:00:00,27.554793,76.611536,PM2.5,57,99,79
India,Rajasthan,Baran,"Bamboliya, Baran - RSPCB",15-05-2024 04:00:00,25.106006,76.469948,NH3,3,4,4
India,Rajasthan,Barmer,"Railway Colony, Barmer - RSPCB",15-05-2024 04:00:00,25.747299,71.393989,PM2.5,4,57,30
India,Rajasthan,Barmer,"Railway Colony, Barmer - RSPCB",15-05-2024 04:00:00,25.747299,71.393989,PM10,4,220,88
India,Rajasthan,Bharatpur,"Krishna Nagar, Bharatpur - RSPCB",15-05-2024 04:00:00,27.215415,77.50873,NH3,2,4,3
India,Rajasthan,Bhilwara,"Pratap Nagar, Bhilwara - RSPCB",15-05-2024 04:00:00,25.339605,74.618883,PM10,16,134,52
India,Rajasthan,Bhilwara,"Pratap Nagar, Bhilwara - RSPCB",15-05-2024 04:00:00,25.339605,74.618883,NO2,12,49,24
India,Rajasthan,Bhilwara,"Pratap Nagar, Bhilwara - RSPCB",15-05-2024 04:00:00,25.339605,74.618883,OZONE,49,105,64
India,Rajasthan,Bhiwadi,"RIICO Ind. Area III, Bhiwadi - RSPCB",15-05-2024 04:00:00,28.194909,76.862296,SO2,15,30,24
India,Rajasthan,Bikaner,"MM Ground, Bikaner - RSPCB",15-05-2024 04:00:00,28.018792,73.292658,SO2,3,7,5
India,Rajasthan,Chittorgarh,"Shastri Nagar, Chittorgarh - RSPCB",15-05-2024 04:00:00,24.892047,74.623527,NH3,3,16,11
India,Rajasthan,Chittorgarh,"Shastri Nagar, Chittorgarh - RSPCB",15-05-2024 04:00:00,24.892047,74.623527,CO,5,27,15
India,Rajasthan,Chittorgarh,"Shastri Nagar, Chittorgarh - RSPCB",15-05-2024 04:00:00,24.892047,74.623527,OZONE,35,139,85
India,Rajasthan,Dausa,"Khatikan Mohalla, Dausa - RSPCB",15-05-2024 04:00:00,26.895552,76.334753,PM2.5,38,253,90
India,Rajasthan,Dausa,"Khatikan Mohalla, Dausa - RSPCB",15-05-2024 04:00:00,26.895552,76.334753,CO,14,160,75
India,Rajasthan,Dholpur,"Raja Ganj, Dholpur - RSPCB",15-05-2024 04:00:00,26.699557,77.898881,PM10,42,296,116
India,Rajasthan,Dholpur,"Raja Ganj, Dholpur - RSPCB",15-05-2024 04:00:00,26.699557,77.898881,NH3,10,15,12
India,Rajasthan,Dholpur,"Raja Ganj, Dholpur - RSPCB",15-05-2024 04:00:00,26.699557,77.898881,OZONE,32,185,73
India,Rajasthan,Dungarpur,"Bhoiwada, Dungarpur - RSPCB",15-05-2024 04:00:00,23.837789,73.714926,PM2.5,NA,NA,NA
India,Rajasthan,Jaipur,"Police Commissionerate, Jaipur - RSPCB",15-05-2024 04:00:00,26.9164092,75.7994901,SO2,5,74,29
India,Rajasthan,Jaipur,"Police Commissionerate, Jaipur - RSPCB",15-05-2024 04:00:00,26.9164092,75.7994901,OZONE,32,157,63
India,Rajasthan,Jaipur,"RIICO Sitapura, Jaipur - RSPCB",15-05-2024 04:00:00,26.786682,75.827928,PM10,58,150,96
India,Rajasthan,Jaipur,"RIICO Sitapura, Jaipur - RSPCB",15-05-2024 04:00:00,26.786682,75.827928,NH3,1,7,3
India,Rajasthan,Jaipur,"RIICO Sitapura, Jaipur - RSPCB",15-05-2024 04:00:00,26.786682,75.827928,CO,18,72,35
India,Rajasthan,Jaipur,"Sector-2 Murlipura, Jaipur - RSPCB",15-05-2024 04:00:00,26.960669,75.771817,PM2.5,57,192,78
India,Rajasthan,Jaipur,"Shastri Nagar, Jaipur - RSPCB",15-05-2024 04:00:00,26.9502929,75.730943,PM10,93,157,122
India,Rajasthan,Jaipur,"Shastri Nagar, Jaipur - RSPCB",15-05-2024 04:00:00,26.9502929,75.730943,CO,18,107,35
India,Rajasthan,Jaipur,"Shastri Nagar, Jaipur - RSPCB",15-05-2024 04:00:00,26.9502929,75.730943,OZONE,18,137,56
India,Rajasthan,Jaisalmer,"Sadar Bazar, Jaisalmer - RSPCB",15-05-2024 04:00:00,26.912329,70.909168,PM2.5,40,473,146
India,Rajasthan,Jalore,"Mudtra Sili, Jalore - RSPCB",15-05-2024 04:00:00,25.344694,72.626208,PM2.5,19,47,36
India,Rajasthan,Jalore,"Mudtra Sili, Jalore - RSPCB",15-05-2024 04:00:00,25.344694,72.626208,NO2,14,45,24
India,Rajasthan,Jalore,"Mudtra Sili, Jalore - RSPCB",15-05-2024 04:00:00,25.344694,72.626208,OZONE,53,122,79
India,Rajasthan,Jhalawar,"Rajlaxmi Nagar, Jhalawar - RSPCB",15-05-2024 04:00:00,24.588397,76.172782,PM2.5,10,52,22
India,Rajasthan,Jhalawar,"Rajlaxmi Nagar, Jhalawar - RSPCB",15-05-2024 04:00:00,24.588397,76.172782,PM10,26,171,73
India,Rajasthan,Jhunjhunu,"Indra Nagar, Jhunjhunu - RSPCB",15-05-2024 04:00:00,28.108988,75.386577,NH3,15,23,20
India,Rajasthan,Jodhpur,"Collectorate, Jodhpur - RSPCB",15-05-2024 04:00:00,26.268249,73.0193853,PM2.5,30,171,68
India,Rajasthan,Jodhpur,"Collectorate, Jodhpur - RSPCB",15-05-2024 04:00:00,26.268249,73.0193853,NO2,24,26,25
India,Rajasthan,Jodhpur,"Jhalamand, Jodhpur - RSPCB",15-05-2024 04:00:00,26.215415,73.070156,PM2.5,4,72,28
India,Rajasthan,Jodhpur,"Jhalamand, Jodhpur - RSPCB",15-05-2024 04:00:00,26.215415,73.070156,PM10,29,148,77
India,Rajasthan,Jodhpur,"Jhalamand, Jodhpur - RSPCB",15-05-2024 04:00:00,26.215415,73.070156,NH3,4,17,7
India,Rajasthan,Jodhpur,"Samrat Ashok Udhyan, Jodhpur - RSPCB",15-05-2024 04:00:00,26.253384,72.976571,PM2.5,8,49,26
India,Rajasthan,Jodhpur,"Samrat Ashok Udhyan, Jodhpur - RSPCB",15-05-2024 04:00:00,26.253384,72.976571,NH3,3,10,5
India,Rajasthan,Jodhpur,"Samrat Ashok Udhyan, Jodhpur - RSPCB",15-05-2024 04:00:00,26.253384,72.976571,OZONE,57,90,62
India,Rajasthan,Nagaur,"Karni Colony, Nagaur - RSPCB",15-05-2024 04:00:00,27.213494,73.734444,PM10,NA,NA,NA
India,Rajasthan,Nagaur,"Karni Colony, Nagaur - RSPCB",15-05-2024 04:00:00,27.213494,73.734444,SO2,NA,NA,NA
India,Rajasthan,Pali,"Indira Colony Vistar, Pali - RSPCB",15-05-2024 04:00:00,25.771061, 73.340227,PM2.5,28,231,88
India,Rajasthan,Pali,"Indira Colony Vistar, Pali - RSPCB",15-05-2024 04:00:00,25.771061, 73.340227,PM10,96,183,119
India,Rajasthan,Pratapgarh,"Pragati Nagar, Pratapgarh - RSPCB",15-05-2024 04:00:00,24.041198,74.780702,PM2.5,2,44,14
India,Rajasthan,Rajsamand,"Dhoinda, Rajsamand - RSPCB",15-05-2024 04:00:00,25.036360,73.883502,NH3,2,4,3
India,Rajasthan,Rajsamand,"Dhoinda, Rajsamand - RSPCB",15-05-2024 04:00:00,25.036360,73.883502,CO,19,86,62
India,Rajasthan,Sawai Madhopur,"Sahu Nagar, Sawai Madhopur - RSPCB",15-05-2024 04:00:00,26.031443,76.359327,PM10,39,107,73
India,Rajasthan,Sawai Madhopur,"Sahu Nagar, Sawai Madhopur - RSPCB",15-05-2024 04:00:00,26.031443,76.359327,OZONE,14,161,95
India,Rajasthan,Sikar,"Radhakishan Pura, Sikar - RSPCB",15-05-2024 04:00:00,27.608912,75.153302,CO,19,59,42
India,Rajasthan,Sikar,"Radhakishan Pura, Sikar - RSPCB",15-05-2024 04:00:00,27.608912,75.153302,OZONE,25,140,53
India,Rajasthan,Sirohi,"Vedhaynath Colony, Sirohi - RSPCB",15-05-2024 04:00:00,24.885261,72.857549,NO2,6,83,25
India,Rajasthan,Sri Ganganagar,"Old City, Sri Ganganagar - RSPCB",15-05-2024 04:00:00,29.931624,73.864511,SO2,1,16,7
India,Rajasthan,Udaipur,"Ashok Nagar, Udaipur - RSPCB",15-05-2024 04:00:00,24.5886166,73.6321397,PM2.5,12,80,51
India,Rajasthan,Udaipur,"Ashok Nagar, Udaipur - RSPCB",15-05-2024 04:00:00,24.5886166,73.6321397,CO,16,102,50
India,Sikkim,Gangtok,"Zero Point GICI, Gangtok - SSPCB",15-05-2024 04:00:00,27.338530,88.614099,NH3,1,1,1
India,TamilNadu,Ariyalur,"Keelapalur, Ariyalur - TNPCB",15-05-2024 04:00:00,11.06825,79.07033,PM2.5,12,54,21
India,TamilNadu,Ariyalur,"Keelapalur, Ariyalur - TNPCB",15-05-2024 04:00:00,11.06825,79.07033,SO2,28,29,28
India,TamilNadu,Chennai,"Arumbakkam, Chennai - TNPCB",15-05-2024 04:00:00,13.0664,80.2112 ,SO2,2,14,6
India,TamilNadu,Chennai,"Kodungaiyur, Chennai - TNPCB",15-05-2024 04:00:00,13.1278,80.2642,PM2.5,5,52,15
India,TamilNadu,Chennai,"Kodungaiyur, Chennai - TNPCB",15-05-2024 04:00:00,13.1278,80.2642,NO2,4,39,10
India,TamilNadu,Chennai,"Manali, Chennai - CPCB",15-05-2024 04:00:00,13.164544,80.26285,SO2,2,72,13
India,TamilNadu,Chennai,"Manali, Chennai - CPCB",15-05-2024 04:00:00,13.164544,80.26285,OZONE,9,17,14
India,TamilNadu,Chennai,"Perungudi, Chennai - TNPCB",15-05-2024 04:00:00,12.9533,80.2357,NH3,1,2,2
India,TamilNadu,Chennai,"Perungudi, Chennai - TNPCB",15-05-2024 04:00:00,12.9533,80.2357,CO,18,22,20
India,TamilNadu,Chennai,"Royapuram, Chennai - TNPCB",15-05-2024 04:00:00,13.1036,80.2909,PM10,7,56,17
India,TamilNadu,Chennai,"Royapuram, Chennai - TNPCB",15-05-2024 04:00:00,13.1036,80.2909,NO2,3,15,8
India,TamilNadu,Chennai,"Royapuram, Chennai - TNPCB",15-05-2024 04:00:00,13.1036,80.2909,CO,13,28,22
India,TamilNadu,Chennai,"Royapuram, Chennai - TNPCB",15-05-2024 04:00:00,13.1036,80.2909,OZONE,1,11,6
India,TamilNadu,Cuddalore,"Kudikadu, Cuddalore - TNPCB",15-05-2024 04:00:00,11.6829898,79.7532099,NH3,3,4,4
India,TamilNadu,Gummidipoondi,"Anthoni Pillai Nagar, Gummidipoondi - TNPCB",15-05-2024 04:00:00,13.4127,80.1081,SO2,1,18,7
India,TamilNadu,Ooty,"Bombay Castel, Ooty - TNPCB",15-05-2024 04:00:00,11.4068288,76.7138973,NO2,NA,NA,NA
India,TamilNadu,Ooty,"Bombay Castel, Ooty - TNPCB",15-05-2024 04:00:00,11.4068288,76.7138973,SO2,NA,NA,NA
India,TamilNadu,Ooty,"Bombay Castel, Ooty - TNPCB",15-05-2024 04:00:00,11.4068288,76.7138973,CO,18,24,22
India,TamilNadu,Ooty,"Bombay Castel, Ooty - TNPCB",15-05-2024 04:00:00,11.4068288,76.7138973,OZONE,4,6,5
India,TamilNadu,Palkalaiperur,"Bharathidasan University, Palkalaiperur - TNPCB",15-05-2024 04:00:00,10.681158,78.741746,PM10,9,30,16
India,TamilNadu,Palkalaiperur,"Bharathidasan University, Palkalaiperur - TNPCB",15-05-2024 04:00:00,10.681158,78.741746,SO2,28,30,29
India,TamilNadu,Palkalaiperur,"Bharathidasan University, Palkalaiperur - TNPCB",15-05-2024 04:00:00,10.681158,78.741746,OZONE,1,6,1
India,TamilNadu,Ramanathapuram,"Chalai Bazaar, Ramanathapuram - TNPCB",15-05-2024 04:00:00,9.36399,78.831977,NH3,1,1,1
India,TamilNadu,Ramanathapuram,"Chalai Bazaar, Ramanathapuram - TNPCB",15-05-2024 04:00:00,9.36399,78.831977,CO,2,18,6
India,TamilNadu,Salem,"Sona College of Technology, Salem - TNPCB",15-05-2024 04:00:00,11.679111,78.125052,PM10,27,59,40
India,TamilNadu,Salem,"Sona College of Technology, Salem - TNPCB",15-05-2024 04:00:00,11.679111,78.125052,NH3,1,1,1
India,TamilNadu,Salem,"Sona College of Technology, Salem - TNPCB",15-05-2024 04:00:00,11.679111,78.125052,SO2,99,100,100
India,TamilNadu,Tirupur,"Kumaran College, Tirupur - TNPCB",15-05-2024 04:00:00,11.0973603,77.3228673,PM2.5,9,31,20
India,TamilNadu,Tirupur,"Kumaran College, Tirupur - TNPCB",15-05-2024 04:00:00,11.0973603,77.3228673,SO2,23,25,24
India,TamilNadu,Tirupur,"Kumaran College, Tirupur - TNPCB",15-05-2024 04:00:00,11.0973603,77.3228673,OZONE,6,7,7
India,Telangana,Hyderabad,"Bollaram Industrial Area, Hyderabad - TSPCB",15-05-2024 04:00:00,17.540891,78.358528,PM10,30,120,61
India,Telangana,Hyderabad,"Bollaram Industrial Area, Hyderabad - TSPCB",15-05-2024 04:00:00,17.540891,78.358528,NH3,2,4,2
India,Telangana,Hyderabad,"Bollaram Industrial Area, Hyderabad - TSPCB",15-05-2024 04:00:00,17.540891,78.358528,CO,1,28,22
India,Telangana,Hyderabad,"ECIL Kapra, Hyderabad - TSPCB",15-05-2024 04:00:00,17.470431,78.566959,NH3,6,6,6
India,Telangana,Hyderabad,"ICRISAT Patancheru, Hyderabad - TSPCB",15-05-2024 04:00:00,17.518400,78.278777,PM10,29,126,52
India,Telangana,Hyderabad,"IITH Kandi, Hyderabad - TSPCB",15-05-2024 04:00:00,17.585705,78.126199,CO,6,16,16
India,Telangana,Hyderabad,"Kokapet, Hyderabad - TSPCB",15-05-2024 04:00:00,17.393559,78.339194,PM10,NA,NA,NA
India,Telangana,Hyderabad,"Kokapet, Hyderabad - TSPCB",15-05-2024 04:00:00,17.393559,78.339194,NH3,NA,NA,NA
India,Telangana,Hyderabad,"Kompally Municipal Office, Hyderabad - TSPCB",15-05-2024 04:00:00,17.544899,78.486949,NH3,4,5,5
India,Telangana,Hyderabad,"Kompally Municipal Office, Hyderabad - TSPCB",15-05-2024 04:00:00,17.544899,78.486949,CO,16,33,19
India,Telangana,Hyderabad,"Nacharam_TSIIC IALA, Hyderabad - TSPCB",15-05-2024 04:00:00,17.429398,78.569354,PM10,54,67,62
India,Telangana,Hyderabad,"Nacharam_TSIIC IALA, Hyderabad - TSPCB",15-05-2024 04:00:00,17.429398,78.569354,NO2,11,16,13
India,Telangana,Hyderabad,"Nacharam_TSIIC IALA, Hyderabad - TSPCB",15-05-2024 04:00:00,17.429398,78.569354,SO2,4,11,9
India,Telangana,Hyderabad,"New Malakpet, Hyderabad - TSPCB",15-05-2024 04:00:00,17.37206,78.50864,SO2,19,21,20
India,Telangana,Hyderabad,"Ramachandrapuram, Hyderabad - TSPCB",15-05-2024 04:00:00,17.528544,78.286195,CO,33,41,34
India,Telangana,Hyderabad,"Sanathnagar, Hyderabad - TSPCB",15-05-2024 04:00:00,17.4559458,78.4332152,PM2.5,38,71,52
India,Tripura,Agartala,"Bardowali, Agartala - Tripura SPCB",15-05-2024 04:00:00,23.8175497,91.2726974,OZONE,NA,NA,NA
India,Uttar_Pradesh,Agra,"Manoharpur, Agra - UPPCB",15-05-2024 04:00:00,27.23711,78.01936,NO2,35,35,35
India,Uttar_Pradesh,Agra,"Rohta, Agra - UPPCB",15-05-2024 04:00:00,27.106972,78.000111,OZONE,12,17,14
India,Uttar_Pradesh,Agra,"Sanjay Palace, Agra - UPPCB",15-05-2024 04:00:00,27.19865833,78.00598056,NO2,10,26,17
India,Uttar_Pradesh,Agra,"Sanjay Palace, Agra - UPPCB",15-05-2024 04:00:00,27.19865833,78.00598056,CO,2,60,39
India,Uttar_Pradesh,Agra,"Sector-3B Avas Vikas Colony, Agra - UPPCB",15-05-2024 04:00:00,27.19412,77.96237,NO2,57,59,59
India,Uttar_Pradesh,Agra,"Sector-3B Avas Vikas Colony, Agra - UPPCB",15-05-2024 04:00:00,27.19412,77.96237,CO,9,23,18
India,Uttar_Pradesh,Agra,"Shahjahan Garden, Agra - UPPCB",15-05-2024 04:00:00,27.169338,78.03582,OZONE,1,42,4
India,Uttar_Pradesh,Agra,"Shastripuram, Agra - UPPCB",15-05-2024 04:00:00,27.19862,77.92066,OZONE,1,20,3
India,Uttar_Pradesh,Baghpat,"Sardar Patel Inter College, Baghpat - UPPCB",15-05-2024 04:00:00,28.964949,77.278761,CO,29,92,76
India,Uttar_Pradesh,Baghpat,"Sardar Patel Inter College, Baghpat - UPPCB",15-05-2024 04:00:00,28.964949,77.278761,OZONE,2,127,20
India,Uttar_Pradesh,Bareilly,"Rajendra Nagar, Bareilly - UPPCB",15-05-2024 04:00:00,28.38910936,79.42963708,PM10,35,90,56
India,Uttar_Pradesh,Firozabad,"Vibhab Nagar, Firozabad - UPPCB",15-05-2024 04:00:00,27.1594,78.3953,PM2.5,NA,NA,NA
India,Uttar_Pradesh,Firozabad,"Vibhab Nagar, Firozabad - UPPCB",15-05-2024 04:00:00,27.1594,78.3953,PM10,37,114,58
India,Uttar_Pradesh,Ghaziabad,"Indirapuram, Ghaziabad - UPPCB",15-05-2024 04:00:00,28.646233,77.358075,PM2.5,69,309,188
India,Uttar_Pradesh,Ghaziabad,"Indirapuram, Ghaziabad - UPPCB",15-05-2024 04:00:00,28.646233,77.358075,NH3,6,10,8
India,Uttar_Pradesh,Ghaziabad,"Indirapuram, Ghaziabad - UPPCB",15-05-2024 04:00:00,28.646233,77.358075,SO2,1,18,8
India,Uttar_Pradesh,Ghaziabad,"Indirapuram, Ghaziabad - UPPCB",15-05-2024 04:00:00,28.646233,77.358075,OZONE,1,147,14
India,Uttar_Pradesh,Ghaziabad,"Loni, Ghaziabad - UPPCB",15-05-2024 04:00:00,28.757294,77.278792,SO2,10,81,32
India,Uttar_Pradesh,Ghaziabad,"Sanjay Nagar, Ghaziabad - UPPCB",15-05-2024 04:00:00,28.685382,77.453839,NO2,37,164,109
India,Uttar_Pradesh,Ghaziabad,"Vasundhara, Ghaziabad - UPPCB",15-05-2024 04:00:00,28.6603346,77.3572563,NH3,4,9,7
India,Uttar_Pradesh,Gorakhpur,"Madan Mohan Malaviya University of Technology, Gorakhpur - UPPCB",15-05-2024 04:00:00,26.730136,83.433859,NO2,NA,NA,NA
India,Uttar_Pradesh,Gorakhpur,"Madan Mohan Malaviya University of Technology, Gorakhpur - UPPCB",15-05-2024 04:00:00,26.730136,83.433859,CO,6,21,10
India,Uttar_Pradesh,Greater Noida,"Knowledge Park - III, Greater Noida - UPPCB",15-05-2024 04:00:00,28.47272,77.482000,PM10,159,429,257
India,Uttar_Pradesh,Greater Noida,"Knowledge Park - III, Greater Noida - UPPCB",15-05-2024 04:00:00,28.47272,77.482000,CO,38,122,99
India,Uttar_Pradesh,Greater Noida,"Knowledge Park - V, Greater Noida - UPPCB",15-05-2024 04:00:00,28.557054,77.453663,PM2.5,135,403,259
India,Uttar_Pradesh,Jhansi,"Shivaji Nagar, Jhansi - UPPCB",15-05-2024 04:00:00,25.4547,78.6039,NO2,4,65,14
India,Uttar_Pradesh,Kanpur,"FTI Kidwai Nagar, Kanpur - UPPCB",15-05-2024 04:00:00,26.428282,80.327067,SO2,12,26,19
India,Uttar_Pradesh,Kanpur,"NSI Kalyanpur, Kanpur - UPPCB",15-05-2024 04:00:00,26.509954,80.249612,PM10,25,178,111
India,Uttar_Pradesh,Kanpur,"Nehru Nagar, Kanpur - UPPCB",15-05-2024 04:00:00,26.4703136,80.3229863,PM2.5,32,314,119
India,Uttar_Pradesh,Kanpur,"Nehru Nagar, Kanpur - UPPCB",15-05-2024 04:00:00,26.4703136,80.3229863,SO2,7,12,10
India,Uttar_Pradesh,Khurja,"Kalindi Kunj, Khurja - UPPCB",15-05-2024 04:00:00,28.2348927,77.8683002,OZONE,NA,NA,NA
India,Uttar_Pradesh,Lucknow,"B R Ambedkar University, Lucknow - UPPCB",15-05-2024 04:00:00,26.766433,80.927299,PM10,68,182,118
India,Uttar_Pradesh,Lucknow,"Kendriya Vidyalaya, Lucknow - CPCB",15-05-2024 04:00:00,26.906111,80.948222,PM10,87,162,123
India,Uttar_Pradesh,Lucknow,"Kendriya Vidyalaya, Lucknow - CPCB",15-05-2024 04:00:00,26.906111,80.948222,SO2,4,6,5
India,Uttar_Pradesh,Lucknow,"Kendriya Vidyalaya, Lucknow - CPCB",15-05-2024 04:00:00,26.906111,80.948222,CO,22,103,53
India,Uttar_Pradesh,Lucknow,"Kukrail Picnic Spot-1, Lucknow - UPPCB",15-05-2024 04:00:00,26.90723,80.98579,PM2.5,38,152,97
India,Uttar_Pradesh,Lucknow,"Kukrail Picnic Spot-1, Lucknow - UPPCB",15-05-2024 04:00:00,26.90723,80.98579,NO2,8,9,8
India,Uttar_Pradesh,Lucknow,"Lalbagh, Lucknow - CPCB",15-05-2024 04:00:00,26.8458805,80.9365541,NO2,10,84,29
India,Uttar_Pradesh,Lucknow,"Talkatora District Industries Center, Lucknow - CPCB",15-05-2024 04:00:00,26.83399722,80.8917361,NH3,11,39,18
India,Uttar_Pradesh,Lucknow,"Talkatora District Industries Center, Lucknow - CPCB",15-05-2024 04:00:00,26.83399722,80.8917361,CO,14,104,39
India,Uttar_Pradesh,Lucknow,"Talkatora District Industries Center, Lucknow - CPCB",15-05-2024 04:00:00,26.83399722,80.8917361,OZONE,2,80,9
India,Uttar_Pradesh,Meerut,"Ganga Nagar, Meerut - UPPCB",15-05-2024 04:00:00,28.999264,77.7590354,PM2.5,36,307,131
India,Uttar_Pradesh,Meerut,"Ganga Nagar, Meerut - UPPCB",15-05-2024 04:00:00,28.999264,77.7590354,NH3,7,20,10
India,Uttar_Pradesh,Meerut,"Ganga Nagar, Meerut - UPPCB",15-05-2024 04:00:00,28.999264,77.7590354,SO2,15,64,30
India,Uttar_Pradesh,Meerut,"Jai Bhim Nagar, Meerut - UPPCB",15-05-2024 04:00:00,28.9535882,77.7622941,CO,14,96,71
India,Uttar_Pradesh,Meerut,"Jai Bhim Nagar, Meerut - UPPCB",15-05-2024 04:00:00,28.9535882,77.7622941,OZONE,14,186,39
India,Uttar_Pradesh,Meerut,"Pallavpuram Phase 2, Meerut - UPPCB",15-05-2024 04:00:00,29.063510,77.709723,NH3,7,13,10
India,Uttar_Pradesh,Meerut,"Pallavpuram Phase 2, Meerut - UPPCB",15-05-2024 04:00:00,29.063510,77.709723,SO2,15,85,41
India,Uttar_Pradesh,Meerut,"Pallavpuram Phase 2, Meerut - UPPCB",15-05-2024 04:00:00,29.063510,77.709723,OZONE,1,93,15
India,Uttar_Pradesh,Moradabad,"Buddhi Vihar, Moradabad - UPPCB",15-05-2024 04:00:00,28.83526,78.74460,NO2,23,23,23
India,Uttar_Pradesh,Moradabad,"Buddhi Vihar, Moradabad - UPPCB",15-05-2024 04:00:00,28.83526,78.74460,NH3,2,2,2
India,Uttar_Pradesh,Moradabad,"Eco Herbal Park, Moradabad - UPPCB",15-05-2024 04:00:00,28.840739,78.697531,NO2,10,67,34
India,Uttar_Pradesh,Moradabad,"Eco Herbal Park, Moradabad - UPPCB",15-05-2024 04:00:00,28.840739,78.697531,NH3,5,28,10
India,Uttar_Pradesh,Moradabad,"Eco Herbal Park, Moradabad - UPPCB",15-05-2024 04:00:00,28.840739,78.697531,OZONE,8,144,27
India,Uttar_Pradesh,Moradabad,"Employment Office, Moradabad - UPPCB",15-05-2024 04:00:00,28.88528,78.73880,NO2,8,17,16
India,Uttar_Pradesh,Moradabad,"Jigar Colony, Moradabad - UPPCB",15-05-2024 04:00:00,28.856664,78.772638,PM2.5,28,130,60
India,Uttar_Pradesh,Moradabad,"Jigar Colony, Moradabad - UPPCB",15-05-2024 04:00:00,28.856664,78.772638,NO2,13,19,17
India,Uttar_Pradesh,Moradabad,"Jigar Colony, Moradabad - UPPCB",15-05-2024 04:00:00,28.856664,78.772638,NH3,7,7,7
India,Uttar_Pradesh,Moradabad,"Transport Nagar, Moradabad - UPPCB",15-05-2024 04:00:00,28.802625,78.753728,OZONE,5,45,12
India,Uttar_Pradesh,Muzaffarnagar,"New Mandi, Muzaffarnagar - UPPCB",15-05-2024 04:00:00,29.4723508,77.7194031,PM10,91,443,265
India,Uttar_Pradesh,Muzaffarnagar,"New Mandi, Muzaffarnagar - UPPCB",15-05-2024 04:00:00,29.4723508,77.7194031,CO,12,101,76
India,Uttar_Pradesh,Noida,"Sector - 125, Noida - UPPCB",15-05-2024 04:00:00,28.5447608,77.3231257,PM10,146,500,339
India,Uttar_Pradesh,Noida,"Sector - 125, Noida - UPPCB",15-05-2024 04:00:00,28.5447608,77.3231257,NO2,79,413,224
India,Uttar_Pradesh,Noida,"Sector - 125, Noida - UPPCB",15-05-2024 04:00:00,28.5447608,77.3231257,SO2,6,60,23
India,Uttar_Pradesh,Noida,"Sector-116, Noida - UPPCB",15-05-2024 04:00:00,28.569230,77.393848,SO2,11,56,26
India,Uttar_Pradesh,Noida,"Sector-116, Noida - UPPCB",15-05-2024 04:00:00,28.569230,77.393848,CO,7,122,90
India,Uttar_Pradesh,Prayagraj,"Jhunsi, Prayagraj - UPPCB",15-05-2024 04:00:00,25.425602,81.917152,NO2,6,6,6
India,Uttar_Pradesh,Prayagraj,"Jhunsi, Prayagraj - UPPCB",15-05-2024 04:00:00,25.425602,81.917152,NH3,5,5,5
India,Uttar_Pradesh,Prayagraj,"Motilal Nehru NIT, Prayagraj - UPPCB",15-05-2024 04:00:00,25.494,81.863,PM2.5,17,59,41
India,Uttar_Pradesh,Prayagraj,"Motilal Nehru NIT, Prayagraj - UPPCB",15-05-2024 04:00:00,25.494,81.863,NO2,11,12,12
India,Uttar_Pradesh,Prayagraj,"Nagar Nigam, Prayagraj - UPPCB",15-05-2024 04:00:00,25.44919916 ,81.82735986 ,NH3,1,8,4
India,Uttar_Pradesh,Varanasi,"Ardhali Bazar, Varanasi - UPPCB",15-05-2024 04:00:00,25.3505986,82.9083074,CO,2,38,31
India,Uttar_Pradesh,Varanasi,"IESD Banaras Hindu University, Varanasi - UPPCB",15-05-2024 04:00:00,25.262326,82.995408,SO2,18,19,18
India,Uttar_Pradesh,Varanasi,"Maldahiya, Varanasi - UPPCB",15-05-2024 04:00:00,25.32393,82.99687,SO2,24,24,24
India,Uttar_Pradesh,Vrindavan,"Omex Eternity, Vrindavan - UPPCB",15-05-2024 04:00:00,27.5714090,77.6557570,PM10,34,353,117
India,Uttar_Pradesh,Vrindavan,"Omex Eternity, Vrindavan - UPPCB",15-05-2024 04:00:00,27.5714090,77.6557570,NO2,2,3,3
India,Uttar_Pradesh,Vrindavan,"Omex Eternity, Vrindavan - UPPCB",15-05-2024 04:00:00,27.5714090,77.6557570,NH3,1,6,2
India,Uttar_Pradesh,Vrindavan,"Omex Eternity, Vrindavan - UPPCB",15-05-2024 04:00:00,27.5714090,77.6557570,SO2,43,51,46
India,Uttarakhand,Dehradun,"Doon University, Dehradun - UKPCB",15-05-2024 04:00:00,30.269444,78.044167,PM2.5,39,362,133
India,Uttarakhand,Kashipur,"Govt. Girls Inter College, Kashipur - UKPCB",15-05-2024 04:00:00,29.2124114,78.9611753,PM10,92,136,114
India,Uttarakhand,Kashipur,"Govt. Girls Inter College, Kashipur - UKPCB",15-05-2024 04:00:00,29.2124114,78.9611753,NH3,5,9,6
India,Uttarakhand,Kashipur,"Govt. Girls Inter College, Kashipur - UKPCB",15-05-2024 04:00:00,29.2124114,78.9611753,OZONE,17,118,43
India,West_Bengal,Asansol,"Asansol Court Area, Asansol - WBPCB",15-05-2024 04:00:00,23.685297,86.945968,NO2,32,47,41
India,West_Bengal,Durgapur,"PCBL Residential Complex, Durgapur - WBPCB",15-05-2024 04:00:00,23.5087640,87.3544400,CO,33,114,45
India,West_Bengal,Durgapur,"Sidhu Kanhu Indoor Stadium, Durgapur - WBPCB",15-05-2024 04:00:00,23.5404352,87.2892225,PM10,87,272,142
India,West_Bengal,Durgapur,"Sidhu Kanhu Indoor Stadium, Durgapur - WBPCB",15-05-2024 04:00:00,23.5404352,87.2892225,NH3,4,7,6
India,West_Bengal,Durgapur,"Sidhu Kanhu Indoor Stadium, Durgapur - WBPCB",15-05-2024 04:00:00,23.5404352,87.2892225,OZONE,1,62,13
India,West_Bengal,Haldia,"Priyambada Housing Estate, Haldia - WBPCB",15-05-2024 04:00:00,22.06047,88.109737,PM2.5,8,16,11
India,West_Bengal,Haldia,"Priyambada Housing Estate, Haldia - WBPCB",15-05-2024 04:00:00,22.06047,88.109737,NH3,4,5,4
India,West_Bengal,Howrah,"Belur Math, Howrah - WBPCB",15-05-2024 04:00:00,22.629801,88.352017,PM2.5,32,64,43
India,West_Bengal,Howrah,"Belur Math, Howrah - WBPCB",15-05-2024 04:00:00,22.629801,88.352017,PM10,50,86,64
India,West_Bengal,Howrah,"Belur Math, Howrah - WBPCB",15-05-2024 04:00:00,22.629801,88.352017,OZONE,13,50,15
India,West_Bengal,Howrah,"Ghusuri, Howrah - WBPCB",15-05-2024 04:00:00,22.611968,88.347422,OZONE,13,24,15
India,West_Bengal,Howrah,"Padmapukur, Howrah - WBPCB",15-05-2024 04:00:00,22.5687319,88.2797276,SO2,8,92,34
India,West_Bengal,Howrah,"Padmapukur, Howrah - WBPCB",15-05-2024 04:00:00,22.5687319,88.2797276,CO,8,54,26
India,West_Bengal,Kolkata,"Ballygunge, Kolkata - WBPCB",15-05-2024 04:00:00,22.5367507,88.3638022,NO2,3,34,21
India,West_Bengal,Kolkata,"Ballygunge, Kolkata - WBPCB",15-05-2024 04:00:00,22.5367507,88.3638022,NH3,6,11,9
India,West_Bengal,Kolkata,"Ballygunge, Kolkata - WBPCB",15-05-2024 04:00:00,22.5367507,88.3638022,SO2,5,20,11
India,West_Bengal,Kolkata,"Bidhannagar, Kolkata - WBPCB",15-05-2024 04:00:00,22.58157048,88.41002457,CO,24,32,26
India,West_Bengal,Kolkata,"Bidhannagar, Kolkata - WBPCB",15-05-2024 04:00:00,22.58157048,88.41002457,OZONE,10,73,19
India,West_Bengal,Kolkata,"Jadavpur, Kolkata - WBPCB",15-05-2024 04:00:00,22.49929,88.36917,PM10,28,50,38
India,West_Bengal,Kolkata,"Rabindra Bharati University, Kolkata - WBPCB",15-05-2024 04:00:00,22.627847,88.380669,NH3,10,10,10
India,West_Bengal,Kolkata,"Rabindra Sarobar, Kolkata - WBPCB",15-05-2024 04:00:00,22.51106,88.35142,PM2.5,22,41,30
India,West_Bengal,Kolkata,"Rabindra Sarobar, Kolkata - WBPCB",15-05-2024 04:00:00,22.51106,88.35142,NH3,6,11,8
India,West_Bengal,Kolkata,"Victoria, Kolkata - WBPCB",15-05-2024 04:00:00,22.5448082,88.3403691,CO,4,21,17
India,West_Bengal,Kolkata,"Victoria, Kolkata - WBPCB",15-05-2024 04:00:00,22.5448082,88.3403691,OZONE,11,54,15
India,West_Bengal,Siliguri,"Ward-32 Bapupara, Siliguri - WBPCB",15-05-2024 04:00:00,26.6879226,88.4152495,SO2,6,8,7
India,Andhra_Pradesh,Amaravati,"Secretariat, Amaravati - APPCB",15-05-2024 04:00:00,16.5150833,80.5181667,NH3,2,4,3
India,Andhra_Pradesh,Amaravati,"Secretariat, Amaravati - APPCB",15-05-2024 04:00:00,16.5150833,80.5181667,CO,8,86,32
India,Andhra_Pradesh,Anantapur,"Gulzarpet, Anantapur - APPCB",15-05-2024 04:00:00,14.675886,77.593027,PM10,48,78,60
India,Andhra_Pradesh,Chittoor,"Gangineni Cheruvu, Chittoor - APPCB",15-05-2024 04:00:00,13.204880,79.097889,NH3,1,2,2
India,Andhra_Pradesh,Chittoor,"Gangineni Cheruvu, Chittoor - APPCB",15-05-2024 04:00:00,13.204880,79.097889,SO2,6,27,14
India,Andhra_Pradesh,Kadapa,"Yerramukkapalli, Kadapa - APPCB",15-05-2024 04:00:00,14.465052,78.824187,PM2.5,3,170,33
India,Andhra_Pradesh,Kadapa,"Yerramukkapalli, Kadapa - APPCB",15-05-2024 04:00:00,14.465052,78.824187,NH3,3,3,3
India,Andhra_Pradesh,Tirupati,"Tirumala, Tirupati - APPCB",15-05-2024 04:00:00,13.67,79.35,OZONE,8,61,13
India,Andhra_Pradesh,Tirupati,"Vaikuntapuram, Tirupati - APPCB",15-05-2024 04:00:00,13.615387,79.409230,PM2.5,NA,NA,NA
India,Andhra_Pradesh,Vijayawada,"HB Colony, Vijayawada - APPCB",15-05-2024 04:00:00,16.536107,80.594233,PM10,NA,NA,NA
India,Andhra_Pradesh,Visakhapatnam,"GVM Corporation, Visakhapatnam - APPCB",15-05-2024 04:00:00,17.72,83.3,OZONE,11,141,62
India,Arunachal_Pradesh,Naharlagun,"Naharlagun, Naharlagun - APSPCB",15-05-2024 04:00:00,27.103358,93.679645,SO2,4,4,4
India,Assam,Guwahati,"IITG, Guwahati - PCBA",15-05-2024 04:00:00,26.2028636,91.70046436,PM10,59,254,113
India,Assam,Guwahati,"IITG, Guwahati - PCBA",15-05-2024 04:00:00,26.2028636,91.70046436,NH3,5,5,5
India,Assam,Guwahati,"LGBI Airport, Guwahati - PCBA",15-05-2024 04:00:00,26.10887,91.589544,NH3,1,7,3
India,Assam,Guwahati,"Pan Bazaar, Guwahati - PCBA",15-05-2024 04:00:00,26.187500,91.744194,PM2.5,36,121,66
India,Assam,Guwahati,"Pan Bazaar, Guwahati - PCBA",15-05-2024 04:00:00,26.187500,91.744194,SO2,37,77,54
India,Assam,Guwahati,"Railway Colony, Guwahati - PCBA",15-05-2024 04:00:00,26.181742,91.78063,SO2,8,27,14
India,Assam,Guwahati,"Railway Colony, Guwahati - PCBA",15-05-2024 04:00:00,26.181742,91.78063,OZONE,2,7,5
India,Assam,Nagaon,"Christianpatty, Nagaon - PCBA",15-05-2024 04:00:00,26.349082,92.68449,SO2,4,71,21
India,Assam,Nagaon,"Christianpatty, Nagaon - PCBA",15-05-2024 04:00:00,26.349082,92.68449,OZONE,13,103,33
India,Assam,Nalbari,"Bata Chowk, Nalbari - PCBA",15-05-2024 04:00:00,26.446912,91.439057,PM2.5,47,82,66
India,Assam,Nalbari,"Bata Chowk, Nalbari - PCBA",15-05-2024 04:00:00,26.446912,91.439057,NH3,1,1,1
India,Assam,Nalbari,"Bata Chowk, Nalbari - PCBA",15-05-2024 04:00:00,26.446912,91.439057,OZONE,7,19,12
India,Assam,Silchar,"Tarapur, Silchar - PCBA",15-05-2024 04:00:00,24.82827,92.79525,PM10,46,56,50
India,Bihar,Araria,"Kharahiya Basti, Araria - BSPCB",15-05-2024 04:00:00,26.146529,87.454184,PM10,36,277,84
India,Bihar,Araria,"Kharahiya Basti, Araria - BSPCB",15-05-2024 04:00:00,26.146529,87.454184,SO2,14,17,15
India,Bihar,Arrah,"New DM Office, Arrah - BSPCB",15-05-2024 04:00:00,25.5626095,84.663264,NH3,6,11,8
India,Bihar,Arrah,"New DM Office, Arrah - BSPCB",15-05-2024 04:00:00,25.5626095,84.663264,OZONE,5,47,17
India,Bihar,Aurangabad,"Gurdeo Nagar, Aurangabad - BSPCB",15-05-2024 04:00:00,24.75746,84.366208,CO,6,40,29
India,Bihar,Aurangabad,"Gurdeo Nagar, Aurangabad - BSPCB",15-05-2024 04:00:00,24.75746,84.366208,OZONE,20,155,62
India,Bihar,Bettiah,"Kamalnath Nagar, Bettiah - BSPCB",15-05-2024 04:00:00,26.80365,84.51954,NH3,3,18,7
India,Bihar,Bhagalpur,"DM Office_Kachari Chowk, Bhagalpur - BSPCB",15-05-2024 04:00:00,25.251013,86.989001,NH3,3,5,4
India,Bihar,Bhagalpur,"Mayaganj, Bhagalpur - BSPCB",15-05-2024 04:00:00,25.265194,87.012947,NH3,7,9,8
India,Bihar,Bhagalpur,"Mayaganj, Bhagalpur - BSPCB",15-05-2024 04:00:00,25.265194,87.012947,OZONE,8,37,16
India,Bihar,Bihar Sharif,"D M Colony, Bihar Sharif - BSPCB",15-05-2024 04:00:00,25.204762,85.514960,PM10,37,138,75
India,Bihar,Bihar Sharif,"D M Colony, Bihar Sharif - BSPCB",15-05-2024 04:00:00,25.204762,85.514960,SO2,7,15,11
India,Bihar,Bihar Sharif,"D M Colony, Bihar Sharif - BSPCB",15-05-2024 04:00:00,25.204762,85.514960,OZONE,27,62,51
India,Bihar,Chhapra,"Darshan Nagar, Chhapra - BSPCB",15-05-2024 04:00:00,25.7808257,84.7446768,NO2,13,29,20
India,Bihar,Chhapra,"Darshan Nagar, Chhapra - BSPCB",15-05-2024 04:00:00,25.7808257,84.7446768,OZONE,1,12,3
India,Bihar,Gaya,"Collectorate, Gaya - BSPCB",15-05-2024 04:00:00,24.7955,84.9994,PM2.5,65,277,142
India,Bihar,Gaya,"Kareemganj, Gaya - BSPCB",15-05-2024 04:00:00,24.792403,84.992416,NH3,4,7,6
India,Bihar,Gaya,"SFTI Kusdihra, Gaya - BSPCB",15-05-2024 04:00:00,24.762518,84.982348,NO2,16,101,46
India,Bihar,Gaya,"SFTI Kusdihra, Gaya - BSPCB",15-05-2024 04:00:00,24.762518,84.982348,OZONE,3,68,15
India,Bihar,Hajipur,"Industrial Area, Hajipur - BSPCB",15-05-2024 04:00:00,25.697189,85.245900,PM2.5,43,85,63
India,Bihar,Kishanganj,"SDM Office_Khagra, Kishanganj - BSPCB",15-05-2024 04:00:00,26.0881305,87.93840336,NH3,9,10,9
India,Bihar,Manguraha,"Forest Rest House, Manguraha - BSPCB",15-05-2024 04:00:00,27.308328,84.531742,SO2,2,4,3
India,Bihar,Manguraha,"Forest Rest House, Manguraha - BSPCB",15-05-2024 04:00:00,27.308328,84.531742,OZONE,1,125,4
India,Bihar,Munger,"Town Hall, Munger - BSPCB",15-05-2024 04:00:00,25.376776,86.471523,PM10,51,125,91
India,Bihar,Munger,"Town Hall, Munger - BSPCB",15-05-2024 04:00:00,25.376776,86.471523,OZONE,27,42,29
India,Bihar,Muzaffarpur,"Buddha Colony, Muzaffarpur - BSPCB",15-05-2024 04:00:00,26.11442,85.39813,PM10,101,147,121
India,Bihar,Muzaffarpur,"Buddha Colony, Muzaffarpur - BSPCB",15-05-2024 04:00:00,26.11442,85.39813,CO,24,49,41
India,Bihar,Muzaffarpur,"Muzaffarpur Collectorate, Muzaffarpur - BSPCB",15-05-2024 04:00:00,26.1209,85.3647,NO2,28,46,34
India,Bihar,Muzaffarpur,"Muzaffarpur Collectorate, Muzaffarpur - BSPCB",15-05-2024 04:00:00,26.1209,85.3647,OZONE,50,83,65
India,Bihar,Patna,"DRM Office Danapur, Patna - BSPCB",15-05-2024 04:00:00,25.586562,85.043586,SO2,11,17,14
India,Bihar,Patna,"DRM Office Danapur, Patna - BSPCB",15-05-2024 04:00:00,25.586562,85.043586,CO,24,58,41
India,Bihar,Patna,"DRM Office Danapur, Patna - BSPCB",15-05-2024 04:00:00,25.586562,85.043586,OZONE,8,64,30
India,Bihar,Patna,"Govt. High School Shikarpur, Patna - BSPCB",15-05-2024 04:00:00,25.592539,85.227158,OZONE,1,59,4
India,Bihar,Patna,"IGSC Planetarium Complex, Patna - BSPCB",15-05-2024 04:00:00,25.610369,85.132568,CO,11,18,12
India,Bihar,Patna,"Rajbansi Nagar, Patna - BSPCB",15-05-2024 04:00:00,25.599486,85.113666,NH3,3,4,4
India,Bihar,Patna,"Samanpura, Patna - BSPCB",15-05-2024 04:00:00,25.596727,85.085624,NO2,1,7,3
India,Bihar,Patna,"Samanpura, Patna - BSPCB",15-05-2024 04:00:00,25.596727,85.085624,SO2,6,10,7
India,Bihar,Rajgir,"Dangi Tola, Rajgir - BSPCB",15-05-2024 04:00:00,25.03280,85.41948,PM10,30,124,73
India,Bihar,Rajgir,"Dangi Tola, Rajgir - BSPCB",15-05-2024 04:00:00,25.03280,85.41948,NO2,16,21,18
India,Bihar,Rajgir,"Dangi Tola, Rajgir - BSPCB",15-05-2024 04:00:00,25.03280,85.41948,CO,25,47,36
India,Bihar,Saharsa,"Police Line, Saharsa - BSPCB",15-05-2024 04:00:00,25.892357,86.590325,NO2,6,8,7
India,Bihar,Samastipur,"DM Office_Kasipur, Samastipur - BSPCB",15-05-2024 04:00:00,25.859655,85.77944,CO,NA,NA,NA
India,Bihar,Sasaram,"Dada Peer, Sasaram - BSPCB",15-05-2024 04:00:00,24.952822,84.002396,NH3,5,27,17
India,Bihar,Sasaram,"Dada Peer, Sasaram - BSPCB",15-05-2024 04:00:00,24.952822,84.002396,SO2,22,41,29
India,Bihar,Sasaram,"Dada Peer, Sasaram - BSPCB",15-05-2024 04:00:00,24.952822,84.002396,OZONE,7,92,24
India,Bihar,Siwan,"Chitragupta Nagar, Siwan - BSPCB",15-05-2024 04:00:00,26.2271665,84.3570427,NO2,11,38,21
India,Bihar,Siwan,"Chitragupta Nagar, Siwan - BSPCB",15-05-2024 04:00:00,26.2271665,84.3570427,OZONE,20,98,48
India,Chandigarh,Chandigarh,"Sector-25, Chandigarh - CPCC",15-05-2024 04:00:00,30.751462,76.762879,PM2.5,80,206,139
India,Chandigarh,Chandigarh,"Sector-25, Chandigarh - CPCC",15-05-2024 04:00:00,30.751462,76.762879,SO2,5,30,13
India,Chandigarh,Chandigarh,"Sector-25, Chandigarh - CPCC",15-05-2024 04:00:00,30.751462,76.762879,CO,14,51,45
India,Chandigarh,Chandigarh,"Sector-25, Chandigarh - CPCC",15-05-2024 04:00:00,30.751462,76.762879,OZONE,1,52,5
India,Chandigarh,Chandigarh,"Sector-53, Chandigarh - CPCC",15-05-2024 04:00:00,30.719859,76.738637,NO2,9,133,58
India,Chandigarh,Chandigarh,"Sector-53, Chandigarh - CPCC",15-05-2024 04:00:00,30.719859,76.738637,SO2,15,60,24
India,Chhattisgarh,Bhilai,"32Bungalows, Bhilai - CECB",15-05-2024 04:00:00,21.194815,81.314770,PM2.5,34,67,52
India,Chhattisgarh,Bhilai,"32Bungalows, Bhilai - CECB",15-05-2024 04:00:00,21.194815,81.314770,PM10,31,100,65
India,Chhattisgarh,Bhilai,"Civic Center, Bhilai - Bhilai Steel Plant",15-05-2024 04:00:00,21.185571,81.343175,PM2.5,25,46,36
India,Chhattisgarh,Bhilai,"Civic Center, Bhilai - Bhilai Steel Plant",15-05-2024 04:00:00,21.185571,81.343175,NH3,4,8,5
India,Chhattisgarh,Bhilai,"Civic Center, Bhilai - Bhilai Steel Plant",15-05-2024 04:00:00,21.185571,81.343175,SO2,7,11,10
India,Chhattisgarh,Bhilai,"Civic Center, Bhilai - Bhilai Steel Plant",15-05-2024 04:00:00,21.185571,81.343175,OZONE,17,87,28
India,Chhattisgarh,Bhilai,"Hathkhoj, Bhilai - CECB",15-05-2024 04:00:00,21.224231,81.408350,NH3,7,9,8
India,Chhattisgarh,Bhilai,"Hathkhoj, Bhilai - CECB",15-05-2024 04:00:00,21.224231,81.408350,CO,10,57,33
India,Chhattisgarh,Bilaspur,"Mangala, Bilaspur - NTPC",15-05-2024 04:00:00,22.08815,82.13737,SO2,7,13,11
India,Chhattisgarh,Chhal,"Nawapara SECL Colony, Chhal - CECB",15-05-2024 04:00:00,22.118125,83.140608,NO2,8,37,21
India,Chhattisgarh,Chhal,"Nawapara SECL Colony, Chhal - CECB",15-05-2024 04:00:00,22.118125,83.140608,SO2,8,29,18
India,Chhattisgarh,Korba,"Rampur, Korba - CECB",15-05-2024 04:00:00,22.368195,82.746431,PM2.5,25,68,41
India,Chhattisgarh,Korba,"Urja Nagar, Korba - CECB",15-05-2024 04:00:00,22.348441,82.549611,CO,24,62,34
India,Chhattisgarh,Kunjemura,"OP Jindal School, Kunjemura - CECB",15-05-2024 04:00:00,22.126650,83.483212,NH3,1,5,3
India,Chhattisgarh,Kunjemura,"OP Jindal School, Kunjemura - CECB",15-05-2024 04:00:00,22.126650,83.483212,SO2,1,9,6
India,Chhattisgarh,Kunjemura,"OP Jindal School, Kunjemura - CECB",15-05-2024 04:00:00,22.126650,83.483212,CO,22,70,33
India,Chhattisgarh,Raipur,"AIIMS, Raipur - CECB",15-05-2024 04:00:00,21.258815,81.578979,NH3,NA,NA,NA
India,Chhattisgarh,Raipur,"Bhatagaon New ISBT, Raipur - CECB",15-05-2024 04:00:00,21.219665,81.630094,PM10,40,147,70
India,Chhattisgarh,Raipur,"Krishak Nagar, Raipur - CECB",15-05-2024 04:00:00,21.237755,81.705301,PM10,36,104,65
India,Chhattisgarh,Raipur,"Siltara Phase-II, Raipur - CECB",15-05-2024 04:00:00,21.371751,81.664929,OZONE,NA,NA,NA
India,Chhattisgarh,Tumidih,"OP Jindal Industrial Park, Tumidih - CECB",15-05-2024 04:00:00,22.06631475,83.33820077,NH3,NA,NA,NA
India,Delhi,Delhi,"Alipur, Delhi - DPCC",15-05-2024 04:00:00,28.815329,77.153010,NH3,5,11,7
India,Delhi,Delhi,"Alipur, Delhi - DPCC",15-05-2024 04:00:00,28.815329,77.153010,OZONE,1,257,37
India,Delhi,Delhi,"Ashok Vihar, Delhi - DPCC",15-05-2024 04:00:00,28.695381,77.181665,OZONE,5,256,25
India,Delhi,Delhi,"Bawana, Delhi - DPCC",15-05-2024 04:00:00,28.776200,77.051074,NH3,4,7,6
India,Delhi,Delhi,"Bawana, Delhi - DPCC",15-05-2024 04:00:00,28.776200,77.051074,SO2,9,106,48
India,Delhi,Delhi,"Burari Crossing, Delhi - IMD",15-05-2024 04:00:00,28.7256504,77.2011573,PM2.5,75,388,235
India,Delhi,Delhi,"Burari Crossing, Delhi - IMD",15-05-2024 04:00:00,28.7256504,77.2011573,PM10,126,462,267
India,Delhi,Delhi,"Burari Crossing, Delhi - IMD",15-05-2024 04:00:00,28.7256504,77.2011573,CO,33,114,84
India,Delhi,Delhi,"CRRI Mathura Road, Delhi - IMD",15-05-2024 04:00:00,28.5512005,77.2735737,CO,20,112,105
India,Delhi,Delhi,"Chandni Chowk, Delhi - IITM",15-05-2024 04:00:00,28.656756,77.227234,PM10,NA,NA,NA
India,Delhi,Delhi,"DTU, Delhi - CPCB",15-05-2024 04:00:00,28.7500499,77.1112615,SO2,36,60,42
India,Delhi,Delhi,"Dr. Karni Singh Shooting Range, Delhi - DPCC",15-05-2024 04:00:00,28.498571,77.264840,OZONE,3,213,29
India,Delhi,Delhi,"Dwarka-Sector 8, Delhi - DPCC ",15-05-2024 04:00:00,28.5710274,77.0719006,SO2,1,31,11
India,Delhi,Delhi,"IHBAS, Dilshad Garden, Delhi - CPCB",15-05-2024 04:00:00,28.6811736,77.3025234,NO2,32,42,36
India,Delhi,Delhi,"ITO, Delhi - CPCB",15-05-2024 04:00:00,28.628624,77.241060,PM10,86,208,128
India,Delhi,Delhi,"Jahangirpuri, Delhi - DPCC",15-05-2024 04:00:00,28.732820,77.170633,NH3,3,30,11
India,Delhi,Delhi,"Jahangirpuri, Delhi - DPCC",15-05-2024 04:00:00,28.732820,77.170633,CO,37,114,106
India,Delhi,Delhi,"Jawaharlal Nehru Stadium, Delhi - DPCC",15-05-2024 04:00:00,28.580280,77.233829,NH3,6,14,8
India,Delhi,Delhi,"Jawaharlal Nehru Stadium, Delhi - DPCC",15-05-2024 04:00:00,28.580280,77.233829,SO2,8,72,32
India,Delhi,Delhi,"Jawaharlal Nehru Stadium, Delhi - DPCC",15-05-2024 04:00:00,28.580280,77.233829,OZONE,2,242,11
India,Delhi,Delhi,"Lodhi Road, Delhi - IITM",15-05-2024 04:00:00,28.588333,77.221667,SO2,17,51,29
India,Delhi,Delhi,"Major Dhyan Chand National Stadium, Delhi - DPCC",15-05-2024 04:00:00,28.611281,77.237738,PM2.5,73,393,200
India,Delhi,Delhi,"Mandir Marg, Delhi - DPCC",15-05-2024 04:00:00,28.636429,77.201067,SO2,NA,NA,NA
India,Delhi,Delhi,"Najafgarh, Delhi - DPCC",15-05-2024 04:00:00,28.570173,76.933762,PM10,99,338,171
India,Delhi,Delhi,"Najafgarh, Delhi - DPCC",15-05-2024 04:00:00,28.570173,76.933762,OZONE,16,179,50
India,Delhi,Delhi,"Narela, Delhi - DPCC",15-05-2024 04:00:00,28.822836,77.101981,SO2,10,107,50
India,Delhi,Delhi,"Nehru Nagar, Delhi - DPCC",15-05-2024 04:00:00,28.567890,77.250515,PM2.5,77,378,203
India,Delhi,Delhi,"New Moti Bagh, Delhi - MHUA",15-05-2024 04:00:00,28.57834,77.18400,PM2.5,51,366,206
India,Delhi,Delhi,"Okhla Phase-2, Delhi - DPCC",15-05-2024 04:00:00,28.530785,77.271255,NO2,35,162,103
India,Delhi,Delhi,"Okhla Phase-2, Delhi - DPCC",15-05-2024 04:00:00,28.530785,77.271255,OZONE,2,259,7
India,Delhi,Delhi,"Patparganj, Delhi - DPCC",15-05-2024 04:00:00,28.623763,77.287209,SO2,2,9,6
India,Delhi,Delhi,"Pusa, Delhi - DPCC",15-05-2024 04:00:00,28.639652,77.146275,NO2,87,179,127
India,Delhi,Delhi,"Pusa, Delhi - DPCC",15-05-2024 04:00:00,28.639652,77.146275,NH3,4,9,7
India,Delhi,Delhi,"R K Puram, Delhi - DPCC",15-05-2024 04:00:00,28.563262,77.186937,PM10,92,407,200
India,Delhi,Delhi,"R K Puram, Delhi - DPCC",15-05-2024 04:00:00,28.563262,77.186937,OZONE,15,274,25
India,Delhi,Delhi,"Sirifort, Delhi - CPCB",15-05-2024 04:00:00,28.5504249,77.2159377,PM10,124,388,194
India,Delhi,Delhi,"Sirifort, Delhi - CPCB",15-05-2024 04:00:00,28.5504249,77.2159377,CO,12,113,104
India,Delhi,Delhi,"Sonia Vihar, Delhi - DPCC",15-05-2024 04:00:00,28.710508,77.249485,NO2,18,138,78
India,Delhi,Delhi,"Sonia Vihar, Delhi - DPCC",15-05-2024 04:00:00,28.710508,77.249485,OZONE,5,240,26
India,Delhi,Delhi,"Sri Aurobindo Marg, Delhi - DPCC",15-05-2024 04:00:00,28.531346,77.190156,NO2,15,104,58
India,Delhi,Delhi,"Vivek Vihar, Delhi - DPCC",15-05-2024 04:00:00,28.672342,77.315260,PM10,152,401,235
India,Delhi,Delhi,"Wazirpur, Delhi - DPCC",15-05-2024 04:00:00,28.699793,77.165453,NH3,1,8,4
India,Delhi,Delhi,"Wazirpur, Delhi - DPCC",15-05-2024 04:00:00,28.699793,77.165453,OZONE,7,261,16
India,Gujarat,Ahmedabad,"Chandkheda, Ahmedabad - IITM",15-05-2024 04:00:00,23.107969,72.574648,OZONE,20,178,45
India,Gujarat,Ahmedabad,"Gyaspur, Ahmedabad - IITM",15-05-2024 04:00:00,22.977134,72.553024,NH3,4,7,5
India,Gujarat,Ahmedabad,"Raikhad, Ahmedabad - IITM",15-05-2024 04:00:00,23.020509,72.579261,CO,13,120,84
India,Gujarat,Ahmedabad,"Rakhial, Ahmedabad - IITM",15-05-2024 04:00:00,23.016834,72.625775,SO2,9,25,14
India,Gujarat,Ahmedabad,"SVPI Airport Hansol, Ahmedabad - IITM",15-05-2024 04:00:00,23.076793,72.627874,PM10,NA,NA,NA
India,Gujarat,Ahmedabad,"SVPI Airport Hansol, Ahmedabad - IITM",15-05-2024 04:00:00,23.076793,72.627874,NO2,NA,NA,NA
India,Gujarat,Ahmedabad,"SVPI Airport Hansol, Ahmedabad - IITM",15-05-2024 04:00:00,23.076793,72.627874,CO,56,113,103
India,Gujarat,Ahmedabad,"Sardar Vallabhbhai Patel Stadium, Ahmedabad - IITM",15-05-2024 04:00:00,23.043070,72.562968,NO2,59,69,67
India,Gujarat,Ankleshwar,"GIDC, Ankleshwar - GPCB",15-05-2024 04:00:00,21.613267,73.010555,PM2.5,NA,NA,NA
India,Gujarat,Ankleshwar,"GIDC, Ankleshwar - GPCB",15-05-2024 04:00:00,21.613267,73.010555,PM10,NA,NA,NA
India,Gujarat,Ankleshwar,"GIDC, Ankleshwar - GPCB",15-05-2024 04:00:00,21.613267,73.010555,NO2,NA,NA,NA
India,Gujarat,Gandhinagar,"Sector-10, Gandhinagar - GPCB",15-05-2024 04:00:00,23.221714,72.654328,NH3,2,2,2
India,Gujarat,Nandesari,"GIDC, Nandesari - Nandesari Ind. Association",15-05-2024 04:00:00,22.410802,73.097923,PM2.5,22,354,125
India,Gujarat,Surat,"Science Center, Surat - SMC",15-05-2024 04:00:00,21.170046,72.795405,PM2.5,2,16,5
India,Gujarat,Vapi,"Phase-1 GIDC, Vapi - GPCB",15-05-2024 04:00:00,20.362421,72.918013,PM2.5,NA,NA,NA
India,Gujarat,Vapi,"Phase-1 GIDC, Vapi - GPCB",15-05-2024 04:00:00,20.362421,72.918013,OZONE,NA,NA,NA
India,Haryana,Ambala,"Patti Mehar, Ambala - HSPCB",15-05-2024 04:00:00,30.379589,76.778328,SO2,3,38,22
India,Haryana,Ambala,"Patti Mehar, Ambala - HSPCB",15-05-2024 04:00:00,30.379589,76.778328,CO,30,60,38
India,Haryana,Bahadurgarh,"Arya Nagar, Bahadurgarh - HSPCB",15-05-2024 04:00:00,28.6701,76.9254,PM10,107,410,196
India,Haryana,Bahadurgarh,"Arya Nagar, Bahadurgarh - HSPCB",15-05-2024 04:00:00,28.6701,76.9254,SO2,16,106,50
India,Haryana,Ballabgarh,"Nathu Colony, Ballabgarh - HSPCB",15-05-2024 04:00:00,28.3419248,77.319699,PM10,142,153,146
India,Haryana,Faridabad,"Sector 11, Faridabad - HSPCB",15-05-2024 04:00:00,28.376058,77.315741,CO,27,72,55
India,Haryana,Faridabad,"Sector 30, Faridabad - HSPCB",15-05-2024 04:00:00,28.4417,77.3217,PM10,182,222,207
India,Haryana,Faridabad,"Sector 30, Faridabad - HSPCB",15-05-2024 04:00:00,28.4417,77.3217,SO2,5,6,6
India,Haryana,Faridabad,"Sector 30, Faridabad - HSPCB",15-05-2024 04:00:00,28.4417,77.3217,CO,53,56,55
India,Haryana,Faridabad,"Sector 30, Faridabad - HSPCB",15-05-2024 04:00:00,28.4417,77.3217,OZONE,58,62,60
India,Haryana,Faridabad,"Sector- 16A, Faridabad - HSPCB",15-05-2024 04:00:00,28.4088421,77.3099081,NO2,2,13,7
India,Haryana,Faridabad,"Sector- 16A, Faridabad - HSPCB",15-05-2024 04:00:00,28.4088421,77.3099081,OZONE,14,14,14
India,Haryana,Fatehabad,"Huda Sector, Fatehabad - HSPCB",15-05-2024 04:00:00,29.503664,75.467934,PM10,NA,NA,NA
India,Haryana,Fatehabad,"Huda Sector, Fatehabad - HSPCB",15-05-2024 04:00:00,29.503664,75.467934,NO2,NA,NA,NA
India,Haryana,Gurugram,"NISE Gwal Pahari, Gurugram - IMD",15-05-2024 04:00:00,28.422681,77.148944,OZONE,6,118,18
India,Haryana,Gurugram,"Sector-51, Gurugram - HSPCB",15-05-2024 04:00:00,28.4227,77.0667,NO2,13,29,23
India,Haryana,Gurugram,"Sector-51, Gurugram - HSPCB",15-05-2024 04:00:00,28.4227,77.0667,SO2,2,4,3
India,Haryana,Gurugram,"Vikas Sadan, Gurugram - HSPCB",15-05-2024 04:00:00,28.4501238,77.0263051,OZONE,8,68,13
India,Haryana,Jind,"Police Lines, Jind - HSPCB",15-05-2024 04:00:00,29.307814,76.337619,PM2.5,49,226,108
India,Haryana,Jind,"Police Lines, Jind - HSPCB",15-05-2024 04:00:00,29.307814,76.337619,NO2,2,38,10
India,Haryana,Jind,"Police Lines, Jind - HSPCB",15-05-2024 04:00:00,29.307814,76.337619,NH3,1,3,1
India,Haryana,Kurukshetra,"Sector-7, Kurukshetra - HSPCB",15-05-2024 04:00:00,29.966942,76.875879,NH3,3,5,5
India,Haryana,Mandikhera,"General Hospital, Mandikhera - HSPCB",15-05-2024 04:00:00,27.9002,76.9938,NO2,20,23,21
India,Haryana,Manesar,"Sector-2 IMT, Manesar - HSPCB",15-05-2024 04:00:00,28.360699,76.936090,SO2,NA,NA,NA
India,Haryana,Narnaul,"Shastri Nagar, Narnaul - HSPCB",15-05-2024 04:00:00,28.060249,76.113115,NH3,5,27,15
India,Haryana,Narnaul,"Shastri Nagar, Narnaul - HSPCB",15-05-2024 04:00:00,28.060249,76.113115,SO2,13,13,13
India,Haryana,Palwal,"Shyam Nagar, Palwal - HSPCB",15-05-2024 04:00:00,28.1485564,77.3320667,OZONE,4,79,14
India,Haryana,Panipat,"Sector-18, Panipat - HSPCB",15-05-2024 04:00:00,29.497973,76.993331,OZONE,29,30,30
India,Haryana,Rohtak,"MD University, Rohtak - HSPCB",15-05-2024 04:00:00,28.52123,76.37138,PM2.5,12,375,159
India,Haryana,Rohtak,"MD University, Rohtak - HSPCB",15-05-2024 04:00:00,28.52123,76.37138,CO,46,52,49
India,Haryana,Sirsa,"F-Block, Sirsa - HSPCB",15-05-2024 04:00:00,29.536400,75.015800,SO2,83,86,85
India,Haryana,Sonipat,"Murthal, Sonipat - HSPCB",15-05-2024 04:00:00,29.027200,77.062100,CO,2,38,29
India,Haryana,Yamuna Nagar,"Gobind Pura, Yamuna Nagar - HSPCB",15-05-2024 04:00:00,30.1480566,77.2893471,NH3,1,6,4
India,Himachal Pradesh,Baddi,"HIMUDA Complex Phase-1, Baddi - HPPCB",15-05-2024 04:00:00,30.943887,76.801991,NH3,2,4,3
India,Himachal Pradesh,Baddi,"HIMUDA Complex Phase-1, Baddi - HPPCB",15-05-2024 04:00:00,30.943887,76.801991,OZONE,87,302,130
India,Jharkhand,Dhanbad,"Kalakusuma, Dhanbad - DMC",15-05-2024 04:00:00,23.811548,86.481238,SO2,NA,NA,NA
India,Jharkhand,Dhanbad,"Sardar Patel Nagar, Dhanbad - JSPCB",15-05-2024 04:00:00,23.80569,86.44268,PM10,66,142,101
India,Karnataka,Bagalkot,"Vidayagiri, Bagalkot - KSPCB",15-05-2024 04:00:00,16.172806,75.659694,PM2.5,25,37,36
India,Karnataka,Bagalkot,"Vidayagiri, Bagalkot - KSPCB",15-05-2024 04:00:00,16.172806,75.659694,NO2,9,10,9
India,Karnataka,Belgaum,"Ramteerth Nagar, Belgaum - KSPCB",15-05-2024 04:00:00,15.888653,74.541751,SO2,8,9,9
India,Karnataka,Bengaluru,"Bapuji Nagar, Bengaluru - KSPCB",15-05-2024 04:00:00,12.951913,77.539784,NO2,10,11,11
India,Karnataka,Bengaluru,"Bapuji Nagar, Bengaluru - KSPCB",15-05-2024 04:00:00,12.951913,77.539784,SO2,5,8,6
India,Karnataka,Bengaluru,"Hebbal, Bengaluru - KSPCB",15-05-2024 04:00:00,13.029152,77.585901,PM2.5,13,66,46
India,Karnataka,Bengaluru,"Hebbal, Bengaluru - KSPCB",15-05-2024 04:00:00,13.029152,77.585901,SO2,14,24,19
India,Karnataka,Bengaluru,"Hombegowda Nagar, Bengaluru - KSPCB",15-05-2024 04:00:00,12.938539,77.590100,NH3,2,3,2
India,Karnataka,Bengaluru,"Hombegowda Nagar, Bengaluru - KSPCB",15-05-2024 04:00:00,12.938539,77.590100,CO,16,50,25
India,Karnataka,Bengaluru,"Jayanagar 5th Block, Bengaluru - KSPCB",15-05-2024 04:00:00,12.920984,77.584908,PM10,11,110,61
India,Karnataka,Bengaluru,"Jayanagar 5th Block, Bengaluru - KSPCB",15-05-2024 04:00:00,12.920984,77.584908,CO,20,22,22
India,Karnataka,Bengaluru,"Peenya, Bengaluru - CPCB",15-05-2024 04:00:00,13.0270199,77.494094,CO,40,146,91
India,Karnataka,Bengaluru,"RVCE-Mailasandra, Bengaluru - KSPCB",15-05-2024 04:00:00,12.921418,77.502466,OZONE,39,39,39
India,Karnataka,Bengaluru,"Sanegurava Halli, Bengaluru - KSPCB",15-05-2024 04:00:00,12.990328,77.5431385,PM10,34,102,50
India,Karnataka,Bengaluru,"Shivapura_Peenya, Bengaluru - KSPCB",15-05-2024 04:00:00,13.0246342,77.5080115,CO,22,49,30
India,Karnataka,Bengaluru,"Silk Board, Bengaluru - KSPCB",15-05-2024 04:00:00,12.917348,77.622813,PM2.5,30,70,45
India,Karnataka,Bengaluru,"Silk Board, Bengaluru - KSPCB",15-05-2024 04:00:00,12.917348,77.622813,PM10,47,258,96
India,Karnataka,Bidar,"Naubad, Bidar - KSPCB",15-05-2024 04:00:00,17.930306,77.482194,CO,70,108,95
India,Karnataka,Bidar,"Naubad, Bidar - KSPCB",15-05-2024 04:00:00,17.930306,77.482194,OZONE,19,57,33
India,Karnataka,Chamarajanagar,"Urban, Chamarajanagar - KSPCB",15-05-2024 04:00:00,11.55358,76.55521,SO2,2,7,4
India,Karnataka,Chikkaballapur,"Chikkaballapur Rural, Chikkaballapur - KSPCB",15-05-2024 04:00:00,13.428828,77.731418,NO2,5,10,7
India,Karnataka,Chikkaballapur,"Chikkaballapur Rural, Chikkaballapur - KSPCB",15-05-2024 04:00:00,13.428828,77.731418,NH3,1,2,2
India,Karnataka,Chikkamagaluru,"Kalyana Nagara, Chikkamagaluru - KSPCB",15-05-2024 04:00:00,13.328028,75.797056,NH3,NA,NA,NA
India,Karnataka,Davanagere,"Devaraj Urs Badavane, Davanagere - KSPCB",15-05-2024 04:00:00,14.475800,75.905200,PM2.5,17,48,34
India,Karnataka,Dharwad,"Kalabhavan, Dharwad - KSPCB",15-05-2024 04:00:00,15.459706,75.008381,PM2.5,2,71,37
India,Karnataka,Dharwad,"Kalabhavan, Dharwad - KSPCB",15-05-2024 04:00:00,15.459706,75.008381,NO2,5,19,13
India,Karnataka,Dharwad,"Kalabhavan, Dharwad - KSPCB",15-05-2024 04:00:00,15.459706,75.008381,SO2,3,6,5
India,Karnataka,Gadag,"Panchal Nagar, Gadag - KSPCB",15-05-2024 04:00:00,15.411456,75.638133,SO2,11,22,14
India,Karnataka,Hassan,"B.Katihalli, Hassan - KSPCB",15-05-2024 04:00:00,13.008556,76.125258,PM10,27,114,59
India,Karnataka,Hassan,"B.Katihalli, Hassan - KSPCB",15-05-2024 04:00:00,13.008556,76.125258,NH3,4,10,5
India,Karnataka,Haveri,"Ashwini Nagar, Haveri - KSPCB",15-05-2024 04:00:00,14.791800,75.389600,PM10,NA,NA,NA
India,Karnataka,Hubballi,"Deshpande Nagar, Hubballi - KSPCB",15-05-2024 04:00:00,15.351773,75.140726,CO,1,3,1
