country,state,city,station,last_update,latitude,longitude,pollutant_id,pollutant_min,pollutant_max,pollutant_avg
India,Andhra_Pradesh,Amaravati,"Secretariat, Amaravati - APPCB",12-01-2024 04:00:00,16.5150833,80.5181667,PM2.5,102,317,210
India,Andhra_Pradesh,Amaravati,"Secretariat, Amaravati - APPCB",12-01-2024 04:00:00,16.5150833,80.5181667,PM10,109,176,135
India,Andhra_Pradesh,Chittoor,"Gangineni Cheruvu, Chittoor - APPCB",12-01-2024 04:00:00,13.204880,79.097889,PM2.5,30,114,52
India,Andhra_Pradesh,Kadapa,"Yerramukkapalli, Kadapa - APPCB",12-01-2024 04:00:00,14.465052,78.824187,PM2.5,43,98,57
India,Andhra_Pradesh,Rajamahendravaram,"Anand Kala Kshetram, Rajamahendravaram - APPCB",12-01-2024 04:00:00,16.9872867,81.7363176,PM2.5,210,344,288
India,Andhra_Pradesh,Rajamahendravaram,"Anand Kala Kshetram, Rajamahendravaram - APPCB",12-01-2024 04:00:00,16.9872867,81.7363176,NO2,20,91,39
India,Andhra_Pradesh,Rajamahendravaram,"Anand Kala Kshetram, Rajamahendravaram - APPCB",12-01-2024 04:00:00,16.9872867,81.7363176,SO2,13,44,22
India,Andhra_Pradesh,Rajamahendravaram,"Anand Kala Kshetram, Rajamahendravaram - APPCB",12-01-2024 04:00:00,16.9872867,81.7363176,CO,26,94,53
India,Andhra_Pradesh,Tirupati,"Tirumala, Tirupati - APPCB",12-01-2024 04:00:00,13.67,79.35,OZONE,29,46,35
India,Andhra_Pradesh,Tirupati,"Vaikuntapuram, Tirupati - APPCB",12-01-2024 04:00:00,13.615387,79.409230,NO2,16,30,21
India,Andhra_Pradesh,Tirupati,"Vaikuntapuram, Tirupati - APPCB",12-01-2024 04:00:00,13.615387,79.409230,NH3,2,4,3
India,Andhra_Pradesh,Vijayawada,"HB Colony, Vijayawada - APPCB",12-01-2024 04:00:00,16.536107,80.594233,PM10,43,119,63
India,Andhra_Pradesh,Vijayawada,"HB Colony, Vijayawada - APPCB",12-01-2024 04:00:00,16.536107,80.594233,SO2,3,18,9
India,Andhra_Pradesh,Vijayawada,"Kanuru, Vijayawada - APPCB",12-01-2024 04:00:00,16.486692,80.699436,PM2.5,72,256,121
India,Andhra_Pradesh,Vijayawada,"Rajiv Gandhi Park, Vijayawada - APPCB",12-01-2024 04:00:00,16.509717,80.612222,SO2,NA,NA,NA
India,Arunachal_Pradesh,Naharlagun,"Naharlagun, Naharlagun - APSPCB",12-01-2024 04:00:00,27.103358,93.679645,SO2,3,3,3
India,Arunachal_Pradesh,Naharlagun,"Naharlagun, Naharlagun - APSPCB",12-01-2024 04:00:00,27.103358,93.679645,CO,15,61,43
India,Assam,Byrnihat,"Central Academy for SFS, Byrnihat - PCBA",12-01-2024 04:00:00,26.071318,91.87488,CO,22,74,49
India,Assam,Guwahati,"IITG, Guwahati - PCBA",12-01-2024 04:00:00,26.2028636,91.70046436,PM2.5,NA,NA,NA
India,Assam,Guwahati,"IITG, Guwahati - PCBA",12-01-2024 04:00:00,26.2028636,91.70046436,NH3,NA,NA,NA
India,Assam,Guwahati,"LGBI Airport, Guwahati - PCBA",12-01-2024 04:00:00,26.10887,91.589544,SO2,7,15,9
India,Assam,Guwahati,"Pan Bazaar, Guwahati - PCBA",12-01-2024 04:00:00,26.187500,91.744194,PM10,126,198,164
India,Assam,Guwahati,"Pan Bazaar, Guwahati - PCBA",12-01-2024 04:00:00,26.187500,91.744194,NO2,3,9,5
India,Assam,Guwahati,"Railway Colony, Guwahati - PCBA",12-01-2024 04:00:00,26.181742,91.78063,PM10,141,193,158
India,Assam,Nagaon,"Christianpatty, Nagaon - PCBA",12-01-2024 04:00:00,26.349082,92.68449,NO2,14,25,19
India,Assam,Nagaon,"Christianpatty, Nagaon - PCBA",12-01-2024 04:00:00,26.349082,92.68449,SO2,3,7,4
India,Assam,Nalbari,"Bata Chowk, Nalbari - PCBA",12-01-2024 04:00:00,26.446912,91.439057,CO,26,107,72
India,Assam,Nalbari,"Bata Chowk, Nalbari - PCBA",12-01-2024 04:00:00,26.446912,91.439057,OZONE,12,20,18
India,Assam,Silchar,"Tarapur, Silchar - PCBA",12-01-2024 04:00:00,24.82827,92.79525,NH3,1,1,1
India,Assam,Sivasagar,"Girls College, Sivasagar - PCBA",12-01-2024 04:00:00,26.987634,94.636574,PM2.5,11,64,41
India,Bihar,Aurangabad,"Gurdeo Nagar, Aurangabad - BSPCB",12-01-2024 04:00:00,24.75746,84.366208,SO2,6,17,14
India,Bihar,Bettiah,"Kamalnath Nagar, Bettiah - BSPCB",12-01-2024 04:00:00,26.80365,84.51954,PM2.5,NA,NA,NA
India,Bihar,Bettiah,"Kamalnath Nagar, Bettiah - BSPCB",12-01-2024 04:00:00,26.80365,84.51954,NH3,3,3,3
India,Bihar,Bettiah,"Kamalnath Nagar, Bettiah - BSPCB",12-01-2024 04:00:00,26.80365,84.51954,CO,38,107,75
India,Bihar,Bhagalpur,"DM Office_Kachari Chowk, Bhagalpur - BSPCB",12-01-2024 04:00:00,25.251013,86.989001,PM10,155,291,227
India,Bihar,Bhagalpur,"DM Office_Kachari Chowk, Bhagalpur - BSPCB",12-01-2024 04:00:00,25.251013,86.989001,NO2,25,110,44
India,Bihar,Bhagalpur,"DM Office_Kachari Chowk, Bhagalpur - BSPCB",12-01-2024 04:00:00,25.251013,86.989001,SO2,17,37,28
India,Bihar,Bhagalpur,"DM Office_Kachari Chowk, Bhagalpur - BSPCB",12-01-2024 04:00:00,25.251013,86.989001,CO,40,62,53
India,Bihar,Bhagalpur,"Mayaganj, Bhagalpur - BSPCB",12-01-2024 04:00:00,25.265194,87.012947,CO,7,12,9
India,Bihar,Bihar Sharif,"D M Colony, Bihar Sharif - BSPCB",12-01-2024 04:00:00,25.204762,85.514960,NH3,2,2,2
India,Bihar,Bihar Sharif,"D M Colony, Bihar Sharif - BSPCB",12-01-2024 04:00:00,25.204762,85.514960,CO,2,70,29
India,Bihar,Bihar Sharif,"D M Colony, Bihar Sharif - BSPCB",12-01-2024 04:00:00,25.204762,85.514960,OZONE,2,15,7
India,Bihar,Chhapra,"Darshan Nagar, Chhapra - BSPCB",12-01-2024 04:00:00,25.7808257,84.7446768,PM10,NA,NA,NA
India,Bihar,Chhapra,"Darshan Nagar, Chhapra - BSPCB",12-01-2024 04:00:00,25.7808257,84.7446768,SO2,NA,NA,NA
India,Bihar,Gaya,"Collectorate, Gaya - BSPCB",12-01-2024 04:00:00,24.7955,84.9994,PM2.5,72,303,178
India,Bihar,Gaya,"Collectorate, Gaya - BSPCB",12-01-2024 04:00:00,24.7955,84.9994,SO2,16,25,20
India,Bihar,Gaya,"Kareemganj, Gaya - BSPCB",12-01-2024 04:00:00,24.792403,84.992416,NO2,30,31,30
India,Bihar,Hajipur,"Industrial Area, Hajipur - BSPCB",12-01-2024 04:00:00,25.697189,85.245900,CO,26,66,62
India,Bihar,Katihar,"Mirchaibari, Katihar - BSPCB",12-01-2024 04:00:00,25.560083,87.553265,NO2,16,30,22
India,Bihar,Kishanganj,"SDM Office_Khagra, Kishanganj - BSPCB",12-01-2024 04:00:00,26.0881305,87.93840336,NO2,28,33,30
India,Bihar,Kishanganj,"SDM Office_Khagra, Kishanganj - BSPCB",12-01-2024 04:00:00,26.0881305,87.93840336,SO2,20,25,23
India,Bihar,Kishanganj,"SDM Office_Khagra, Kishanganj - BSPCB",12-01-2024 04:00:00,26.0881305,87.93840336,OZONE,15,24,16
India,Bihar,Motihari,"Gandak Colony, Motihari - BSPCB",12-01-2024 04:00:00,26.63086,84.90051,PM10,81,166,124
India,Bihar,Motihari,"Gandak Colony, Motihari - BSPCB",12-01-2024 04:00:00,26.63086,84.90051,NO2,52,99,82
India,Bihar,Motihari,"Gandak Colony, Motihari - BSPCB",12-01-2024 04:00:00,26.63086,84.90051,NH3,8,16,13
India,Bihar,Muzaffarpur,"Buddha Colony, Muzaffarpur - BSPCB",12-01-2024 04:00:00,26.11442,85.39813,NH3,16,25,20
India,Bihar,Muzaffarpur,"Buddha Colony, Muzaffarpur - BSPCB",12-01-2024 04:00:00,26.11442,85.39813,SO2,7,12,9
India,Bihar,Muzaffarpur,"MIT-Daudpur Kothi, Muzaffarpur - BSPCB",12-01-2024 04:00:00,26.1403345,85.3650192,NO2,2,16,7
India,Bihar,Muzaffarpur,"MIT-Daudpur Kothi, Muzaffarpur - BSPCB",12-01-2024 04:00:00,26.1403345,85.3650192,OZONE,3,31,3
India,Bihar,Patna,"Govt. High School Shikarpur, Patna - BSPCB",12-01-2024 04:00:00,25.592539,85.227158,PM2.5,27,462,162
India,Bihar,Patna,"IGSC Planetarium Complex, Patna - BSPCB",12-01-2024 04:00:00,25.610369,85.132568,NO2,4,204,39
India,Bihar,Patna,"Muradpur, Patna - BSPCB",12-01-2024 04:00:00,25.619651,85.147382,PM10,236,391,291
India,Bihar,Patna,"Muradpur, Patna - BSPCB",12-01-2024 04:00:00,25.619651,85.147382,NO2,8,20,13
India,Bihar,Patna,"Samanpura, Patna - BSPCB",12-01-2024 04:00:00,25.596727,85.085624,PM10,195,467,274
India,Bihar,Purnia,"Mariam Nagar, Purnia - BSPCB",12-01-2024 04:00:00,25.366336,87.117468,PM2.5,88,322,206
India,Bihar,Purnia,"Mariam Nagar, Purnia - BSPCB",12-01-2024 04:00:00,25.366336,87.117468,NO2,12,14,13
India,Bihar,Rajgir,"Dangi Tola, Rajgir - BSPCB",12-01-2024 04:00:00,25.03280,85.41948,NO2,5,17,7
India,Bihar,Rajgir,"Dangi Tola, Rajgir - BSPCB",12-01-2024 04:00:00,25.03280,85.41948,NH3,1,2,1
India,Bihar,Rajgir,"Dangi Tola, Rajgir - BSPCB",12-01-2024 04:00:00,25.03280,85.41948,CO,10,16,11
India,Bihar,Rajgir,"Dangi Tola, Rajgir - BSPCB",12-01-2024 04:00:00,25.03280,85.41948,OZONE,21,24,23
India,Bihar,Saharsa,"Police Line, Saharsa - BSPCB",12-01-2024 04:00:00,25.892357,86.590325,PM2.5,77,413,287
India,Bihar,Saharsa,"Police Line, Saharsa - BSPCB",12-01-2024 04:00:00,25.892357,86.590325,NO2,6,9,7
India,Bihar,Saharsa,"Police Line, Saharsa - BSPCB",12-01-2024 04:00:00,25.892357,86.590325,NH3,9,9,9
India,Bihar,Saharsa,"Police Line, Saharsa - BSPCB",12-01-2024 04:00:00,25.892357,86.590325,CO,1,48,27
India,Bihar,Samastipur,"DM Office_Kasipur, Samastipur - BSPCB",12-01-2024 04:00:00,25.859655,85.77944,PM2.5,65,308,146
India,Bihar,Samastipur,"DM Office_Kasipur, Samastipur - BSPCB",12-01-2024 04:00:00,25.859655,85.77944,SO2,6,17,12
India,Bihar,Sasaram,"Dada Peer, Sasaram - BSPCB",12-01-2024 04:00:00,24.952822,84.002396,NO2,2,14,6
India,Bihar,Siwan,"Chitragupta Nagar, Siwan - BSPCB",12-01-2024 04:00:00,26.2271665,84.3570427,PM2.5,72,297,162
India,Chandigarh,Chandigarh,"Sector 22, Chandigarh - CPCC",12-01-2024 04:00:00,30.735567,76.775714,NH3,5,11,7
India,Chandigarh,Chandigarh,"Sector 22, Chandigarh - CPCC",12-01-2024 04:00:00,30.735567,76.775714,SO2,3,21,8
India,Chhattisgarh,Bhilai,"Civic Center, Bhilai - Bhilai Steel Plant",12-01-2024 04:00:00,21.185571,81.343175,NO2,NA,NA,NA
India,Chhattisgarh,Bhilai,"Hathkhoj, Bhilai - CECB",12-01-2024 04:00:00,21.224231,81.408350,PM10,40,186,98
India,Chhattisgarh,Bhilai,"Hathkhoj, Bhilai - CECB",12-01-2024 04:00:00,21.224231,81.408350,SO2,14,53,24
India,Chhattisgarh,Bilaspur,"Mangala, Bilaspur - NTPC",12-01-2024 04:00:00,22.08815,82.13737,PM2.5,45,318,121
India,Chhattisgarh,Chhal,"Nawapara SECL Colony, Chhal - CECB",12-01-2024 04:00:00,22.118125,83.140608,PM2.5,17,96,60
India,Chhattisgarh,Chhal,"Nawapara SECL Colony, Chhal - CECB",12-01-2024 04:00:00,22.118125,83.140608,OZONE,7,61,11
India,Chhattisgarh,Korba,"Rampur, Korba - CECB",12-01-2024 04:00:00,22.368195,82.746431,PM2.5,27,112,58
India,Chhattisgarh,Korba,"Urja Nagar, Korba - CECB",12-01-2024 04:00:00,22.348441,82.549611,NO2,56,63,60
India,Chhattisgarh,Korba,"Urja Nagar, Korba - CECB",12-01-2024 04:00:00,22.348441,82.549611,NH3,4,5,5
India,Chhattisgarh,Kunjemura,"OP Jindal School, Kunjemura - CECB",12-01-2024 04:00:00,22.126650,83.483212,NO2,14,80,46
India,Chhattisgarh,Kunjemura,"OP Jindal School, Kunjemura - CECB",12-01-2024 04:00:00,22.126650,83.483212,CO,29,72,40
India,Chhattisgarh,Milupara,"Govt. Higher Secondary School, Milupara - CECB",12-01-2024 04:00:00,22.1910172,83.5197009,NH3,1,2,2
India,Chhattisgarh,Raipur,"AIIMS, Raipur - CECB",12-01-2024 04:00:00,21.258815,81.578979,SO2,5,10,8
India,Chhattisgarh,Raipur,"Krishak Nagar, Raipur - CECB",12-01-2024 04:00:00,21.237755,81.705301,NO2,26,40,32
India,Chhattisgarh,Raipur,"Siltara Phase-II, Raipur - CECB",12-01-2024 04:00:00,21.371751,81.664929,SO2,2,23,5
India,Chhattisgarh,Raipur,"Siltara Phase-II, Raipur - CECB",12-01-2024 04:00:00,21.371751,81.664929,CO,4,54,42
India,Chhattisgarh,Tumidih,"OP Jindal Industrial Park, Tumidih - CECB",12-01-2024 04:00:00,22.06631475,83.33820077,PM2.5,29,118,59
India,Chhattisgarh,Tumidih,"OP Jindal Industrial Park, Tumidih - CECB",12-01-2024 04:00:00,22.06631475,83.33820077,PM10,34,107,67
India,Delhi,Delhi,"Anand Vihar, Delhi - DPCC",12-01-2024 04:00:00,28.647622,77.3158090,PM2.5,352,415,384
India,Delhi,Delhi,"Anand Vihar, Delhi - DPCC",12-01-2024 04:00:00,28.647622,77.3158090,NO2,49,131,95
India,Delhi,Delhi,"Bawana, Delhi - DPCC",12-01-2024 04:00:00,28.776200,77.051074,PM10,164,439,264
India,Delhi,Delhi,"Bawana, Delhi - DPCC",12-01-2024 04:00:00,28.776200,77.051074,NH3,7,12,10
India,Delhi,Delhi,"Bawana, Delhi - DPCC",12-01-2024 04:00:00,28.776200,77.051074,SO2,3,5,4
India,Delhi,Delhi,"CRRI Mathura Road, Delhi - IMD",12-01-2024 04:00:00,28.5512005,77.2735737,PM2.5,NA,NA,NA
India,Delhi,Delhi,"CRRI Mathura Road, Delhi - IMD",12-01-2024 04:00:00,28.5512005,77.2735737,OZONE,NA,NA,NA
India,Delhi,Delhi,"DTU, Delhi - CPCB",12-01-2024 04:00:00,28.7500499,77.1112615,PM10,229,412,304
India,Delhi,Delhi,"DTU, Delhi - CPCB",12-01-2024 04:00:00,28.7500499,77.1112615,NO2,19,63,38
India,Delhi,Delhi,"Dr. Karni Singh Shooting Range, Delhi - DPCC",12-01-2024 04:00:00,28.498571,77.264840,NO2,45,143,90
India,Delhi,Delhi,"IGI Airport (T3), Delhi - IMD",12-01-2024 04:00:00,28.5627763,77.1180053,NO2,NA,NA,NA
India,Delhi,Delhi,"IGI Airport (T3), Delhi - IMD",12-01-2024 04:00:00,28.5627763,77.1180053,OZONE,NA,NA,NA
India,Delhi,Delhi,"ITO, Delhi - CPCB",12-01-2024 04:00:00,28.628624,77.241060,SO2,3,22,11
India,Delhi,Delhi,"ITO, Delhi - CPCB",12-01-2024 04:00:00,28.628624,77.241060,OZONE,18,279,18
India,Delhi,Delhi,"Jahangirpuri, Delhi - DPCC",12-01-2024 04:00:00,28.732820,77.170633,PM2.5,326,474,391
India,Delhi,Delhi,"Jawaharlal Nehru Stadium, Delhi - DPCC",12-01-2024 04:00:00,28.580280,77.233829,CO,52,109,93
India,Delhi,Delhi,"Lodhi Road, Delhi - IITM",12-01-2024 04:00:00,28.588333,77.221667,CO,67,68,68
India,Delhi,Delhi,"Lodhi Road, Delhi - IMD",12-01-2024 04:00:00,28.5918245,77.2273074,NO2,NA,NA,NA
India,Delhi,Delhi,"Major Dhyan Chand National Stadium, Delhi - DPCC",12-01-2024 04:00:00,28.611281,77.237738,PM10,NA,NA,NA
India,Delhi,Delhi,"Major Dhyan Chand National Stadium, Delhi - DPCC",12-01-2024 04:00:00,28.611281,77.237738,NO2,49,98,77
India,Delhi,Delhi,"Major Dhyan Chand National Stadium, Delhi - DPCC",12-01-2024 04:00:00,28.611281,77.237738,CO,43,119,92
India,Delhi,Delhi,"Mandir Marg, Delhi - DPCC",12-01-2024 04:00:00,28.636429,77.201067,PM2.5,325,404,357
India,Delhi,Delhi,"Mandir Marg, Delhi - DPCC",12-01-2024 04:00:00,28.636429,77.201067,NO2,89,126,108
India,Delhi,Delhi,"Mandir Marg, Delhi - DPCC",12-01-2024 04:00:00,28.636429,77.201067,SO2,2,17,8
India,Delhi,Delhi,"Mandir Marg, Delhi - DPCC",12-01-2024 04:00:00,28.636429,77.201067,CO,42,105,82
India,Delhi,Delhi,"Mundka, Delhi - DPCC",12-01-2024 04:00:00,28.684678,77.076574,PM2.5,335,500,383
India,Delhi,Delhi,"NSIT Dwarka, Delhi - CPCB",12-01-2024 04:00:00,28.60909,77.0325413,NH3,6,8,7
India,Delhi,Delhi,"NSIT Dwarka, Delhi - CPCB",12-01-2024 04:00:00,28.60909,77.0325413,CO,22,72,56
India,Delhi,Delhi,"Najafgarh, Delhi - DPCC",12-01-2024 04:00:00,28.570173,76.933762,NO2,15,42,24
India,Delhi,Delhi,"Nehru Nagar, Delhi - DPCC",12-01-2024 04:00:00,28.567890,77.250515,PM10,229,434,309
India,Delhi,Delhi,"Nehru Nagar, Delhi - DPCC",12-01-2024 04:00:00,28.567890,77.250515,SO2,7,13,10
India,Delhi,Delhi,"New Moti Bagh, Delhi - MHUA",12-01-2024 04:00:00,28.57834,77.18400,PM2.5,314,440,359
India,Delhi,Delhi,"Okhla Phase-2, Delhi - DPCC",12-01-2024 04:00:00,28.530785,77.271255,CO,27,117,82
India,Delhi,Delhi,"Patparganj, Delhi - DPCC",12-01-2024 04:00:00,28.623763,77.287209,NH3,6,12,9
India,Delhi,Delhi,"Pusa, Delhi - IMD",12-01-2024 04:00:00,28.636110,77.173332,CO,NA,NA,NA
India,Delhi,Delhi,"R K Puram, Delhi - DPCC",12-01-2024 04:00:00,28.563262,77.186937,PM2.5,341,440,377
India,Delhi,Delhi,"R K Puram, Delhi - DPCC",12-01-2024 04:00:00,28.563262,77.186937,SO2,11,39,22
India,Delhi,Delhi,"Sirifort, Delhi - CPCB",12-01-2024 04:00:00,28.5504249,77.2159377,PM2.5,330,416,370
India,Delhi,Delhi,"Sonia Vihar, Delhi - DPCC",12-01-2024 04:00:00,28.710508,77.249485,SO2,3,6,5
India,Delhi,Delhi,"Sonia Vihar, Delhi - DPCC",12-01-2024 04:00:00,28.710508,77.249485,CO,64,107,95
India,Delhi,Delhi,"Sri Aurobindo Marg, Delhi - DPCC",12-01-2024 04:00:00,28.531346,77.190156,SO2,8,15,11
India,Gujarat,Ahmedabad,"Chandkheda, Ahmedabad - IITM",12-01-2024 04:00:00,23.107969,72.574648,PM2.5,54,166,89
India,Gujarat,Ahmedabad,"Chandkheda, Ahmedabad - IITM",12-01-2024 04:00:00,23.107969,72.574648,NH3,3,4,4
India,Gujarat,Ahmedabad,"Chandkheda, Ahmedabad - IITM",12-01-2024 04:00:00,23.107969,72.574648,SO2,3,9,5
India,Gujarat,Ahmedabad,"Gyaspur, Ahmedabad - IITM",12-01-2024 04:00:00,22.977134,72.553024,NO2,11,17,14
India,Gujarat,Ahmedabad,"Gyaspur, Ahmedabad - IITM",12-01-2024 04:00:00,22.977134,72.553024,CO,22,33,28
India,Gujarat,Ahmedabad,"Maninagar, Ahmedabad - GPCB",12-01-2024 04:00:00,23.002657,72.591912,NO2,16,122,50
India,Gujarat,Ahmedabad,"Maninagar, Ahmedabad - GPCB",12-01-2024 04:00:00,23.002657,72.591912,CO,18,75,40
India,Gujarat,Ahmedabad,"Raikhad, Ahmedabad - IITM",12-01-2024 04:00:00,23.020509,72.579261,PM10,89,117,97
India,Gujarat,Ahmedabad,"Raikhad, Ahmedabad - IITM",12-01-2024 04:00:00,23.020509,72.579261,CO,31,105,92
India,Gujarat,Ahmedabad,"SAC ISRO Bopal, Ahmedabad - IITM",12-01-2024 04:00:00,23.041137,72.456691,PM10,80,165,116
India,Gujarat,Ahmedabad,"SAC ISRO Satellite, Ahmedabad - IITM",12-01-2024 04:00:00,23.023389,72.515201,NO2,13,17,15
India,Gujarat,Ahmedabad,"SVPI Airport Hansol, Ahmedabad - IITM",12-01-2024 04:00:00,23.076793,72.627874,PM2.5,46,119,72
India,Gujarat,Ahmedabad,"Sardar Vallabhbhai Patel Stadium, Ahmedabad - IITM",12-01-2024 04:00:00,23.043070,72.562968,NH3,3,3,3
India,Gujarat,Ahmedabad,"Sardar Vallabhbhai Patel Stadium, Ahmedabad - IITM",12-01-2024 04:00:00,23.043070,72.562968,CO,22,107,64
India,Gujarat,Ankleshwar,"GIDC, Ankleshwar - GPCB",12-01-2024 04:00:00,21.613267,73.010555,SO2,20,101,43
India,Gujarat,Gandhinagar,"GIFT City, Gandhinagar - IITM",12-01-2024 04:00:00,23.163798,72.677768,NH3,2,2,2
India,Gujarat,Gandhinagar,"GIFT City, Gandhinagar - IITM",12-01-2024 04:00:00,23.163798,72.677768,CO,18,30,26
India,Gujarat,Gandhinagar,"IIPHG Lekawada, Gandhinagar - IITM",12-01-2024 04:00:00,23.243639,72.68994,NO2,14,15,15
India,Gujarat,Gandhinagar,"Sector-10, Gandhinagar - GPCB",12-01-2024 04:00:00,23.221714,72.654328,PM2.5,29,55,41
India,Gujarat,Gandhinagar,"Sector-10, Gandhinagar - GPCB",12-01-2024 04:00:00,23.221714,72.654328,OZONE,15,15,15
India,Gujarat,Vapi,"Phase-1 GIDC, Vapi - GPCB",12-01-2024 04:00:00,20.362421,72.918013,OZONE,1,4,1
India,Gujarat,Vatva,"Phase-4 GIDC, Vatva - GPCB",12-01-2024 04:00:00,22.969611,72.643500,SO2,2,12,5
India,Gujarat,Vatva,"Phase-4 GIDC, Vatva - GPCB",12-01-2024 04:00:00,22.969611,72.643500,CO,38,40,40
India,Haryana,Ambala,"Patti Mehar, Ambala - HSPCB",12-01-2024 04:00:00,30.379589,76.778328,NH3,4,61,15
India,Haryana,Bahadurgarh,"Arya Nagar, Bahadurgarh - HSPCB",12-01-2024 04:00:00,28.6701,76.9254,NO2,34,40,37
India,Haryana,Bahadurgarh,"Arya Nagar, Bahadurgarh - HSPCB",12-01-2024 04:00:00,28.6701,76.9254,NH3,10,12,11
India,Haryana,Bahadurgarh,"Arya Nagar, Bahadurgarh - HSPCB",12-01-2024 04:00:00,28.6701,76.9254,CO,41,54,47
India,Haryana,Bhiwani,"H.B. Colony, Bhiwani - HSPCB",12-01-2024 04:00:00,28.806223,76.141105,NO2,2,13,9
India,Haryana,Charkhi Dadri,"Mini Secretariat, Charkhi Dadri - HSPCB",12-01-2024 04:00:00,28.593883,76.270653,SO2,8,10,9
India,Haryana,Charkhi Dadri,"Mini Secretariat, Charkhi Dadri - HSPCB",12-01-2024 04:00:00,28.593883,76.270653,CO,40,107,69
India,Haryana,Charkhi Dadri,"Mini Secretariat, Charkhi Dadri - HSPCB",12-01-2024 04:00:00,28.593883,76.270653,OZONE,14,18,16
India,Haryana,Dharuhera,"Municipal Corporation Office, Dharuhera -  HSPCB",12-01-2024 04:00:00,28.206800,76.799700,PM2.5,NA,NA,NA
India,Haryana,Faridabad,"New Industrial Town, Faridabad - HSPCB",12-01-2024 04:00:00,28.39072,77.30059,NO2,4,25,12
India,Haryana,Faridabad,"New Industrial Town, Faridabad - HSPCB",12-01-2024 04:00:00,28.39072,77.30059,NH3,3,7,4
India,Haryana,Faridabad,"New Industrial Town, Faridabad - HSPCB",12-01-2024 04:00:00,28.39072,77.30059,SO2,6,10,8
India,Haryana,Faridabad,"Sector 11, Faridabad - HSPCB",12-01-2024 04:00:00,28.376058,77.315741,PM2.5,113,306,223
India,Haryana,Faridabad,"Sector 30, Faridabad - HSPCB",12-01-2024 04:00:00,28.4417,77.3217,SO2,3,4,3
India,Haryana,Faridabad,"Sector- 16A, Faridabad - HSPCB",12-01-2024 04:00:00,28.4088421,77.3099081,SO2,23,26,25
India,Haryana,Fatehabad,"Huda Sector, Fatehabad - HSPCB",12-01-2024 04:00:00,29.503664,75.467934,NO2,29,31,30
India,Haryana,Fatehabad,"Huda Sector, Fatehabad - HSPCB",12-01-2024 04:00:00,29.503664,75.467934,CO,6,18,8
India,Haryana,Gurugram,"Sector-51, Gurugram - HSPCB",12-01-2024 04:00:00,28.4227,77.0667,PM2.5,155,416,295
India,Haryana,Gurugram,"Sector-51, Gurugram - HSPCB",12-01-2024 04:00:00,28.4227,77.0667,NH3,7,17,11
India,Haryana,Gurugram,"Sector-51, Gurugram - HSPCB",12-01-2024 04:00:00,28.4227,77.0667,CO,68,104,97
India,Haryana,Gurugram,"Teri Gram, Gurugram - HSPCB",12-01-2024 04:00:00,28.4275,77.1465,PM10,126,193,159
India,Haryana,Gurugram,"Teri Gram, Gurugram - HSPCB",12-01-2024 04:00:00,28.4275,77.1465,SO2,7,7,7
India,Haryana,Gurugram,"Vikas Sadan, Gurugram - HSPCB",12-01-2024 04:00:00,28.4501238,77.0263051,CO,54,140,105
India,Haryana,Gurugram,"Vikas Sadan, Gurugram - HSPCB",12-01-2024 04:00:00,28.4501238,77.0263051,OZONE,8,68,14
India,Haryana,Jind,"Police Lines, Jind - HSPCB",12-01-2024 04:00:00,29.307814,76.337619,NH3,2,6,4
India,Haryana,Jind,"Police Lines, Jind - HSPCB",12-01-2024 04:00:00,29.307814,76.337619,CO,3,139,43
India,Haryana,Kaithal,"Rishi Nagar, Kaithal - HSPCB",12-01-2024 04:00:00,29.8006,76.4155,PM10,111,239,170
India,Haryana,Kaithal,"Rishi Nagar, Kaithal - HSPCB",12-01-2024 04:00:00,29.8006,76.4155,OZONE,9,20,14
India,Haryana,Karnal,"Sector-12, Karnal - HSPCB",12-01-2024 04:00:00,29.695300,77.002700,PM10,94,158,128
India,Haryana,Karnal,"Sector-12, Karnal - HSPCB",12-01-2024 04:00:00,29.695300,77.002700,NH3,10,13,11
India,Haryana,Kurukshetra,"Sector-7, Kurukshetra - HSPCB",12-01-2024 04:00:00,29.966942,76.875879,NO2,10,10,10
India,Haryana,Mandikhera,"General Hospital, Mandikhera - HSPCB",12-01-2024 04:00:00,27.9002,76.9938,PM10,NA,NA,NA
India,Haryana,Manesar,"Sector-2 IMT, Manesar - HSPCB",12-01-2024 04:00:00,28.360699,76.936090,NH3,2,7,4
India,Haryana,Narnaul,"Shastri Nagar, Narnaul - HSPCB",12-01-2024 04:00:00,28.060249,76.113115,CO,8,25,18
India,Haryana,Palwal,"Shyam Nagar, Palwal - HSPCB",12-01-2024 04:00:00,28.1485564,77.3320667,CO,10,16,13
India,Haryana,Panipat,"Sector-18, Panipat - HSPCB",12-01-2024 04:00:00,29.497973,76.993331,PM10,166,180,174
India,Haryana,Panipat,"Sector-18, Panipat - HSPCB",12-01-2024 04:00:00,29.497973,76.993331,NO2,26,33,30
India,Haryana,Rohtak,"MD University, Rohtak - HSPCB",12-01-2024 04:00:00,28.52123,76.37138,SO2,1,52,15
India,Haryana,Rohtak,"MD University, Rohtak - HSPCB",12-01-2024 04:00:00,28.52123,76.37138,CO,28,34,32
India,Haryana,Sirsa,"F-Block, Sirsa - HSPCB",12-01-2024 04:00:00,29.536400,75.015800,PM10,62,236,117
India,Haryana,Sirsa,"F-Block, Sirsa - HSPCB",12-01-2024 04:00:00,29.536400,75.015800,OZONE,18,64,23
India,Haryana,Sonipat,"Murthal, Sonipat - HSPCB",12-01-2024 04:00:00,29.027200,77.062100,NO2,37,44,40
India,Haryana,Yamuna Nagar,"Gobind Pura, Yamuna Nagar - HSPCB",12-01-2024 04:00:00,30.1480566,77.2893471,PM2.5,79,280,154
India,Himachal Pradesh,Baddi,"HIMUDA Complex Phase-1, Baddi - HPPCB",12-01-2024 04:00:00,30.943887,76.801991,SO2,14,120,53
India,Himachal Pradesh,Baddi,"HIMUDA Complex Phase-1, Baddi - HPPCB",12-01-2024 04:00:00,30.943887,76.801991,OZONE,8,33,10
India,Jharkhand,Dhanbad,"Kalakusuma, Dhanbad - DMC",12-01-2024 04:00:00,23.811548,86.481238,PM10,NA,NA,NA
India,Jharkhand,Dhanbad,"Sardar Patel Nagar, Dhanbad - JSPCB",12-01-2024 04:00:00,23.80569,86.44268,PM2.5,26,165,78
India,Jharkhand,Pathardih,"Mohalbani Ghat, Pathardih - DMC",12-01-2024 04:00:00,23.669880,86.411725,OZONE,16,22,17
India,Karnataka,Bagalkot,"Vidayagiri, Bagalkot - KSPCB",12-01-2024 04:00:00,16.172806,75.659694,PM2.5,24,36,35
India,Karnataka,Bagalkot,"Vidayagiri, Bagalkot - KSPCB",12-01-2024 04:00:00,16.172806,75.659694,NO2,10,11,10
India,Karnataka,Belgaum,"Ramteerth Nagar, Belgaum - KSPCB",12-01-2024 04:00:00,15.888653,74.541751,CO,42,64,47
India,Karnataka,Bengaluru,"BTM Layout, Bengaluru - CPCB",12-01-2024 04:00:00,12.9135218,77.5950804,NO2,27,42,32
India,Karnataka,Bengaluru,"BTM Layout, Bengaluru - CPCB",12-01-2024 04:00:00,12.9135218,77.5950804,NH3,2,3,2
India,Karnataka,Bengaluru,"Bapuji Nagar, Bengaluru - KSPCB",12-01-2024 04:00:00,12.951913,77.539784,SO2,6,7,6
India,Karnataka,Bengaluru,"Hombegowda Nagar, Bengaluru - KSPCB",12-01-2024 04:00:00,12.938539,77.590100,CO,8,30,18
India,Karnataka,Bengaluru,"Jayanagar 5th Block, Bengaluru - KSPCB",12-01-2024 04:00:00,12.920984,77.584908,SO2,12,18,15
India,Karnataka,Bengaluru,"Jayanagar 5th Block, Bengaluru - KSPCB",12-01-2024 04:00:00,12.920984,77.584908,OZONE,18,19,18
India,Karnataka,Bengaluru,"Jigani, Bengaluru - KSPCB",12-01-2024 04:00:00,12.7816279,77.6299145,NO2,24,37,28
India,Karnataka,Bengaluru,"Kasturi Nagar, Bengaluru - KSPCB",12-01-2024 04:00:00,13.003872,77.664217,PM10,51,137,105
India,Karnataka,Bengaluru,"Kasturi Nagar, Bengaluru - KSPCB",12-01-2024 04:00:00,13.003872,77.664217,NO2,16,17,17
India,Karnataka,Bengaluru,"Peenya, Bengaluru - CPCB",12-01-2024 04:00:00,13.0270199,77.494094,NO2,19,29,24
India,Karnataka,Bengaluru,"Peenya, Bengaluru - CPCB",12-01-2024 04:00:00,13.0270199,77.494094,NH3,1,2,1
India,Karnataka,Bengaluru,"RVCE-Mailasandra, Bengaluru - KSPCB",12-01-2024 04:00:00,12.921418,77.502466,NO2,31,31,31
India,Karnataka,Bengaluru,"Sanegurava Halli, Bengaluru - KSPCB",12-01-2024 04:00:00,12.990328,77.5431385,CO,8,24,15
India,Karnataka,Bengaluru,"Shivapura_Peenya, Bengaluru - KSPCB",12-01-2024 04:00:00,13.0246342,77.5080115,PM10,64,85,74
India,Karnataka,Bengaluru,"Shivapura_Peenya, Bengaluru - KSPCB",12-01-2024 04:00:00,13.0246342,77.5080115,OZONE,29,116,53
India,Karnataka,Bengaluru,"Silk Board, Bengaluru - KSPCB",12-01-2024 04:00:00,12.917348,77.622813,PM2.5,46,87,64
India,Karnataka,Bengaluru,"Silk Board, Bengaluru - KSPCB",12-01-2024 04:00:00,12.917348,77.622813,NO2,14,26,18
India,Karnataka,Bidar,"Naubad, Bidar - KSPCB",12-01-2024 04:00:00,17.930306,77.482194,PM10,82,117,100
India,Karnataka,Bidar,"Naubad, Bidar - KSPCB",12-01-2024 04:00:00,17.930306,77.482194,NO2,7,9,8
India,Karnataka,Bidar,"Naubad, Bidar - KSPCB",12-01-2024 04:00:00,17.930306,77.482194,OZONE,28,63,37
India,Karnataka,Chamarajanagar,"Urban, Chamarajanagar - KSPCB",12-01-2024 04:00:00,11.55358,76.55521,NO2,23,33,29
India,Karnataka,Chikkaballapur,"Chikkaballapur Rural, Chikkaballapur - KSPCB",12-01-2024 04:00:00,13.428828,77.731418,PM10,42,116,60
India,Karnataka,Chikkaballapur,"Chikkaballapur Rural, Chikkaballapur - KSPCB",12-01-2024 04:00:00,13.428828,77.731418,CO,10,150,43
India,Karnataka,Chikkamagaluru,"Kalyana Nagara, Chikkamagaluru - KSPCB",12-01-2024 04:00:00,13.328028,75.797056,NH3,3,6,4
India,Karnataka,Davanagere,"Devaraj Urs Badavane, Davanagere - KSPCB",12-01-2024 04:00:00,14.475800,75.905200,SO2,3,5,4
India,Karnataka,Davanagere,"Devaraj Urs Badavane, Davanagere - KSPCB",12-01-2024 04:00:00,14.475800,75.905200,CO,14,18,16
India,Karnataka,Dharwad,"Kalabhavan, Dharwad - KSPCB",12-01-2024 04:00:00,15.459706,75.008381,PM10,45,132,86
India,Karnataka,Gadag,"Panchal Nagar, Gadag - KSPCB",12-01-2024 04:00:00,15.411456,75.638133,PM10,40,71,51
India,Karnataka,Gadag,"Panchal Nagar, Gadag - KSPCB",12-01-2024 04:00:00,15.411456,75.638133,NO2,4,29,13
India,Karnataka,Hassan,"B.Katihalli, Hassan - KSPCB",12-01-2024 04:00:00,13.008556,76.125258,NO2,NA,NA,NA
India,Karnataka,Hubballi,"Deshpande Nagar, Hubballi - KSPCB",12-01-2024 04:00:00,15.351773,75.140726,CO,68,78,74
India,Karnataka,Hubballi,"Lingaraj Nagar, Hubballi - KSPCB",12-01-2024 04:00:00,15.3714823,75.1160168,NO2,16,16,16
India,Karnataka,Hubballi,"Lingaraj Nagar, Hubballi - KSPCB",12-01-2024 04:00:00,15.3714823,75.1160168,SO2,2,29,11
India,Karnataka,Hubballi,"Lingaraj Nagar, Hubballi - KSPCB",12-01-2024 04:00:00,15.3714823,75.1160168,CO,21,58,33
India,Karnataka,Kalaburagi,"Lal Bahadur Shastri Nagar, Kalaburagi - KSPCB",12-01-2024 04:00:00,17.321993,76.822628,PM10,NA,NA,NA
India,Karnataka,Kalaburagi,"Lal Bahadur Shastri Nagar, Kalaburagi - KSPCB",12-01-2024 04:00:00,17.321993,76.822628,NH3,2,2,2
India,Karnataka,Kalaburagi,"Lal Bahadur Shastri Nagar, Kalaburagi - KSPCB",12-01-2024 04:00:00,17.321993,76.822628,SO2,18,19,18
India,Karnataka,Kalaburagi,"Lal Bahadur Shastri Nagar, Kalaburagi - KSPCB",12-01-2024 04:00:00,17.321993,76.822628,CO,34,54,48
India,Karnataka,Kalaburagi,"Lal Bahadur Shastri Nagar, Kalaburagi - KSPCB",12-01-2024 04:00:00,17.321993,76.822628,OZONE,2,61,9
India,Karnataka,Kalaburagi,"Mahatma Basaveswar Colony, Kalaburgi - KSPCB",12-01-2024 04:00:00,17.336318,76.847397,OZONE,1,40,15
India,Karnataka,Karwar,"KHB Colony, Karwar - KSPCB",12-01-2024 04:00:00,14.816666,74.141003,NO2,5,16,9
India,Karnataka,Mangalore,"Kadri, Mangalore - KSPCB",12-01-2024 04:00:00,12.889250,74.853000,NH3,1,3,2
India,Karnataka,Mangalore,"Kadri, Mangalore - KSPCB",12-01-2024 04:00:00,12.889250,74.853000,SO2,12,98,23
India,Karnataka,Mangalore,"Kadri, Mangalore - KSPCB",12-01-2024 04:00:00,12.889250,74.853000,OZONE,30,31,31
India,Karnataka,Mysuru,"Hebbal 1st Stage, Mysuru - KSPCB",12-01-2024 04:00:00,12.21041,76.37376,CO,4,46,20
India,Karnataka,Raichur,"Haji Colony, Raichur - KSPCB",12-01-2024 04:00:00,16.208139,77.348417,CO,95,107,101
India,Karnataka,Ramanagara,"Vijay Nagar, Ramanagara - KSPCB",12-01-2024 04:00:00,12.733409,77.298051,PM10,32,68,48
India,Karnataka,Tumakuru,"Thimmalapura, Tumakuru - KSPCB",12-01-2024 04:00:00,13.377516,77.099072,PM2.5,45,88,65
India,Karnataka,Udupi,"Brahmagiri, Udupi - KSPCB",12-01-2024 04:00:00,13.34194444,74.74694444,NO2,NA,NA,NA
India,Karnataka,Udupi,"Brahmagiri, Udupi - KSPCB",12-01-2024 04:00:00,13.34194444,74.74694444,SO2,NA,NA,NA
India,Karnataka,Vijayapura,"Ibrahimpur, Vijayapura - KSPCB",12-01-2024 04:00:00,16.802639,75.722694,SO2,NA,NA,NA
India,Karnataka,Vijayapura,"Ibrahimpur, Vijayapura - KSPCB",12-01-2024 04:00:00,16.802639,75.722694,OZONE,NA,NA,NA
India,Karnataka,Yadgir,"Collector Office, Yadgir - KSPCB",12-01-2024 04:00:00,16.7602,77.1428,PM2.5,NA,NA,NA
India,Kerala,Eloor,"Udyogamandal, Eloor - Kerala PCB",12-01-2024 04:00:00,10.073232,76.302765,PM10,31,52,42
India,Kerala,Kannur,"Thavakkara, Kannur - Kerala PCB",12-01-2024 04:00:00,11.875000,75.373200,PM2.5,39,51,46
India,Kerala,Kannur,"Thavakkara, Kannur - Kerala PCB",12-01-2024 04:00:00,11.875000,75.373200,CO,20,60,47
India,Kerala,Thiruvananthapuram,"Kariavattom, Thiruvananthapuram - Kerala PCB",12-01-2024 04:00:00,8.563700,76.886500,PM10,66,88,77
India,Kerala,Thiruvananthapuram,"Kariavattom, Thiruvananthapuram - Kerala PCB",12-01-2024 04:00:00,8.563700,76.886500,OZONE,26,34,30
India,Kerala,Thiruvananthapuram,"Plammoodu, Thiruvananthapuram - Kerala PCB",12-01-2024 04:00:00,8.5149093,76.9435879,PM10,NA,NA,NA
India,Kerala,Thiruvananthapuram,"Plammoodu, Thiruvananthapuram - Kerala PCB",12-01-2024 04:00:00,8.5149093,76.9435879,SO2,2,27,11
India,Madhya Pradesh,Bhopal,"Paryavaran Parisar, Bhopal - MPPCB",12-01-2024 04:00:00,23.210494,77.425409,PM2.5,NA,NA,NA
India,Madhya Pradesh,Bhopal,"Paryavaran Parisar, Bhopal - MPPCB",12-01-2024 04:00:00,23.210494,77.425409,PM10,NA,NA,NA
India,Madhya Pradesh,Bhopal,"T T Nagar, Bhopal - MPPCB",12-01-2024 04:00:00,23.233584,77.400574,SO2,6,40,26
India,Madhya Pradesh,Dewas,"Bhopal Chauraha, Dewas - MPPCB",12-01-2024 04:00:00,22.9682591,76.064118,NO2,11,13,12
India,Madhya Pradesh,Dewas,"Bhopal Chauraha, Dewas - MPPCB",12-01-2024 04:00:00,22.9682591,76.064118,NH3,3,3,3
India,Madhya Pradesh,Dewas,"Bhopal Chauraha, Dewas - MPPCB",12-01-2024 04:00:00,22.9682591,76.064118,SO2,13,46,38
India,Madhya Pradesh,Dewas,"Bhopal Chauraha, Dewas - MPPCB",12-01-2024 04:00:00,22.9682591,76.064118,OZONE,10,30,13
India,Madhya Pradesh,Gwalior,"City Center, Gwalior - MPPCB",12-01-2024 04:00:00,26.203442,78.193251,SO2,7,27,21
India,Madhya Pradesh,Gwalior,"Maharaj Bada, Gwalior - MPPCB",12-01-2024 04:00:00,26.200388,78.147714,OZONE,5,70,9
India,Madhya Pradesh,Indore,"Chhoti Gwaltoli, Indore - MPPCB",12-01-2024 04:00:00,22.4310,75.5213,PM10,54,120,89
India,Madhya Pradesh,Indore,"Chhoti Gwaltoli, Indore - MPPCB",12-01-2024 04:00:00,22.4310,75.5213,CO,46,102,83
India,Madhya Pradesh,Indore,"Maguda Nagar, Indore - IMC",12-01-2024 04:00:00,22.7524,75.8872,NO2,3,5,5
India,Madhya Pradesh,Indore,"Regional Park, Indore - IMC",12-01-2024 04:00:00,22.6780,75.8559,OZONE,4,9,5
India,Madhya Pradesh,Indore,"Residency Area, Indore - IMC",12-01-2024 04:00:00,22.7084,75.8815,PM2.5,32,74,52
India,Madhya Pradesh,Indore,"Residency Area, Indore - IMC",12-01-2024 04:00:00,22.7084,75.8815,NO2,23,35,29
India,Madhya Pradesh,Jabalpur,"Govindh Bhavan Colony, Jabalpur - JMC",12-01-2024 04:00:00,23.163174,79.973061,PM2.5,37,82,58
India,Madhya Pradesh,Jabalpur,"Govindh Bhavan Colony, Jabalpur - JMC",12-01-2024 04:00:00,23.163174,79.973061,CO,23,37,30
India,Madhya Pradesh,Jabalpur,"Govindh Bhavan Colony, Jabalpur - JMC",12-01-2024 04:00:00,23.163174,79.973061,OZONE,6,93,12
India,Madhya Pradesh,Jabalpur,"Gupteshwar, Jabalpur - JMC",12-01-2024 04:00:00,23.142888,79.916147,NH3,5,11,7
India,Madhya Pradesh,Jabalpur,"Marhatal, Jabalpur - MPPCB",12-01-2024 04:00:00,23.168606,79.932247,PM10,64,263,123
India,Madhya Pradesh,Jabalpur,"Suhagi, Jabalpur - JMC",12-01-2024 04:00:00,23.218135,79.957770,SO2,7,26,13
India,Madhya Pradesh,Katni,"Gole Bazar, Katni - MPPCB",12-01-2024 04:00:00,23.50016,80.23284,PM2.5,49,152,82
India,Madhya Pradesh,Katni,"Gole Bazar, Katni - MPPCB",12-01-2024 04:00:00,23.50016,80.23284,SO2,3,20,11
India,Madhya Pradesh,Mandideep,"Sector-D Industrial Area, Mandideep - MPPCB",12-01-2024 04:00:00,23.108440,77.511428,PM2.5,60,90,72
India,Madhya Pradesh,Mandideep,"Sector-D Industrial Area, Mandideep - MPPCB",12-01-2024 04:00:00,23.108440,77.511428,PM10,80,148,121
India,Madhya Pradesh,Mandideep,"Sector-D Industrial Area, Mandideep - MPPCB",12-01-2024 04:00:00,23.108440,77.511428,NH3,6,9,8
India,Madhya Pradesh,Mandideep,"Sector-D Industrial Area, Mandideep - MPPCB",12-01-2024 04:00:00,23.108440,77.511428,CO,35,102,78
India,Madhya Pradesh,Pithampur,"Sector-2 Industrial Area, Pithampur - MPPCB",12-01-2024 04:00:00,22.624758,75.675238,PM2.5,60,272,134
India,Madhya Pradesh,Pithampur,"Sector-2 Industrial Area, Pithampur - MPPCB",12-01-2024 04:00:00,22.624758,75.675238,SO2,11,16,12
India,Madhya Pradesh,Pithampur,"Sector-2 Industrial Area, Pithampur - MPPCB",12-01-2024 04:00:00,22.624758,75.675238,OZONE,10,53,30
India,Madhya Pradesh,Sagar,"Civil Lines, Sagar - MPPCB",12-01-2024 04:00:00,23.838586,78.759431,NO2,12,20,16
India,Madhya Pradesh,Sagar,"Civil Lines, Sagar - MPPCB",12-01-2024 04:00:00,23.838586,78.759431,NH3,8,15,12
India,Madhya Pradesh,Sagar,"Civil Lines, Sagar - MPPCB",12-01-2024 04:00:00,23.838586,78.759431,CO,38,70,57
India,Madhya Pradesh,Sagar,"Civil Lines, Sagar - MPPCB",12-01-2024 04:00:00,23.838586,78.759431,OZONE,38,42,39
India,Madhya Pradesh,Sagar,"Deen Dayal Nagar, Sagar - MPPCB",12-01-2024 04:00:00,23.8640158,78.80289321,PM2.5,17,64,34
India,Madhya Pradesh,Sagar,"Deen Dayal Nagar, Sagar - MPPCB",12-01-2024 04:00:00,23.8640158,78.80289321,PM10,16,119,58
India,Madhya Pradesh,Satna,"Bandhavgar Colony, Satna - Birla Cement",12-01-2024 04:00:00,24.58434363,80.8549414,PM2.5,2,22,14
India,Madhya Pradesh,Singrauli,"Suryakiran Bhawan NCL, Singrauli - MPPCB",12-01-2024 04:00:00,24.108970,82.645580,NO2,4,12,9
India,Madhya Pradesh,Singrauli,"Suryakiran Bhawan NCL, Singrauli - MPPCB",12-01-2024 04:00:00,24.108970,82.645580,SO2,50,93,62
India,Madhya Pradesh,Ujjain,"Mahakaleshwar Temple, Ujjain - MPPCB",12-01-2024 04:00:00,23.182719 ,75.768218 ,NO2,10,55,26
India,Maharashtra,Ahmednagar,"Tarakpur, Ahmednagar - MPCB",12-01-2024 04:00:00,19.10122,74.73339,SO2,5,15,9
India,Maharashtra,Amravati,"Shivneri Colony, Amravati - MPCB",12-01-2024 04:00:00,20.9402359,77.7895248,OZONE,1,97,20
India,Maharashtra,Amravati,"Shri Shivaji Science College, Amaravati - MPCB",12-01-2024 04:00:00,20.939198,77.765701,PM2.5,89,213,117
India,Maharashtra,Aurangabad,"MIDC Chilkalthana, Aurangabad - MPCB",12-01-2024 04:00:00,19.875620,75.387310,SO2,2,17,5
India,Maharashtra,Aurangabad,"MIDC Chilkalthana, Aurangabad - MPCB",12-01-2024 04:00:00,19.875620,75.387310,OZONE,9,42,14
India,Maharashtra,Aurangabad,"Rachnakar Colony, Aurangabad - MPCB",12-01-2024 04:00:00,19.863756,75.321188,NO2,20,99,50
India,Maharashtra,Badlapur,"Katrap, Badlapur - MPCB",12-01-2024 04:00:00,19.16485,73.23409,PM2.5,69,246,156
India,Maharashtra,Badlapur,"Katrap, Badlapur - MPCB",12-01-2024 04:00:00,19.16485,73.23409,CO,12,102,69
India,Maharashtra,Badlapur,"Katrap, Badlapur - MPCB",12-01-2024 04:00:00,19.16485,73.23409,OZONE,1,76,19
India,Maharashtra,Belapur,"CBD Belapur, Belapur - MPCB",12-01-2024 04:00:00,19.0243902,73.0406721,PM2.5,60,89,78
India,Maharashtra,Bhiwandi,"Gokul Nagar, Bhiwandi - MPCB",12-01-2024 04:00:00,19.309073,73.057223,NH3,1,2,1
India,Maharashtra,Boisar,"Khaira, Boisar - MPCB",12-01-2024 04:00:00,19.786089,72.757971,PM10,126,179,156
India,Maharashtra,Boisar,"Khaira, Boisar - MPCB",12-01-2024 04:00:00,19.786089,72.757971,NH3,6,13,10
India,Maharashtra,Boisar,"Khaira, Boisar - MPCB",12-01-2024 04:00:00,19.786089,72.757971,OZONE,29,30,30
India,Maharashtra,Chandrapur,"Chauhan Colony, Chandrapur - MPCB",12-01-2024 04:00:00,19.962900,79.298714,PM2.5,117,458,198
India,Maharashtra,Chandrapur,"Chauhan Colony, Chandrapur - MPCB",12-01-2024 04:00:00,19.962900,79.298714,OZONE,1,28,6
India,Maharashtra,Dhule,"Deopur, Dhule - MPCB",12-01-2024 04:00:00,20.918946,74.776388,PM2.5,105,305,168
India,Maharashtra,Dhule,"Deopur, Dhule - MPCB",12-01-2024 04:00:00,20.918946,74.776388,OZONE,13,26,22
India,Maharashtra,Jalna,"Old MIDC, Jalna - MPCB",12-01-2024 04:00:00,19.854616,75.905894,NH3,6,8,7
India,Maharashtra,Jalna,"Old MIDC, Jalna - MPCB",12-01-2024 04:00:00,19.854616,75.905894,CO,32,46,42
India,Maharashtra,Jalna,"Old MIDC, Jalna - MPCB",12-01-2024 04:00:00,19.854616,75.905894,OZONE,19,148,30
India,Maharashtra,Kalyan,"Khadakpada, Kalyan - MPCB",12-01-2024 04:00:00,19.25292,73.142019,PM2.5,33,99,60
India,Maharashtra,Kalyan,"Khadakpada, Kalyan - MPCB",12-01-2024 04:00:00,19.25292,73.142019,NH3,1,3,1
India,Maharashtra,Kolhapur,"Shivaji University, Kolhapur - MPCB",12-01-2024 04:00:00,16.6870449,74.2505872,NO2,6,49,20
India,Maharashtra,Kolhapur,"Shivaji University, Kolhapur - MPCB",12-01-2024 04:00:00,16.6870449,74.2505872,NH3,1,3,2
India,Maharashtra,Kolhapur,"Sinchan Bhavan, Kolhapur - MPCB",12-01-2024 04:00:00,16.7143745,74.2426398,SO2,1,9,2
India,Maharashtra,Kolhapur,"Sinchan Bhavan, Kolhapur - MPCB",12-01-2024 04:00:00,16.7143745,74.2426398,CO,5,106,86
India,Maharashtra,Kolhapur,"Sinchan Bhavan, Kolhapur - MPCB",12-01-2024 04:00:00,16.7143745,74.2426398,OZONE,1,87,2
India,Maharashtra,Latur,"Sawe Wadi, Latur - MPCB",12-01-2024 04:00:00,18.39963,76.57452,PM2.5,43,127,87
India,Maharashtra,Mahad,"Kamble Tarf Birwadi, Mahad - MPCB",12-01-2024 04:00:00,18.1023399,73.4783687,NH3,4,6,5
India,Maharashtra,Mahad,"Kamble Tarf Birwadi, Mahad - MPCB",12-01-2024 04:00:00,18.1023399,73.4783687,SO2,14,119,41
India,Maharashtra,Mahad,"Kamble Tarf Birwadi, Mahad - MPCB",12-01-2024 04:00:00,18.1023399,73.4783687,OZONE,7,70,23
India,Maharashtra,Malegaon,"Mahesh Nagar, Malegaon - MPCB",12-01-2024 04:00:00,20.555712,74.529236,PM10,93,441,215
India,Maharashtra,Malegaon,"Mahesh Nagar, Malegaon - MPCB",12-01-2024 04:00:00,20.555712,74.529236,CO,24,88,44
India,Maharashtra,Mira-Bhayandar,"Bhayandar West, Mira-Bhayandar - MPCB",12-01-2024 04:00:00,19.296481,72.840923,CO,24,62,51
India,Maharashtra,Mumbai,"Bandra Kurla Complex, Mumbai - MPCB",12-01-2024 04:00:00,19.065931,72.862131,NO2,20,58,37
India,Maharashtra,Mumbai,"Bandra Kurla Complex, Mumbai - MPCB",12-01-2024 04:00:00,19.065931,72.862131,SO2,1,13,5
India,Maharashtra,Mumbai,"Borivali East, Mumbai - MPCB",12-01-2024 04:00:00,19.2243333,72.8658113,PM2.5,40,173,76
India,Maharashtra,Mumbai,"Byculla, Mumbai - BMC",12-01-2024 04:00:00,18.9767,72.8380,PM2.5,93,211,131
India,Maharashtra,Mumbai,"Byculla, Mumbai - BMC",12-01-2024 04:00:00,18.9767,72.8380,NH3,3,9,5
India,Maharashtra,Mumbai,"Chakala-Andheri East, Mumbai - IITM",12-01-2024 04:00:00,19.11074,72.86084,SO2,8,81,31
India,Maharashtra,Mumbai,"Chembur, Mumbai - MPCB",12-01-2024 04:00:00,19.0364585,72.8954371,NH3,2,2,2
India,Maharashtra,Mumbai,"Chhatrapati Shivaji Intl. Airport (T2), Mumbai - MPCB",12-01-2024 04:00:00,19.10078,72.87462,NH3,5,10,7
India,Maharashtra,Mumbai,"Colaba, Mumbai - MPCB",12-01-2024 04:00:00,18.910000,72.820000,NH3,1,1,1
India,Maharashtra,Mumbai,"Colaba, Mumbai - MPCB",12-01-2024 04:00:00,18.910000,72.820000,CO,12,20,17
India,Maharashtra,Mumbai,"Ghatkopar, Mumbai - BMC",12-01-2024 04:00:00,19.083694,72.920967,PM10,74,166,102
India,Maharashtra,Mumbai,"Ghatkopar, Mumbai - BMC",12-01-2024 04:00:00,19.083694,72.920967,NH3,NA,NA,NA
India,Maharashtra,Mumbai,"Ghatkopar, Mumbai - BMC",12-01-2024 04:00:00,19.083694,72.920967,SO2,1,1,1
India,Maharashtra,Mumbai,"Ghatkopar, Mumbai - BMC",12-01-2024 04:00:00,19.083694,72.920967,OZONE,1,48,4
India,Maharashtra,Mumbai,"Kandivali East, Mumbai - MPCB",12-01-2024 04:00:00,19.205800,72.868200,NH3,6,16,9
India,Maharashtra,Mumbai,"Kandivali East, Mumbai - MPCB",12-01-2024 04:00:00,19.205800,72.868200,OZONE,29,31,30
India,Maharashtra,Mumbai,"Kherwadi_Bandra East, Mumbai - MPCB",12-01-2024 04:00:00,19.0632143,72.8456324,PM2.5,124,207,160
India,Maharashtra,Mumbai,"Kherwadi_Bandra East, Mumbai - MPCB",12-01-2024 04:00:00,19.0632143,72.8456324,CO,23,79,54
India,Maharashtra,Mumbai,"Khindipada-Bhandup West, Mumbai - IITM",12-01-2024 04:00:00,19.1653323,72.922099,PM10,71,123,104
India,Maharashtra,Mumbai,"Khindipada-Bhandup West, Mumbai - IITM",12-01-2024 04:00:00,19.1653323,72.922099,OZONE,3,104,20
India,Maharashtra,Mumbai,"Kurla, Mumbai - MPCB",12-01-2024 04:00:00,19.0863,72.8888,SO2,32,32,32
India,Maharashtra,Mumbai,"Malad West, Mumbai - IITM",12-01-2024 04:00:00,19.19709,72.82204,PM2.5,NA,NA,NA
India,Maharashtra,Mumbai,"Mindspace-Malad West, Mumbai - MPCB",12-01-2024 04:00:00,19.1878657,72.8304069,OZONE,NA,NA,NA
India,Maharashtra,Mumbai,"Mulund West, Mumbai - MPCB",12-01-2024 04:00:00,19.1750,72.9419,PM2.5,59,90,72
India,Maharashtra,Mumbai,"Mulund West, Mumbai - MPCB",12-01-2024 04:00:00,19.1750,72.9419,NO2,21,23,22
India,Maharashtra,Mumbai,"Mulund West, Mumbai - MPCB",12-01-2024 04:00:00,19.1750,72.9419,CO,20,20,20
India,Maharashtra,Mumbai,"Navy Nagar-Colaba, Mumbai - IITM",12-01-2024 04:00:00,18.897756,72.813320,NH3,3,12,9
India,Maharashtra,Mumbai,"Powai, Mumbai - MPCB",12-01-2024 04:00:00,19.137500,72.915056,PM10,97,140,116
India,Maharashtra,Mumbai,"Powai, Mumbai - MPCB",12-01-2024 04:00:00,19.137500,72.915056,NH3,1,1,1
India,Maharashtra,Mumbai,"Sewri, Mumbai - BMC",12-01-2024 04:00:00,19.000084,72.856730,PM2.5,91,212,135
India,Maharashtra,Mumbai,"Sewri, Mumbai - BMC",12-01-2024 04:00:00,19.000084,72.856730,CO,14,100,75
India,Maharashtra,Mumbai,"Siddharth Nagar-Worli, Mumbai - IITM",12-01-2024 04:00:00,19.000083,72.813993,PM2.5,194,301,237
India,Maharashtra,Mumbai,"Siddharth Nagar-Worli, Mumbai - IITM",12-01-2024 04:00:00,19.000083,72.813993,CO,34,52,49
India,Maharashtra,Mumbai,"Siddharth Nagar-Worli, Mumbai - IITM",12-01-2024 04:00:00,19.000083,72.813993,OZONE,14,164,94
India,Maharashtra,Mumbai,"Sion, Mumbai - MPCB",12-01-2024 04:00:00,19.047000,72.874600,PM10,92,160,121
India,Maharashtra,Mumbai,"Sion, Mumbai - MPCB",12-01-2024 04:00:00,19.047000,72.874600,NH3,1,3,1
India,Maharashtra,Mumbai,"Sion, Mumbai - MPCB",12-01-2024 04:00:00,19.047000,72.874600,OZONE,10,29,11
India,Maharashtra,Mumbai,"Vasai West, Mumbai - MPCB",12-01-2024 04:00:00,19.383200,72.820400,PM2.5,26,63,48
India,Maharashtra,Mumbai,"Vasai West, Mumbai - MPCB",12-01-2024 04:00:00,19.383200,72.820400,PM10,53,118,94
India,Maharashtra,Mumbai,"Vasai West, Mumbai - MPCB",12-01-2024 04:00:00,19.383200,72.820400,NO2,26,28,27
India,Maharashtra,Mumbai,"Vile Parle West, Mumbai - MPCB",12-01-2024 04:00:00,19.10861,72.83622,PM2.5,59,143,83
India,Maharashtra,Mumbai,"Vile Parle West, Mumbai - MPCB",12-01-2024 04:00:00,19.10861,72.83622,SO2,13,14,14
India,Maharashtra,Mumbai,"Worli, Mumbai - MPCB",12-01-2024 04:00:00,18.9936162,72.8128113,OZONE,7,11,9
India,Maharashtra,Nagpur,"Ambazari, Nagpur - MPCB",12-01-2024 04:00:00,21.121801,79.04952,PM2.5,74,98,86
India,Maharashtra,Nagpur,"Mahal, Nagpur - MPCB",12-01-2024 04:00:00,21.14472,79.107595,PM2.5,135,178,159
India,Maharashtra,Nagpur,"Mahal, Nagpur - MPCB",12-01-2024 04:00:00,21.14472,79.107595,NO2,6,29,18
India,Maharashtra,Nagpur,"Mahal, Nagpur - MPCB",12-01-2024 04:00:00,21.14472,79.107595,OZONE,4,56,19
India,Maharashtra,Nagpur,"Opp GPO Civil Lines, Nagpur - MPCB",12-01-2024 04:00:00,21.152875,79.0517531,PM10,73,117,98
India,Maharashtra,Nagpur,"Ram Nagar, Nagpur - MPCB",12-01-2024 04:00:00,21.143383,79.048912,PM2.5,65,112,86
India,Maharashtra,Nagpur,"Ram Nagar, Nagpur - MPCB",12-01-2024 04:00:00,21.143383,79.048912,NH3,4,5,4
India,Maharashtra,Nagpur,"Ram Nagar, Nagpur - MPCB",12-01-2024 04:00:00,21.143383,79.048912,CO,24,101,54
India,Maharashtra,Nanded,"Sneh Nagar, Nanded - MPCB",12-01-2024 04:00:00,19.173852,77.296291,NH3,1,3,2
India,Maharashtra,Nashik,"Gangapur Road, Nashik - MPCB",12-01-2024 04:00:00,20.0073285,73.7762427,PM10,44,151,80
India,Maharashtra,Nashik,"Hirawadi, Nashik - MPCB",12-01-2024 04:00:00,20.021503,73.813844,SO2,NA,NA,NA
India,Maharashtra,Nashik,"MIDC Ambad, Nashik - MPCB",12-01-2024 04:00:00,19.950220,73.731480,NO2,22,142,66
India,Maharashtra,Nashik,"Pandav Nagari, Nashik - MPCB",12-01-2024 04:00:00,19.9591346,73.7788008,NO2,NA,NA,NA
India,Maharashtra,Nashik,"Pandav Nagari, Nashik - MPCB",12-01-2024 04:00:00,19.9591346,73.7788008,NH3,NA,NA,NA
India,Maharashtra,Navi Mumbai,"Nerul, Navi Mumbai - MPCB",12-01-2024 04:00:00,19.008751,73.016620,PM2.5,54,98,82
India,Maharashtra,Navi Mumbai,"Nerul, Navi Mumbai - MPCB",12-01-2024 04:00:00,19.008751,73.016620,NO2,10,28,21
India,Maharashtra,Navi Mumbai,"Nerul, Navi Mumbai - MPCB",12-01-2024 04:00:00,19.008751,73.016620,CO,20,54,41
India,Maharashtra,Navi Mumbai,"Sanpada, Navi Mumbai - MPCB",12-01-2024 04:00:00,19.0575752,73.0151367,PM2.5,74,200,128
India,Maharashtra,Navi Mumbai,"Sanpada, Navi Mumbai - MPCB",12-01-2024 04:00:00,19.0575752,73.0151367,SO2,8,78,34
India,Maharashtra,Navi Mumbai,"Sector-19A Nerul, Navi Mumbai - IITM",12-01-2024 04:00:00,19.044,73.0325,PM2.5,NA,NA,NA
India,Maharashtra,Navi Mumbai,"Sector-2E Kalamboli, Navi Mumbai - MPCB",12-01-2024 04:00:00,19.02579,73.10297,NH3,9,17,13
India,Maharashtra,Navi Mumbai,"Tondare-Taloja, Navi Mumbai - MPCB",12-01-2024 04:00:00,19.0630,73.1209,PM2.5,82,233,143
India,Maharashtra,Navi Mumbai,"Tondare-Taloja, Navi Mumbai - MPCB",12-01-2024 04:00:00,19.0630,73.1209,NO2,35,156,62
India,Maharashtra,Parbhani,"Masoom Colony, Parbhani - MPCB",12-01-2024 04:00:00,19.265594,76.761463,PM10,71,144,99
India,Maharashtra,Parbhani,"Masoom Colony, Parbhani - MPCB",12-01-2024 04:00:00,19.265594,76.761463,SO2,10,50,22
India,Maharashtra,Pimpri-Chinchwad,"Park Street Wakad, Pimpri Chinchwad - MPCB",12-01-2024 04:00:00,18.59051,73.77946,NO2,52,137,82
India,Maharashtra,Pimpri-Chinchwad,"Park Street Wakad, Pimpri Chinchwad - MPCB",12-01-2024 04:00:00,18.59051,73.77946,NH3,7,20,12
India,Maharashtra,Pimpri-Chinchwad,"Thergaon, Pimpri Chinchwad - MPCB",12-01-2024 04:00:00,18.616318,73.765797,PM2.5,84,289,173
India,Maharashtra,Pimpri-Chinchwad,"Thergaon, Pimpri Chinchwad - MPCB",12-01-2024 04:00:00,18.616318,73.765797,CO,20,101,87
India,Maharashtra,Pune,"Alandi, Pune - IITM",12-01-2024 04:00:00,18.675076,73.892743,PM10,41,104,66
India,Maharashtra,Pune,"Bhosari, Pune - IITM",12-01-2024 04:00:00,18.640051,73.848956,OZONE,2,35,6
India,Maharashtra,Pune,"Karve Road, Pune - MPCB",12-01-2024 04:00:00,18.5011743,73.8165527,PM2.5,56,56,56
India,Maharashtra,Pune,"Katraj Dairy, Pune - MPCB",12-01-2024 04:00:00,18.454450,73.854155,NH3,1,8,4
India,Maharashtra,Pune,"Mhada Colony, Pune - IITM",12-01-2024 04:00:00,18.573040,73.927715,CO,21,111,53
India,Maharashtra,Pune,"Revenue Colony-Shivajinagar, Pune - IITM",12-01-2024 04:00:00,18.530085,73.849598,NH3,16,30,25
India,Maharashtra,Pune,"Revenue Colony-Shivajinagar, Pune - IITM",12-01-2024 04:00:00,18.530085,73.849598,OZONE,1,47,8
India,Maharashtra,Pune,"Savitribai Phule Pune University, Pune - MPCB",12-01-2024 04:00:00,18.547056,73.826908,NH3,1,7,3
India,Maharashtra,Pune,"Savitribai Phule Pune University, Pune - MPCB",12-01-2024 04:00:00,18.547056,73.826908,CO,12,78,62
India,Maharashtra,Pune,"Transport Nagar-Nigdi, Pune - IITM",12-01-2024 04:00:00,18.664282,73.763966,PM10,80,156,113
India,Maharashtra,Pune,"Transport Nagar-Nigdi, Pune - IITM",12-01-2024 04:00:00,18.664282,73.763966,OZONE,1,53,16
India,Maharashtra,Sangli,"Vijay Nagar, Sangli - MPCB",12-01-2024 04:00:00, 16.5038,74.3623,NO2,13,107,38
India,Maharashtra,Solapur,"Ratandeep Housing Society, Solapur - MPCB",12-01-2024 04:00:00,17.65439,75.90649,SO2,4,109,23
India,Maharashtra,Ulhasnagar,"Sidhi Vinayak Nagar, Ulhasnagar - MPCB",12-01-2024 04:00:00,19.235581,73.159121,SO2,3,15,8
India,Maharashtra,Ulhasnagar,"Sidhi Vinayak Nagar, Ulhasnagar - MPCB",12-01-2024 04:00:00,19.235581,73.159121,CO,11,94,61
India,Maharashtra,Ulhasnagar,"Sidhi Vinayak Nagar, Ulhasnagar - MPCB",12-01-2024 04:00:00,19.235581,73.159121,OZONE,14,139,59
India,Maharashtra,Virar,"Bolinj, Virar - MPCB",12-01-2024 04:00:00,19.4458210,72.7988231,OZONE,16,92,58
India,Manipur,Imphal,"Manipur University, Imphal - Manipur PCB",12-01-2024 04:00:00,24.7524239,93.9286218,OZONE,NA,NA,NA
India,Meghalaya,Shillong,"JN Stadium, Shillong - Meghalaya PCB",12-01-2024 04:00:00,25.5803419,91.8942571,CO,18,102,67
India,Meghalaya,Shillong,"Lumpyngngad, Shillong - Meghalaya PCB",12-01-2024 04:00:00,25.5586,91.8985,PM2.5,12,273,101
India,Meghalaya,Shillong,"Lumpyngngad, Shillong - Meghalaya PCB",12-01-2024 04:00:00,25.5586,91.8985,PM10,16,124,66
India,Meghalaya,Shillong,"Lumpyngngad, Shillong - Meghalaya PCB",12-01-2024 04:00:00,25.5586,91.8985,NH3,1,1,1
India,Meghalaya,Shillong,"Lumpyngngad, Shillong - Meghalaya PCB",12-01-2024 04:00:00,25.5586,91.8985,SO2,14,18,15
India,Mizoram,Aizawl,"Sikulpuikawn, Aizawl - Mizoram PCB",12-01-2024 04:00:00,23.7176342,92.7192841,SO2,NA,NA,NA
India,Nagaland,Kohima,"PWD Juction, Kohima - NPCB",12-01-2024 04:00:00,25.6635413,94.0989878,OZONE,10,16,11
India,Odisha,Angul,"Hakimapada, Angul - OSPCB",12-01-2024 04:00:00,20.832874,85.104082,NO2,17,75,35
India,Odisha,Angul,"Hakimapada, Angul - OSPCB",12-01-2024 04:00:00,20.832874,85.104082,NH3,2,5,3
India,Odisha,Angul,"Hakimapada, Angul - OSPCB",12-01-2024 04:00:00,20.832874,85.104082,SO2,16,121,81
India,Odisha,Angul,"Hakimapada, Angul - OSPCB",12-01-2024 04:00:00,20.832874,85.104082,CO,10,129,59
India,Odisha,Balasore,"Kalidaspur, Balasore - OSPCB",12-01-2024 04:00:00,21.51161,86.89088,PM2.5,160,375,285
India,Odisha,Balasore,"Kalidaspur, Balasore - OSPCB",12-01-2024 04:00:00,21.51161,86.89088,NO2,9,76,26
India,Odisha,Balasore,"Kalidaspur, Balasore - OSPCB",12-01-2024 04:00:00,21.51161,86.89088,NH3,4,11,6
India,Odisha,Barbil,"Forest Office, Barbil - OSPCB",12-01-2024 04:00:00,22.1166054,85.3945546,NH3,3,5,4
India,Odisha,Bhubaneswar,"Lingraj Mandir, Bhubaneswar - OSPCB",12-01-2024 04:00:00,20.240790,85.836784,CO,54,97,58
India,Odisha,Bhubaneswar,"Patia, Bhubaneswar - OSPCB",12-01-2024 04:00:00,20.34652,85.81630,PM2.5,103,338,220
India,Odisha,Bhubaneswar,"Patia, Bhubaneswar - OSPCB",12-01-2024 04:00:00,20.34652,85.81630,PM10,92,225,147
India,Odisha,Bileipada,"Tata Township, Bileipada - OSPCB",12-01-2024 04:00:00,22.06156703,85.47409613,CO,14,41,31
India,Odisha,Brajrajnagar,"GM Office, Brajrajnagar - OSPCB",12-01-2024 04:00:00,21.8004996,83.8396977,NH3,1,2,2
India,Odisha,Byasanagar,"Ferro Chrome Colony, Byasanagar - OSPCB",12-01-2024 04:00:00,20.94185,86.11510,SO2,6,31,16
India,Odisha,Cuttack,"CDA Area, Cuttack - OSPCB",12-01-2024 04:00:00,20.48891     ,85.84768     ,SO2,4,35,14
India,Odisha,Cuttack,"CDA Area, Cuttack - OSPCB",12-01-2024 04:00:00,20.48891     ,85.84768     ,OZONE,3,112,58
India,Odisha,Nayagarh,"Dabuna, Nayagarh - OSPCB",12-01-2024 04:00:00,21.847279,85.416905,PM2.5,77,185,132
India,Odisha,Rairangpur,"Divisional Forest Office, Rairangpur - OSPCB",12-01-2024 04:00:00,22.265816,86.174829,PM2.5,8,314,186
India,Odisha,Rairangpur,"Divisional Forest Office, Rairangpur - OSPCB",12-01-2024 04:00:00,22.265816,86.174829,PM10,20,156,125
India,Odisha,Rourkela,"Raghunathpali, Rourkela - OSPCB",12-01-2024 04:00:00,22.220833,84.809444,PM10,77,153,115
India,Odisha,Rourkela,"Sector-2, Rourkela - OSPCB",12-01-2024 04:00:00,22.24500000,84.88111111,PM10,77,137,111
India,Odisha,Rourkela,"Sector-2, Rourkela - OSPCB",12-01-2024 04:00:00,22.24500000,84.88111111,CO,18,50,36
India,Odisha,Suakati,"OMC Colony, Suakati - OSPCB",12-01-2024 04:00:00,21.606865,85.510538,PM10,131,242,172
India,Odisha,Suakati,"OMC Colony, Suakati - OSPCB",12-01-2024 04:00:00,21.606865,85.510538,SO2,2,45,19
India,Odisha,Talcher,"Talcher Coalfields,Talcher - OSPCB",12-01-2024 04:00:00,20.9360711,85.1707021,PM10,104,403,182
India,Odisha,Tensa,"Barsua Iron Ore Mines, Tensa - OSPCB",12-01-2024 04:00:00,21.869985,85.167016,PM2.5,84,277,164
India,Odisha,Tensa,"Barsua Iron Ore Mines, Tensa - OSPCB",12-01-2024 04:00:00,21.869985,85.167016,PM10,110,149,129
India,Odisha,Tensa,"Barsua Iron Ore Mines, Tensa - OSPCB",12-01-2024 04:00:00,21.869985,85.167016,NO2,46,105,63
India,Odisha,Tensa,"Barsua Iron Ore Mines, Tensa - OSPCB",12-01-2024 04:00:00,21.869985,85.167016,SO2,13,24,19
India,Odisha,Tensa,"Barsua Iron Ore Mines, Tensa - OSPCB",12-01-2024 04:00:00,21.869985,85.167016,CO,29,64,33
India,Puducherry,Puducherry,"Jawahar Nagar, Puducherry - PPCC",12-01-2024 04:00:00,11.9309,79.8027,PM10,52,99,68
India,Punjab,Amritsar,"Golden Temple, Amritsar - PPCB",12-01-2024 04:00:00,31.620000,74.876512,PM10,106,214,147
India,Punjab,Amritsar,"Golden Temple, Amritsar - PPCB",12-01-2024 04:00:00,31.620000,74.876512,NO2,6,86,14
India,Punjab,Jalandhar,"Civil Line, Jalandhar - PPCB",12-01-2024 04:00:00,31.321907,75.578914,PM10,94,173,115
India,Punjab,Jalandhar,"Civil Line, Jalandhar - PPCB",12-01-2024 04:00:00,31.321907,75.578914,SO2,23,32,26
India,Punjab,Jalandhar,"Civil Line, Jalandhar - PPCB",12-01-2024 04:00:00,31.321907,75.578914,CO,60,94,67
India,Punjab,Khanna,"Kalal Majra, Khanna - PPCB",12-01-2024 04:00:00,30.736056 ,76.209694,NH3,13,15,14
India,Punjab,Khanna,"Kalal Majra, Khanna - PPCB",12-01-2024 04:00:00,30.736056 ,76.209694,OZONE,16,28,19
India,Punjab,Ludhiana,"Punjab Agricultural University, Ludhiana - PPCB",12-01-2024 04:00:00,30.9028,75.8086,NH3,4,5,4
India,Punjab,Mandi Gobindgarh,"RIMT University, Mandi Gobindgarh - PPCB",12-01-2024 04:00:00,30.649961,76.331442,PM10,70,201,140
India,Punjab,Mandi Gobindgarh,"RIMT University, Mandi Gobindgarh - PPCB",12-01-2024 04:00:00,30.649961,76.331442,NH3,2,2,2
India,Punjab,Mandi Gobindgarh,"RIMT University, Mandi Gobindgarh - PPCB",12-01-2024 04:00:00,30.649961,76.331442,CO,15,56,29
India,Punjab,Patiala,"Model Town, Patiala - PPCB",12-01-2024 04:00:00,30.349388,76.366642,NH3,6,7,6
India,Punjab,Patiala,"Model Town, Patiala - PPCB",12-01-2024 04:00:00,30.349388,76.366642,CO,50,64,61
India,Punjab,Rupnagar,"Ratanpura, Rupnagar - Ambuja Cements",12-01-2024 04:00:00,31.0325454,76.5623046,PM10,45,237,113
India,Rajasthan,Ajmer,"Civil Lines,  Ajmer - RSPCB",12-01-2024 04:00:00,26.470859,74.646594,CO,12,85,52
India,Rajasthan,Alwar,"Moti Doongri, Alwar - RSPCB",12-01-2024 04:00:00,27.554793,76.611536,PM2.5,57,191,110
India,Rajasthan,Alwar,"Moti Doongri, Alwar - RSPCB",12-01-2024 04:00:00,27.554793,76.611536,OZONE,8,31,10
India,Rajasthan,Banswara,"Rati Talai, Banswara - RSPCB",12-01-2024 04:00:00,23.555190,74.440010,CO,44,105,57
India,Rajasthan,Baran,"Bamboliya, Baran - RSPCB",12-01-2024 04:00:00,25.106006,76.469948,PM2.5,3,233,47
India,Rajasthan,Barmer,"Railway Colony, Barmer - RSPCB",12-01-2024 04:00:00,25.747299,71.393989,PM2.5,15,331,107
India,Rajasthan,Barmer,"Railway Colony, Barmer - RSPCB",12-01-2024 04:00:00,25.747299,71.393989,NO2,9,87,30
India,Rajasthan,Barmer,"Railway Colony, Barmer - RSPCB",12-01-2024 04:00:00,25.747299,71.393989,NH3,3,45,9
India,Rajasthan,Barmer,"Railway Colony, Barmer - RSPCB",12-01-2024 04:00:00,25.747299,71.393989,SO2,9,16,12
India,Rajasthan,Bharatpur,"Krishna Nagar, Bharatpur - RSPCB",12-01-2024 04:00:00,27.215415,77.50873,NO2,21,116,74
India,Rajasthan,Bhilwara,"Pratap Nagar, Bhilwara - RSPCB",12-01-2024 04:00:00,25.339605,74.618883,PM2.5,49,393,174
India,Rajasthan,Bhilwara,"Pratap Nagar, Bhilwara - RSPCB",12-01-2024 04:00:00,25.339605,74.618883,PM10,84,276,143
India,Rajasthan,Bhilwara,"Pratap Nagar, Bhilwara - RSPCB",12-01-2024 04:00:00,25.339605,74.618883,NH3,1,6,4
India,Rajasthan,Bhilwara,"Pratap Nagar, Bhilwara - RSPCB",12-01-2024 04:00:00,25.339605,74.618883,SO2,1,65,10
India,Rajasthan,Bhilwara,"Pratap Nagar, Bhilwara - RSPCB",12-01-2024 04:00:00,25.339605,74.618883,OZONE,3,144,24
India,Rajasthan,Bhiwadi,"RIICO Ind. Area III, Bhiwadi - RSPCB",12-01-2024 04:00:00,28.194909,76.862296,NH3,14,41,26
India,Rajasthan,Bhiwadi,"RIICO Ind. Area III, Bhiwadi - RSPCB",12-01-2024 04:00:00,28.194909,76.862296,CO,4,119,91
India,Rajasthan,Bhiwadi,"RIICO Ind. Area III, Bhiwadi - RSPCB",12-01-2024 04:00:00,28.194909,76.862296,OZONE,6,7,6
India,Rajasthan,Bikaner,"MM Ground, Bikaner - RSPCB",12-01-2024 04:00:00,28.018792,73.292658,PM2.5,60,429,228
India,Rajasthan,Bikaner,"MM Ground, Bikaner - RSPCB",12-01-2024 04:00:00,28.018792,73.292658,PM10,114,480,218
India,Rajasthan,Bikaner,"MM Ground, Bikaner - RSPCB",12-01-2024 04:00:00,28.018792,73.292658,OZONE,2,73,23
India,Rajasthan,Chittorgarh,"Shastri Nagar, Chittorgarh - RSPCB",12-01-2024 04:00:00,24.892047,74.623527,PM2.5,47,326,159
India,Rajasthan,Chittorgarh,"Shastri Nagar, Chittorgarh - RSPCB",12-01-2024 04:00:00,24.892047,74.623527,PM10,56,225,131
India,Rajasthan,Churu,"Subash Chowk, Churu - RSPCB",12-01-2024 04:00:00,28.296139,74.961696,PM10,73,186,120
India,Rajasthan,Dausa,"Khatikan Mohalla, Dausa - RSPCB",12-01-2024 04:00:00,26.895552,76.334753,PM2.5,18,310,112
India,Rajasthan,Dausa,"Khatikan Mohalla, Dausa - RSPCB",12-01-2024 04:00:00,26.895552,76.334753,NO2,14,88,47
India,Rajasthan,Dausa,"Khatikan Mohalla, Dausa - RSPCB",12-01-2024 04:00:00,26.895552,76.334753,NH3,4,4,4
India,Rajasthan,Dungarpur,"Bhoiwada, Dungarpur - RSPCB",12-01-2024 04:00:00,23.837789,73.714926,PM2.5,63,319,140
India,Rajasthan,Dungarpur,"Bhoiwada, Dungarpur - RSPCB",12-01-2024 04:00:00,23.837789,73.714926,PM10,66,209,114
India,Rajasthan,Hanumangarh,"Housing Board, Hanumangarh - RSPCB",12-01-2024 04:00:00,29.610750,74.283608,PM10,101,500,268
India,Rajasthan,Hanumangarh,"Housing Board, Hanumangarh - RSPCB",12-01-2024 04:00:00,29.610750,74.283608,OZONE,5,12,6
India,Rajasthan,Jaipur,"Adarsh Nagar, Jaipur - RSPCB",12-01-2024 04:00:00,26.902909,75.836858,NO2,35,136,80
India,Rajasthan,Jaipur,"Mansarovar Sector-12, Jaipur - RSPCB",12-01-2024 04:00:00,26.843698,75.766894,CO,15,152,124
India,Rajasthan,Jaipur,"Police Commissionerate, Jaipur - RSPCB",12-01-2024 04:00:00,26.9164092,75.7994901,NH3,10,19,12
India,Rajasthan,Jaipur,"Police Commissionerate, Jaipur - RSPCB",12-01-2024 04:00:00,26.9164092,75.7994901,OZONE,9,148,25
India,Rajasthan,Jaipur,"RIICO Sitapura, Jaipur - RSPCB",12-01-2024 04:00:00,26.786682,75.827928,NH3,5,86,20
India,Rajasthan,Jaipur,"RIICO Sitapura, Jaipur - RSPCB",12-01-2024 04:00:00,26.786682,75.827928,SO2,7,21,10
India,Rajasthan,Jaipur,"RIICO Sitapura, Jaipur - RSPCB",12-01-2024 04:00:00,26.786682,75.827928,CO,22,158,100
India,Rajasthan,Jaipur,"Shastri Nagar, Jaipur - RSPCB",12-01-2024 04:00:00,26.9502929,75.730943,PM2.5,84,404,196
India,Rajasthan,Jaipur,"Shastri Nagar, Jaipur - RSPCB",12-01-2024 04:00:00,26.9502929,75.730943,NH3,13,117,31
India,Rajasthan,Jaipur,"Shastri Nagar, Jaipur - RSPCB",12-01-2024 04:00:00,26.9502929,75.730943,CO,4,153,52
India,Rajasthan,Jaisalmer,"Sadar Bazar, Jaisalmer - RSPCB",12-01-2024 04:00:00,26.912329,70.909168,PM2.5,27,347,157
India,Rajasthan,Jaisalmer,"Sadar Bazar, Jaisalmer - RSPCB",12-01-2024 04:00:00,26.912329,70.909168,PM10,45,427,162
India,Rajasthan,Jaisalmer,"Sadar Bazar, Jaisalmer - RSPCB",12-01-2024 04:00:00,26.912329,70.909168,NO2,15,132,60
India,Rajasthan,Jalore,"Mudtra Sili, Jalore - RSPCB",12-01-2024 04:00:00,25.344694,72.626208,PM2.5,43,375,165
India,Rajasthan,Jalore,"Mudtra Sili, Jalore - RSPCB",12-01-2024 04:00:00,25.344694,72.626208,PM10,67,421,159
India,Rajasthan,Jalore,"Mudtra Sili, Jalore - RSPCB",12-01-2024 04:00:00,25.344694,72.626208,NO2,19,125,63
India,Rajasthan,Jhalawar,"Rajlaxmi Nagar, Jhalawar - RSPCB",12-01-2024 04:00:00,24.588397,76.172782,PM2.5,34,303,134
India,Rajasthan,Jhalawar,"Rajlaxmi Nagar, Jhalawar - RSPCB",12-01-2024 04:00:00,24.588397,76.172782,NO2,8,50,20
India,Rajasthan,Jhalawar,"Rajlaxmi Nagar, Jhalawar - RSPCB",12-01-2024 04:00:00,24.588397,76.172782,OZONE,7,86,20
India,Rajasthan,Jhunjhunu,"Indra Nagar, Jhunjhunu - RSPCB",12-01-2024 04:00:00,28.108988,75.386577,CO,28,105,63
India,Rajasthan,Jodhpur,"Collectorate, Jodhpur - RSPCB",12-01-2024 04:00:00,26.268249,73.0193853,PM10,110,438,201
India,Rajasthan,Jodhpur,"Collectorate, Jodhpur - RSPCB",12-01-2024 04:00:00,26.268249,73.0193853,SO2,1,31,18
India,Rajasthan,Jodhpur,"Digari Kalan, Jodhpur - RSPCB",12-01-2024 04:00:00,26.295810,73.082283,PM2.5,8,307,137
India,Rajasthan,Jodhpur,"Digari Kalan, Jodhpur - RSPCB",12-01-2024 04:00:00,26.295810,73.082283,NO2,11,83,36
India,Rajasthan,Jodhpur,"Digari Kalan, Jodhpur - RSPCB",12-01-2024 04:00:00,26.295810,73.082283,NH3,4,9,6
India,Rajasthan,Jodhpur,"Mandor, Jodhpur - RSPCB",12-01-2024 04:00:00,26.358805,73.047444,NH3,5,16,7
India,Rajasthan,Karauli,"Satyawati Vihar, Karauli - RSPCB",12-01-2024 04:00:00,26.506177,77.025989,NO2,1,81,22
India,Rajasthan,Karauli,"Satyawati Vihar, Karauli - RSPCB",12-01-2024 04:00:00,26.506177,77.025989,OZONE,9,47,13
India,Rajasthan,Kota,"Nayapura, Kota - RSPCB",12-01-2024 04:00:00,25.196024,75.855668,PM10,60,415,173
India,Rajasthan,Kota,"Nayapura, Kota - RSPCB",12-01-2024 04:00:00,25.196024,75.855668,CO,1,180,101
India,Rajasthan,Kota,"Shrinath Puram, Kota - RSPCB",12-01-2024 04:00:00,25.14389,75.821256,OZONE,10,79,14
India,Rajasthan,Nagaur,"Karni Colony, Nagaur - RSPCB",12-01-2024 04:00:00,27.213494,73.734444,SO2,NA,NA,NA
India,Rajasthan,Pali,"Indira Colony Vistar, Pali - RSPCB",12-01-2024 04:00:00,25.771061, 73.340227,SO2,10,16,13
India,Rajasthan,Pali,"Indira Colony Vistar, Pali - RSPCB",12-01-2024 04:00:00,25.771061, 73.340227,CO,6,109,70
India,Rajasthan,Sikar,"Radhakishan Pura, Sikar - RSPCB",12-01-2024 04:00:00,27.608912,75.153302,OZONE,6,126,54
India,Rajasthan,Sirohi,"Vedhaynath Colony, Sirohi - RSPCB",12-01-2024 04:00:00,24.885261,72.857549,PM2.5,18,387,113
India,Rajasthan,Sirohi,"Vedhaynath Colony, Sirohi - RSPCB",12-01-2024 04:00:00,24.885261,72.857549,CO,4,100,48
India,Rajasthan,Udaipur,"Ashok Nagar, Udaipur - RSPCB",12-01-2024 04:00:00,24.5886166,73.6321397,NO2,29,122,71
India,Sikkim,Gangtok,"Zero Point GICI, Gangtok - SSPCB",12-01-2024 04:00:00,27.338530,88.614099,PM2.5,15,33,24
India,Sikkim,Gangtok,"Zero Point GICI, Gangtok - SSPCB",12-01-2024 04:00:00,27.338530,88.614099,NO2,1,22,6
India,TamilNadu,Ariyalur,"Keelapalur, Ariyalur - TNPCB",12-01-2024 04:00:00,11.06825,79.07033,NO2,NA,NA,NA
India,TamilNadu,Chennai,"Alandur Bus Depot, Chennai - CPCB",12-01-2024 04:00:00,12.9099161,80.1076538,SO2,25,32,28
India,TamilNadu,Chennai,"Arumbakkam, Chennai - TNPCB",12-01-2024 04:00:00,13.0664,80.2112 ,PM2.5,67,127,100
India,TamilNadu,Chennai,"Arumbakkam, Chennai - TNPCB",12-01-2024 04:00:00,13.0664,80.2112 ,PM10,78,139,111
India,TamilNadu,Chennai,"Arumbakkam, Chennai - TNPCB",12-01-2024 04:00:00,13.0664,80.2112 ,NO2,12,40,27
India,TamilNadu,Chennai,"Arumbakkam, Chennai - TNPCB",12-01-2024 04:00:00,13.0664,80.2112 ,NH3,2,5,4
India,TamilNadu,Chennai,"Manali, Chennai - CPCB",12-01-2024 04:00:00,13.164544,80.26285,PM10,48,205,137
India,TamilNadu,Chennai,"Perungudi, Chennai - TNPCB",12-01-2024 04:00:00,12.9533,80.2357,NO2,3,9,6
India,TamilNadu,Chennai,"Royapuram, Chennai - TNPCB",12-01-2024 04:00:00,13.1036,80.2909,OZONE,8,10,9
India,TamilNadu,Chennai,"Velachery Res. Area, Chennai - CPCB",12-01-2024 04:00:00,13.0052189,80.2398125,PM10,NA,NA,NA
India,TamilNadu,Coimbatore,"PSG College of Arts and Science, Coimbatore - TNPCB",12-01-2024 04:00:00,11.0328,77.0349,NH3,1,1,1
India,TamilNadu,Cuddalore,"Kudikadu, Cuddalore - TNPCB",12-01-2024 04:00:00,11.6829898,79.7532099,PM2.5,54,174,94
India,TamilNadu,Cuddalore,"Kudikadu, Cuddalore - TNPCB",12-01-2024 04:00:00,11.6829898,79.7532099,SO2,18,21,19
India,TamilNadu,Cuddalore,"Semmandalam, Cuddalore - TNPCB",12-01-2024 04:00:00,11.7637683,79.7499835,NO2,7,352,46
India,TamilNadu,Cuddalore,"Semmandalam, Cuddalore - TNPCB",12-01-2024 04:00:00,11.7637683,79.7499835,NH3,NA,NA,NA
India,TamilNadu,Gummidipoondi,"Anthoni Pillai Nagar, Gummidipoondi - TNPCB",12-01-2024 04:00:00,13.4127,80.1081,PM10,62,260,126
India,TamilNadu,Gummidipoondi,"Anthoni Pillai Nagar, Gummidipoondi - TNPCB",12-01-2024 04:00:00,13.4127,80.1081,NH3,2,2,2
India,TamilNadu,Kanchipuram,"Kilambi, Kanchipuram - TNPCB",12-01-2024 04:00:00,12.864618,79.659968,NO2,NA,NA,NA
India,TamilNadu,Kanchipuram,"Kilambi, Kanchipuram - TNPCB",12-01-2024 04:00:00,12.864618,79.659968,NH3,NA,NA,NA
India,TamilNadu,Kanchipuram,"Kilambi, Kanchipuram - TNPCB",12-01-2024 04:00:00,12.864618,79.659968,OZONE,NA,NA,NA
India,TamilNadu,Ooty,"Bombay Castel, Ooty - TNPCB",12-01-2024 04:00:00,11.4068288,76.7138973,CO,16,20,18
India,TamilNadu,Palkalaiperur,"Bharathidasan University, Palkalaiperur - TNPCB",12-01-2024 04:00:00,10.681158,78.741746,PM10,NA,NA,NA
India,TamilNadu,Ramanathapuram,"Chalai Bazaar, Ramanathapuram - TNPCB",12-01-2024 04:00:00,9.36399,78.831977,PM10,37,87,61
India,TamilNadu,Salem,"Sona College of Technology, Salem - TNPCB",12-01-2024 04:00:00,11.679111,78.125052,NH3,1,1,1
India,TamilNadu,Salem,"Sona College of Technology, Salem - TNPCB",12-01-2024 04:00:00,11.679111,78.125052,CO,35,38,36
India,TamilNadu,Tiruchirappalli,"St Joseph College, Tiruchirappalli - TNPCB",12-01-2024 04:00:00,10.830158,78.691849,PM2.5,46,89,65
India,TamilNadu,Vellore,"Vasanthapuram, Vellore - TNPCB",12-01-2024 04:00:00,12.909494,79.131861,PM10,65,163,95
India,TamilNadu,Vellore,"Vasanthapuram, Vellore - TNPCB",12-01-2024 04:00:00,12.909494,79.131861,SO2,15,15,15
India,TamilNadu,Virudhunagar,"Collectorate Office, Virudhunagar - TNPCB",12-01-2024 04:00:00,9.559382,77.948828,NO2,16,51,26
India,Telangana,Hyderabad,"Bollaram Industrial Area, Hyderabad - TSPCB",12-01-2024 04:00:00,17.540891,78.358528,NO2,22,71,39
India,Telangana,Hyderabad,"ECIL Kapra, Hyderabad - TSPCB",12-01-2024 04:00:00,17.470431,78.566959,OZONE,1,57,21
India,Telangana,Hyderabad,"ICRISAT Patancheru, Hyderabad - TSPCB",12-01-2024 04:00:00,17.518400,78.278777,NH3,2,2,2
India,Telangana,Hyderabad,"ICRISAT Patancheru, Hyderabad - TSPCB",12-01-2024 04:00:00,17.518400,78.278777,SO2,5,19,10
India,Telangana,Hyderabad,"IITH Kandi, Hyderabad - TSPCB",12-01-2024 04:00:00,17.585705,78.126199,PM10,64,88,75
India,Telangana,Hyderabad,"IITH Kandi, Hyderabad - TSPCB",12-01-2024 04:00:00,17.585705,78.126199,SO2,13,13,13
India,Telangana,Hyderabad,"Kokapet, Hyderabad - TSPCB",12-01-2024 04:00:00,17.393559,78.339194,NH3,1,2,1
India,Telangana,Hyderabad,"Kokapet, Hyderabad - TSPCB",12-01-2024 04:00:00,17.393559,78.339194,SO2,5,8,7
India,Telangana,Hyderabad,"Kokapet, Hyderabad - TSPCB",12-01-2024 04:00:00,17.393559,78.339194,OZONE,1,9,3
India,Telangana,Hyderabad,"Kompally Municipal Office, Hyderabad - TSPCB",12-01-2024 04:00:00,17.544899,78.486949,NO2,8,11,10
India,Telangana,Hyderabad,"Nacharam_TSIIC IALA, Hyderabad - TSPCB",12-01-2024 04:00:00,17.429398,78.569354,CO,20,31,24
India,Telangana,Hyderabad,"New Malakpet, Hyderabad - TSPCB",12-01-2024 04:00:00,17.37206,78.50864,CO,18,42,28
India,Telangana,Hyderabad,"Somajiguda, Hyderabad - TSPCB",12-01-2024 04:00:00,17.417094,78.457437,PM10,69,83,74
India,Telangana,Hyderabad,"Somajiguda, Hyderabad - TSPCB",12-01-2024 04:00:00,17.417094,78.457437,OZONE,1,35,9
India,Telangana,Hyderabad,"Zoo Park, Hyderabad - TSPCB",12-01-2024 04:00:00,17.349694,78.451437,PM10,85,156,118
India,Telangana,Hyderabad,"Zoo Park, Hyderabad - TSPCB",12-01-2024 04:00:00,17.349694,78.451437,SO2,1,4,2
India,Telangana,Hyderabad,"Zoo Park, Hyderabad - TSPCB",12-01-2024 04:00:00,17.349694,78.451437,OZONE,16,41,20
India,Tripura,Agartala,"Bardowali, Agartala - Tripura SPCB",12-01-2024 04:00:00,23.8175497,91.2726974,NO2,8,29,20
India,Tripura,Agartala,"Bardowali, Agartala - Tripura SPCB",12-01-2024 04:00:00,23.8175497,91.2726974,OZONE,NA,NA,NA
India,Uttar_Pradesh,Agra,"Manoharpur, Agra - UPPCB",12-01-2024 04:00:00,27.23711,78.01936,PM10,50,135,93
India,Uttar_Pradesh,Agra,"Manoharpur, Agra - UPPCB",12-01-2024 04:00:00,27.23711,78.01936,NH3,1,1,1
India,Uttar_Pradesh,Agra,"Rohta, Agra - UPPCB",12-01-2024 04:00:00,27.106972,78.000111,NO2,9,11,11
India,Uttar_Pradesh,Agra,"Rohta, Agra - UPPCB",12-01-2024 04:00:00,27.106972,78.000111,SO2,10,30,19
India,Uttar_Pradesh,Agra,"Sanjay Palace, Agra - UPPCB",12-01-2024 04:00:00,27.19865833,78.00598056,PM2.5,68,309,139
India,Uttar_Pradesh,Agra,"Sanjay Palace, Agra - UPPCB",12-01-2024 04:00:00,27.19865833,78.00598056,PM10,105,228,143
India,Uttar_Pradesh,Agra,"Sanjay Palace, Agra - UPPCB",12-01-2024 04:00:00,27.19865833,78.00598056,CO,34,140,99
India,Uttar_Pradesh,Agra,"Shahjahan Garden, Agra - UPPCB",12-01-2024 04:00:00,27.169338,78.03582,OZONE,2,27,7
India,Uttar_Pradesh,Agra,"Shastripuram, Agra - UPPCB",12-01-2024 04:00:00,27.19862,77.92066,OZONE,3,17,12
India,Uttar_Pradesh,Baghpat,"Sardar Patel Inter College, Baghpat - UPPCB",12-01-2024 04:00:00,28.964949,77.278761,PM2.5,94,356,272
India,Uttar_Pradesh,Bareilly,"Civil Lines, Bareilly - UPPCB",12-01-2024 04:00:00,28.359581,79.414455,NH3,1,2,1
India,Uttar_Pradesh,Bareilly,"Civil Lines, Bareilly - UPPCB",12-01-2024 04:00:00,28.359581,79.414455,SO2,37,40,39
India,Uttar_Pradesh,Bareilly,"Rajendra Nagar, Bareilly - UPPCB",12-01-2024 04:00:00,28.38910936,79.42963708,NO2,34,68,47
India,Uttar_Pradesh,Bareilly,"Rajendra Nagar, Bareilly - UPPCB",12-01-2024 04:00:00,28.38910936,79.42963708,NH3,1,1,1
India,Uttar_Pradesh,Bulandshahr,"Yamunapuram, Bulandshahr - UPPCB",12-01-2024 04:00:00,28.406963,77.849831,PM2.5,143,328,261
India,Uttar_Pradesh,Bulandshahr,"Yamunapuram, Bulandshahr - UPPCB",12-01-2024 04:00:00,28.406963,77.849831,SO2,5,34,13
India,Uttar_Pradesh,Bulandshahr,"Yamunapuram, Bulandshahr - UPPCB",12-01-2024 04:00:00,28.406963,77.849831,OZONE,2,104,5
India,Uttar_Pradesh,Firozabad,"Nagla Bhau, Firozabad - UPPCB",12-01-2024 04:00:00,27.168897,78.376960,PM2.5,66,255,119
India,Uttar_Pradesh,Firozabad,"Nagla Bhau, Firozabad - UPPCB",12-01-2024 04:00:00,27.168897,78.376960,NH3,1,2,2
India,Uttar_Pradesh,Firozabad,"Vibhab Nagar, Firozabad - UPPCB",12-01-2024 04:00:00,27.1594,78.3953,CO,30,60,51
India,Uttar_Pradesh,Ghaziabad,"Indirapuram, Ghaziabad - UPPCB",12-01-2024 04:00:00,28.646233,77.358075,OZONE,5,20,6
India,Uttar_Pradesh,Ghaziabad,"Loni, Ghaziabad - UPPCB",12-01-2024 04:00:00,28.757294,77.278792,PM2.5,193,379,295
India,Uttar_Pradesh,Ghaziabad,"Loni, Ghaziabad - UPPCB",12-01-2024 04:00:00,28.757294,77.278792,SO2,4,14,8
India,Uttar_Pradesh,Ghaziabad,"Loni, Ghaziabad - UPPCB",12-01-2024 04:00:00,28.757294,77.278792,CO,40,113,86
India,Uttar_Pradesh,Ghaziabad,"Vasundhara, Ghaziabad - UPPCB",12-01-2024 04:00:00,28.6603346,77.3572563,NH3,12,29,20
India,Uttar_Pradesh,Ghaziabad,"Vasundhara, Ghaziabad - UPPCB",12-01-2024 04:00:00,28.6603346,77.3572563,OZONE,4,83,8
India,Uttar_Pradesh,Greater Noida,"Knowledge Park - III, Greater Noida - UPPCB",12-01-2024 04:00:00,28.47272,77.482000,PM10,174,321,229
India,Uttar_Pradesh,Greater Noida,"Knowledge Park - III, Greater Noida - UPPCB",12-01-2024 04:00:00,28.47272,77.482000,NO2,25,69,44
India,Uttar_Pradesh,Greater Noida,"Knowledge Park - III, Greater Noida - UPPCB",12-01-2024 04:00:00,28.47272,77.482000,OZONE,1,150,2
India,Uttar_Pradesh,Greater Noida,"Knowledge Park - V, Greater Noida - UPPCB",12-01-2024 04:00:00,28.557054,77.453663,PM2.5,294,383,341
India,Uttar_Pradesh,Greater Noida,"Knowledge Park - V, Greater Noida - UPPCB",12-01-2024 04:00:00,28.557054,77.453663,NH3,5,8,6
India,Uttar_Pradesh,Hapur,"Anand Vihar, Hapur - UPPCB",12-01-2024 04:00:00,28.725645,77.749675,PM10,138,288,204
India,Uttar_Pradesh,Hapur,"Anand Vihar, Hapur - UPPCB",12-01-2024 04:00:00,28.725645,77.749675,NO2,28,94,56
India,Uttar_Pradesh,Hapur,"Anand Vihar, Hapur - UPPCB",12-01-2024 04:00:00,28.725645,77.749675,SO2,29,105,54
India,Uttar_Pradesh,Hapur,"Anand Vihar, Hapur - UPPCB",12-01-2024 04:00:00,28.725645,77.749675,CO,46,133,98
India,Uttar_Pradesh,Jhansi,"Shivaji Nagar, Jhansi - UPPCB",12-01-2024 04:00:00,25.4547,78.6039,SO2,10,20,12
India,Uttar_Pradesh,Kanpur,"FTI Kidwai Nagar, Kanpur - UPPCB",12-01-2024 04:00:00,26.428282,80.327067,OZONE,2,5,3
India,Uttar_Pradesh,Kanpur,"Nehru Nagar, Kanpur - UPPCB",12-01-2024 04:00:00,26.4703136,80.3229863,PM2.5,116,337,229
India,Uttar_Pradesh,Khurja,"Kalindi Kunj, Khurja - UPPCB",12-01-2024 04:00:00,28.2348927,77.8683002,PM2.5,39,316,156
India,Uttar_Pradesh,Khurja,"Kalindi Kunj, Khurja - UPPCB",12-01-2024 04:00:00,28.2348927,77.8683002,OZONE,21,33,25
India,Uttar_Pradesh,Lucknow,"B R Ambedkar University, Lucknow - UPPCB",12-01-2024 04:00:00,26.766433,80.927299,PM10,35,162,105
India,Uttar_Pradesh,Lucknow,"B R Ambedkar University, Lucknow - UPPCB",12-01-2024 04:00:00,26.766433,80.927299,NH3,6,9,7
India,Uttar_Pradesh,Lucknow,"B R Ambedkar University, Lucknow - UPPCB",12-01-2024 04:00:00,26.766433,80.927299,SO2,23,24,24
India,Uttar_Pradesh,Lucknow,"B R Ambedkar University, Lucknow - UPPCB",12-01-2024 04:00:00,26.766433,80.927299,OZONE,2,33,2
India,Uttar_Pradesh,Lucknow,"Gomti Nagar, Lucknow - UPPCB",12-01-2024 04:00:00,26.868120,81.005119,PM2.5,39,155,91
India,Uttar_Pradesh,Lucknow,"Gomti Nagar, Lucknow - UPPCB",12-01-2024 04:00:00,26.868120,81.005119,OZONE,39,53,41
India,Uttar_Pradesh,Lucknow,"Kendriya Vidyalaya, Lucknow - CPCB",12-01-2024 04:00:00,26.906111,80.948222,PM2.5,100,357,230
India,Uttar_Pradesh,Lucknow,"Kendriya Vidyalaya, Lucknow - CPCB",12-01-2024 04:00:00,26.906111,80.948222,NO2,11,48,26
India,Uttar_Pradesh,Lucknow,"Kukrail Picnic Spot-1, Lucknow - UPPCB",12-01-2024 04:00:00,26.90723,80.98579,PM10,69,132,110
India,Uttar_Pradesh,Lucknow,"Kukrail Picnic Spot-1, Lucknow - UPPCB",12-01-2024 04:00:00,26.90723,80.98579,OZONE,3,31,4
India,Uttar_Pradesh,Lucknow,"Lalbagh, Lucknow - CPCB",12-01-2024 04:00:00,26.8458805,80.9365541,SO2,1,13,6
India,Uttar_Pradesh,Lucknow,"Talkatora District Industries Center, Lucknow - CPCB",12-01-2024 04:00:00,26.83399722,80.8917361,PM2.5,95,402,294
India,Uttar_Pradesh,Lucknow,"Talkatora District Industries Center, Lucknow - CPCB",12-01-2024 04:00:00,26.83399722,80.8917361,NH3,23,55,33
India,Uttar_Pradesh,Lucknow,"Talkatora District Industries Center, Lucknow - CPCB",12-01-2024 04:00:00,26.83399722,80.8917361,SO2,1,18,6
India,Uttar_Pradesh,Lucknow,"Talkatora District Industries Center, Lucknow - CPCB",12-01-2024 04:00:00,26.83399722,80.8917361,CO,2,88,38
India,Uttar_Pradesh,Meerut,"Ganga Nagar, Meerut - UPPCB",12-01-2024 04:00:00,28.999264,77.7590354,PM10,122,432,216
India,Uttar_Pradesh,Meerut,"Ganga Nagar, Meerut - UPPCB",12-01-2024 04:00:00,28.999264,77.7590354,CO,33,94,63
India,Uttar_Pradesh,Meerut,"Jai Bhim Nagar, Meerut - UPPCB",12-01-2024 04:00:00,28.9535882,77.7622941,NO2,20,95,42
India,Uttar_Pradesh,Meerut,"Jai Bhim Nagar, Meerut - UPPCB",12-01-2024 04:00:00,28.9535882,77.7622941,OZONE,14,85,24
India,Uttar_Pradesh,Meerut,"Pallavpuram Phase 2, Meerut - UPPCB",12-01-2024 04:00:00,29.063510,77.709723,OZONE,12,23,15
India,Uttar_Pradesh,Moradabad,"Buddhi Vihar, Moradabad - UPPCB",12-01-2024 04:00:00,28.83526,78.74460,NO2,23,24,23
India,Uttar_Pradesh,Moradabad,"Buddhi Vihar, Moradabad - UPPCB",12-01-2024 04:00:00,28.83526,78.74460,NH3,7,10,8
India,Uttar_Pradesh,Moradabad,"Eco Herbal Park, Moradabad - UPPCB",12-01-2024 04:00:00,28.840739,78.697531,PM10,82,149,116
India,Uttar_Pradesh,Moradabad,"Eco Herbal Park, Moradabad - UPPCB",12-01-2024 04:00:00,28.840739,78.697531,NH3,7,76,13
India,Uttar_Pradesh,Moradabad,"Employment Office, Moradabad - UPPCB",12-01-2024 04:00:00,28.88528,78.73880,SO2,23,24,23
India,Uttar_Pradesh,Moradabad,"Employment Office, Moradabad - UPPCB",12-01-2024 04:00:00,28.88528,78.73880,OZONE,13,16,13
India,Uttar_Pradesh,Moradabad,"Kashiram Nagar, Moradabad - UPPCB",12-01-2024 04:00:00,28.849399,78.742362,NO2,14,34,25
India,Uttar_Pradesh,Moradabad,"Transport Nagar, Moradabad - UPPCB",12-01-2024 04:00:00,28.802625,78.753728,PM10,60,204,109
India,Uttar_Pradesh,Moradabad,"Transport Nagar, Moradabad - UPPCB",12-01-2024 04:00:00,28.802625,78.753728,NO2,20,41,29
India,Uttar_Pradesh,Muzaffarnagar,"New Mandi, Muzaffarnagar - UPPCB",12-01-2024 04:00:00,29.4723508,77.7194031,NH3,8,13,11
India,Uttar_Pradesh,Muzaffarnagar,"New Mandi, Muzaffarnagar - UPPCB",12-01-2024 04:00:00,29.4723508,77.7194031,CO,44,101,75
India,Uttar_Pradesh,Muzaffarnagar,"New Mandi, Muzaffarnagar - UPPCB",12-01-2024 04:00:00,29.4723508,77.7194031,OZONE,13,66,17
India,Uttar_Pradesh,Noida,"Sector - 125, Noida - UPPCB",12-01-2024 04:00:00,28.5447608,77.3231257,PM2.5,202,320,266
India,Uttar_Pradesh,Noida,"Sector - 125, Noida - UPPCB",12-01-2024 04:00:00,28.5447608,77.3231257,SO2,1,8,4
India,Uttar_Pradesh,Noida,"Sector-116, Noida - UPPCB",12-01-2024 04:00:00,28.569230,77.393848,PM10,164,268,207
India,Uttar_Pradesh,Prayagraj,"Nagar Nigam, Prayagraj - UPPCB",12-01-2024 04:00:00,25.44919916 ,81.82735986 ,PM10,42,288,110
India,Uttar_Pradesh,Varanasi,"Ardhali Bazar, Varanasi - UPPCB",12-01-2024 04:00:00,25.3505986,82.9083074,PM10,22,116,55
India,Uttar_Pradesh,Varanasi,"Bhelupur, Varanasi - UPPCB",12-01-2024 04:00:00,25.301778,82.996789,NH3,2,3,2
India,Uttar_Pradesh,Varanasi,"Bhelupur, Varanasi - UPPCB",12-01-2024 04:00:00,25.301778,82.996789,OZONE,4,46,5
India,Uttar_Pradesh,Varanasi,"Maldahiya, Varanasi - UPPCB",12-01-2024 04:00:00,25.32393,82.99687,PM2.5,15,61,33
India,Uttar_Pradesh,Varanasi,"Maldahiya, Varanasi - UPPCB",12-01-2024 04:00:00,25.32393,82.99687,OZONE,4,9,4
India,Uttar_Pradesh,Vrindavan,"Omex Eternity, Vrindavan - UPPCB",12-01-2024 04:00:00,27.5714090,77.6557570,NO2,2,3,3
India,Uttar_Pradesh,Vrindavan,"Omex Eternity, Vrindavan - UPPCB",12-01-2024 04:00:00,27.5714090,77.6557570,SO2,35,35,35
India,Uttarakhand,Dehradun,"Doon University, Dehradun - UKPCB",12-01-2024 04:00:00,30.269444,78.044167,NO2,3,8,5
India,Uttarakhand,Dehradun,"Doon University, Dehradun - UKPCB",12-01-2024 04:00:00,30.269444,78.044167,SO2,1,2,1
India,Uttarakhand,Rishikesh,"Shivaji Nagar, Rishikesh - UKPCB",12-01-2024 04:00:00,30.075911,78.2859547,NH3,3,5,4
India,Uttarakhand,Rishikesh,"Shivaji Nagar, Rishikesh - UKPCB",12-01-2024 04:00:00,30.075911,78.2859547,CO,48,64,61
India,West_Bengal,Asansol,"Asansol Court Area, Asansol - WBPCB",12-01-2024 04:00:00,23.685297,86.945968,PM10,82,129,109
India,West_Bengal,Asansol,"Asansol Court Area, Asansol - WBPCB",12-01-2024 04:00:00,23.685297,86.945968,NO2,30,82,47
India,West_Bengal,Barrackpore,"SVSPA Campus, Barrackpore - WBPCB",12-01-2024 04:00:00,22.7605581,88.3617589,NH3,2,4,3
India,West_Bengal,Barrackpore,"SVSPA Campus, Barrackpore - WBPCB",12-01-2024 04:00:00,22.7605581,88.3617589,CO,68,102,91
India,West_Bengal,Durgapur,"Sidhu Kanhu Indoor Stadium, Durgapur - WBPCB",12-01-2024 04:00:00,23.5404352,87.2892225,NO2,21,33,27
India,West_Bengal,Durgapur,"Sidhu Kanhu Indoor Stadium, Durgapur - WBPCB",12-01-2024 04:00:00,23.5404352,87.2892225,OZONE,1,41,3
India,West_Bengal,Haldia,"Priyambada Housing Estate, Haldia - WBPCB",12-01-2024 04:00:00,22.06047,88.109737,PM2.5,94,190,129
India,West_Bengal,Haldia,"Priyambada Housing Estate, Haldia - WBPCB",12-01-2024 04:00:00,22.06047,88.109737,PM10,100,135,114
India,West_Bengal,Howrah,"Belur Math, Howrah - WBPCB",12-01-2024 04:00:00,22.629801,88.352017,SO2,11,16,13
India,West_Bengal,Howrah,"Ghusuri, Howrah - WBPCB",12-01-2024 04:00:00,22.611968,88.347422,SO2,3,22,7
India,West_Bengal,Howrah,"Ghusuri, Howrah - WBPCB",12-01-2024 04:00:00,22.611968,88.347422,CO,24,102,42
India,West_Bengal,Howrah,"Padmapukur, Howrah - WBPCB",12-01-2024 04:00:00,22.5687319,88.2797276,NH3,10,43,18
India,West_Bengal,Howrah,"Padmapukur, Howrah - WBPCB",12-01-2024 04:00:00,22.5687319,88.2797276,CO,48,124,95
India,West_Bengal,Kolkata,"Ballygunge, Kolkata - WBPCB",12-01-2024 04:00:00,22.5367507,88.3638022,PM2.5,186,310,236
India,West_Bengal,Kolkata,"Ballygunge, Kolkata - WBPCB",12-01-2024 04:00:00,22.5367507,88.3638022,NH3,11,26,16
India,West_Bengal,Kolkata,"Ballygunge, Kolkata - WBPCB",12-01-2024 04:00:00,22.5367507,88.3638022,SO2,10,25,17
India,West_Bengal,Kolkata,"Bidhannagar, Kolkata - WBPCB",12-01-2024 04:00:00,22.58157048,88.41002457,NO2,20,42,27
India,West_Bengal,Kolkata,"Bidhannagar, Kolkata - WBPCB",12-01-2024 04:00:00,22.58157048,88.41002457,CO,44,88,54
India,West_Bengal,Kolkata,"Fort William, Kolkata - WBPCB",12-01-2024 04:00:00,22.556640,88.342674,NH3,9,10,9
India,West_Bengal,Kolkata,"Fort William, Kolkata - WBPCB",12-01-2024 04:00:00,22.556640,88.342674,OZONE,17,100,24
India,West_Bengal,Kolkata,"Victoria, Kolkata - WBPCB",12-01-2024 04:00:00,22.5448082,88.3403691,SO2,21,34,26
India,West_Bengal,Kolkata,"Victoria, Kolkata - WBPCB",12-01-2024 04:00:00,22.5448082,88.3403691,CO,8,47,31
India,West_Bengal,Siliguri,"Ward-32 Bapupara, Siliguri - WBPCB",12-01-2024 04:00:00,26.6879226,88.4152495,NO2,18,32,25
India,Andhra_Pradesh,Amaravati,"Secretariat, Amaravati - APPCB",12-01-2024 04:00:00,16.5150833,80.5181667,NO2,15,36,24
India,Andhra_Pradesh,Amaravati,"Secretariat, Amaravati - APPCB",12-01-2024 04:00:00,16.5150833,80.5181667,NH3,2,4,3
India,Andhra_Pradesh,Amaravati,"Secretariat, Amaravati - APPCB",12-01-2024 04:00:00,16.5150833,80.5181667,CO,7,80,61
India,Andhra_Pradesh,Chittoor,"Gangineni Cheruvu, Chittoor - APPCB",12-01-2024 04:00:00,13.204880,79.097889,NH3,1,2,1
India,Andhra_Pradesh,Chittoor,"Gangineni Cheruvu, Chittoor - APPCB",12-01-2024 04:00:00,13.204880,79.097889,SO2,2,8,5
India,Andhra_Pradesh,Kadapa,"Yerramukkapalli, Kadapa - APPCB",12-01-2024 04:00:00,14.465052,78.824187,PM10,37,79,48
India,Andhra_Pradesh,Tirupati,"Tirumala, Tirupati - APPCB",12-01-2024 04:00:00,13.67,79.35,PM2.5,60,96,81
India,Andhra_Pradesh,Tirupati,"Tirumala, Tirupati - APPCB",12-01-2024 04:00:00,13.67,79.35,SO2,2,29,8
India,Andhra_Pradesh,Tirupati,"Vaikuntapuram, Tirupati - APPCB",12-01-2024 04:00:00,13.615387,79.409230,PM10,13,49,25
India,Andhra_Pradesh,Vijayawada,"HB Colony, Vijayawada - APPCB",12-01-2024 04:00:00,16.536107,80.594233,PM2.5,49,125,65
India,Andhra_Pradesh,Vijayawada,"HB Colony, Vijayawada - APPCB",12-01-2024 04:00:00,16.536107,80.594233,NH3,3,4,4
India,Andhra_Pradesh,Vijayawada,"HB Colony, Vijayawada - APPCB",12-01-2024 04:00:00,16.536107,80.594233,CO,24,30,24
India,Andhra_Pradesh,Vijayawada,"Kanuru, Vijayawada - APPCB",12-01-2024 04:00:00,16.486692,80.699436,NO2,14,26,18
India,Andhra_Pradesh,Vijayawada,"Kanuru, Vijayawada - APPCB",12-01-2024 04:00:00,16.486692,80.699436,NH3,1,1,1
India,Andhra_Pradesh,Vijayawada,"Kanuru, Vijayawada - APPCB",12-01-2024 04:00:00,16.486692,80.699436,CO,36,44,36
India,Andhra_Pradesh,Visakhapatnam,"GVM Corporation, Visakhapatnam - APPCB",12-01-2024 04:00:00,17.72,83.3,PM10,137,431,213
India,Andhra_Pradesh,Visakhapatnam,"GVM Corporation, Visakhapatnam - APPCB",12-01-2024 04:00:00,17.72,83.3,NH3,3,7,5
India,Arunachal_Pradesh,Naharlagun,"Naharlagun, Naharlagun - APSPCB",12-01-2024 04:00:00,27.103358,93.679645,PM2.5,48,291,121
India,Arunachal_Pradesh,Naharlagun,"Naharlagun, Naharlagun - APSPCB",12-01-2024 04:00:00,27.103358,93.679645,PM10,53,157,95
India,Assam,Byrnihat,"Central Academy for SFS, Byrnihat - PCBA",12-01-2024 04:00:00,26.071318,91.87488,PM2.5,NA,NA,NA
India,Assam,Byrnihat,"Central Academy for SFS, Byrnihat - PCBA",12-01-2024 04:00:00,26.071318,91.87488,NH3,2,3,3
India,Assam,Byrnihat,"Central Academy for SFS, Byrnihat - PCBA",12-01-2024 04:00:00,26.071318,91.87488,OZONE,6,6,6
India,Assam,Guwahati,"IITG, Guwahati - PCBA",12-01-2024 04:00:00,26.2028636,91.70046436,OZONE,4,35,8
India,Assam,Guwahati,"LGBI Airport, Guwahati - PCBA",12-01-2024 04:00:00,26.10887,91.589544,NO2,10,61,22
India,Assam,Guwahati,"LGBI Airport, Guwahati - PCBA",12-01-2024 04:00:00,26.10887,91.589544,NH3,1,11,3
India,Assam,Guwahati,"Pan Bazaar, Guwahati - PCBA",12-01-2024 04:00:00,26.187500,91.744194,NH3,3,4,4
India,Assam,Guwahati,"Railway Colony, Guwahati - PCBA",12-01-2024 04:00:00,26.181742,91.78063,SO2,17,26,23
India,Assam,Nagaon,"Christianpatty, Nagaon - PCBA",12-01-2024 04:00:00,26.349082,92.68449,PM2.5,80,337,214
India,Assam,Nagaon,"Christianpatty, Nagaon - PCBA",12-01-2024 04:00:00,26.349082,92.68449,NH3,3,4,4
India,Assam,Silchar,"Tarapur, Silchar - PCBA",12-01-2024 04:00:00,24.82827,92.79525,NO2,26,42,34
India,Assam,Silchar,"Tarapur, Silchar - PCBA",12-01-2024 04:00:00,24.82827,92.79525,SO2,4,9,7
India,Assam,Silchar,"Tarapur, Silchar - PCBA",12-01-2024 04:00:00,24.82827,92.79525,OZONE,NA,NA,NA
India,Assam,Sivasagar,"Girls College, Sivasagar - PCBA",12-01-2024 04:00:00,26.987634,94.636574,SO2,4,5,5
India,Bihar,Araria,"Kharahiya Basti, Araria - BSPCB",12-01-2024 04:00:00,26.146529,87.454184,PM10,149,298,205
India,Bihar,Araria,"Kharahiya Basti, Araria - BSPCB",12-01-2024 04:00:00,26.146529,87.454184,NO2,6,8,7
India,Bihar,Araria,"Kharahiya Basti, Araria - BSPCB",12-01-2024 04:00:00,26.146529,87.454184,CO,36,57,44
India,Bihar,Araria,"Kharahiya Basti, Araria - BSPCB",12-01-2024 04:00:00,26.146529,87.454184,OZONE,12,23,19
India,Bihar,Arrah,"New DM Office, Arrah - BSPCB",12-01-2024 04:00:00,25.5626095,84.663264,NO2,14,42,28
India,Bihar,Arrah,"New DM Office, Arrah - BSPCB",12-01-2024 04:00:00,25.5626095,84.663264,CO,3,18,10
India,Bihar,Aurangabad,"Gurdeo Nagar, Aurangabad - BSPCB",12-01-2024 04:00:00,24.75746,84.366208,NO2,7,14,10
India,Bihar,Aurangabad,"Gurdeo Nagar, Aurangabad - BSPCB",12-01-2024 04:00:00,24.75746,84.366208,OZONE,3,67,14
India,Bihar,Bhagalpur,"Mayaganj, Bhagalpur - BSPCB",12-01-2024 04:00:00,25.265194,87.012947,PM2.5,280,500,372
India,Bihar,Bhagalpur,"Mayaganj, Bhagalpur - BSPCB",12-01-2024 04:00:00,25.265194,87.012947,PM10,133,491,242
India,Bihar,Bhagalpur,"Mayaganj, Bhagalpur - BSPCB",12-01-2024 04:00:00,25.265194,87.012947,NO2,5,34,11
India,Bihar,Bhagalpur,"Mayaganj, Bhagalpur - BSPCB",12-01-2024 04:00:00,25.265194,87.012947,OZONE,16,60,24
India,Bihar,Bihar Sharif,"D M Colony, Bihar Sharif - BSPCB",12-01-2024 04:00:00,25.204762,85.514960,PM2.5,22,78,38
India,Bihar,Chhapra,"Darshan Nagar, Chhapra - BSPCB",12-01-2024 04:00:00,25.7808257,84.7446768,NH3,NA,NA,NA
India,Bihar,Chhapra,"Darshan Nagar, Chhapra - BSPCB",12-01-2024 04:00:00,25.7808257,84.7446768,CO,NA,NA,NA
India,Bihar,Gaya,"Collectorate, Gaya - BSPCB",12-01-2024 04:00:00,24.7955,84.9994,OZONE,34,83,69
India,Bihar,Gaya,"Kareemganj, Gaya - BSPCB",12-01-2024 04:00:00,24.792403,84.992416,CO,5,103,51
India,Bihar,Gaya,"Kareemganj, Gaya - BSPCB",12-01-2024 04:00:00,24.792403,84.992416,OZONE,8,31,20
India,Bihar,Gaya,"SFTI Kusdihra, Gaya - BSPCB",12-01-2024 04:00:00,24.762518,84.982348,PM10,51,100,78
India,Bihar,Hajipur,"Industrial Area, Hajipur - BSPCB",12-01-2024 04:00:00,25.697189,85.245900,PM10,138,225,183
India,Bihar,Hajipur,"Industrial Area, Hajipur - BSPCB",12-01-2024 04:00:00,25.697189,85.245900,NO2,9,21,14
India,Bihar,Hajipur,"Industrial Area, Hajipur - BSPCB",12-01-2024 04:00:00,25.697189,85.245900,SO2,6,9,7
India,Bihar,Katihar,"Mirchaibari, Katihar - BSPCB",12-01-2024 04:00:00,25.560083,87.553265,CO,30,36,31
India,Bihar,Kishanganj,"SDM Office_Khagra, Kishanganj - BSPCB",12-01-2024 04:00:00,26.0881305,87.93840336,CO,4,17,11
India,Bihar,Manguraha,"Forest Rest House, Manguraha - BSPCB",12-01-2024 04:00:00,27.308328,84.531742,PM10,87,230,157
India,Bihar,Manguraha,"Forest Rest House, Manguraha - BSPCB",12-01-2024 04:00:00,27.308328,84.531742,NO2,28,56,43
India,Bihar,Munger,"Town Hall, Munger - BSPCB",12-01-2024 04:00:00,25.376776,86.471523,NO2,8,10,9
India,Bihar,Munger,"Town Hall, Munger - BSPCB",12-01-2024 04:00:00,25.376776,86.471523,CO,2,34,10
India,Bihar,Muzaffarpur,"Buddha Colony, Muzaffarpur - BSPCB",12-01-2024 04:00:00,26.11442,85.39813,PM10,183,443,288
India,Bihar,Muzaffarpur,"Buddha Colony, Muzaffarpur - BSPCB",12-01-2024 04:00:00,26.11442,85.39813,CO,35,124,93
India,Bihar,Muzaffarpur,"Muzaffarpur Collectorate, Muzaffarpur - BSPCB",12-01-2024 04:00:00,26.1209,85.3647,NO2,8,10,9
India,Bihar,Muzaffarpur,"Muzaffarpur Collectorate, Muzaffarpur - BSPCB",12-01-2024 04:00:00,26.1209,85.3647,CO,31,74,59
India,Bihar,Patna,"DRM Office Danapur, Patna - BSPCB",12-01-2024 04:00:00,25.586562,85.043586,SO2,5,9,7
India,Bihar,Patna,"DRM Office Danapur, Patna - BSPCB",12-01-2024 04:00:00,25.586562,85.043586,OZONE,1,51,1
India,Bihar,Patna,"Govt. High School Shikarpur, Patna - BSPCB",12-01-2024 04:00:00,25.592539,85.227158,NH3,4,7,6
India,Bihar,Patna,"Govt. High School Shikarpur, Patna - BSPCB",12-01-2024 04:00:00,25.592539,85.227158,OZONE,10,56,48
India,Bihar,Patna,"IGSC Planetarium Complex, Patna - BSPCB",12-01-2024 04:00:00,25.610369,85.132568,OZONE,13,31,14
India,Bihar,Patna,"Muradpur, Patna - BSPCB",12-01-2024 04:00:00,25.619651,85.147382,SO2,3,6,5
India,Bihar,Patna,"Rajbansi Nagar, Patna - BSPCB",12-01-2024 04:00:00,25.599486,85.113666,PM10,160,258,192
India,Bihar,Patna,"Samanpura, Patna - BSPCB",12-01-2024 04:00:00,25.596727,85.085624,NO2,14,19,16
India,Bihar,Patna,"Samanpura, Patna - BSPCB",12-01-2024 04:00:00,25.596727,85.085624,OZONE,19,56,22
India,Bihar,Purnia,"Mariam Nagar, Purnia - BSPCB",12-01-2024 04:00:00,25.366336,87.117468,SO2,15,20,18
India,Bihar,Rajgir,"Dangi Tola, Rajgir - BSPCB",12-01-2024 04:00:00,25.03280,85.41948,SO2,4,6,5
India,Bihar,Saharsa,"Police Line, Saharsa - BSPCB",12-01-2024 04:00:00,25.892357,86.590325,OZONE,2,5,2
India,Bihar,Samastipur,"DM Office_Kasipur, Samastipur - BSPCB",12-01-2024 04:00:00,25.859655,85.77944,PM10,57,181,111
India,Bihar,Samastipur,"DM Office_Kasipur, Samastipur - BSPCB",12-01-2024 04:00:00,25.859655,85.77944,OZONE,6,10,6
India,Bihar,Sasaram,"Dada Peer, Sasaram - BSPCB",12-01-2024 04:00:00,24.952822,84.002396,CO,24,56,44
India,Bihar,Sasaram,"Dada Peer, Sasaram - BSPCB",12-01-2024 04:00:00,24.952822,84.002396,OZONE,4,5,4
India,Chandigarh,Chandigarh,"Sector 22, Chandigarh - CPCC",12-01-2024 04:00:00,30.735567,76.775714,PM10,143,288,198
India,Chandigarh,Chandigarh,"Sector-25, Chandigarh - CPCC",12-01-2024 04:00:00,30.751462,76.762879,NO2,16,28,22
India,Chandigarh,Chandigarh,"Sector-25, Chandigarh - CPCC",12-01-2024 04:00:00,30.751462,76.762879,NH3,8,12,10
India,Chandigarh,Chandigarh,"Sector-25, Chandigarh - CPCC",12-01-2024 04:00:00,30.751462,76.762879,CO,41,52,48
India,Chandigarh,Chandigarh,"Sector-25, Chandigarh - CPCC",12-01-2024 04:00:00,30.751462,76.762879,OZONE,1,57,2
India,Chandigarh,Chandigarh,"Sector-53, Chandigarh - CPCC",12-01-2024 04:00:00,30.719859,76.738637,NH3,5,8,6
India,Chandigarh,Chandigarh,"Sector-53, Chandigarh - CPCC",12-01-2024 04:00:00,30.719859,76.738637,CO,71,95,82
India,Chandigarh,Chandigarh,"Sector-53, Chandigarh - CPCC",12-01-2024 04:00:00,30.719859,76.738637,OZONE,13,35,18
India,Chhattisgarh,Bhilai,"32Bungalows, Bhilai - CECB",12-01-2024 04:00:00,21.194815,81.314770,CO,29,96,72
India,Chhattisgarh,Bhilai,"Civic Center, Bhilai - Bhilai Steel Plant",12-01-2024 04:00:00,21.185571,81.343175,PM2.5,NA,NA,NA
India,Chhattisgarh,Bhilai,"Hathkhoj, Bhilai - CECB",12-01-2024 04:00:00,21.224231,81.408350,NH3,7,8,8
India,Chhattisgarh,Bhilai,"Hathkhoj, Bhilai - CECB",12-01-2024 04:00:00,21.224231,81.408350,CO,14,51,36
India,Chhattisgarh,Bilaspur,"Mangala, Bilaspur - NTPC",12-01-2024 04:00:00,22.08815,82.13737,SO2,1,44,19
India,Chhattisgarh,Chhal,"Nawapara SECL Colony, Chhal - CECB",12-01-2024 04:00:00,22.118125,83.140608,SO2,9,95,21
India,Chhattisgarh,Korba,"Urja Nagar, Korba - CECB",12-01-2024 04:00:00,22.348441,82.549611,PM10,22,64,48
India,Chhattisgarh,Korba,"Urja Nagar, Korba - CECB",12-01-2024 04:00:00,22.348441,82.549611,CO,24,44,30
India,Chhattisgarh,Milupara,"Govt. Higher Secondary School, Milupara - CECB",12-01-2024 04:00:00,22.1910172,83.5197009,PM2.5,24,80,56
India,Chhattisgarh,Milupara,"Govt. Higher Secondary School, Milupara - CECB",12-01-2024 04:00:00,22.1910172,83.5197009,NO2,11,47,20
India,Chhattisgarh,Milupara,"Govt. Higher Secondary School, Milupara - CECB",12-01-2024 04:00:00,22.1910172,83.5197009,SO2,8,13,10
India,Chhattisgarh,Raipur,"Bhatagaon New ISBT, Raipur - CECB",12-01-2024 04:00:00,21.219665,81.630094,NH3,2,4,2
India,Chhattisgarh,Raipur,"Bhatagaon New ISBT, Raipur - CECB",12-01-2024 04:00:00,21.219665,81.630094,CO,34,101,79
India,Chhattisgarh,Raipur,"Krishak Nagar, Raipur - CECB",12-01-2024 04:00:00,21.237755,81.705301,PM2.5,57,93,69
India,Chhattisgarh,Raipur,"Krishak Nagar, Raipur - CECB",12-01-2024 04:00:00,21.237755,81.705301,CO,33,62,42
India,Chhattisgarh,Raipur,"Siltara Phase-II, Raipur - CECB",12-01-2024 04:00:00,21.371751,81.664929,PM10,53,188,114
India,Chhattisgarh,Tumidih,"OP Jindal Industrial Park, Tumidih - CECB",12-01-2024 04:00:00,22.06631475,83.33820077,NH3,2,3,3
India,Delhi,Delhi,"Alipur, Delhi - DPCC",12-01-2024 04:00:00,28.815329,77.153010,NH3,3,7,5
India,Delhi,Delhi,"Anand Vihar, Delhi - DPCC",12-01-2024 04:00:00,28.647622,77.3158090,NH3,7,11,9
India,Delhi,Delhi,"Ashok Vihar, Delhi - DPCC",12-01-2024 04:00:00,28.695381,77.181665,NH3,10,12,11
India,Delhi,Delhi,"Ashok Vihar, Delhi - DPCC",12-01-2024 04:00:00,28.695381,77.181665,CO,39,106,80
India,Delhi,Delhi,"Bawana, Delhi - DPCC",12-01-2024 04:00:00,28.776200,77.051074,NO2,23,57,34
India,Delhi,Delhi,"Burari Crossing, Delhi - IMD",12-01-2024 04:00:00,28.7256504,77.2011573,PM10,NA,NA,NA
India,Delhi,Delhi,"CRRI Mathura Road, Delhi - IMD",12-01-2024 04:00:00,28.5512005,77.2735737,CO,NA,NA,NA
India,Delhi,Delhi,"DTU, Delhi - CPCB",12-01-2024 04:00:00,28.7500499,77.1112615,PM2.5,106,332,218
India,Delhi,Delhi,"Dr. Karni Singh Shooting Range, Delhi - DPCC",12-01-2024 04:00:00,28.498571,77.264840,CO,58,109,100
India,Delhi,Delhi,"Dwarka-Sector 8, Delhi - DPCC ",12-01-2024 04:00:00,28.5710274,77.0719006,PM10,184,409,264
India,Delhi,Delhi,"Dwarka-Sector 8, Delhi - DPCC ",12-01-2024 04:00:00,28.5710274,77.0719006,NH3,11,15,13
India,Delhi,Delhi,"ITO, Delhi - CPCB",12-01-2024 04:00:00,28.628624,77.241060,NH3,5,10,7
India,Delhi,Delhi,"Jahangirpuri, Delhi - DPCC",12-01-2024 04:00:00,28.732820,77.170633,NO2,27,66,44
India,Delhi,Delhi,"Jahangirpuri, Delhi - DPCC",12-01-2024 04:00:00,28.732820,77.170633,OZONE,7,29,9
India,Delhi,Delhi,"Jawaharlal Nehru Stadium, Delhi - DPCC",12-01-2024 04:00:00,28.580280,77.233829,PM10,188,333,228
India,Delhi,Delhi,"Lodhi Road, Delhi - IITM",12-01-2024 04:00:00,28.588333,77.221667,NO2,59,90,85
India,Delhi,Delhi,"Lodhi Road, Delhi - IITM",12-01-2024 04:00:00,28.588333,77.221667,NH3,9,12,10
India,Delhi,Delhi,"Major Dhyan Chand National Stadium, Delhi - DPCC",12-01-2024 04:00:00,28.611281,77.237738,NH3,11,16,13
India,Delhi,Delhi,"Major Dhyan Chand National Stadium, Delhi - DPCC",12-01-2024 04:00:00,28.611281,77.237738,OZONE,2,77,11
India,Delhi,Delhi,"Mandir Marg, Delhi - DPCC",12-01-2024 04:00:00,28.636429,77.201067,OZONE,1,21,2
India,Delhi,Delhi,"Mundka, Delhi - DPCC",12-01-2024 04:00:00,28.684678,77.076574,NO2,28,96,49
India,Delhi,Delhi,"Mundka, Delhi - DPCC",12-01-2024 04:00:00,28.684678,77.076574,SO2,11,15,13
India,Delhi,Delhi,"Mundka, Delhi - DPCC",12-01-2024 04:00:00,28.684678,77.076574,OZONE,2,25,7
India,Delhi,Delhi,"NSIT Dwarka, Delhi - CPCB",12-01-2024 04:00:00,28.60909,77.0325413,SO2,5,12,10
India,Delhi,Delhi,"Najafgarh, Delhi - DPCC",12-01-2024 04:00:00,28.570173,76.933762,NH3,6,9,7
India,Delhi,Delhi,"Nehru Nagar, Delhi - DPCC",12-01-2024 04:00:00,28.567890,77.250515,NO2,25,53,40
India,Delhi,Delhi,"North Campus, DU, Delhi - IMD",12-01-2024 04:00:00,28.6573814,77.1585447,PM2.5,NA,NA,NA
India,Delhi,Delhi,"North Campus, DU, Delhi - IMD",12-01-2024 04:00:00,28.6573814,77.1585447,PM10,NA,NA,NA
India,Delhi,Delhi,"North Campus, DU, Delhi - IMD",12-01-2024 04:00:00,28.6573814,77.1585447,NO2,NA,NA,NA
India,Delhi,Delhi,"Okhla Phase-2, Delhi - DPCC",12-01-2024 04:00:00,28.530785,77.271255,PM2.5,340,431,374
India,Delhi,Delhi,"Patparganj, Delhi - DPCC",12-01-2024 04:00:00,28.623763,77.287209,PM2.5,337,414,376
India,Delhi,Delhi,"Patparganj, Delhi - DPCC",12-01-2024 04:00:00,28.623763,77.287209,OZONE,9,32,19
India,Delhi,Delhi,"Punjabi Bagh, Delhi - DPCC",12-01-2024 04:00:00,28.674045,77.131023,PM2.5,348,446,382
India,Delhi,Delhi,"Punjabi Bagh, Delhi - DPCC",12-01-2024 04:00:00,28.674045,77.131023,PM10,193,382,267
India,Delhi,Delhi,"Punjabi Bagh, Delhi - DPCC",12-01-2024 04:00:00,28.674045,77.131023,NH3,6,8,7
India,Delhi,Delhi,"Punjabi Bagh, Delhi - DPCC",12-01-2024 04:00:00,28.674045,77.131023,SO2,5,10,9
India,Delhi,Delhi,"Pusa, Delhi - DPCC",12-01-2024 04:00:00,28.639652,77.146275,NO2,NA,NA,NA
India,Delhi,Delhi,"R K Puram, Delhi - DPCC",12-01-2024 04:00:00,28.563262,77.186937,PM10,206,434,292
India,Delhi,Delhi,"R K Puram, Delhi - DPCC",12-01-2024 04:00:00,28.563262,77.186937,NO2,28,101,57
India,Delhi,Delhi,"R K Puram, Delhi - DPCC",12-01-2024 04:00:00,28.563262,77.186937,NH3,6,11,8
India,Delhi,Delhi,"R K Puram, Delhi - DPCC",12-01-2024 04:00:00,28.563262,77.186937,CO,64,134,116
India,Delhi,Delhi,"Rohini, Delhi - DPCC",12-01-2024 04:00:00,28.732528,77.119920,CO,22,104,74
India,Delhi,Delhi,"Rohini, Delhi - DPCC",12-01-2024 04:00:00,28.732528,77.119920,OZONE,2,71,4
India,Delhi,Delhi,"Shadipur, Delhi - CPCB",12-01-2024 04:00:00,28.6514781,77.1473105,CO,42,105,81
India,Delhi,Delhi,"Sirifort, Delhi - CPCB",12-01-2024 04:00:00,28.5504249,77.2159377,OZONE,16,37,30
India,Delhi,Delhi,"Sonia Vihar, Delhi - DPCC",12-01-2024 04:00:00,28.710508,77.249485,PM2.5,337,409,374
India,Delhi,Delhi,"Sonia Vihar, Delhi - DPCC",12-01-2024 04:00:00,28.710508,77.249485,OZONE,3,91,4
India,Delhi,Delhi,"Sri Aurobindo Marg, Delhi - DPCC",12-01-2024 04:00:00,28.531346,77.190156,CO,40,75,68
India,Delhi,Delhi,"Vivek Vihar, Delhi - DPCC",12-01-2024 04:00:00,28.672342,77.315260,PM2.5,346,413,383
India,Delhi,Delhi,"Vivek Vihar, Delhi - DPCC",12-01-2024 04:00:00,28.672342,77.315260,PM10,230,408,330
India,Delhi,Delhi,"Vivek Vihar, Delhi - DPCC",12-01-2024 04:00:00,28.672342,77.315260,CO,40,104,81
India,Gujarat,Ahmedabad,"Chandkheda, Ahmedabad - IITM",12-01-2024 04:00:00,23.107969,72.574648,PM10,65,124,89
India,Gujarat,Ahmedabad,"Gyaspur, Ahmedabad - IITM",12-01-2024 04:00:00,22.977134,72.553024,PM2.5,103,332,168
India,Gujarat,Ahmedabad,"Gyaspur, Ahmedabad - IITM",12-01-2024 04:00:00,22.977134,72.553024,NH3,3,4,3
India,Gujarat,Ahmedabad,"Gyaspur, Ahmedabad - IITM",12-01-2024 04:00:00,22.977134,72.553024,SO2,8,9,8
India,Gujarat,Ahmedabad,"Maninagar, Ahmedabad - GPCB",12-01-2024 04:00:00,23.002657,72.591912,PM2.5,65,183,102
India,Gujarat,Ahmedabad,"Raikhad, Ahmedabad - IITM",12-01-2024 04:00:00,23.020509,72.579261,PM2.5,93,187,121
India,Gujarat,Ahmedabad,"SAC ISRO Bopal, Ahmedabad - IITM",12-01-2024 04:00:00,23.041137,72.456691,NO2,8,15,12
India,Gujarat,Ahmedabad,"SAC ISRO Satellite, Ahmedabad - IITM",12-01-2024 04:00:00,23.023389,72.515201,OZONE,2,19,3
India,Gujarat,Ahmedabad,"SVPI Airport Hansol, Ahmedabad - IITM",12-01-2024 04:00:00,23.076793,72.627874,PM10,54,121,82
India,Gujarat,Ahmedabad,"Sardar Vallabhbhai Patel Stadium, Ahmedabad - IITM",12-01-2024 04:00:00,23.043070,72.562968,PM2.5,65,202,117
India,Gujarat,Ahmedabad,"Sardar Vallabhbhai Patel Stadium, Ahmedabad - IITM",12-01-2024 04:00:00,23.043070,72.562968,SO2,3,6,5
India,Gujarat,Ahmedabad,"Sardar Vallabhbhai Patel Stadium, Ahmedabad - IITM",12-01-2024 04:00:00,23.043070,72.562968,OZONE,1,16,2
India,Gujarat,Ankleshwar,"GIDC, Ankleshwar - GPCB",12-01-2024 04:00:00,21.613267,73.010555,CO,52,91,69
India,Gujarat,Ankleshwar,"GIDC, Ankleshwar - GPCB",12-01-2024 04:00:00,21.613267,73.010555,OZONE,20,26,22
India,Gujarat,Gandhinagar,"GIFT City, Gandhinagar - IITM",12-01-2024 04:00:00,23.163798,72.677768,PM2.5,36,99,54
India,Gujarat,Gandhinagar,"GIFT City, Gandhinagar - IITM",12-01-2024 04:00:00,23.163798,72.677768,OZONE,1,26,4
India,Gujarat,Gandhinagar,"IIPHG Lekawada, Gandhinagar - IITM",12-01-2024 04:00:00,23.243639,72.68994,PM2.5,60,72,62
India,Gujarat,Gandhinagar,"IIPHG Lekawada, Gandhinagar - IITM",12-01-2024 04:00:00,23.243639,72.68994,PM10,64,92,73
India,Gujarat,Gandhinagar,"IIPHG Lekawada, Gandhinagar - IITM",12-01-2024 04:00:00,23.243639,72.68994,NH3,3,4,3
India,Gujarat,Gandhinagar,"IIPHG Lekawada, Gandhinagar - IITM",12-01-2024 04:00:00,23.243639,72.68994,CO,28,57,36
India,Gujarat,Gandhinagar,"Sector-10, Gandhinagar - GPCB",12-01-2024 04:00:00,23.221714,72.654328,PM10,30,102,67
