country,state,city,station,last_update,latitude,longitude,pollutant_id,pollutant_min,pollutant_max,pollutant_avg
India,Andhra_Pradesh,Amaravati,"Secretariat, Amaravati - APPCB",25-06-2024 11:00:00,16.5150833,80.5181667,OZONE,21,49,33
India,Andhra_Pradesh,Anantapur,"Gulzarpet, Anantapur - APPCB",25-06-2024 11:00:00,14.675886,77.593027,PM10,NA,NA,NA
India,Andhra_Pradesh,Anantapur,"Gulzarpet, Anantapur - APPCB",25-06-2024 11:00:00,14.675886,77.593027,CO,28,38,31
India,Andhra_Pradesh,Kadapa,"Yerramukkapalli, Kadapa - APPCB",25-06-2024 11:00:00,14.465052,78.824187,SO2,NA,NA,NA
India,Andhra_Pradesh,Kadapa,"Yerramukkapalli, Kadapa - APPCB",25-06-2024 11:00:00,14.465052,78.824187,OZONE,9,9,9
India,Andhra_Pradesh,Rajamahendravaram,"Anand Kala Kshetram, Rajamahendravaram - APPCB",25-06-2024 11:00:00,16.9872867,81.7363176,NH3,1,35,8
India,Andhra_Pradesh,Tirupati,"Tirumala, Tirupati - APPCB",25-06-2024 11:00:00,13.67,79.35,PM2.5,11,30,18
India,Andhra_Pradesh,Tirupati,"Tirumala, Tirupati - APPCB",25-06-2024 11:00:00,13.67,79.35,NH3,1,2,1
India,Andhra_Pradesh,Tirupati,"Vaikuntapuram, Tirupati - APPCB",25-06-2024 11:00:00,13.615387,79.409230,PM2.5,37,500,120
India,Andhra_Pradesh,Tirupati,"Vaikuntapuram, Tirupati - APPCB",25-06-2024 11:00:00,13.615387,79.409230,PM10,43,320,89
India,Andhra_Pradesh,Tirupati,"Vaikuntapuram, Tirupati - APPCB",25-06-2024 11:00:00,13.615387,79.409230,NO2,14,24,17
India,Andhra_Pradesh,Vijayawada,"Kanuru, Vijayawada - APPCB",25-06-2024 11:00:00,16.486692,80.699436,PM10,47,76,58
India,Andhra_Pradesh,Vijayawada,"Kanuru, Vijayawada - APPCB",25-06-2024 11:00:00,16.486692,80.699436,OZONE,40,40,40
India,Andhra_Pradesh,Vijayawada,"Rajiv Gandhi Park, Vijayawada - APPCB",25-06-2024 11:00:00,16.509717,80.612222,SO2,7,29,9
India,Andhra_Pradesh,Vijayawada,"Rajiv Nagar, Vijayawada - APPCB",25-06-2024 11:00:00,16.554731,80.649110,PM2.5,47,99,53
India,Andhra_Pradesh,Vijayawada,"Rajiv Nagar, Vijayawada - APPCB",25-06-2024 11:00:00,16.554731,80.649110,NO2,10,10,10
India,Andhra_Pradesh,Vijayawada,"Rajiv Nagar, Vijayawada - APPCB",25-06-2024 11:00:00,16.554731,80.649110,NH3,1,2,2
India,Andhra_Pradesh,Vijayawada,"Rajiv Nagar, Vijayawada - APPCB",25-06-2024 11:00:00,16.554731,80.649110,SO2,26,26,26
India,Andhra_Pradesh,Visakhapatnam,"GVM Corporation, Visakhapatnam - APPCB",25-06-2024 11:00:00,17.72,83.3,OZONE,7,15,11
India,Assam,Byrnihat,"Central Academy for SFS, Byrnihat - PCBA",25-06-2024 11:00:00,26.071318,91.87488,NH3,NA,NA,NA
India,Assam,Guwahati,"IITG, Guwahati - PCBA",25-06-2024 11:00:00,26.2028636,91.70046436,PM10,NA,NA,NA
India,Assam,Guwahati,"IITG, Guwahati - PCBA",25-06-2024 11:00:00,26.2028636,91.70046436,NO2,NA,NA,NA
India,Assam,Guwahati,"LGBI Airport, Guwahati - PCBA",25-06-2024 11:00:00,26.10887,91.589544,NO2,6,36,15
India,Assam,Guwahati,"Pan Bazaar, Guwahati - PCBA",25-06-2024 11:00:00,26.187500,91.744194,PM2.5,15,56,37
India,Assam,Guwahati,"Pan Bazaar, Guwahati - PCBA",25-06-2024 11:00:00,26.187500,91.744194,CO,6,48,30
India,Assam,Guwahati,"Railway Colony, Guwahati - PCBA",25-06-2024 11:00:00,26.181742,91.78063,CO,22,42,28
India,Assam,Guwahati,"Railway Colony, Guwahati - PCBA",25-06-2024 11:00:00,26.181742,91.78063,OZONE,1,20,5
India,Assam,Nagaon,"Christianpatty, Nagaon - PCBA",25-06-2024 11:00:00,26.349082,92.68449,OZONE,9,68,15
India,Assam,Silchar,"Tarapur, Silchar - PCBA",25-06-2024 11:00:00,24.82827,92.79525,PM2.5,27,38,32
India,Assam,Silchar,"Tarapur, Silchar - PCBA",25-06-2024 11:00:00,24.82827,92.79525,PM10,40,74,50
India,Assam,Sivasagar,"Girls College, Sivasagar - PCBA",25-06-2024 11:00:00,26.987634,94.636574,NH3,1,2,2
India,Assam,Sivasagar,"Girls College, Sivasagar - PCBA",25-06-2024 11:00:00,26.987634,94.636574,OZONE,1,9,2
India,Bihar,Arrah,"New DM Office, Arrah - BSPCB",25-06-2024 11:00:00,25.5626095,84.663264,NH3,2,4,3
India,Bihar,Aurangabad,"Gurdeo Nagar, Aurangabad - BSPCB",25-06-2024 11:00:00,24.75746,84.366208,SO2,8,24,18
India,Bihar,Bettiah,"Kamalnath Nagar, Bettiah - BSPCB",25-06-2024 11:00:00,26.80365,84.51954,PM2.5,NA,NA,NA
India,Bihar,Bhagalpur,"DM Office_Kachari Chowk, Bhagalpur - BSPCB",25-06-2024 11:00:00,25.251013,86.989001,NO2,35,64,53
India,Bihar,Bhagalpur,"DM Office_Kachari Chowk, Bhagalpur - BSPCB",25-06-2024 11:00:00,25.251013,86.989001,NH3,5,9,8
India,Bihar,Bhagalpur,"DM Office_Kachari Chowk, Bhagalpur - BSPCB",25-06-2024 11:00:00,25.251013,86.989001,SO2,19,20,20
India,Bihar,Bhagalpur,"Mayaganj, Bhagalpur - BSPCB",25-06-2024 11:00:00,25.265194,87.012947,NH3,10,10,10
India,Bihar,Bihar Sharif,"D M Colony, Bihar Sharif - BSPCB",25-06-2024 11:00:00,25.204762,85.514960,PM2.5,NA,NA,NA
India,Bihar,Gaya,"Collectorate, Gaya - BSPCB",25-06-2024 11:00:00,24.7955,84.9994,OZONE,62,66,64
India,Bihar,Gaya,"Kareemganj, Gaya - BSPCB",25-06-2024 11:00:00,24.792403,84.992416,PM2.5,3,55,19
India,Bihar,Gaya,"Kareemganj, Gaya - BSPCB",25-06-2024 11:00:00,24.792403,84.992416,PM10,27,58,39
India,Bihar,Hajipur,"Industrial Area, Hajipur - BSPCB",25-06-2024 11:00:00,25.697189,85.245900,SO2,8,9,8
India,Bihar,Katihar,"Mirchaibari, Katihar - BSPCB",25-06-2024 11:00:00,25.560083,87.553265,PM2.5,27,73,39
India,Bihar,Katihar,"Mirchaibari, Katihar - BSPCB",25-06-2024 11:00:00,25.560083,87.553265,SO2,8,14,10
India,Bihar,Kishanganj,"SDM Office_Khagra, Kishanganj - BSPCB",25-06-2024 11:00:00,26.0881305,87.93840336,PM10,NA,NA,NA
India,Bihar,Kishanganj,"SDM Office_Khagra, Kishanganj - BSPCB",25-06-2024 11:00:00,26.0881305,87.93840336,NH3,6,10,7
India,Bihar,Manguraha,"Forest Rest House, Manguraha - BSPCB",25-06-2024 11:00:00,27.308328,84.531742,NH3,NA,NA,NA
India,Bihar,Manguraha,"Forest Rest House, Manguraha - BSPCB",25-06-2024 11:00:00,27.308328,84.531742,CO,20,73,64
India,Bihar,Motihari,"Gandak Colony, Motihari - BSPCB",25-06-2024 11:00:00,26.63086,84.90051,PM10,27,88,58
India,Bihar,Motihari,"Gandak Colony, Motihari - BSPCB",25-06-2024 11:00:00,26.63086,84.90051,CO,4,35,12
India,Bihar,Motihari,"Gandak Colony, Motihari - BSPCB",25-06-2024 11:00:00,26.63086,84.90051,OZONE,19,56,28
India,Bihar,Munger,"Town Hall, Munger - BSPCB",25-06-2024 11:00:00,25.376776,86.471523,PM10,43,114,73
India,Bihar,Munger,"Town Hall, Munger - BSPCB",25-06-2024 11:00:00,25.376776,86.471523,NH3,2,3,3
India,Bihar,Muzaffarpur,"Buddha Colony, Muzaffarpur - BSPCB",25-06-2024 11:00:00,26.11442,85.39813,NO2,12,30,17
India,Bihar,Muzaffarpur,"Muzaffarpur Collectorate, Muzaffarpur - BSPCB",25-06-2024 11:00:00,26.1209,85.3647,SO2,7,17,9
India,Bihar,Muzaffarpur,"Muzaffarpur Collectorate, Muzaffarpur - BSPCB",25-06-2024 11:00:00,26.1209,85.3647,CO,34,75,46
India,Bihar,Muzaffarpur,"Muzaffarpur Collectorate, Muzaffarpur - BSPCB",25-06-2024 11:00:00,26.1209,85.3647,OZONE,20,46,27
India,Bihar,Patna,"DRM Office Danapur, Patna - BSPCB",25-06-2024 11:00:00,25.586562,85.043586,PM2.5,60,101,77
India,Bihar,Patna,"DRM Office Danapur, Patna - BSPCB",25-06-2024 11:00:00,25.586562,85.043586,SO2,1,6,3
India,Bihar,Patna,"IGSC Planetarium Complex, Patna - BSPCB",25-06-2024 11:00:00,25.610369,85.132568,PM2.5,69,268,102
India,Bihar,Patna,"IGSC Planetarium Complex, Patna - BSPCB",25-06-2024 11:00:00,25.610369,85.132568,CO,11,16,13
India,Bihar,Patna,"Rajbansi Nagar, Patna - BSPCB",25-06-2024 11:00:00,25.599486,85.113666,PM2.5,66,126,90
India,Bihar,Patna,"Rajbansi Nagar, Patna - BSPCB",25-06-2024 11:00:00,25.599486,85.113666,OZONE,5,87,16
India,Bihar,Patna,"Samanpura, Patna - BSPCB",25-06-2024 11:00:00,25.596727,85.085624,PM2.5,56,137,85
India,Bihar,Purnia,"Mariam Nagar, Purnia - BSPCB",25-06-2024 11:00:00,25.366336,87.117468,PM10,NA,NA,NA
India,Bihar,Purnia,"Mariam Nagar, Purnia - BSPCB",25-06-2024 11:00:00,25.366336,87.117468,NH3,NA,NA,NA
India,Bihar,Purnia,"Mariam Nagar, Purnia - BSPCB",25-06-2024 11:00:00,25.366336,87.117468,CO,NA,NA,NA
India,Bihar,Rajgir,"Dangi Tola, Rajgir - BSPCB",25-06-2024 11:00:00,25.03280,85.41948,CO,38,38,38
India,Bihar,Saharsa,"Police Line, Saharsa - BSPCB",25-06-2024 11:00:00,25.892357,86.590325,NO2,6,8,7
India,Bihar,Saharsa,"Police Line, Saharsa - BSPCB",25-06-2024 11:00:00,25.892357,86.590325,NH3,9,9,9
India,Bihar,Saharsa,"Police Line, Saharsa - BSPCB",25-06-2024 11:00:00,25.892357,86.590325,CO,54,54,54
India,Bihar,Siwan,"Chitragupta Nagar, Siwan - BSPCB",25-06-2024 11:00:00,26.2271665,84.3570427,CO,58,107,85
India,Bihar,Siwan,"Chitragupta Nagar, Siwan - BSPCB",25-06-2024 11:00:00,26.2271665,84.3570427,OZONE,5,160,39
India,Chandigarh,Chandigarh,"Sector 22, Chandigarh - CPCC",25-06-2024 11:00:00,30.735567,76.775714,PM2.5,47,113,79
India,Chandigarh,Chandigarh,"Sector 22, Chandigarh - CPCC",25-06-2024 11:00:00,30.735567,76.775714,CO,36,46,38
India,Chandigarh,Chandigarh,"Sector-25, Chandigarh - CPCC",25-06-2024 11:00:00,30.751462,76.762879,CO,18,30,24
India,Chandigarh,Chandigarh,"Sector-25, Chandigarh - CPCC",25-06-2024 11:00:00,30.751462,76.762879,OZONE,7,42,14
India,Chandigarh,Chandigarh,"Sector-53, Chandigarh - CPCC",25-06-2024 11:00:00,30.719859,76.738637,PM2.5,48,113,74
India,Chandigarh,Chandigarh,"Sector-53, Chandigarh - CPCC",25-06-2024 11:00:00,30.719859,76.738637,OZONE,9,62,25
India,Chhattisgarh,Bhilai,"32Bungalows, Bhilai - CECB",25-06-2024 11:00:00,21.194815,81.314770,CO,8,13,11
India,Chhattisgarh,Bhilai,"Civic Center, Bhilai - Bhilai Steel Plant",25-06-2024 11:00:00,21.185571,81.343175,NO2,7,8,8
India,Chhattisgarh,Bhilai,"Civic Center, Bhilai - Bhilai Steel Plant",25-06-2024 11:00:00,21.185571,81.343175,CO,32,46,37
India,Chhattisgarh,Bhilai,"Hathkhoj, Bhilai - CECB",25-06-2024 11:00:00,21.224231,81.408350,NH3,9,10,10
India,Chhattisgarh,Chhal,"Nawapara SECL Colony, Chhal - CECB",25-06-2024 11:00:00,22.118125,83.140608,SO2,3,13,10
India,Chhattisgarh,Chhal,"Nawapara SECL Colony, Chhal - CECB",25-06-2024 11:00:00,22.118125,83.140608,CO,18,38,25
India,Chhattisgarh,Milupara,"Govt. Higher Secondary School, Milupara - CECB",25-06-2024 11:00:00,22.1910172,83.5197009,PM2.5,NA,NA,NA
India,Chhattisgarh,Milupara,"Govt. Higher Secondary School, Milupara - CECB",25-06-2024 11:00:00,22.1910172,83.5197009,NO2,NA,NA,NA
India,Chhattisgarh,Raipur,"AIIMS, Raipur - CECB",25-06-2024 11:00:00,21.258815,81.578979,NO2,12,63,22
India,Chhattisgarh,Raipur,"Krishak Nagar, Raipur - CECB",25-06-2024 11:00:00,21.237755,81.705301,OZONE,6,23,10
India,Chhattisgarh,Raipur,"Siltara Phase-II, Raipur - CECB",25-06-2024 11:00:00,21.371751,81.664929,PM10,47,136,90
India,Chhattisgarh,Raipur,"Siltara Phase-II, Raipur - CECB",25-06-2024 11:00:00,21.371751,81.664929,CO,10,22,16
India,Chhattisgarh,Tumidih,"OP Jindal Industrial Park, Tumidih - CECB",25-06-2024 11:00:00,22.06631475,83.33820077,CO,16,17,17
India,Delhi,Delhi,"Alipur, Delhi - DPCC",25-06-2024 11:00:00,28.815329,77.153010,OZONE,4,112,15
India,Delhi,Delhi,"Anand Vihar, Delhi - DPCC",25-06-2024 11:00:00,28.647622,77.3158090,NH3,5,27,16
India,Delhi,Delhi,"Anand Vihar, Delhi - DPCC",25-06-2024 11:00:00,28.647622,77.3158090,SO2,NA,NA,NA
India,Delhi,Delhi,"Ashok Vihar, Delhi - DPCC",25-06-2024 11:00:00,28.695381,77.181665,PM2.5,45,345,133
India,Delhi,Delhi,"Aya Nagar, Delhi - IMD",25-06-2024 11:00:00,28.4706914,77.1099364,PM2.5,7,298,93
India,Delhi,Delhi,"Burari Crossing, Delhi - IMD",25-06-2024 11:00:00,28.7256504,77.2011573,OZONE,14,100,37
India,Delhi,Delhi,"Chandni Chowk, Delhi - IITM",25-06-2024 11:00:00,28.656756,77.227234,NH3,2,2,2
India,Delhi,Delhi,"Chandni Chowk, Delhi - IITM",25-06-2024 11:00:00,28.656756,77.227234,SO2,6,60,33
India,Delhi,Delhi,"Chandni Chowk, Delhi - IITM",25-06-2024 11:00:00,28.656756,77.227234,OZONE,1,2,1
India,Delhi,Delhi,"DTU, Delhi - CPCB",25-06-2024 11:00:00,28.7500499,77.1112615,CO,41,90,68
India,Delhi,Delhi,"Dwarka-Sector 8, Delhi - DPCC ",25-06-2024 11:00:00,28.5710274,77.0719006,NO2,18,59,35
India,Delhi,Delhi,"IGI Airport (T3), Delhi - IMD",25-06-2024 11:00:00,28.5627763,77.1180053,CO,34,57,40
India,Delhi,Delhi,"IHBAS, Dilshad Garden, Delhi - CPCB",25-06-2024 11:00:00,28.6811736,77.3025234,PM10,40,110,74
India,Delhi,Delhi,"IHBAS, Dilshad Garden, Delhi - CPCB",25-06-2024 11:00:00,28.6811736,77.3025234,NH3,1,6,4
India,Delhi,Delhi,"ITO, Delhi - CPCB",25-06-2024 11:00:00,28.628624,77.241060,PM2.5,13,137,83
India,Delhi,Delhi,"Jahangirpuri, Delhi - DPCC",25-06-2024 11:00:00,28.732820,77.170633,NH3,2,3,3
India,Delhi,Delhi,"Jahangirpuri, Delhi - DPCC",25-06-2024 11:00:00,28.732820,77.170633,SO2,21,52,28
India,Delhi,Delhi,"Lodhi Road, Delhi - IMD",25-06-2024 11:00:00,28.5918245,77.2273074,CO,30,38,36
India,Delhi,Delhi,"Major Dhyan Chand National Stadium, Delhi - DPCC",25-06-2024 11:00:00,28.611281,77.237738,PM10,66,197,115
India,Delhi,Delhi,"Mandir Marg, Delhi - DPCC",25-06-2024 11:00:00,28.636429,77.201067,PM10,41,149,92
India,Delhi,Delhi,"Mandir Marg, Delhi - DPCC",25-06-2024 11:00:00,28.636429,77.201067,NO2,40,83,70
India,Delhi,Delhi,"Mandir Marg, Delhi - DPCC",25-06-2024 11:00:00,28.636429,77.201067,SO2,3,19,10
India,Delhi,Delhi,"Mandir Marg, Delhi - DPCC",25-06-2024 11:00:00,28.636429,77.201067,OZONE,2,105,20
India,Delhi,Delhi,"Mundka, Delhi - DPCC",25-06-2024 11:00:00,28.684678,77.076574,SO2,3,5,5
India,Delhi,Delhi,"NSIT Dwarka, Delhi - CPCB",25-06-2024 11:00:00,28.60909,77.0325413,OZONE,2,29,7
India,Delhi,Delhi,"Najafgarh, Delhi - DPCC",25-06-2024 11:00:00,28.570173,76.933762,SO2,7,23,14
India,Delhi,Delhi,"Najafgarh, Delhi - DPCC",25-06-2024 11:00:00,28.570173,76.933762,OZONE,11,32,19
India,Delhi,Delhi,"Narela, Delhi - DPCC",25-06-2024 11:00:00,28.822836,77.101981,PM10,113,473,239
India,Delhi,Delhi,"Narela, Delhi - DPCC",25-06-2024 11:00:00,28.822836,77.101981,NO2,17,47,31
India,Delhi,Delhi,"New Moti Bagh, Delhi - MHUA",25-06-2024 11:00:00,28.57834,77.18400,PM2.5,63,500,320
India,Delhi,Delhi,"Okhla Phase-2, Delhi - DPCC",25-06-2024 11:00:00,28.530785,77.271255,CO,50,102,68
India,Delhi,Delhi,"Pusa, Delhi - DPCC",25-06-2024 11:00:00,28.639652,77.146275,NH3,4,9,7
India,Delhi,Delhi,"Pusa, Delhi - IMD",25-06-2024 11:00:00,28.636110,77.173332,CO,51,68,60
India,Delhi,Delhi,"Pusa, Delhi - IMD",25-06-2024 11:00:00,28.636110,77.173332,OZONE,8,31,11
India,Delhi,Delhi,"Rohini, Delhi - DPCC",25-06-2024 11:00:00,28.732528,77.119920,PM2.5,42,345,120
India,Delhi,Delhi,"Rohini, Delhi - DPCC",25-06-2024 11:00:00,28.732528,77.119920,CO,25,64,44
India,Delhi,Delhi,"Shadipur, Delhi - CPCB",25-06-2024 11:00:00,28.6514781,77.1473105,PM2.5,48,177,80
India,Delhi,Delhi,"Shadipur, Delhi - CPCB",25-06-2024 11:00:00,28.6514781,77.1473105,PM10,68,159,96
India,Delhi,Delhi,"Shadipur, Delhi - CPCB",25-06-2024 11:00:00,28.6514781,77.1473105,NH3,8,14,11
India,Delhi,Delhi,"Sirifort, Delhi - CPCB",25-06-2024 11:00:00,28.5504249,77.2159377,CO,16,64,34
India,Delhi,Delhi,"Sonia Vihar, Delhi - DPCC",25-06-2024 11:00:00,28.710508,77.249485,NO2,19,72,44
India,Delhi,Delhi,"Vivek Vihar, Delhi - DPCC",25-06-2024 11:00:00,28.672342,77.315260,NO2,17,34,24
India,Delhi,Delhi,"Vivek Vihar, Delhi - DPCC",25-06-2024 11:00:00,28.672342,77.315260,CO,66,89,77
India,Delhi,Delhi,"Vivek Vihar, Delhi - DPCC",25-06-2024 11:00:00,28.672342,77.315260,OZONE,3,61,8
India,Delhi,Delhi,"Wazirpur, Delhi - DPCC",25-06-2024 11:00:00,28.699793,77.165453,NO2,38,102,60
India,Gujarat,Ahmedabad,"Chandkheda, Ahmedabad - IITM",25-06-2024 11:00:00,23.107969,72.574648,PM10,20,112,58
India,Gujarat,Ahmedabad,"Chandkheda, Ahmedabad - IITM",25-06-2024 11:00:00,23.107969,72.574648,SO2,1,15,10
India,Gujarat,Ahmedabad,"Chandkheda, Ahmedabad - IITM",25-06-2024 11:00:00,23.107969,72.574648,CO,18,112,101
India,Gujarat,Ahmedabad,"Chandkheda, Ahmedabad - IITM",25-06-2024 11:00:00,23.107969,72.574648,OZONE,2,44,26
India,Gujarat,Ahmedabad,"Maninagar, Ahmedabad - GPCB",25-06-2024 11:00:00,23.002657,72.591912,PM2.5,36,101,62
India,Gujarat,Ahmedabad,"Maninagar, Ahmedabad - GPCB",25-06-2024 11:00:00,23.002657,72.591912,SO2,16,23,19
India,Gujarat,Ahmedabad,"Raikhad, Ahmedabad - IITM",25-06-2024 11:00:00,23.020509,72.579261,PM2.5,9,50,20
India,Gujarat,Ahmedabad,"Raikhad, Ahmedabad - IITM",25-06-2024 11:00:00,23.020509,72.579261,NO2,NA,NA,NA
India,Gujarat,Ahmedabad,"Rakhial, Ahmedabad - IITM",25-06-2024 11:00:00,23.016834,72.625775,OZONE,19,88,24
India,Gujarat,Ahmedabad,"SVPI Airport Hansol, Ahmedabad - IITM",25-06-2024 11:00:00,23.076793,72.627874,OZONE,NA,NA,NA
India,Gujarat,Ahmedabad,"Sardar Vallabhbhai Patel Stadium, Ahmedabad - IITM",25-06-2024 11:00:00,23.043070,72.562968,PM10,4,114,63
India,Gujarat,Ahmedabad,"Sardar Vallabhbhai Patel Stadium, Ahmedabad - IITM",25-06-2024 11:00:00,23.043070,72.562968,NH3,6,7,7
India,Gujarat,Ankleshwar,"GIDC, Ankleshwar - GPCB",25-06-2024 11:00:00,21.613267,73.010555,NO2,31,60,45
India,Gujarat,Gandhinagar,"GIFT City, Gandhinagar - IITM",25-06-2024 11:00:00,23.163798,72.677768,NO2,NA,NA,NA
India,Gujarat,Gandhinagar,"GIFT City, Gandhinagar - IITM",25-06-2024 11:00:00,23.163798,72.677768,NH3,NA,NA,NA
India,Gujarat,Gandhinagar,"GIFT City, Gandhinagar - IITM",25-06-2024 11:00:00,23.163798,72.677768,OZONE,8,48,12
India,Gujarat,Gandhinagar,"Sector-10, Gandhinagar - GPCB",25-06-2024 11:00:00,23.221714,72.654328,PM2.5,30,60,44
India,Gujarat,Gandhinagar,"Sector-10, Gandhinagar - GPCB",25-06-2024 11:00:00,23.221714,72.654328,NO2,22,24,23
India,Gujarat,Gandhinagar,"Sector-10, Gandhinagar - GPCB",25-06-2024 11:00:00,23.221714,72.654328,NH3,2,2,2
India,Gujarat,Gandhinagar,"Sector-10, Gandhinagar - GPCB",25-06-2024 11:00:00,23.221714,72.654328,OZONE,19,20,19
India,Gujarat,Surat,"Science Center, Surat - SMC",25-06-2024 11:00:00,21.170046,72.795405,CO,68,92,70
India,Gujarat,Vatva,"Phase-4 GIDC, Vatva - GPCB",25-06-2024 11:00:00,22.969611,72.643500,NH3,8,19,12
India,Haryana,Ambala,"Patti Mehar, Ambala - HSPCB",25-06-2024 11:00:00,30.379589,76.778328,PM2.5,5,23,14
India,Haryana,Ambala,"Patti Mehar, Ambala - HSPCB",25-06-2024 11:00:00,30.379589,76.778328,NO2,8,21,15
India,Haryana,Ambala,"Patti Mehar, Ambala - HSPCB",25-06-2024 11:00:00,30.379589,76.778328,CO,29,61,47
India,Haryana,Bahadurgarh,"Arya Nagar, Bahadurgarh - HSPCB",25-06-2024 11:00:00,28.6701,76.9254,SO2,2,3,2
India,Haryana,Ballabgarh,"Nathu Colony, Ballabgarh - HSPCB",25-06-2024 11:00:00,28.3419248,77.319699,PM2.5,49,117,88
India,Haryana,Bhiwani,"H.B. Colony, Bhiwani - HSPCB",25-06-2024 11:00:00,28.806223,76.141105,PM10,61,115,83
India,Haryana,Charkhi Dadri,"Mini Secretariat, Charkhi Dadri - HSPCB",25-06-2024 11:00:00,28.593883,76.270653,SO2,4,29,19
India,Haryana,Charkhi Dadri,"Mini Secretariat, Charkhi Dadri - HSPCB",25-06-2024 11:00:00,28.593883,76.270653,CO,42,87,68
India,Haryana,Dharuhera,"Municipal Corporation Office, Dharuhera -  HSPCB",25-06-2024 11:00:00,28.206800,76.799700,NO2,NA,NA,NA
India,Haryana,Dharuhera,"Municipal Corporation Office, Dharuhera -  HSPCB",25-06-2024 11:00:00,28.206800,76.799700,CO,22,103,44
India,Haryana,Dharuhera,"Municipal Corporation Office, Dharuhera -  HSPCB",25-06-2024 11:00:00,28.206800,76.799700,OZONE,78,124,109
India,Haryana,Faridabad,"New Industrial Town, Faridabad - HSPCB",25-06-2024 11:00:00,28.39072,77.30059,NH3,2,11,10
India,Haryana,Faridabad,"Sector 11, Faridabad - HSPCB",25-06-2024 11:00:00,28.376058,77.315741,NH3,6,6,6
India,Haryana,Faridabad,"Sector 11, Faridabad - HSPCB",25-06-2024 11:00:00,28.376058,77.315741,SO2,3,29,28
India,Haryana,Faridabad,"Sector- 16A, Faridabad - HSPCB",25-06-2024 11:00:00,28.4088421,77.3099081,NO2,36,60,47
India,Haryana,Faridabad,"Sector- 16A, Faridabad - HSPCB",25-06-2024 11:00:00,28.4088421,77.3099081,CO,27,62,50
India,Haryana,Fatehabad,"Huda Sector, Fatehabad - HSPCB",25-06-2024 11:00:00,29.503664,75.467934,NO2,29,31,30
India,Haryana,Fatehabad,"Huda Sector, Fatehabad - HSPCB",25-06-2024 11:00:00,29.503664,75.467934,CO,45,87,79
India,Haryana,Gurugram,"NISE Gwal Pahari, Gurugram - IMD",25-06-2024 11:00:00,28.422681,77.148944,OZONE,5,71,25
India,Haryana,Gurugram,"Sector-51, Gurugram - HSPCB",25-06-2024 11:00:00,28.4227,77.0667,OZONE,28,59,31
India,Haryana,Gurugram,"Teri Gram, Gurugram - HSPCB",25-06-2024 11:00:00,28.4275,77.1465,PM10,84,280,170
India,Haryana,Gurugram,"Teri Gram, Gurugram - HSPCB",25-06-2024 11:00:00,28.4275,77.1465,NO2,16,56,33
India,Haryana,Gurugram,"Teri Gram, Gurugram - HSPCB",25-06-2024 11:00:00,28.4275,77.1465,OZONE,13,155,155
India,Haryana,Gurugram,"Vikas Sadan, Gurugram - HSPCB",25-06-2024 11:00:00,28.4501238,77.0263051,PM2.5,19,178,73
India,Haryana,Gurugram,"Vikas Sadan, Gurugram - HSPCB",25-06-2024 11:00:00,28.4501238,77.0263051,CO,49,131,75
India,Haryana,Jind,"Police Lines, Jind - HSPCB",25-06-2024 11:00:00,29.307814,76.337619,NH3,2,5,4
India,Haryana,Jind,"Police Lines, Jind - HSPCB",25-06-2024 11:00:00,29.307814,76.337619,SO2,1,8,5
India,Haryana,Jind,"Police Lines, Jind - HSPCB",25-06-2024 11:00:00,29.307814,76.337619,CO,2,124,38
India,Haryana,Kaithal,"Rishi Nagar, Kaithal - HSPCB",25-06-2024 11:00:00,29.8006,76.4155,PM10,87,181,115
India,Haryana,Kaithal,"Rishi Nagar, Kaithal - HSPCB",25-06-2024 11:00:00,29.8006,76.4155,OZONE,22,83,36
India,Haryana,Karnal,"Sector-12, Karnal - HSPCB",25-06-2024 11:00:00,29.695300,77.002700,CO,27,44,35
India,Haryana,Kurukshetra,"Sector-7, Kurukshetra - HSPCB",25-06-2024 11:00:00,29.966942,76.875879,PM10,71,116,99
India,Haryana,Kurukshetra,"Sector-7, Kurukshetra - HSPCB",25-06-2024 11:00:00,29.966942,76.875879,CO,14,34,26
India,Haryana,Manesar,"Sector-2 IMT, Manesar - HSPCB",25-06-2024 11:00:00,28.360699,76.936090,PM10,2,150,88
India,Haryana,Manesar,"Sector-2 IMT, Manesar - HSPCB",25-06-2024 11:00:00,28.360699,76.936090,SO2,2,10,6
India,Haryana,Manesar,"Sector-2 IMT, Manesar - HSPCB",25-06-2024 11:00:00,28.360699,76.936090,CO,8,18,15
India,Haryana,Palwal,"Shyam Nagar, Palwal - HSPCB",25-06-2024 11:00:00,28.1485564,77.3320667,NH3,8,9,9
India,Haryana,Palwal,"Shyam Nagar, Palwal - HSPCB",25-06-2024 11:00:00,28.1485564,77.3320667,CO,19,29,26
India,Haryana,Panipat,"Sector-18, Panipat - HSPCB",25-06-2024 11:00:00,29.432304,76.972765,PM10,NA,NA,NA
India,Haryana,Panipat,"Sector-18, Panipat - HSPCB",25-06-2024 11:00:00,29.432304,76.972765,OZONE,NA,NA,NA
India,Haryana,Sirsa,"F-Block, Sirsa - HSPCB",25-06-2024 11:00:00,29.536400,75.015800,PM2.5,28,164,68
India,Haryana,Sirsa,"F-Block, Sirsa - HSPCB",25-06-2024 11:00:00,29.536400,75.015800,NO2,9,11,10
India,Haryana,Sirsa,"F-Block, Sirsa - HSPCB",25-06-2024 11:00:00,29.536400,75.015800,OZONE,17,148,90
India,Haryana,Sonipat,"Murthal, Sonipat - HSPCB",25-06-2024 11:00:00,29.027200,77.062100,NH3,3,10,9
India,Haryana,Sonipat,"Murthal, Sonipat - HSPCB",25-06-2024 11:00:00,29.027200,77.062100,CO,24,26,25
India,Haryana,Yamuna Nagar,"Gobind Pura, Yamuna Nagar - HSPCB",25-06-2024 11:00:00,30.1480566,77.2893471,NO2,11,20,16
India,Haryana,Yamuna Nagar,"Gobind Pura, Yamuna Nagar - HSPCB",25-06-2024 11:00:00,30.1480566,77.2893471,CO,30,68,41
India,Haryana,Yamuna Nagar,"Gobind Pura, Yamuna Nagar - HSPCB",25-06-2024 11:00:00,30.1480566,77.2893471,OZONE,25,47,31
India,Himachal Pradesh,Baddi,"HIMUDA Complex Phase-1, Baddi - HPPCB",25-06-2024 11:00:00,30.943887,76.801991,SO2,10,117,46
India,Jammu_and_Kashmir,Srinagar,"Rajbagh, Srinagar - JKSPCB",25-06-2024 11:00:00,34.066206,74.819820,CO,21,24,22
India,Jharkhand,Dhanbad,"Kalakusuma, Dhanbad - DMC",25-06-2024 11:00:00,23.811548,86.481238,SO2,9,10,9
India,Jharkhand,Dhanbad,"Sardar Patel Nagar, Dhanbad - JSPCB",25-06-2024 11:00:00,23.80569,86.44268,NO2,108,421,148
India,Karnataka,Bagalkot,"Vidayagiri, Bagalkot - KSPCB",25-06-2024 11:00:00,16.172806,75.659694,PM10,42,42,42
India,Karnataka,Belgaum,"Ramteerth Nagar, Belgaum - KSPCB",25-06-2024 11:00:00,15.888653,74.541751,SO2,9,10,9
India,Karnataka,Bengaluru,"Bapuji Nagar, Bengaluru - KSPCB",25-06-2024 11:00:00,12.951913,77.539784,CO,20,26,21
India,Karnataka,Bengaluru,"Hebbal, Bengaluru - KSPCB",25-06-2024 11:00:00,13.029152,77.585901,PM2.5,3,24,12
India,Karnataka,Bengaluru,"Hebbal, Bengaluru - KSPCB",25-06-2024 11:00:00,13.029152,77.585901,SO2,21,26,24
India,Karnataka,Bengaluru,"Hebbal, Bengaluru - KSPCB",25-06-2024 11:00:00,13.029152,77.585901,CO,8,26,19
India,Karnataka,Bengaluru,"Hombegowda Nagar, Bengaluru - KSPCB",25-06-2024 11:00:00,12.938539,77.590100,SO2,2,4,3
India,Karnataka,Bengaluru,"Jayanagar 5th Block, Bengaluru - KSPCB",25-06-2024 11:00:00,12.920984,77.584908,CO,20,23,21
India,Karnataka,Bengaluru,"Jigani, Bengaluru - KSPCB",25-06-2024 11:00:00,12.7816279,77.6299145,NH3,NA,NA,NA
India,Karnataka,Bengaluru,"Kasturi Nagar, Bengaluru - KSPCB",25-06-2024 11:00:00,13.003872,77.664217,OZONE,39,39,39
India,Karnataka,Bengaluru,"Peenya, Bengaluru - CPCB",25-06-2024 11:00:00,13.0270199,77.494094,PM2.5,36,51,43
India,Karnataka,Bengaluru,"Peenya, Bengaluru - CPCB",25-06-2024 11:00:00,13.0270199,77.494094,NH3,3,4,3
India,Karnataka,Bengaluru,"Shivapura_Peenya, Bengaluru - KSPCB",25-06-2024 11:00:00,13.0246342,77.5080115,PM2.5,29,63,40
India,Karnataka,Bengaluru,"Silk Board, Bengaluru - KSPCB",25-06-2024 11:00:00,12.917348,77.622813,PM2.5,8,31,19
India,Karnataka,Bengaluru,"Silk Board, Bengaluru - KSPCB",25-06-2024 11:00:00,12.917348,77.622813,PM10,35,109,73
India,Karnataka,Chamarajanagar,"Urban, Chamarajanagar - KSPCB",25-06-2024 11:00:00,11.55358,76.55521,NH3,2,2,2
India,Karnataka,Chamarajanagar,"Urban, Chamarajanagar - KSPCB",25-06-2024 11:00:00,11.55358,76.55521,SO2,2,6,4
India,Karnataka,Chikkaballapur,"Chikkaballapur Rural, Chikkaballapur - KSPCB",25-06-2024 11:00:00,13.428828,77.731418,OZONE,30,34,30
India,Karnataka,Chikkamagaluru,"Kalyana Nagara, Chikkamagaluru - KSPCB",25-06-2024 11:00:00,13.328028,75.797056,PM10,24,50,38
India,Karnataka,Chikkamagaluru,"Kalyana Nagara, Chikkamagaluru - KSPCB",25-06-2024 11:00:00,13.328028,75.797056,CO,11,92,15
India,Karnataka,Davanagere,"Devaraj Urs Badavane, Davanagere - KSPCB",25-06-2024 11:00:00,14.475800,75.905200,PM10,NA,NA,NA
India,Karnataka,Davanagere,"Devaraj Urs Badavane, Davanagere - KSPCB",25-06-2024 11:00:00,14.475800,75.905200,NO2,NA,NA,NA
India,Karnataka,Gadag,"Panchal Nagar, Gadag - KSPCB",25-06-2024 11:00:00,15.411456,75.638133,PM2.5,2,37,12
India,Karnataka,Hassan,"B.Katihalli, Hassan - KSPCB",25-06-2024 11:00:00,13.008556,76.125258,PM10,15,58,44
India,Karnataka,Hassan,"B.Katihalli, Hassan - KSPCB",25-06-2024 11:00:00,13.008556,76.125258,CO,8,56,19
India,Karnataka,Hubballi,"Lingaraj Nagar, Hubballi - KSPCB",25-06-2024 11:00:00,15.3714823,75.1160168,PM2.5,33,41,38
India,Karnataka,Hubballi,"Lingaraj Nagar, Hubballi - KSPCB",25-06-2024 11:00:00,15.3714823,75.1160168,NH3,1,4,2
India,Karnataka,Karwar,"KHB Colony, Karwar - KSPCB",25-06-2024 11:00:00,14.816666,74.141003,NO2,1,3,1
India,Karnataka,Karwar,"KHB Colony, Karwar - KSPCB",25-06-2024 11:00:00,14.816666,74.141003,NH3,1,3,1
India,Karnataka,Koppal,"Diwator Nagar, Koppal - KSPCB",25-06-2024 11:00:00,15.347630,76.181767,NH3,2,9,7
India,Karnataka,Koppal,"Diwator Nagar, Koppal - KSPCB",25-06-2024 11:00:00,15.347630,76.181767,CO,4,4,4
India,Karnataka,Madikeri,"Stuart Hill, Madikeri - KSPCB",25-06-2024 11:00:00,12.415911,75.735050,SO2,4,4,4
India,Karnataka,Mangalore,"Kadri, Mangalore - KSPCB",25-06-2024 11:00:00,12.889250,74.853000,NO2,5,6,6
India,Karnataka,Mysuru,"Hebbal 1st Stage, Mysuru - KSPCB",25-06-2024 11:00:00,12.21041,76.37376,NO2,9,36,21
India,Karnataka,Raichur,"Haji Colony, Raichur - KSPCB",25-06-2024 11:00:00,16.208139,77.348417,NH3,2,7,3
India,Karnataka,Raichur,"Haji Colony, Raichur - KSPCB",25-06-2024 11:00:00,16.208139,77.348417,CO,98,108,100
India,Karnataka,Ramanagara,"Vijay Nagar, Ramanagara - KSPCB",25-06-2024 11:00:00,12.733409,77.298051,PM2.5,5,24,14
India,Karnataka,Ramanagara,"Vijay Nagar, Ramanagara - KSPCB",25-06-2024 11:00:00,12.733409,77.298051,SO2,18,27,22
India,Karnataka,Ramanagara,"Vijay Nagar, Ramanagara - KSPCB",25-06-2024 11:00:00,12.733409,77.298051,CO,6,40,22
India,Karnataka,Shivamogga,"Vinoba Nagara, Shivamogga - KSPCB",25-06-2024 11:00:00,13.940000,75.555917,PM2.5,23,46,31
India,Karnataka,Shivamogga,"Vinoba Nagara, Shivamogga - KSPCB",25-06-2024 11:00:00,13.940000,75.555917,PM10,30,60,42
India,Karnataka,Tumakuru,"Thimmalapura, Tumakuru - KSPCB",25-06-2024 11:00:00,13.377516,77.099072,PM2.5,17,42,28
India,Karnataka,Tumakuru,"Thimmalapura, Tumakuru - KSPCB",25-06-2024 11:00:00,13.377516,77.099072,SO2,6,8,6
India,Karnataka,Vijayapura,"Ibrahimpur, Vijayapura - KSPCB",25-06-2024 11:00:00,16.802639,75.722694,NH3,2,2,2
India,Kerala,Kannur,"Thavakkara, Kannur - Kerala PCB",25-06-2024 11:00:00,11.875000,75.373200,PM2.5,42,48,45
India,Kerala,Kollam,"Polayathode, Kollam - Kerala PCB",25-06-2024 11:00:00,8.8787,76.6073,OZONE,29,34,29
India,Kerala,Thiruvananthapuram,"Kariavattom, Thiruvananthapuram - Kerala PCB",25-06-2024 11:00:00,8.563700,76.886500,SO2,2,14,6
India,Kerala,Thiruvananthapuram,"Plammoodu, Thiruvananthapuram - Kerala PCB",25-06-2024 11:00:00,8.5149093,76.9435879,PM2.5,NA,NA,NA
India,Kerala,Thrissur,"Corporation Ground, Thrissur - Kerala PCB",25-06-2024 11:00:00,10.532400,76.215900,OZONE,26,32,30
India,Madhya Pradesh,Bhopal,"Idgah Hills, Bhopal - MPPCB",25-06-2024 11:00:00,23.264759,77.381568,PM2.5,13,78,39
India,Madhya Pradesh,Bhopal,"Idgah Hills, Bhopal - MPPCB",25-06-2024 11:00:00,23.264759,77.381568,NO2,8,38,17
India,Madhya Pradesh,Bhopal,"Paryavaran Parisar, Bhopal - MPPCB",25-06-2024 11:00:00,23.210494,77.425409,NH3,3,64,9
India,Madhya Pradesh,Bhopal,"T T Nagar, Bhopal - MPPCB",25-06-2024 11:00:00,23.233584,77.400574,NH3,5,6,5
India,Madhya Pradesh,Bhopal,"T T Nagar, Bhopal - MPPCB",25-06-2024 11:00:00,23.233584,77.400574,SO2,1,29,14
India,Madhya Pradesh,Damoh,"Shrivastav Colony, Damoh - MPPCB",25-06-2024 11:00:00,23.81748678,79.446246,PM10,26,70,44
India,Madhya Pradesh,Dewas,"Bhopal Chauraha, Dewas - MPPCB",25-06-2024 11:00:00,22.9682591,76.064118,SO2,NA,NA,NA
India,Madhya Pradesh,Gwalior,"City Center, Gwalior - MPPCB",25-06-2024 11:00:00,26.203442,78.193251,PM2.5,25,93,56
India,Madhya Pradesh,Gwalior,"Maharaj Bada, Gwalior - MPPCB",25-06-2024 11:00:00,26.200388,78.147714,OZONE,33,103,50
India,Madhya Pradesh,Indore,"Chhoti Gwaltoli, Indore - MPPCB",25-06-2024 11:00:00,22.4310,75.5213,PM2.5,25,90,48
India,Madhya Pradesh,Indore,"Chhoti Gwaltoli, Indore - MPPCB",25-06-2024 11:00:00,22.4310,75.5213,CO,86,106,97
India,Madhya Pradesh,Indore,"Maguda Nagar, Indore - IMC",25-06-2024 11:00:00,22.7524,75.8872,PM2.5,7,68,33
India,Madhya Pradesh,Indore,"Maguda Nagar, Indore - IMC",25-06-2024 11:00:00,22.7524,75.8872,PM10,8,47,25
India,Madhya Pradesh,Indore,"Maguda Nagar, Indore - IMC",25-06-2024 11:00:00,22.7524,75.8872,SO2,35,39,38
India,Madhya Pradesh,Indore,"Maguda Nagar, Indore - IMC",25-06-2024 11:00:00,22.7524,75.8872,CO,18,34,31
India,Madhya Pradesh,Indore,"Residency Area, Indore - IMC",25-06-2024 11:00:00,22.7084,75.8815,PM10,13,46,30
India,Madhya Pradesh,Indore,"Residency Area, Indore - IMC",25-06-2024 11:00:00,22.7084,75.8815,OZONE,10,18,12
India,Madhya Pradesh,Jabalpur,"Govindh Bhavan Colony, Jabalpur - JMC",25-06-2024 11:00:00,23.163174,79.973061,PM10,37,75,54
India,Madhya Pradesh,Jabalpur,"Govindh Bhavan Colony, Jabalpur - JMC",25-06-2024 11:00:00,23.163174,79.973061,NO2,6,12,9
India,Madhya Pradesh,Mandideep,"Sector-D Industrial Area, Mandideep - MPPCB",25-06-2024 11:00:00,23.108440,77.511428,PM2.5,14,298,54
India,Madhya Pradesh,Ratlam,"Shasthri Nagar, Ratlam - IPCA Lab",25-06-2024 11:00:00,23.331731,75.045981,PM2.5,4,100,41
India,Madhya Pradesh,Ratlam,"Shasthri Nagar, Ratlam - IPCA Lab",25-06-2024 11:00:00,23.331731,75.045981,PM10,7,138,65
India,Madhya Pradesh,Sagar,"Civil Lines, Sagar - MPPCB",25-06-2024 11:00:00,23.838586,78.759431,PM2.5,35,208,71
India,Madhya Pradesh,Sagar,"Deen Dayal Nagar, Sagar - MPPCB",25-06-2024 11:00:00,23.8640158,78.80289321,SO2,12,16,14
India,Madhya Pradesh,Satna,"Bandhavgar Colony, Satna - Birla Cement",25-06-2024 11:00:00,24.58434363,80.8549414,CO,22,104,65
India,Madhya Pradesh,Singrauli,"Suryakiran Bhawan NCL, Singrauli - MPPCB",25-06-2024 11:00:00,24.108970,82.645580,PM10,NA,NA,NA
India,Madhya Pradesh,Singrauli,"Suryakiran Bhawan NCL, Singrauli - MPPCB",25-06-2024 11:00:00,24.108970,82.645580,NO2,NA,NA,NA
India,Madhya Pradesh,Singrauli,"Suryakiran Bhawan NCL, Singrauli - MPPCB",25-06-2024 11:00:00,24.108970,82.645580,NH3,NA,NA,NA
India,Madhya Pradesh,Singrauli,"Suryakiran Bhawan NCL, Singrauli - MPPCB",25-06-2024 11:00:00,24.108970,82.645580,SO2,NA,NA,NA
India,Madhya Pradesh,Ujjain,"Mahakaleshwar Temple, Ujjain - MPPCB",25-06-2024 11:00:00,23.182719 ,75.768218 ,NO2,13,20,16
India,Maharashtra,Ahmednagar,"Tarakpur, Ahmednagar - MPCB",25-06-2024 11:00:00,19.10122,74.73339,PM2.5,40,87,64
India,Maharashtra,Amravati,"Shri Shivaji Science College, Amaravati - MPCB",25-06-2024 11:00:00,20.939198,77.765701,SO2,1,2,1
India,Maharashtra,Amravati,"Shri Shivaji Science College, Amaravati - MPCB",25-06-2024 11:00:00,20.939198,77.765701,CO,21,90,23
India,Maharashtra,Amravati,"Shri Shivaji Science College, Amaravati - MPCB",25-06-2024 11:00:00,20.939198,77.765701,OZONE,2,23,9
India,Maharashtra,Badlapur,"Katrap, Badlapur - MPCB",25-06-2024 11:00:00,19.16485,73.23409,NH3,1,4,3
India,Maharashtra,Belapur,"CBD Belapur, Belapur - MPCB",25-06-2024 11:00:00,19.0243902,73.0406721,NO2,20,89,31
India,Maharashtra,Bhiwandi,"Gokul Nagar, Bhiwandi - MPCB",25-06-2024 11:00:00,19.309073,73.057223,NO2,12,44,28
India,Maharashtra,Bhiwandi,"Gokul Nagar, Bhiwandi - MPCB",25-06-2024 11:00:00,19.309073,73.057223,CO,16,52,27
India,Maharashtra,Boisar,"Khaira, Boisar - MPCB",25-06-2024 11:00:00,19.786089,72.757971,OZONE,12,79,32
India,Maharashtra,Chandrapur,"MIDC Khutala, Chandrapur - MPCB",25-06-2024 11:00:00,19.9775302,79.2337086,NO2,NA,NA,NA
India,Maharashtra,Chandrapur,"MIDC Khutala, Chandrapur - MPCB",25-06-2024 11:00:00,19.9775302,79.2337086,OZONE,8,33,17
India,Maharashtra,Dhule,"Deopur, Dhule - MPCB",25-06-2024 11:00:00,20.918946,74.776388,CO,2,24,12
India,Maharashtra,Jalgaon,"Prabhat Colony, Jalgaon - MPCB",25-06-2024 11:00:00,21.001264,75.565602,PM10,23,61,37
India,Maharashtra,Jalgaon,"Prabhat Colony, Jalgaon - MPCB",25-06-2024 11:00:00,21.001264,75.565602,CO,9,23,11
India,Maharashtra,Jalna,"Old MIDC, Jalna - MPCB",25-06-2024 11:00:00,19.854616,75.905894,NO2,23,28,25
India,Maharashtra,Jalna,"Old MIDC, Jalna - MPCB",25-06-2024 11:00:00,19.854616,75.905894,SO2,6,7,6
India,Maharashtra,Kalyan,"Khadakpada, Kalyan - MPCB",25-06-2024 11:00:00,19.25292,73.142019,NO2,22,33,28
India,Maharashtra,Kalyan,"Khadakpada, Kalyan - MPCB",25-06-2024 11:00:00,19.25292,73.142019,CO,12,19,13
India,Maharashtra,Kolhapur,"Shivaji University, Kolhapur - MPCB",25-06-2024 11:00:00,16.6870449,74.2505872,PM10,17,151,72
India,Maharashtra,Kolhapur,"Sinchan Bhavan, Kolhapur - MPCB",25-06-2024 11:00:00,16.7143745,74.2426398,OZONE,19,60,29
India,Maharashtra,Latur,"Sawe Wadi, Latur - MPCB",25-06-2024 11:00:00,18.39963,76.57452,PM2.5,12,38,21
India,Maharashtra,Latur,"Sawe Wadi, Latur - MPCB",25-06-2024 11:00:00,18.39963,76.57452,NH3,1,17,3
India,Maharashtra,Latur,"Sawe Wadi, Latur - MPCB",25-06-2024 11:00:00,18.39963,76.57452,CO,7,61,12
India,Maharashtra,Mahad,"Kamble Tarf Birwadi, Mahad - MPCB",25-06-2024 11:00:00,18.1023399,73.4783687,PM10,38,63,47
India,Maharashtra,Malegaon,"Mahesh Nagar, Malegaon - MPCB",25-06-2024 11:00:00,20.555712,74.529236,OZONE,12,16,14
India,Maharashtra,Mira-Bhayandar,"Bhayandar West, Mira-Bhayandar - MPCB",25-06-2024 11:00:00,19.296481,72.840923,OZONE,4,36,11
India,Maharashtra,Mumbai,"Borivali East, Mumbai - IITM",25-06-2024 11:00:00,19.23241,72.86895,PM2.5,13,41,26
India,Maharashtra,Mumbai,"Borivali East, Mumbai - MPCB",25-06-2024 11:00:00,19.2243333,72.8658113,PM2.5,NA,NA,NA
India,Maharashtra,Mumbai,"Borivali East, Mumbai - MPCB",25-06-2024 11:00:00,19.2243333,72.8658113,PM10,NA,NA,NA
India,Maharashtra,Mumbai,"Borivali East, Mumbai - MPCB",25-06-2024 11:00:00,19.2243333,72.8658113,NO2,NA,NA,NA
India,Maharashtra,Mumbai,"Borivali East, Mumbai - MPCB",25-06-2024 11:00:00,19.2243333,72.8658113,CO,36,38,37
India,Maharashtra,Mumbai,"Byculla, Mumbai - BMC",25-06-2024 11:00:00,18.9767,72.8380,CO,10,44,30
India,Maharashtra,Mumbai,"Byculla, Mumbai - BMC",25-06-2024 11:00:00,18.9767,72.8380,OZONE,3,38,11
India,Maharashtra,Mumbai,"Chakala-Andheri East, Mumbai - IITM",25-06-2024 11:00:00,19.11074,72.86084,PM10,39,60,48
India,Maharashtra,Mumbai,"Chakala-Andheri East, Mumbai - IITM",25-06-2024 11:00:00,19.11074,72.86084,SO2,1,48,13
India,Maharashtra,Mumbai,"Chembur, Mumbai - MPCB",25-06-2024 11:00:00,19.0364585,72.8954371,PM2.5,15,40,28
India,Maharashtra,Mumbai,"Chembur, Mumbai - MPCB",25-06-2024 11:00:00,19.0364585,72.8954371,PM10,16,38,27
India,Maharashtra,Mumbai,"Chembur, Mumbai - MPCB",25-06-2024 11:00:00,19.0364585,72.8954371,NO2,11,42,27
India,Maharashtra,Mumbai,"Chembur, Mumbai - MPCB",25-06-2024 11:00:00,19.0364585,72.8954371,NH3,3,4,4
India,Maharashtra,Mumbai,"Chembur, Mumbai - MPCB",25-06-2024 11:00:00,19.0364585,72.8954371,SO2,1,49,10
India,Maharashtra,Mumbai,"Chembur, Mumbai - MPCB",25-06-2024 11:00:00,19.0364585,72.8954371,CO,22,50,34
India,Maharashtra,Mumbai,"Chembur, Mumbai - MPCB",25-06-2024 11:00:00,19.0364585,72.8954371,OZONE,4,73,18
India,Maharashtra,Mumbai,"Chhatrapati Shivaji Intl. Airport (T2), Mumbai - MPCB",25-06-2024 11:00:00,19.10078,72.87462,SO2,18,21,19
India,Maharashtra,Mumbai,"Chhatrapati Shivaji Intl. Airport (T2), Mumbai - MPCB",25-06-2024 11:00:00,19.10078,72.87462,CO,26,52,39
India,Maharashtra,Mumbai,"Colaba, Mumbai - MPCB",25-06-2024 11:00:00,18.910000,72.820000,OZONE,10,11,11
India,Maharashtra,Mumbai,"Ghatkopar, Mumbai - BMC",25-06-2024 11:00:00,19.083694,72.920967,PM10,14,41,23
India,Maharashtra,Mumbai,"Kandivali East, Mumbai - MPCB",25-06-2024 11:00:00,19.205800,72.868200,PM2.5,3,34,12
India,Maharashtra,Mumbai,"Kandivali West, Mumbai - BMC",25-06-2024 11:00:00,19.215859,72.831718,PM2.5,8,33,17
India,Maharashtra,Mumbai,"Kandivali West, Mumbai - BMC",25-06-2024 11:00:00,19.215859,72.831718,PM10,19,32,25
India,Maharashtra,Mumbai,"Kandivali West, Mumbai - BMC",25-06-2024 11:00:00,19.215859,72.831718,NO2,10,29,20
India,Maharashtra,Mumbai,"Kandivali West, Mumbai - BMC",25-06-2024 11:00:00,19.215859,72.831718,SO2,1,2,1
India,Maharashtra,Mumbai,"Kherwadi_Bandra East, Mumbai - MPCB",25-06-2024 11:00:00,19.0632143,72.8456324,PM2.5,17,44,28
India,Maharashtra,Mumbai,"Kherwadi_Bandra East, Mumbai - MPCB",25-06-2024 11:00:00,19.0632143,72.8456324,NH3,1,6,3
India,Maharashtra,Mumbai,"Khindipada-Bhandup West, Mumbai - IITM",25-06-2024 11:00:00,19.1653323,72.922099,SO2,1,4,2
India,Maharashtra,Mumbai,"Kurla, Mumbai - MPCB",25-06-2024 11:00:00,19.0863,72.8888,PM2.5,3,22,10
India,Maharashtra,Mumbai,"Kurla, Mumbai - MPCB",25-06-2024 11:00:00,19.0863,72.8888,NH3,1,1,1
India,Maharashtra,Mumbai,"Mulund West, Mumbai - MPCB",25-06-2024 11:00:00,19.1750,72.9419,CO,NA,NA,NA
India,Maharashtra,Mumbai,"Powai, Mumbai - MPCB",25-06-2024 11:00:00,19.137500,72.915056,OZONE,5,13,6
India,Maharashtra,Mumbai,"Sewri, Mumbai - BMC",25-06-2024 11:00:00,19.000084,72.856730,PM10,16,38,26
India,Maharashtra,Mumbai,"Sewri, Mumbai - BMC",25-06-2024 11:00:00,19.000084,72.856730,NH3,1,5,3
India,Maharashtra,Mumbai,"Siddharth Nagar-Worli, Mumbai - IITM",25-06-2024 11:00:00,19.000083,72.813993,NH3,4,4,4
India,Maharashtra,Mumbai,"Siddharth Nagar-Worli, Mumbai - IITM",25-06-2024 11:00:00,19.000083,72.813993,CO,47,77,65
India,Maharashtra,Mumbai,"Sion, Mumbai - MPCB",25-06-2024 11:00:00,19.047000,72.874600,NO2,NA,NA,NA
India,Maharashtra,Mumbai,"Vasai West, Mumbai - MPCB",25-06-2024 11:00:00,19.383200,72.820400,PM10,35,124,64
India,Maharashtra,Mumbai,"Vasai West, Mumbai - MPCB",25-06-2024 11:00:00,19.383200,72.820400,SO2,25,25,25
India,Maharashtra,Mumbai,"Vile Parle West, Mumbai - MPCB",25-06-2024 11:00:00,19.10861,72.83622,PM10,25,113,47
India,Maharashtra,Mumbai,"Worli, Mumbai - MPCB",25-06-2024 11:00:00,18.9936162,72.8128113,NO2,14,14,14
India,Maharashtra,Nagpur,"Ambazari, Nagpur - MPCB",25-06-2024 11:00:00,21.121801,79.04952,NO2,9,35,21
India,Maharashtra,Nagpur,"Mahal, Nagpur - MPCB",25-06-2024 11:00:00,21.14472,79.107595,NO2,9,22,14
India,Maharashtra,Nagpur,"Opp GPO Civil Lines, Nagpur - MPCB",25-06-2024 11:00:00,21.152875,79.0517531,PM2.5,23,74,47
India,Maharashtra,Nagpur,"Opp GPO Civil Lines, Nagpur - MPCB",25-06-2024 11:00:00,21.152875,79.0517531,PM10,26,69,47
India,Maharashtra,Nagpur,"Opp GPO Civil Lines, Nagpur - MPCB",25-06-2024 11:00:00,21.152875,79.0517531,NH3,3,4,3
India,Maharashtra,Nagpur,"Ram Nagar, Nagpur - MPCB",25-06-2024 11:00:00,21.143383,79.048912,NH3,4,5,4
India,Maharashtra,Nagpur,"Ram Nagar, Nagpur - MPCB",25-06-2024 11:00:00,21.143383,79.048912,SO2,18,25,22
India,Maharashtra,Nashik,"Hirawadi, Nashik - MPCB",25-06-2024 11:00:00,20.021503,73.813844,PM2.5,23,45,33
India,Maharashtra,Nashik,"Pandav Nagari, Nashik - MPCB",25-06-2024 11:00:00,19.9591346,73.7788008,PM10,10,43,26
India,Maharashtra,Nashik,"Pandav Nagari, Nashik - MPCB",25-06-2024 11:00:00,19.9591346,73.7788008,NO2,17,64,36
India,Maharashtra,Navi Mumbai,"Kopripada-Vashi, Navi Mumbai - MPCB",25-06-2024 11:00:00,19.090337,73.014232,OZONE,8,57,23
India,Maharashtra,Navi Mumbai,"Mahape, Navi Mumbai - MPCB",25-06-2024 11:00:00,19.1135051,73.008978,CO,14,22,16
India,Maharashtra,Navi Mumbai,"Nerul, Navi Mumbai - MPCB",25-06-2024 11:00:00,19.008751,73.016620,PM2.5,7,34,20
India,Maharashtra,Navi Mumbai,"Sanpada, Navi Mumbai - MPCB",25-06-2024 11:00:00,19.0575752,73.0151367,NH3,5,8,7
India,Maharashtra,Navi Mumbai,"Sanpada, Navi Mumbai - MPCB",25-06-2024 11:00:00,19.0575752,73.0151367,OZONE,10,94,31
India,Maharashtra,Navi Mumbai,"Sector-19A Nerul, Navi Mumbai - IITM",25-06-2024 11:00:00,19.044,73.0325,NO2,1,1,1
India,Maharashtra,Navi Mumbai,"Sector-19A Nerul, Navi Mumbai - IITM",25-06-2024 11:00:00,19.044,73.0325,SO2,5,8,7
India,Maharashtra,Navi Mumbai,"Sector-2E Kalamboli, Navi Mumbai - MPCB",25-06-2024 11:00:00,19.02579,73.10297,CO,25,25,25
India,Maharashtra,Navi Mumbai,"Sector-2E Kalamboli, Navi Mumbai - MPCB",25-06-2024 11:00:00,19.02579,73.10297,OZONE,2,51,12
India,Maharashtra,Navi Mumbai,"Tondare-Taloja, Navi Mumbai - MPCB",25-06-2024 11:00:00,19.0630,73.1209,NO2,NA,NA,NA
India,Maharashtra,Navi Mumbai,"Tondare-Taloja, Navi Mumbai - MPCB",25-06-2024 11:00:00,19.0630,73.1209,SO2,NA,NA,NA
India,Maharashtra,Pimpri-Chinchwad,"Gavalinagar, Pimpri Chinchwad - MPCB",25-06-2024 11:00:00,18.63673,73.82487,NH3,4,4,4
India,Maharashtra,Pimpri-Chinchwad,"Park Street Wakad, Pimpri Chinchwad - MPCB",25-06-2024 11:00:00,18.59051,73.77946,PM2.5,16,95,54
India,Maharashtra,Pimpri-Chinchwad,"Park Street Wakad, Pimpri Chinchwad - MPCB",25-06-2024 11:00:00,18.59051,73.77946,PM10,41,79,55
India,Maharashtra,Pune,"Alandi, Pune - IITM",25-06-2024 11:00:00,18.675076,73.892743,OZONE,8,88,25
India,Maharashtra,Pune,"Bhosari, Pune - IITM",25-06-2024 11:00:00,18.640051,73.848956,CO,24,106,78
India,Maharashtra,Pune,"Karve Road, Pune - MPCB",25-06-2024 11:00:00,18.5011743,73.8165527,CO,2,16,8
India,Maharashtra,Pune,"Karve Road, Pune - MPCB",25-06-2024 11:00:00,18.5011743,73.8165527,OZONE,1,17,9
India,Maharashtra,Pune,"Mhada Colony, Pune - IITM",25-06-2024 11:00:00,18.573040,73.927715,NO2,20,44,33
India,Maharashtra,Pune,"Revenue Colony-Shivajinagar, Pune - IITM",25-06-2024 11:00:00,18.530085,73.849598,PM10,19,48,31
India,Maharashtra,Pune,"Revenue Colony-Shivajinagar, Pune - IITM",25-06-2024 11:00:00,18.530085,73.849598,OZONE,9,39,21
India,Maharashtra,Pune,"Savitribai Phule Pune University, Pune - MPCB",25-06-2024 11:00:00,18.547056,73.826908,PM2.5,9,47,24
India,Maharashtra,Sangli,"Vijay Nagar, Sangli - MPCB",25-06-2024 11:00:00, 16.5038,74.3623,NO2,1,13,3
India,Maharashtra,Solapur,"Dnyaneshwar Nagar, Solapur - MPCB",25-06-2024 11:00:00,17.6336264,75.9132495,NH3,11,34,15
India,Maharashtra,Solapur,"Dnyaneshwar Nagar, Solapur - MPCB",25-06-2024 11:00:00,17.6336264,75.9132495,OZONE,21,40,26
India,Maharashtra,Solapur,"Ratandeep Housing Society, Solapur - MPCB",25-06-2024 11:00:00,17.65439,75.90649,OZONE,23,40,29
India,Maharashtra,Solapur,"Solapur, Solapur - MPCB",25-06-2024 11:00:00,17.6599188,75.9063906,PM2.5,47,47,47
India,Maharashtra,Solapur,"Solapur, Solapur - MPCB",25-06-2024 11:00:00,17.6599188,75.9063906,PM10,77,77,77
India,Maharashtra,Thane,"Kasarvadavali, Thane - MPCB",25-06-2024 11:00:00,19.26777,72.97182,OZONE,1,37,4
India,Maharashtra,Ulhasnagar,"Sidhi Vinayak Nagar, Ulhasnagar - MPCB",25-06-2024 11:00:00,19.235581,73.159121,NH3,2,3,2
India,Maharashtra,Virar,"Bolinj, Virar - MPCB",25-06-2024 11:00:00,19.4458210,72.7988231,NO2,17,56,27
India,Maharashtra,Virar,"Bolinj, Virar - MPCB",25-06-2024 11:00:00,19.4458210,72.7988231,OZONE,18,70,21
India,Manipur,Imphal,"Manipur University, Imphal - Manipur PCB",25-06-2024 11:00:00,24.7524239,93.9286218,CO,6,14,10
India,Manipur,Imphal,"Manipur University, Imphal - Manipur PCB",25-06-2024 11:00:00,24.7524239,93.9286218,OZONE,2,7,2
India,Nagaland,Kohima,"PWD Juction, Kohima - NPCB",25-06-2024 11:00:00,25.6635413,94.0989878,NH3,1,1,1
India,Nagaland,Kohima,"PWD Juction, Kohima - NPCB",25-06-2024 11:00:00,25.6635413,94.0989878,OZONE,3,8,4
India,Odisha,Balasore,"Kalidaspur, Balasore - OSPCB",25-06-2024 11:00:00,21.51161,86.89088,SO2,14,27,16
India,Odisha,Balasore,"Kalidaspur, Balasore - OSPCB",25-06-2024 11:00:00,21.51161,86.89088,CO,56,110,83
India,Odisha,Barbil,"Forest Office, Barbil - OSPCB",25-06-2024 11:00:00,22.1166054,85.3945546,PM10,30,199,82
India,Odisha,Bhubaneswar,"Lingraj Mandir, Bhubaneswar - OSPCB",25-06-2024 11:00:00,20.240790,85.836784,PM10,99,258,172
India,Odisha,Bhubaneswar,"Lingraj Mandir, Bhubaneswar - OSPCB",25-06-2024 11:00:00,20.240790,85.836784,NH3,1,2,1
India,Odisha,Bhubaneswar,"Lingraj Mandir, Bhubaneswar - OSPCB",25-06-2024 11:00:00,20.240790,85.836784,SO2,8,14,11
India,Odisha,Bhubaneswar,"Lingraj Mandir, Bhubaneswar - OSPCB",25-06-2024 11:00:00,20.240790,85.836784,CO,74,121,105
India,Odisha,Bileipada,"Tata Township, Bileipada - OSPCB",25-06-2024 11:00:00,22.06156703,85.47409613,NO2,NA,NA,NA
India,Odisha,Byasanagar,"Ferro Chrome Colony, Byasanagar - OSPCB",25-06-2024 11:00:00,20.94185,86.11510,PM2.5,22,62,41
India,Odisha,Byasanagar,"Ferro Chrome Colony, Byasanagar - OSPCB",25-06-2024 11:00:00,20.94185,86.11510,NO2,6,18,10
India,Odisha,Keonjhar,"Jagamohanpur, Keonjhar - OSPCB",25-06-2024 11:00:00,21.643900,85.599355,PM2.5,NA,NA,NA
India,Odisha,Keonjhar,"Jagamohanpur, Keonjhar - OSPCB",25-06-2024 11:00:00,21.643900,85.599355,NH3,NA,NA,NA
India,Odisha,Nayagarh,"Dabuna, Nayagarh - OSPCB",25-06-2024 11:00:00,21.847279,85.416905,PM2.5,NA,NA,NA
India,Odisha,Rairangpur,"Divisional Forest Office, Rairangpur - OSPCB",25-06-2024 11:00:00,22.265816,86.174829,PM10,49,77,62
India,Odisha,Rairangpur,"Divisional Forest Office, Rairangpur - OSPCB",25-06-2024 11:00:00,22.265816,86.174829,OZONE,6,27,14
India,Odisha,Talcher,"Talcher Coalfields,Talcher - OSPCB",25-06-2024 11:00:00,20.9360711,85.1707021,NO2,20,23,22
India,Odisha,Tensa,"Barsua Iron Ore Mines, Tensa - OSPCB",25-06-2024 11:00:00,21.869985,85.167016,PM2.5,29,46,37
India,Puducherry,Puducherry,"Jawahar Nagar, Puducherry - PPCC",25-06-2024 11:00:00,11.9309,79.8027,PM10,16,56,32
India,Puducherry,Puducherry,"Jawahar Nagar, Puducherry - PPCC",25-06-2024 11:00:00,11.9309,79.8027,OZONE,26,75,37
India,Punjab,Amritsar,"Golden Temple, Amritsar - PPCB",25-06-2024 11:00:00,31.620000,74.876512,PM10,NA,NA,NA
India,Punjab,Jalandhar,"Civil Line, Jalandhar - PPCB",25-06-2024 11:00:00,31.321907,75.578914,PM10,54,140,113
India,Punjab,Khanna,"Kalal Majra, Khanna - PPCB",25-06-2024 11:00:00,30.736056 ,76.209694,OZONE,23,50,29
India,Punjab,Ludhiana,"Punjab Agricultural University, Ludhiana - PPCB",25-06-2024 11:00:00,30.9028,75.8086,PM2.5,48,302,151
India,Punjab,Ludhiana,"Punjab Agricultural University, Ludhiana - PPCB",25-06-2024 11:00:00,30.9028,75.8086,NH3,4,6,5
India,Punjab,Mandi Gobindgarh,"RIMT University, Mandi Gobindgarh - PPCB",25-06-2024 11:00:00,30.649961,76.331442,OZONE,48,51,50
India,Punjab,Patiala,"Model Town, Patiala - PPCB",25-06-2024 11:00:00,30.349388,76.366642,NO2,24,29,27
India,Punjab,Rupnagar,"Ratanpura, Rupnagar - Ambuja Cements",25-06-2024 11:00:00,31.0325454,76.5623046,SO2,6,7,7
India,Rajasthan,Ajmer,"Civil Lines,  Ajmer - RSPCB",25-06-2024 11:00:00,26.470859,74.646594,PM2.5,15,109,48
India,Rajasthan,Alwar,"Moti Doongri, Alwar - RSPCB",25-06-2024 11:00:00,27.554793,76.611536,OZONE,13,64,46
India,Rajasthan,Banswara,"Rati Talai, Banswara - RSPCB",25-06-2024 11:00:00,23.555190,74.440010,OZONE,33,130,49
India,Rajasthan,Baran,"Bamboliya, Baran - RSPCB",25-06-2024 11:00:00,25.106006,76.469948,PM10,7,99,41
India,Rajasthan,Barmer,"Railway Colony, Barmer - RSPCB",25-06-2024 11:00:00,25.747299,71.393989,PM2.5,21,72,54
India,Rajasthan,Bhilwara,"Pratap Nagar, Bhilwara - RSPCB",25-06-2024 11:00:00,25.339605,74.618883,PM2.5,15,57,36
India,Rajasthan,Bhilwara,"Pratap Nagar, Bhilwara - RSPCB",25-06-2024 11:00:00,25.339605,74.618883,NO2,7,38,15
India,Rajasthan,Bhilwara,"Pratap Nagar, Bhilwara - RSPCB",25-06-2024 11:00:00,25.339605,74.618883,SO2,4,8,6
India,Rajasthan,Bhilwara,"Pratap Nagar, Bhilwara - RSPCB",25-06-2024 11:00:00,25.339605,74.618883,OZONE,21,95,43
India,Rajasthan,Bhiwadi,"Vasundhara Nagar_UIT, Bhiwadi - RSPCB",25-06-2024 11:00:00,28.207266,76.829265,CO,18,48,33
India,Rajasthan,Bikaner,"MM Ground, Bikaner - RSPCB",25-06-2024 11:00:00,28.018792,73.292658,PM2.5,28,80,55
India,Rajasthan,Bundi,"New Colony, Bundi - RSPCB",25-06-2024 11:00:00,25.435774,75.644272,OZONE,18,116,54
India,Rajasthan,Chittorgarh,"Shastri Nagar, Chittorgarh - RSPCB",25-06-2024 11:00:00,24.892047,74.623527,PM10,NA,NA,NA
India,Rajasthan,Dausa,"Khatikan Mohalla, Dausa - RSPCB",25-06-2024 11:00:00,26.895552,76.334753,PM10,NA,NA,NA
India,Rajasthan,Dholpur,"Raja Ganj, Dholpur - RSPCB",25-06-2024 11:00:00,26.699557,77.898881,NO2,NA,NA,NA
India,Rajasthan,Dungarpur,"Bhoiwada, Dungarpur - RSPCB",25-06-2024 11:00:00,23.837789,73.714926,PM10,24,329,110
India,Rajasthan,Dungarpur,"Bhoiwada, Dungarpur - RSPCB",25-06-2024 11:00:00,23.837789,73.714926,SO2,12,19,18
India,Rajasthan,Hanumangarh,"Housing Board, Hanumangarh - RSPCB",25-06-2024 11:00:00,29.610750,74.283608,PM10,87,475,173
India,Rajasthan,Hanumangarh,"Housing Board, Hanumangarh - RSPCB",25-06-2024 11:00:00,29.610750,74.283608,CO,50,72,61
India,Rajasthan,Hanumangarh,"Housing Board, Hanumangarh - RSPCB",25-06-2024 11:00:00,29.610750,74.283608,OZONE,24,78,51
India,Rajasthan,Jaipur,"Adarsh Nagar, Jaipur - RSPCB",25-06-2024 11:00:00,26.902909,75.836858,NH3,4,8,5
India,Rajasthan,Jaipur,"RIICO Sitapura, Jaipur - RSPCB",25-06-2024 11:00:00,26.786682,75.827928,PM2.5,20,148,52
India,Rajasthan,Jaipur,"RIICO Sitapura, Jaipur - RSPCB",25-06-2024 11:00:00,26.786682,75.827928,OZONE,60,204,77
India,Rajasthan,Jaipur,"Shastri Nagar, Jaipur - RSPCB",25-06-2024 11:00:00,26.9502929,75.730943,PM10,50,117,92
India,Rajasthan,Jaisalmer,"Sadar Bazar, Jaisalmer - RSPCB",25-06-2024 11:00:00,26.912329,70.909168,PM2.5,26,63,47
India,Rajasthan,Jalore,"Mudtra Sili, Jalore - RSPCB",25-06-2024 11:00:00,25.344694,72.626208,SO2,3,4,4
India,Rajasthan,Jalore,"Mudtra Sili, Jalore - RSPCB",25-06-2024 11:00:00,25.344694,72.626208,CO,8,26,16
India,Rajasthan,Jhalawar,"Rajlaxmi Nagar, Jhalawar - RSPCB",25-06-2024 11:00:00,24.588397,76.172782,CO,33,56,52
India,Rajasthan,Jodhpur,"Collectorate, Jodhpur - RSPCB",25-06-2024 11:00:00,26.268249,73.0193853,PM2.5,27,68,48
India,Rajasthan,Jodhpur,"Collectorate, Jodhpur - RSPCB",25-06-2024 11:00:00,26.268249,73.0193853,OZONE,28,65,41
India,Rajasthan,Jodhpur,"Digari Kalan, Jodhpur - RSPCB",25-06-2024 11:00:00,26.295810,73.082283,PM10,15,159,81
India,Rajasthan,Jodhpur,"Digari Kalan, Jodhpur - RSPCB",25-06-2024 11:00:00,26.295810,73.082283,SO2,4,8,5
India,Rajasthan,Jodhpur,"Digari Kalan, Jodhpur - RSPCB",25-06-2024 11:00:00,26.295810,73.082283,CO,16,26,21
India,Rajasthan,Jodhpur,"Digari Kalan, Jodhpur - RSPCB",25-06-2024 11:00:00,26.295810,73.082283,OZONE,72,151,86
India,Rajasthan,Jodhpur,"Jhalamand, Jodhpur - RSPCB",25-06-2024 11:00:00,26.215415,73.070156,OZONE,58,165,86
India,Rajasthan,Jodhpur,"Mandor, Jodhpur - RSPCB",25-06-2024 11:00:00,26.358805,73.047444,PM2.5,14,87,35
India,Rajasthan,Jodhpur,"Mandor, Jodhpur - RSPCB",25-06-2024 11:00:00,26.358805,73.047444,PM10,19,131,64
India,Rajasthan,Jodhpur,"Samrat Ashok Udhyan, Jodhpur - RSPCB",25-06-2024 11:00:00,26.253384,72.976571,PM10,NA,NA,NA
India,Rajasthan,Jodhpur,"Samrat Ashok Udhyan, Jodhpur - RSPCB",25-06-2024 11:00:00,26.253384,72.976571,OZONE,82,95,88
India,Rajasthan,Karauli,"Satyawati Vihar, Karauli - RSPCB",25-06-2024 11:00:00,26.506177,77.025989,SO2,3,43,22
India,Rajasthan,Karauli,"Satyawati Vihar, Karauli - RSPCB",25-06-2024 11:00:00,26.506177,77.025989,OZONE,30,155,72
India,Rajasthan,Kota,"Nayapura, Kota - RSPCB",25-06-2024 11:00:00,25.196024,75.855668,CO,10,36,17
India,Rajasthan,Kota,"Shrinath Puram, Kota - RSPCB",25-06-2024 11:00:00,25.14389,75.821256,PM10,NA,NA,NA
India,Rajasthan,Kota,"Shrinath Puram, Kota - RSPCB",25-06-2024 11:00:00,25.14389,75.821256,NO2,23,47,30
India,Rajasthan,Kota,"Shrinath Puram, Kota - RSPCB",25-06-2024 11:00:00,25.14389,75.821256,NH3,4,6,5
India,Rajasthan,Nagaur,"Karni Colony, Nagaur - RSPCB",25-06-2024 11:00:00,27.213494,73.734444,PM2.5,37,73,53
India,Rajasthan,Nagaur,"Karni Colony, Nagaur - RSPCB",25-06-2024 11:00:00,27.213494,73.734444,SO2,1,4,3
India,Rajasthan,Pali,"Indira Colony Vistar, Pali - RSPCB",25-06-2024 11:00:00,25.771061, 73.340227,SO2,5,12,8
India,Rajasthan,Pratapgarh,"Pragati Nagar, Pratapgarh - RSPCB",25-06-2024 11:00:00,24.041198,74.780702,OZONE,50,110,72
India,Rajasthan,Rajsamand,"Dhoinda, Rajsamand - RSPCB",25-06-2024 11:00:00,25.036360,73.883502,SO2,2,14,5
India,Rajasthan,Sikar,"Radhakishan Pura, Sikar - RSPCB",25-06-2024 11:00:00,27.608912,75.153302,NH3,6,8,7
India,Rajasthan,Sirohi,"Vedhaynath Colony, Sirohi - RSPCB",25-06-2024 11:00:00,24.885261,72.857549,PM10,19,77,40
India,Rajasthan,Sri Ganganagar,"Old City, Sri Ganganagar - RSPCB",25-06-2024 11:00:00,29.931624,73.864511,NO2,20,110,42
India,Rajasthan,Tonk,"Shastri Nagar, Tonk - RSPCB",25-06-2024 11:00:00,26.159933,75.780517,NO2,7,22,11
India,Rajasthan,Tonk,"Shastri Nagar, Tonk - RSPCB",25-06-2024 11:00:00,26.159933,75.780517,NH3,1,4,2
India,Rajasthan,Udaipur,"Ashok Nagar, Udaipur - RSPCB",25-06-2024 11:00:00,24.5886166,73.6321397,PM2.5,16,106,64
India,Rajasthan,Udaipur,"Ashok Nagar, Udaipur - RSPCB",25-06-2024 11:00:00,24.5886166,73.6321397,PM10,43,106,75
India,Rajasthan,Udaipur,"Ashok Nagar, Udaipur - RSPCB",25-06-2024 11:00:00,24.5886166,73.6321397,OZONE,24,68,44
India,Sikkim,Gangtok,"Zero Point GICI, Gangtok - SSPCB",25-06-2024 11:00:00,27.338530,88.614099,NH3,1,1,1
India,TamilNadu,Ariyalur,"Keelapalur, Ariyalur - TNPCB",25-06-2024 11:00:00,11.06825,79.07033,NO2,6,8,7
India,TamilNadu,Chennai,"Alandur Bus Depot, Chennai - CPCB",25-06-2024 11:00:00,12.9099161,80.1076538,NO2,7,10,9
India,TamilNadu,Chennai,"Arumbakkam, Chennai - TNPCB",25-06-2024 11:00:00,13.0664,80.2112 ,SO2,3,14,9
India,TamilNadu,Chennai,"Kodungaiyur, Chennai - TNPCB",25-06-2024 11:00:00,13.1278,80.2642,PM2.5,NA,NA,NA
India,TamilNadu,Chennai,"Kodungaiyur, Chennai - TNPCB",25-06-2024 11:00:00,13.1278,80.2642,PM10,NA,NA,NA
India,TamilNadu,Chennai,"Kodungaiyur, Chennai - TNPCB",25-06-2024 11:00:00,13.1278,80.2642,NH3,NA,NA,NA
India,TamilNadu,Chennai,"Kodungaiyur, Chennai - TNPCB",25-06-2024 11:00:00,13.1278,80.2642,CO,NA,NA,NA
India,TamilNadu,Chennai,"Manali, Chennai - CPCB",25-06-2024 11:00:00,13.164544,80.26285,CO,78,119,102
India,TamilNadu,Chennai,"Perungudi, Chennai - TNPCB",25-06-2024 11:00:00,12.9533,80.2357,NH3,3,4,3
India,TamilNadu,Chennai,"Perungudi, Chennai - TNPCB",25-06-2024 11:00:00,12.9533,80.2357,SO2,3,9,6
India,TamilNadu,Chennai,"Royapuram, Chennai - TNPCB",25-06-2024 11:00:00,13.1036,80.2909,SO2,2,19,5
India,TamilNadu,Chennai,"Velachery Res. Area, Chennai - CPCB",25-06-2024 11:00:00,13.0052189,80.2398125,NO2,17,26,20
India,TamilNadu,Chennai,"Velachery Res. Area, Chennai - CPCB",25-06-2024 11:00:00,13.0052189,80.2398125,CO,55,56,55
India,TamilNadu,Chennai,"Velachery Res. Area, Chennai - CPCB",25-06-2024 11:00:00,13.0052189,80.2398125,OZONE,12,27,17
India,TamilNadu,Coimbatore,"PSG College of Arts and Science, Coimbatore - TNPCB",25-06-2024 11:00:00,11.0328,77.0349,PM2.5,NA,NA,NA
India,TamilNadu,Cuddalore,"Semmandalam, Cuddalore - TNPCB",25-06-2024 11:00:00,11.7637683,79.7499835,PM10,10,36,20
India,TamilNadu,Gummidipoondi,"Anthoni Pillai Nagar, Gummidipoondi - TNPCB",25-06-2024 11:00:00,13.4127,80.1081,PM2.5,2,216,70
India,TamilNadu,Gummidipoondi,"Anthoni Pillai Nagar, Gummidipoondi - TNPCB",25-06-2024 11:00:00,13.4127,80.1081,NO2,10,27,18
India,TamilNadu,Gummidipoondi,"Anthoni Pillai Nagar, Gummidipoondi - TNPCB",25-06-2024 11:00:00,13.4127,80.1081,NH3,1,3,2
India,TamilNadu,Ramanathapuram,"Chalai Bazaar, Ramanathapuram - TNPCB",25-06-2024 11:00:00,9.36399,78.831977,PM10,NA,NA,NA
India,TamilNadu,Ramanathapuram,"Chalai Bazaar, Ramanathapuram - TNPCB",25-06-2024 11:00:00,9.36399,78.831977,SO2,NA,NA,NA
India,TamilNadu,Thoothukudi,"Meelavittan, Thoothukudi - TNPCB",25-06-2024 11:00:00,8.816428 ,78.099039,SO2,NA,NA,NA
India,TamilNadu,Tirupur,"Kumaran College, Tirupur - TNPCB",25-06-2024 11:00:00,11.0973603,77.3228673,NO2,3,12,8
India,TamilNadu,Vellore,"Vasanthapuram, Vellore - TNPCB",25-06-2024 11:00:00,12.909494,79.131861,PM10,11,54,35
India,TamilNadu,Vellore,"Vasanthapuram, Vellore - TNPCB",25-06-2024 11:00:00,12.909494,79.131861,NO2,NA,NA,NA
India,Telangana,Hyderabad,"Central University, Hyderabad - TSPCB",25-06-2024 11:00:00,17.460103,78.334361,PM2.5,5,18,11
India,Telangana,Hyderabad,"ICRISAT Patancheru, Hyderabad - TSPCB",25-06-2024 11:00:00,17.518400,78.278777,PM2.5,NA,NA,NA
India,Telangana,Hyderabad,"IDA Pashamylaram, Hyderabad - TSPCB",25-06-2024 11:00:00,17.5316895,78.218939,PM2.5,8,32,20
India,Telangana,Hyderabad,"IDA Pashamylaram, Hyderabad - TSPCB",25-06-2024 11:00:00,17.5316895,78.218939,PM10,19,64,33
India,Telangana,Hyderabad,"IDA Pashamylaram, Hyderabad - TSPCB",25-06-2024 11:00:00,17.5316895,78.218939,NO2,16,41,32
India,Telangana,Hyderabad,"Kokapet, Hyderabad - TSPCB",25-06-2024 11:00:00,17.393559,78.339194,SO2,10,13,10
India,Telangana,Hyderabad,"Kokapet, Hyderabad - TSPCB",25-06-2024 11:00:00,17.393559,78.339194,OZONE,5,8,6
India,Telangana,Hyderabad,"Kompally Municipal Office, Hyderabad - TSPCB",25-06-2024 11:00:00,17.544899,78.486949,NO2,9,11,10
India,Telangana,Hyderabad,"New Malakpet, Hyderabad - TSPCB",25-06-2024 11:00:00,17.37206,78.50864,PM10,68,86,76
India,Telangana,Hyderabad,"New Malakpet, Hyderabad - TSPCB",25-06-2024 11:00:00,17.37206,78.50864,NO2,10,14,10
India,Telangana,Hyderabad,"Somajiguda, Hyderabad - TSPCB",25-06-2024 11:00:00,17.417094,78.457437,OZONE,NA,NA,NA
India,Tripura,Agartala,"Bardowali, Agartala - Tripura SPCB",25-06-2024 11:00:00,23.8175497,91.2726974,NO2,4,9,7
India,Tripura,Agartala,"Bardowali, Agartala - Tripura SPCB",25-06-2024 11:00:00,23.8175497,91.2726974,SO2,42,68,51
India,Uttar_Pradesh,Agra,"Manoharpur, Agra - UPPCB",25-06-2024 11:00:00,27.23711,78.01936,CO,8,12,11
India,Uttar_Pradesh,Agra,"Manoharpur, Agra - UPPCB",25-06-2024 11:00:00,27.23711,78.01936,OZONE,14,43,20
India,Uttar_Pradesh,Agra,"Rohta, Agra - UPPCB",25-06-2024 11:00:00,27.106972,78.000111,PM2.5,NA,NA,NA
India,Uttar_Pradesh,Agra,"Sector-3B Avas Vikas Colony, Agra - UPPCB",25-06-2024 11:00:00,27.19412,77.96237,CO,9,16,13
India,Uttar_Pradesh,Agra,"Shahjahan Garden, Agra - UPPCB",25-06-2024 11:00:00,27.169338,78.03582,PM2.5,27,69,46
India,Uttar_Pradesh,Agra,"Shahjahan Garden, Agra - UPPCB",25-06-2024 11:00:00,27.169338,78.03582,PM10,NA,NA,NA
India,Uttar_Pradesh,Agra,"Shastripuram, Agra - UPPCB",25-06-2024 11:00:00,27.19862,77.92066,NH3,4,6,4
India,Uttar_Pradesh,Baghpat,"Sardar Patel Inter College, Baghpat - UPPCB",25-06-2024 11:00:00,28.964949,77.278761,CO,64,86,83
India,Uttar_Pradesh,Bareilly,"Civil Lines, Bareilly - UPPCB",25-06-2024 11:00:00,28.359581,79.414455,NO2,2,3,2
India,Uttar_Pradesh,Bareilly,"Civil Lines, Bareilly - UPPCB",25-06-2024 11:00:00,28.359581,79.414455,OZONE,2,9,5
India,Uttar_Pradesh,Bareilly,"Rajendra Nagar, Bareilly - UPPCB",25-06-2024 11:00:00,28.38910936,79.42963708,CO,4,18,12
India,Uttar_Pradesh,Firozabad,"Vibhab Nagar, Firozabad - UPPCB",25-06-2024 11:00:00,27.1594,78.3953,SO2,4,18,8
India,Uttar_Pradesh,Ghaziabad,"Indirapuram, Ghaziabad - UPPCB",25-06-2024 11:00:00,28.646233,77.358075,NH3,12,42,19
India,Uttar_Pradesh,Ghaziabad,"Loni, Ghaziabad - UPPCB",25-06-2024 11:00:00,28.757294,77.278792,NH3,1,6,3
India,Uttar_Pradesh,Ghaziabad,"Sanjay Nagar, Ghaziabad - UPPCB",25-06-2024 11:00:00,28.685382,77.453839,PM2.5,25,96,59
India,Uttar_Pradesh,Ghaziabad,"Sanjay Nagar, Ghaziabad - UPPCB",25-06-2024 11:00:00,28.685382,77.453839,NH3,8,22,15
India,Uttar_Pradesh,Ghaziabad,"Sanjay Nagar, Ghaziabad - UPPCB",25-06-2024 11:00:00,28.685382,77.453839,CO,6,62,23
India,Uttar_Pradesh,Ghaziabad,"Vasundhara, Ghaziabad - UPPCB",25-06-2024 11:00:00,28.6603346,77.3572563,PM2.5,24,88,47
India,Uttar_Pradesh,Gorakhpur,"Madan Mohan Malaviya University of Technology, Gorakhpur - UPPCB",25-06-2024 11:00:00,26.730136,83.433859,PM2.5,63,115,78
India,Uttar_Pradesh,Gorakhpur,"Madan Mohan Malaviya University of Technology, Gorakhpur - UPPCB",25-06-2024 11:00:00,26.730136,83.433859,NH3,1,1,1
India,Uttar_Pradesh,Gorakhpur,"Madan Mohan Malaviya University of Technology, Gorakhpur - UPPCB",25-06-2024 11:00:00,26.730136,83.433859,CO,4,18,9
India,Uttar_Pradesh,Greater Noida,"Knowledge Park - III, Greater Noida - UPPCB",25-06-2024 11:00:00,28.47272,77.482000,SO2,2,11,7
India,Uttar_Pradesh,Greater Noida,"Knowledge Park - III, Greater Noida - UPPCB",25-06-2024 11:00:00,28.47272,77.482000,OZONE,3,93,21
India,Uttar_Pradesh,Greater Noida,"Knowledge Park - V, Greater Noida - UPPCB",25-06-2024 11:00:00,28.557054,77.453663,PM10,98,300,187
India,Uttar_Pradesh,Greater Noida,"Knowledge Park - V, Greater Noida - UPPCB",25-06-2024 11:00:00,28.557054,77.453663,NO2,13,37,22
India,Uttar_Pradesh,Greater Noida,"Knowledge Park - V, Greater Noida - UPPCB",25-06-2024 11:00:00,28.557054,77.453663,OZONE,7,258,43
India,Uttar_Pradesh,Hapur,"Anand Vihar, Hapur - UPPCB",25-06-2024 11:00:00,28.725645,77.749675,NH3,13,17,15
India,Uttar_Pradesh,Jhansi,"Shivaji Nagar, Jhansi - UPPCB",25-06-2024 11:00:00,25.4547,78.6039,SO2,18,24,20
India,Uttar_Pradesh,Kanpur,"FTI Kidwai Nagar, Kanpur - UPPCB",25-06-2024 11:00:00,26.428282,80.327067,NO2,20,40,21
India,Uttar_Pradesh,Khurja,"Kalindi Kunj, Khurja - UPPCB",25-06-2024 11:00:00,28.2348927,77.8683002,NO2,NA,NA,NA
India,Uttar_Pradesh,Lucknow,"B R Ambedkar University, Lucknow - UPPCB",25-06-2024 11:00:00,26.766433,80.927299,PM10,52,103,78
India,Uttar_Pradesh,Lucknow,"B R Ambedkar University, Lucknow - UPPCB",25-06-2024 11:00:00,26.766433,80.927299,SO2,13,15,13
India,Uttar_Pradesh,Lucknow,"B R Ambedkar University, Lucknow - UPPCB",25-06-2024 11:00:00,26.766433,80.927299,CO,26,36,32
India,Uttar_Pradesh,Lucknow,"Kendriya Vidyalaya, Lucknow - CPCB",25-06-2024 11:00:00,26.906111,80.948222,NH3,3,17,12
India,Uttar_Pradesh,Lucknow,"Kendriya Vidyalaya, Lucknow - CPCB",25-06-2024 11:00:00,26.906111,80.948222,CO,14,62,33
India,Uttar_Pradesh,Lucknow,"Kukrail Picnic Spot-1, Lucknow - UPPCB",25-06-2024 11:00:00,26.90723,80.98579,OZONE,4,30,14
India,Uttar_Pradesh,Lucknow,"Lalbagh, Lucknow - CPCB",25-06-2024 11:00:00,26.8458805,80.9365541,CO,76,125,103
India,Uttar_Pradesh,Lucknow,"Talkatora District Industries Center, Lucknow - CPCB",25-06-2024 11:00:00,26.83399722,80.8917361,OZONE,3,104,19
India,Uttar_Pradesh,Meerut,"Jai Bhim Nagar, Meerut - UPPCB",25-06-2024 11:00:00,28.9535882,77.7622941,OZONE,12,272,215
India,Uttar_Pradesh,Meerut,"Pallavpuram Phase 2, Meerut - UPPCB",25-06-2024 11:00:00,29.063510,77.709723,NO2,11,59,25
India,Uttar_Pradesh,Moradabad,"Buddhi Vihar, Moradabad - UPPCB",25-06-2024 11:00:00,28.83526,78.74460,PM2.5,23,225,58
India,Uttar_Pradesh,Moradabad,"Buddhi Vihar, Moradabad - UPPCB",25-06-2024 11:00:00,28.83526,78.74460,NH3,3,3,3
India,Uttar_Pradesh,Moradabad,"Buddhi Vihar, Moradabad - UPPCB",25-06-2024 11:00:00,28.83526,78.74460,CO,23,36,29
India,Uttar_Pradesh,Moradabad,"Eco Herbal Park, Moradabad - UPPCB",25-06-2024 11:00:00,28.840739,78.697531,SO2,3,27,15
India,Uttar_Pradesh,Moradabad,"Eco Herbal Park, Moradabad - UPPCB",25-06-2024 11:00:00,28.840739,78.697531,OZONE,1,82,25
India,Uttar_Pradesh,Moradabad,"Employment Office, Moradabad - UPPCB",25-06-2024 11:00:00,28.88528,78.73880,PM10,38,224,67
India,Uttar_Pradesh,Moradabad,"Jigar Colony, Moradabad - UPPCB",25-06-2024 11:00:00,28.856664,78.772638,OZONE,5,42,24
India,Uttar_Pradesh,Moradabad,"Transport Nagar, Moradabad - UPPCB",25-06-2024 11:00:00,28.802625,78.753728,SO2,20,34,25
India,Uttar_Pradesh,Muzaffarnagar,"New Mandi, Muzaffarnagar - UPPCB",25-06-2024 11:00:00,29.4723508,77.7194031,PM10,52,139,106
India,Uttar_Pradesh,Muzaffarnagar,"New Mandi, Muzaffarnagar - UPPCB",25-06-2024 11:00:00,29.4723508,77.7194031,SO2,4,35,21
India,Uttar_Pradesh,Muzaffarnagar,"New Mandi, Muzaffarnagar - UPPCB",25-06-2024 11:00:00,29.4723508,77.7194031,OZONE,4,47,12
India,Uttar_Pradesh,Noida,"Sector - 125, Noida - UPPCB",25-06-2024 11:00:00,28.5447608,77.3231257,SO2,10,33,22
India,Uttar_Pradesh,Noida,"Sector - 125, Noida - UPPCB",25-06-2024 11:00:00,28.5447608,77.3231257,CO,6,42,35
India,Uttar_Pradesh,Noida,"Sector - 125, Noida - UPPCB",25-06-2024 11:00:00,28.5447608,77.3231257,OZONE,3,19,5
India,Uttar_Pradesh,Noida,"Sector - 62, Noida - IMD",25-06-2024 11:00:00,28.6245479,77.3577104,NO2,7,14,9
India,Uttar_Pradesh,Noida,"Sector-1, Noida - UPPCB",25-06-2024 11:00:00,28.5898,77.3101,NH3,7,15,10
India,Uttar_Pradesh,Noida,"Sector-1, Noida - UPPCB",25-06-2024 11:00:00,28.5898,77.3101,SO2,10,16,13
India,Uttar_Pradesh,Noida,"Sector-1, Noida - UPPCB",25-06-2024 11:00:00,28.5898,77.3101,OZONE,15,95,27
India,Uttar_Pradesh,Noida,"Sector-116, Noida - UPPCB",25-06-2024 11:00:00,28.569230,77.393848,PM2.5,32,157,73
India,Uttar_Pradesh,Noida,"Sector-116, Noida - UPPCB",25-06-2024 11:00:00,28.569230,77.393848,SO2,8,34,19
India,Uttar_Pradesh,Prayagraj,"Motilal Nehru NIT, Prayagraj - UPPCB",25-06-2024 11:00:00,25.494,81.863,NH3,6,7,7
India,Uttar_Pradesh,Prayagraj,"Motilal Nehru NIT, Prayagraj - UPPCB",25-06-2024 11:00:00,25.494,81.863,SO2,9,22,15
India,Uttar_Pradesh,Prayagraj,"Nagar Nigam, Prayagraj - UPPCB",25-06-2024 11:00:00,25.44919916 ,81.82735986 ,PM2.5,32,257,79
India,Uttar_Pradesh,Varanasi,"Bhelupur, Varanasi - UPPCB",25-06-2024 11:00:00,25.301778,82.996789,PM2.5,7,13,9
India,Uttar_Pradesh,Varanasi,"Bhelupur, Varanasi - UPPCB",25-06-2024 11:00:00,25.301778,82.996789,NO2,7,8,8
India,Uttar_Pradesh,Varanasi,"IESD Banaras Hindu University, Varanasi - UPPCB",25-06-2024 11:00:00,25.262326,82.995408,CO,3,8,7
India,Uttar_Pradesh,Varanasi,"Maldahiya, Varanasi - UPPCB",25-06-2024 11:00:00,25.32393,82.99687,NH3,1,1,1
India,Uttarakhand,Dehradun,"Doon University, Dehradun - UKPCB",25-06-2024 11:00:00,30.269444,78.044167,PM10,29,91,54
India,Uttarakhand,Dehradun,"Doon University, Dehradun - UKPCB",25-06-2024 11:00:00,30.269444,78.044167,CO,26,38,32
India,Uttarakhand,Kashipur,"Govt. Girls Inter College, Kashipur - UKPCB",25-06-2024 11:00:00,29.2124114,78.9611753,PM2.5,10,38,17
India,Uttarakhand,Kashipur,"Govt. Girls Inter College, Kashipur - UKPCB",25-06-2024 11:00:00,29.2124114,78.9611753,SO2,7,9,8
India,Uttarakhand,Rishikesh,"Shivaji Nagar, Rishikesh - UKPCB",25-06-2024 11:00:00,30.075911,78.2859547,PM10,22,67,43
India,Uttarakhand,Rishikesh,"Shivaji Nagar, Rishikesh - UKPCB",25-06-2024 11:00:00,30.075911,78.2859547,SO2,4,6,4
India,West_Bengal,Asansol,"Asansol Court Area, Asansol - WBPCB",25-06-2024 11:00:00,23.685297,86.945968,SO2,10,17,13
India,West_Bengal,Asansol,"Evelyn Lodge, Asansol - WBPCB",25-06-2024 11:00:00,23.6979360,86.9443950,SO2,12,16,13
India,West_Bengal,Asansol,"Evelyn Lodge, Asansol - WBPCB",25-06-2024 11:00:00,23.6979360,86.9443950,CO,56,96,65
India,West_Bengal,Asansol,"Mahabir Colliery, Asansol - WBPCB",25-06-2024 11:00:00,23.6181830,87.1057180,SO2,46,50,47
India,West_Bengal,Barrackpore,"SVSPA Campus, Barrackpore - WBPCB",25-06-2024 11:00:00,22.7605581,88.3617589,OZONE,13,163,20
India,West_Bengal,Durgapur,"PCBL Residential Complex, Durgapur - WBPCB",25-06-2024 11:00:00,23.5087640,87.3544400,OZONE,7,49,19
India,West_Bengal,Haldia,"Priyambada Housing Estate, Haldia - WBPCB",25-06-2024 11:00:00,22.06047,88.109737,PM10,31,72,51
India,West_Bengal,Howrah,"Belur Math, Howrah - WBPCB",25-06-2024 11:00:00,22.629801,88.352017,PM2.5,17,38,29
India,West_Bengal,Howrah,"Belur Math, Howrah - WBPCB",25-06-2024 11:00:00,22.629801,88.352017,NH3,NA,NA,NA
India,West_Bengal,Howrah,"Belur Math, Howrah - WBPCB",25-06-2024 11:00:00,22.629801,88.352017,OZONE,10,17,14
India,West_Bengal,Howrah,"Botanical Garden, Howrah - WBPCB",25-06-2024 11:00:00,22.554954,88.292568,NO2,5,24,14
India,West_Bengal,Howrah,"Botanical Garden, Howrah - WBPCB",25-06-2024 11:00:00,22.554954,88.292568,CO,15,22,20
India,West_Bengal,Howrah,"Ghusuri, Howrah - WBPCB",25-06-2024 11:00:00,22.611968,88.347422,PM2.5,26,44,32
India,West_Bengal,Howrah,"Ghusuri, Howrah - WBPCB",25-06-2024 11:00:00,22.611968,88.347422,PM10,47,74,59
India,West_Bengal,Kolkata,"Ballygunge, Kolkata - WBPCB",25-06-2024 11:00:00,22.5367507,88.3638022,PM10,29,48,41
India,West_Bengal,Kolkata,"Ballygunge, Kolkata - WBPCB",25-06-2024 11:00:00,22.5367507,88.3638022,SO2,1,7,4
India,West_Bengal,Kolkata,"Ballygunge, Kolkata - WBPCB",25-06-2024 11:00:00,22.5367507,88.3638022,CO,8,14,10
India,West_Bengal,Kolkata,"Bidhannagar, Kolkata - WBPCB",25-06-2024 11:00:00,22.58157048,88.41002457,NO2,41,49,45
India,West_Bengal,Kolkata,"Fort William, Kolkata - WBPCB",25-06-2024 11:00:00,22.556640,88.342674,OZONE,11,22,14
India,West_Bengal,Kolkata,"Jadavpur, Kolkata - WBPCB",25-06-2024 11:00:00,22.49929,88.36917,NH3,5,6,6
India,West_Bengal,Kolkata,"Jadavpur, Kolkata - WBPCB",25-06-2024 11:00:00,22.49929,88.36917,CO,16,22,21
India,West_Bengal,Kolkata,"Rabindra Bharati University, Kolkata - WBPCB",25-06-2024 11:00:00,22.627847,88.380669,PM2.5,15,64,28
India,West_Bengal,Kolkata,"Rabindra Bharati University, Kolkata - WBPCB",25-06-2024 11:00:00,22.627847,88.380669,NH3,12,14,13
India,West_Bengal,Kolkata,"Rabindra Sarobar, Kolkata - WBPCB",25-06-2024 11:00:00,22.51106,88.35142,PM10,31,45,37
India,West_Bengal,Kolkata,"Rabindra Sarobar, Kolkata - WBPCB",25-06-2024 11:00:00,22.51106,88.35142,NO2,23,87,32
India,West_Bengal,Kolkata,"Victoria, Kolkata - WBPCB",25-06-2024 11:00:00,22.5448082,88.3403691,PM2.5,20,35,26
India,West_Bengal,Kolkata,"Victoria, Kolkata - WBPCB",25-06-2024 11:00:00,22.5448082,88.3403691,SO2,5,8,6
India,West_Bengal,Siliguri,"Ward-32 Bapupara, Siliguri - WBPCB",25-06-2024 11:00:00,26.6879226,88.4152495,PM2.5,24,49,38
India,West_Bengal,Siliguri,"Ward-32 Bapupara, Siliguri - WBPCB",25-06-2024 11:00:00,26.6879226,88.4152495,NO2,22,30,24
India,West_Bengal,Siliguri,"Ward-32 Bapupara, Siliguri - WBPCB",25-06-2024 11:00:00,26.6879226,88.4152495,SO2,7,9,8
India,West_Bengal,Siliguri,"Ward-32 Bapupara, Siliguri - WBPCB",25-06-2024 11:00:00,26.6879226,88.4152495,CO,14,46,22
India,Andhra_Pradesh,Amaravati,"Secretariat, Amaravati - APPCB",25-06-2024 11:00:00,16.5150833,80.5181667,PM2.5,11,40,22
India,Andhra_Pradesh,Amaravati,"Secretariat, Amaravati - APPCB",25-06-2024 11:00:00,16.5150833,80.5181667,NO2,2,29,9
India,Andhra_Pradesh,Amaravati,"Secretariat, Amaravati - APPCB",25-06-2024 11:00:00,16.5150833,80.5181667,SO2,6,19,15
India,Andhra_Pradesh,Chittoor,"Gangineni Cheruvu, Chittoor - APPCB",25-06-2024 11:00:00,13.204880,79.097889,PM2.5,38,82,54
India,Andhra_Pradesh,Chittoor,"Gangineni Cheruvu, Chittoor - APPCB",25-06-2024 11:00:00,13.204880,79.097889,NO2,8,10,8
India,Andhra_Pradesh,Chittoor,"Gangineni Cheruvu, Chittoor - APPCB",25-06-2024 11:00:00,13.204880,79.097889,NH3,3,4,3
India,Andhra_Pradesh,Chittoor,"Gangineni Cheruvu, Chittoor - APPCB",25-06-2024 11:00:00,13.204880,79.097889,CO,12,28,18
India,Andhra_Pradesh,Kadapa,"Yerramukkapalli, Kadapa - APPCB",25-06-2024 11:00:00,14.465052,78.824187,PM2.5,NA,NA,NA
India,Andhra_Pradesh,Kadapa,"Yerramukkapalli, Kadapa - APPCB",25-06-2024 11:00:00,14.465052,78.824187,CO,4,48,46
India,Andhra_Pradesh,Rajamahendravaram,"Anand Kala Kshetram, Rajamahendravaram - APPCB",25-06-2024 11:00:00,16.9872867,81.7363176,PM2.5,11,54,31
India,Andhra_Pradesh,Rajamahendravaram,"Anand Kala Kshetram, Rajamahendravaram - APPCB",25-06-2024 11:00:00,16.9872867,81.7363176,PM10,20,62,42
India,Andhra_Pradesh,Tirupati,"Tirumala, Tirupati - APPCB",25-06-2024 11:00:00,13.67,79.35,NO2,17,36,27
India,Andhra_Pradesh,Tirupati,"Tirumala, Tirupati - APPCB",25-06-2024 11:00:00,13.67,79.35,CO,14,30,17
India,Andhra_Pradesh,Tirupati,"Tirumala, Tirupati - APPCB",25-06-2024 11:00:00,13.67,79.35,OZONE,15,29,19
India,Andhra_Pradesh,Tirupati,"Vaikuntapuram, Tirupati - APPCB",25-06-2024 11:00:00,13.615387,79.409230,OZONE,5,23,12
India,Andhra_Pradesh,Vijayawada,"HB Colony, Vijayawada - APPCB",25-06-2024 11:00:00,16.536107,80.594233,PM10,39,89,55
India,Andhra_Pradesh,Vijayawada,"Rajiv Nagar, Vijayawada - APPCB",25-06-2024 11:00:00,16.554731,80.649110,CO,38,38,38
India,Andhra_Pradesh,Vijayawada,"Rajiv Nagar, Vijayawada - APPCB",25-06-2024 11:00:00,16.554731,80.649110,OZONE,19,30,22
India,Andhra_Pradesh,Visakhapatnam,"GVM Corporation, Visakhapatnam - APPCB",25-06-2024 11:00:00,17.72,83.3,NH3,2,5,3
India,Andhra_Pradesh,Visakhapatnam,"GVM Corporation, Visakhapatnam - APPCB",25-06-2024 11:00:00,17.72,83.3,SO2,5,15,10
India,Assam,Byrnihat,"Central Academy for SFS, Byrnihat - PCBA",25-06-2024 11:00:00,26.071318,91.87488,NO2,NA,NA,NA
India,Assam,Guwahati,"LGBI Airport, Guwahati - PCBA",25-06-2024 11:00:00,26.10887,91.589544,NH3,1,6,2
India,Assam,Nalbari,"Bata Chowk, Nalbari - PCBA",25-06-2024 11:00:00,26.446912,91.439057,SO2,NA,NA,NA
India,Assam,Nalbari,"Bata Chowk, Nalbari - PCBA",25-06-2024 11:00:00,26.446912,91.439057,OZONE,6,80,20
India,Assam,Silchar,"Tarapur, Silchar - PCBA",25-06-2024 11:00:00,24.82827,92.79525,NO2,9,9,9
India,Assam,Silchar,"Tarapur, Silchar - PCBA",25-06-2024 11:00:00,24.82827,92.79525,SO2,1,5,2
India,Assam,Silchar,"Tarapur, Silchar - PCBA",25-06-2024 11:00:00,24.82827,92.79525,OZONE,NA,NA,NA
India,Assam,Sivasagar,"Girls College, Sivasagar - PCBA",25-06-2024 11:00:00,26.987634,94.636574,PM10,51,63,56
India,Assam,Sivasagar,"Girls College, Sivasagar - PCBA",25-06-2024 11:00:00,26.987634,94.636574,NO2,6,14,9
India,Bihar,Araria,"Kharahiya Basti, Araria - BSPCB",25-06-2024 11:00:00,26.146529,87.454184,PM10,NA,NA,NA
India,Bihar,Araria,"Kharahiya Basti, Araria - BSPCB",25-06-2024 11:00:00,26.146529,87.454184,NH3,5,6,5
India,Bihar,Aurangabad,"Gurdeo Nagar, Aurangabad - BSPCB",25-06-2024 11:00:00,24.75746,84.366208,PM10,NA,NA,NA
India,Bihar,Bettiah,"Kamalnath Nagar, Bettiah - BSPCB",25-06-2024 11:00:00,26.80365,84.51954,PM10,NA,NA,NA
India,Bihar,Bettiah,"Kamalnath Nagar, Bettiah - BSPCB",25-06-2024 11:00:00,26.80365,84.51954,CO,34,54,43
India,Bihar,Bhagalpur,"DM Office_Kachari Chowk, Bhagalpur - BSPCB",25-06-2024 11:00:00,25.251013,86.989001,PM10,52,122,91
India,Bihar,Bhagalpur,"DM Office_Kachari Chowk, Bhagalpur - BSPCB",25-06-2024 11:00:00,25.251013,86.989001,OZONE,45,49,47
India,Bihar,Bhagalpur,"Mayaganj, Bhagalpur - BSPCB",25-06-2024 11:00:00,25.265194,87.012947,PM2.5,45,300,99
India,Bihar,Bihar Sharif,"D M Colony, Bihar Sharif - BSPCB",25-06-2024 11:00:00,25.204762,85.514960,NO2,8,9,9
India,Bihar,Bihar Sharif,"D M Colony, Bihar Sharif - BSPCB",25-06-2024 11:00:00,25.204762,85.514960,NH3,1,1,1
India,Bihar,Bihar Sharif,"D M Colony, Bihar Sharif - BSPCB",25-06-2024 11:00:00,25.204762,85.514960,SO2,3,4,3
India,Bihar,Buxar,"Charitra Van, Buxar - BSPCB (Formerly known as Central Jail)",25-06-2024 11:00:00,25.567520,83.966379,NH3,1,2,1
India,Bihar,Chhapra,"Darshan Nagar, Chhapra - BSPCB",25-06-2024 11:00:00,25.7808257,84.7446768,NO2,NA,NA,NA
India,Bihar,Chhapra,"Darshan Nagar, Chhapra - BSPCB",25-06-2024 11:00:00,25.7808257,84.7446768,OZONE,1,4,2
India,Bihar,Gaya,"Collectorate, Gaya - BSPCB",25-06-2024 11:00:00,24.7955,84.9994,PM2.5,37,307,115
India,Bihar,Gaya,"Collectorate, Gaya - BSPCB",25-06-2024 11:00:00,24.7955,84.9994,SO2,2,14,9
India,Bihar,Gaya,"SFTI Kusdihra, Gaya - BSPCB",25-06-2024 11:00:00,24.762518,84.982348,PM2.5,18,59,35
India,Bihar,Gaya,"SFTI Kusdihra, Gaya - BSPCB",25-06-2024 11:00:00,24.762518,84.982348,PM10,32,58,42
India,Bihar,Gaya,"SFTI Kusdihra, Gaya - BSPCB",25-06-2024 11:00:00,24.762518,84.982348,NH3,1,17,5
India,Bihar,Katihar,"Mirchaibari, Katihar - BSPCB",25-06-2024 11:00:00,25.560083,87.553265,CO,23,38,28
India,Bihar,Manguraha,"Forest Rest House, Manguraha - BSPCB",25-06-2024 11:00:00,27.308328,84.531742,PM10,NA,NA,NA
India,Bihar,Manguraha,"Forest Rest House, Manguraha - BSPCB",25-06-2024 11:00:00,27.308328,84.531742,NO2,NA,NA,NA
India,Bihar,Manguraha,"Forest Rest House, Manguraha - BSPCB",25-06-2024 11:00:00,27.308328,84.531742,SO2,NA,NA,NA
India,Bihar,Motihari,"Gandak Colony, Motihari - BSPCB",25-06-2024 11:00:00,26.63086,84.90051,NH3,1,5,3
India,Bihar,Munger,"Town Hall, Munger - BSPCB",25-06-2024 11:00:00,25.376776,86.471523,CO,87,106,96
India,Bihar,Muzaffarpur,"MIT-Daudpur Kothi, Muzaffarpur - BSPCB",25-06-2024 11:00:00,26.1403345,85.3650192,PM10,46,388,117
India,Bihar,Muzaffarpur,"MIT-Daudpur Kothi, Muzaffarpur - BSPCB",25-06-2024 11:00:00,26.1403345,85.3650192,NO2,3,6,4
India,Bihar,Muzaffarpur,"MIT-Daudpur Kothi, Muzaffarpur - BSPCB",25-06-2024 11:00:00,26.1403345,85.3650192,SO2,6,12,10
India,Bihar,Patna,"DRM Office Danapur, Patna - BSPCB",25-06-2024 11:00:00,25.586562,85.043586,NO2,17,26,20
India,Bihar,Patna,"DRM Office Danapur, Patna - BSPCB",25-06-2024 11:00:00,25.586562,85.043586,OZONE,12,60,19
India,Bihar,Patna,"Govt. High School Shikarpur, Patna - BSPCB",25-06-2024 11:00:00,25.592539,85.227158,SO2,6,11,9
India,Bihar,Patna,"Muradpur, Patna - BSPCB",25-06-2024 11:00:00,25.619651,85.147382,PM2.5,93,307,183
India,Bihar,Patna,"Rajbansi Nagar, Patna - BSPCB",25-06-2024 11:00:00,25.599486,85.113666,NO2,7,57,19
India,Bihar,Patna,"Samanpura, Patna - BSPCB",25-06-2024 11:00:00,25.596727,85.085624,CO,31,62,51
India,Bihar,Purnia,"Mariam Nagar, Purnia - BSPCB",25-06-2024 11:00:00,25.366336,87.117468,PM2.5,NA,NA,NA
India,Bihar,Rajgir,"Dangi Tola, Rajgir - BSPCB",25-06-2024 11:00:00,25.03280,85.41948,NO2,14,16,15
India,Bihar,Saharsa,"Police Line, Saharsa - BSPCB",25-06-2024 11:00:00,25.892357,86.590325,OZONE,8,191,22
India,Bihar,Sasaram,"Dada Peer, Sasaram - BSPCB",25-06-2024 11:00:00,24.952822,84.002396,CO,47,104,52
India,Bihar,Siwan,"Chitragupta Nagar, Siwan - BSPCB",25-06-2024 11:00:00,26.2271665,84.3570427,NO2,18,104,44
India,Bihar,Siwan,"Chitragupta Nagar, Siwan - BSPCB",25-06-2024 11:00:00,26.2271665,84.3570427,SO2,4,43,22
India,Chandigarh,Chandigarh,"Sector 22, Chandigarh - CPCC",25-06-2024 11:00:00,30.735567,76.775714,NO2,19,52,33
India,Chandigarh,Chandigarh,"Sector 22, Chandigarh - CPCC",25-06-2024 11:00:00,30.735567,76.775714,NH3,6,20,11
India,Chandigarh,Chandigarh,"Sector 22, Chandigarh - CPCC",25-06-2024 11:00:00,30.735567,76.775714,OZONE,20,135,55
India,Chandigarh,Chandigarh,"Sector-53, Chandigarh - CPCC",25-06-2024 11:00:00,30.719859,76.738637,NH3,4,15,8
India,Chhattisgarh,Bhilai,"32Bungalows, Bhilai - CECB",25-06-2024 11:00:00,21.194815,81.314770,PM2.5,14,31,23
India,Chhattisgarh,Bhilai,"32Bungalows, Bhilai - CECB",25-06-2024 11:00:00,21.194815,81.314770,OZONE,8,29,12
India,Chhattisgarh,Bhilai,"Hathkhoj, Bhilai - CECB",25-06-2024 11:00:00,21.224231,81.408350,NO2,2,19,8
India,Chhattisgarh,Bilaspur,"Mangala, Bilaspur - NTPC",25-06-2024 11:00:00,22.08815,82.13737,PM2.5,NA,NA,NA
India,Chhattisgarh,Chhal,"Nawapara SECL Colony, Chhal - CECB",25-06-2024 11:00:00,22.118125,83.140608,PM2.5,8,43,30
India,Chhattisgarh,Chhal,"Nawapara SECL Colony, Chhal - CECB",25-06-2024 11:00:00,22.118125,83.140608,NH3,1,2,2
India,Chhattisgarh,Korba,"Rampur, Korba - CECB",25-06-2024 11:00:00,22.368195,82.746431,OZONE,5,9,9
India,Chhattisgarh,Korba,"Urja Nagar, Korba - CECB",25-06-2024 11:00:00,22.348441,82.549611,CO,16,102,92
India,Chhattisgarh,Kunjemura,"OP Jindal School, Kunjemura - CECB",25-06-2024 11:00:00,22.126650,83.483212,PM2.5,7,318,78
India,Chhattisgarh,Kunjemura,"OP Jindal School, Kunjemura - CECB",25-06-2024 11:00:00,22.126650,83.483212,OZONE,4,12,5
India,Chhattisgarh,Milupara,"Govt. Higher Secondary School, Milupara - CECB",25-06-2024 11:00:00,22.1910172,83.5197009,OZONE,34,84,84
India,Chhattisgarh,Raipur,"AIIMS, Raipur - CECB",25-06-2024 11:00:00,21.258815,81.578979,PM10,18,84,39
India,Chhattisgarh,Raipur,"AIIMS, Raipur - CECB",25-06-2024 11:00:00,21.258815,81.578979,NH3,6,6,6
India,Chhattisgarh,Raipur,"AIIMS, Raipur - CECB",25-06-2024 11:00:00,21.258815,81.578979,SO2,3,6,4
India,Chhattisgarh,Raipur,"AIIMS, Raipur - CECB",25-06-2024 11:00:00,21.258815,81.578979,OZONE,2,30,4
India,Chhattisgarh,Raipur,"Bhatagaon New ISBT, Raipur - CECB",25-06-2024 11:00:00,21.219665,81.630094,PM10,13,59,32
India,Chhattisgarh,Raipur,"Bhatagaon New ISBT, Raipur - CECB",25-06-2024 11:00:00,21.219665,81.630094,OZONE,3,10,4
India,Chhattisgarh,Raipur,"Krishak Nagar, Raipur - CECB",25-06-2024 11:00:00,21.237755,81.705301,PM2.5,7,14,10
India,Chhattisgarh,Raipur,"Krishak Nagar, Raipur - CECB",25-06-2024 11:00:00,21.237755,81.705301,NO2,5,5,5
India,Chhattisgarh,Raipur,"Krishak Nagar, Raipur - CECB",25-06-2024 11:00:00,21.237755,81.705301,SO2,9,14,12
India,Chhattisgarh,Tumidih,"OP Jindal Industrial Park, Tumidih - CECB",25-06-2024 11:00:00,22.06631475,83.33820077,NH3,NA,NA,NA
India,Chhattisgarh,Tumidih,"OP Jindal Industrial Park, Tumidih - CECB",25-06-2024 11:00:00,22.06631475,83.33820077,OZONE,26,31,26
India,Delhi,Delhi,"Anand Vihar, Delhi - DPCC",25-06-2024 11:00:00,28.647622,77.3158090,PM2.5,38,283,117
India,Delhi,Delhi,"Anand Vihar, Delhi - DPCC",25-06-2024 11:00:00,28.647622,77.3158090,NO2,42,99,66
India,Delhi,Delhi,"Anand Vihar, Delhi - DPCC",25-06-2024 11:00:00,28.647622,77.3158090,OZONE,69,82,74
India,Delhi,Delhi,"Ashok Vihar, Delhi - DPCC",25-06-2024 11:00:00,28.695381,77.181665,NH3,4,9,7
India,Delhi,Delhi,"Ashok Vihar, Delhi - DPCC",25-06-2024 11:00:00,28.695381,77.181665,CO,30,69,51
India,Delhi,Delhi,"Ashok Vihar, Delhi - DPCC",25-06-2024 11:00:00,28.695381,77.181665,OZONE,9,163,42
India,Delhi,Delhi,"Aya Nagar, Delhi - IMD",25-06-2024 11:00:00,28.4706914,77.1099364,CO,34,48,46
India,Delhi,Delhi,"Bawana, Delhi - DPCC",25-06-2024 11:00:00,28.776200,77.051074,NH3,4,73,17
India,Delhi,Delhi,"Burari Crossing, Delhi - IMD",25-06-2024 11:00:00,28.7256504,77.2011573,PM10,66,190,118
India,Delhi,Delhi,"Burari Crossing, Delhi - IMD",25-06-2024 11:00:00,28.7256504,77.2011573,CO,35,69,53
India,Delhi,Delhi,"CRRI Mathura Road, Delhi - IMD",25-06-2024 11:00:00,28.5512005,77.2735737,OZONE,5,15,6
India,Delhi,Delhi,"DTU, Delhi - CPCB",25-06-2024 11:00:00,28.7500499,77.1112615,NO2,61,71,66
India,Delhi,Delhi,"Dr. Karni Singh Shooting Range, Delhi - DPCC",25-06-2024 11:00:00,28.498571,77.264840,PM2.5,60,253,127
India,Delhi,Delhi,"Dr. Karni Singh Shooting Range, Delhi - DPCC",25-06-2024 11:00:00,28.498571,77.264840,OZONE,7,157,29
India,Delhi,Delhi,"Dwarka-Sector 8, Delhi - DPCC ",25-06-2024 11:00:00,28.5710274,77.0719006,PM10,88,244,130
India,Delhi,Delhi,"Dwarka-Sector 8, Delhi - DPCC ",25-06-2024 11:00:00,28.5710274,77.0719006,NH3,5,50,17
India,Delhi,Delhi,"Dwarka-Sector 8, Delhi - DPCC ",25-06-2024 11:00:00,28.5710274,77.0719006,SO2,9,13,11
India,Delhi,Delhi,"Dwarka-Sector 8, Delhi - DPCC ",25-06-2024 11:00:00,28.5710274,77.0719006,CO,32,76,44
India,Delhi,Delhi,"IGI Airport (T3), Delhi - IMD",25-06-2024 11:00:00,28.5627763,77.1180053,OZONE,2,34,8
India,Delhi,Delhi,"IHBAS, Dilshad Garden, Delhi - CPCB",25-06-2024 11:00:00,28.6811736,77.3025234,PM2.5,55,91,66
India,Delhi,Delhi,"IHBAS, Dilshad Garden, Delhi - CPCB",25-06-2024 11:00:00,28.6811736,77.3025234,NO2,29,68,46
India,Delhi,Delhi,"IHBAS, Dilshad Garden, Delhi - CPCB",25-06-2024 11:00:00,28.6811736,77.3025234,SO2,15,29,22
India,Delhi,Delhi,"ITO, Delhi - CPCB",25-06-2024 11:00:00,28.628624,77.241060,PM10,9,92,69
India,Delhi,Delhi,"ITO, Delhi - CPCB",25-06-2024 11:00:00,28.628624,77.241060,NO2,6,48,17
India,Delhi,Delhi,"ITO, Delhi - CPCB",25-06-2024 11:00:00,28.628624,77.241060,NH3,4,5,4
India,Delhi,Delhi,"Jahangirpuri, Delhi - DPCC",25-06-2024 11:00:00,28.732820,77.170633,PM10,105,469,216
India,Delhi,Delhi,"Jahangirpuri, Delhi - DPCC",25-06-2024 11:00:00,28.732820,77.170633,NO2,14,65,36
India,Delhi,Delhi,"Jahangirpuri, Delhi - DPCC",25-06-2024 11:00:00,28.732820,77.170633,CO,52,102,82
India,Delhi,Delhi,"Jawaharlal Nehru Stadium, Delhi - DPCC",25-06-2024 11:00:00,28.580280,77.233829,NO2,27,86,51
India,Delhi,Delhi,"Lodhi Road, Delhi - IMD",25-06-2024 11:00:00,28.5918245,77.2273074,PM10,56,160,88
India,Delhi,Delhi,"Lodhi Road, Delhi - IMD",25-06-2024 11:00:00,28.5918245,77.2273074,NO2,1,5,1
India,Delhi,Delhi,"Major Dhyan Chand National Stadium, Delhi - DPCC",25-06-2024 11:00:00,28.611281,77.237738,OZONE,1,45,6
India,Delhi,Delhi,"Mandir Marg, Delhi - DPCC",25-06-2024 11:00:00,28.636429,77.201067,PM2.5,35,137,74
India,Delhi,Delhi,"Mundka, Delhi - DPCC",25-06-2024 11:00:00,28.684678,77.076574,PM2.5,48,240,87
India,Delhi,Delhi,"NSIT Dwarka, Delhi - CPCB",25-06-2024 11:00:00,28.60909,77.0325413,PM2.5,8,291,67
India,Delhi,Delhi,"NSIT Dwarka, Delhi - CPCB",25-06-2024 11:00:00,28.60909,77.0325413,NO2,16,51,29
India,Delhi,Delhi,"NSIT Dwarka, Delhi - CPCB",25-06-2024 11:00:00,28.60909,77.0325413,CO,38,75,50
India,Delhi,Delhi,"Najafgarh, Delhi - DPCC",25-06-2024 11:00:00,28.570173,76.933762,NO2,11,38,21
India,Delhi,Delhi,"Narela, Delhi - DPCC",25-06-2024 11:00:00,28.822836,77.101981,PM2.5,60,211,104
India,Delhi,Delhi,"Nehru Nagar, Delhi - DPCC",25-06-2024 11:00:00,28.567890,77.250515,CO,55,100,65
India,Delhi,Delhi,"Okhla Phase-2, Delhi - DPCC",25-06-2024 11:00:00,28.530785,77.271255,PM10,84,197,114
India,Delhi,Delhi,"Okhla Phase-2, Delhi - DPCC",25-06-2024 11:00:00,28.530785,77.271255,NO2,19,92,47
India,Delhi,Delhi,"Patparganj, Delhi - DPCC",25-06-2024 11:00:00,28.623763,77.287209,PM10,64,355,129
India,Delhi,Delhi,"Punjabi Bagh, Delhi - DPCC",25-06-2024 11:00:00,28.674045,77.131023,PM2.5,NA,NA,NA
India,Delhi,Delhi,"Punjabi Bagh, Delhi - DPCC",25-06-2024 11:00:00,28.674045,77.131023,NH3,NA,NA,NA
India,Delhi,Delhi,"Pusa, Delhi - DPCC",25-06-2024 11:00:00,28.639652,77.146275,NO2,36,99,60
India,Delhi,Delhi,"R K Puram, Delhi - DPCC",25-06-2024 11:00:00,28.563262,77.186937,OZONE,33,71,44
India,Delhi,Delhi,"Sirifort, Delhi - CPCB",25-06-2024 11:00:00,28.5504249,77.2159377,PM2.5,46,153,88
India,Delhi,Delhi,"Sirifort, Delhi - CPCB",25-06-2024 11:00:00,28.5504249,77.2159377,SO2,44,52,46
India,Delhi,Delhi,"Sonia Vihar, Delhi - DPCC",25-06-2024 11:00:00,28.710508,77.249485,PM2.5,57,361,154
India,Delhi,Delhi,"Sonia Vihar, Delhi - DPCC",25-06-2024 11:00:00,28.710508,77.249485,CO,2,48,27
India,Delhi,Delhi,"Vivek Vihar, Delhi - DPCC",25-06-2024 11:00:00,28.672342,77.315260,SO2,11,26,16
India,Delhi,Delhi,"Wazirpur, Delhi - DPCC",25-06-2024 11:00:00,28.699793,77.165453,OZONE,2,19,5
India,Gujarat,Ahmedabad,"Gyaspur, Ahmedabad - IITM",25-06-2024 11:00:00,22.977134,72.553024,PM2.5,NA,NA,NA
India,Gujarat,Ahmedabad,"Gyaspur, Ahmedabad - IITM",25-06-2024 11:00:00,22.977134,72.553024,CO,NA,NA,NA
India,Gujarat,Ahmedabad,"Gyaspur, Ahmedabad - IITM",25-06-2024 11:00:00,22.977134,72.553024,OZONE,NA,NA,NA
India,Gujarat,Ahmedabad,"Maninagar, Ahmedabad - GPCB",25-06-2024 11:00:00,23.002657,72.591912,NO2,18,39,28
India,Gujarat,Ahmedabad,"Raikhad, Ahmedabad - IITM",25-06-2024 11:00:00,23.020509,72.579261,PM10,13,60,28
India,Gujarat,Ahmedabad,"Rakhial, Ahmedabad - IITM",25-06-2024 11:00:00,23.016834,72.625775,PM10,4,46,24
India,Gujarat,Ahmedabad,"Rakhial, Ahmedabad - IITM",25-06-2024 11:00:00,23.016834,72.625775,SO2,17,28,24
India,Gujarat,Ahmedabad,"SVPI Airport Hansol, Ahmedabad - IITM",25-06-2024 11:00:00,23.076793,72.627874,CO,NA,NA,NA
India,Gujarat,Ahmedabad,"Sardar Vallabhbhai Patel Stadium, Ahmedabad - IITM",25-06-2024 11:00:00,23.043070,72.562968,SO2,14,17,16
India,Gujarat,Ankleshwar,"GIDC, Ankleshwar - GPCB",25-06-2024 11:00:00,21.613267,73.010555,PM2.5,39,91,64
India,Gujarat,Gandhinagar,"GIFT City, Gandhinagar - IITM",25-06-2024 11:00:00,23.163798,72.677768,PM2.5,22,131,64
India,Gujarat,Gandhinagar,"GIFT City, Gandhinagar - IITM",25-06-2024 11:00:00,23.163798,72.677768,PM10,31,146,85
India,Gujarat,Gandhinagar,"Sector-10, Gandhinagar - GPCB",25-06-2024 11:00:00,23.221714,72.654328,PM10,NA,NA,NA
India,Gujarat,Nandesari,"GIDC, Nandesari - Nandesari Ind. Association",25-06-2024 11:00:00,22.410802,73.097923,PM2.5,62,342,173
India,Gujarat,Nandesari,"GIDC, Nandesari - Nandesari Ind. Association",25-06-2024 11:00:00,22.410802,73.097923,PM10,77,272,140
India,Gujarat,Surat,"Science Center, Surat - SMC",25-06-2024 11:00:00,21.170046,72.795405,NO2,24,39,30
India,Gujarat,Surat,"Science Center, Surat - SMC",25-06-2024 11:00:00,21.170046,72.795405,SO2,11,14,12
India,Gujarat,Vapi,"Phase-1 GIDC, Vapi - GPCB",25-06-2024 11:00:00,20.362421,72.918013,OZONE,3,5,4
India,Haryana,Ambala,"Patti Mehar, Ambala - HSPCB",25-06-2024 11:00:00,30.379589,76.778328,PM10,30,58,41
India,Haryana,Ambala,"Patti Mehar, Ambala - HSPCB",25-06-2024 11:00:00,30.379589,76.778328,NH3,5,12,9
India,Haryana,Ambala,"Patti Mehar, Ambala - HSPCB",25-06-2024 11:00:00,30.379589,76.778328,OZONE,32,58,36
India,Haryana,Bahadurgarh,"Arya Nagar, Bahadurgarh - HSPCB",25-06-2024 11:00:00,28.6701,76.9254,PM2.5,54,130,83
India,Haryana,Bahadurgarh,"Arya Nagar, Bahadurgarh - HSPCB",25-06-2024 11:00:00,28.6701,76.9254,CO,86,102,97
India,Haryana,Ballabgarh,"Nathu Colony, Ballabgarh - HSPCB",25-06-2024 11:00:00,28.3419248,77.319699,CO,10,46,27
India,Haryana,Bhiwani,"H.B. Colony, Bhiwani - HSPCB",25-06-2024 11:00:00,28.806223,76.141105,SO2,2,20,10
India,Haryana,Charkhi Dadri,"Mini Secretariat, Charkhi Dadri - HSPCB",25-06-2024 11:00:00,28.593883,76.270653,NH3,6,8,7
India,Haryana,Dharuhera,"Municipal Corporation Office, Dharuhera -  HSPCB",25-06-2024 11:00:00,28.206800,76.799700,NH3,NA,NA,NA
India,Haryana,Faridabad,"New Industrial Town, Faridabad - HSPCB",25-06-2024 11:00:00,28.39072,77.30059,CO,6,36,17
India,Haryana,Faridabad,"New Industrial Town, Faridabad - HSPCB",25-06-2024 11:00:00,28.39072,77.30059,OZONE,48,53,51
India,Haryana,Faridabad,"Sector 11, Faridabad - HSPCB",25-06-2024 11:00:00,28.376058,77.315741,PM2.5,78,266,149
India,Haryana,Faridabad,"Sector 11, Faridabad - HSPCB",25-06-2024 11:00:00,28.376058,77.315741,PM10,81,194,114
India,Haryana,Faridabad,"Sector 11, Faridabad - HSPCB",25-06-2024 11:00:00,28.376058,77.315741,OZONE,7,29,13
India,Haryana,Faridabad,"Sector 30, Faridabad - HSPCB",25-06-2024 11:00:00,28.4417,77.3217,PM10,148,168,154
India,Haryana,Faridabad,"Sector 30, Faridabad - HSPCB",25-06-2024 11:00:00,28.4417,77.3217,OZONE,19,22,20
India,Haryana,Faridabad,"Sector- 16A, Faridabad - HSPCB",25-06-2024 11:00:00,28.4088421,77.3099081,PM2.5,22,256,102
India,Haryana,Fatehabad,"Huda Sector, Fatehabad - HSPCB",25-06-2024 11:00:00,29.503664,75.467934,PM10,62,348,100
India,Haryana,Gurugram,"NISE Gwal Pahari, Gurugram - IMD",25-06-2024 11:00:00,28.422681,77.148944,PM10,26,146,72
India,Haryana,Gurugram,"Sector-51, Gurugram - HSPCB",25-06-2024 11:00:00,28.4227,77.0667,NH3,6,14,9
India,Haryana,Gurugram,"Teri Gram, Gurugram - HSPCB",25-06-2024 11:00:00,28.4275,77.1465,NH3,19,44,26
India,Haryana,Gurugram,"Vikas Sadan, Gurugram - HSPCB",25-06-2024 11:00:00,28.4501238,77.0263051,SO2,6,47,25
India,Haryana,Hisar,"Urban Estate-II, Hisar - HSPCB",25-06-2024 11:00:00,29.140560,75.744941,NO2,8,10,10
India,Haryana,Hisar,"Urban Estate-II, Hisar - HSPCB",25-06-2024 11:00:00,29.140560,75.744941,OZONE,31,127,42
India,Haryana,Jind,"Police Lines, Jind - HSPCB",25-06-2024 11:00:00,29.307814,76.337619,PM2.5,44,68,56
India,Haryana,Jind,"Police Lines, Jind - HSPCB",25-06-2024 11:00:00,29.307814,76.337619,PM10,36,238,103
India,Haryana,Jind,"Police Lines, Jind - HSPCB",25-06-2024 11:00:00,29.307814,76.337619,NO2,5,19,11
India,Haryana,Kaithal,"Rishi Nagar, Kaithal - HSPCB",25-06-2024 11:00:00,29.8006,76.4155,PM2.5,56,134,74
India,Haryana,Kaithal,"Rishi Nagar, Kaithal - HSPCB",25-06-2024 11:00:00,29.8006,76.4155,NO2,24,26,25
India,Haryana,Kaithal,"Rishi Nagar, Kaithal - HSPCB",25-06-2024 11:00:00,29.8006,76.4155,CO,2,51,39
India,Haryana,Karnal,"Sector-12, Karnal - HSPCB",25-06-2024 11:00:00,29.695300,77.002700,NO2,7,12,10
India,Haryana,Mandikhera,"General Hospital, Mandikhera - HSPCB",25-06-2024 11:00:00,27.9002,76.9938,PM2.5,NA,NA,NA
India,Haryana,Mandikhera,"General Hospital, Mandikhera - HSPCB",25-06-2024 11:00:00,27.9002,76.9938,CO,17,38,35
India,Haryana,Narnaul,"Shastri Nagar, Narnaul - HSPCB",25-06-2024 11:00:00,28.060249,76.113115,NH3,3,17,10
India,Haryana,Narnaul,"Shastri Nagar, Narnaul - HSPCB",25-06-2024 11:00:00,28.060249,76.113115,SO2,47,70,48
India,Haryana,Narnaul,"Shastri Nagar, Narnaul - HSPCB",25-06-2024 11:00:00,28.060249,76.113115,CO,16,50,21
India,Haryana,Narnaul,"Shastri Nagar, Narnaul - HSPCB",25-06-2024 11:00:00,28.060249,76.113115,OZONE,15,66,44
India,Haryana,Palwal,"Shyam Nagar, Palwal - HSPCB",25-06-2024 11:00:00,28.1485564,77.3320667,SO2,2,19,10
India,Haryana,Palwal,"Shyam Nagar, Palwal - HSPCB",25-06-2024 11:00:00,28.1485564,77.3320667,OZONE,3,31,8
India,Haryana,Panchkula,"Sector-6, Panchkula - HSPCB ",25-06-2024 11:00:00,30.7057778,76.8531805555555,PM2.5,68,226,119
India,Haryana,Rohtak,"MD University, Rohtak - HSPCB",25-06-2024 11:00:00,28.52123,76.37138,PM2.5,62,500,274
India,Haryana,Rohtak,"MD University, Rohtak - HSPCB",25-06-2024 11:00:00,28.52123,76.37138,SO2,5,8,7
India,Haryana,Rohtak,"MD University, Rohtak - HSPCB",25-06-2024 11:00:00,28.52123,76.37138,CO,10,54,39
India,Haryana,Sirsa,"F-Block, Sirsa - HSPCB",25-06-2024 11:00:00,29.536400,75.015800,PM10,87,92,90
India,Haryana,Sirsa,"F-Block, Sirsa - HSPCB",25-06-2024 11:00:00,29.536400,75.015800,CO,75,100,85
India,Himachal Pradesh,Baddi,"HIMUDA Complex Phase-1, Baddi - HPPCB",25-06-2024 11:00:00,30.943887,76.801991,PM10,73,213,133
India,Himachal Pradesh,Baddi,"HIMUDA Complex Phase-1, Baddi - HPPCB",25-06-2024 11:00:00,30.943887,76.801991,NH3,5,9,7
India,Jammu_and_Kashmir,Srinagar,"Rajbagh, Srinagar - JKSPCB",25-06-2024 11:00:00,34.066206,74.819820,NO2,NA,NA,NA
India,Jharkhand,Dhanbad,"Kalakusuma, Dhanbad - DMC",25-06-2024 11:00:00,23.811548,86.481238,NO2,137,368,190
India,Jharkhand,Dhanbad,"Sardar Patel Nagar, Dhanbad - JSPCB",25-06-2024 11:00:00,23.80569,86.44268,OZONE,15,63,16
India,Jharkhand,Pathardih,"Mohalbani Ghat, Pathardih - DMC",25-06-2024 11:00:00,23.669880,86.411725,SO2,10,101,20
India,Karnataka,Bagalkot,"Vidayagiri, Bagalkot - KSPCB",25-06-2024 11:00:00,16.172806,75.659694,NO2,9,10,9
India,Karnataka,Bagalkot,"Vidayagiri, Bagalkot - KSPCB",25-06-2024 11:00:00,16.172806,75.659694,OZONE,NA,NA,NA
India,Karnataka,Belgaum,"Ramteerth Nagar, Belgaum - KSPCB",25-06-2024 11:00:00,15.888653,74.541751,PM10,14,50,23
India,Karnataka,Belgaum,"Ramteerth Nagar, Belgaum - KSPCB",25-06-2024 11:00:00,15.888653,74.541751,NH3,5,11,8
India,Karnataka,Bengaluru,"Bapuji Nagar, Bengaluru - KSPCB",25-06-2024 11:00:00,12.951913,77.539784,PM2.5,20,123,36
India,Karnataka,Bengaluru,"Bapuji Nagar, Bengaluru - KSPCB",25-06-2024 11:00:00,12.951913,77.539784,OZONE,29,53,34
India,Karnataka,Bengaluru,"City Railway Station, Bengaluru - KSPCB",25-06-2024 11:00:00,12.9756843,77.5660749,NO2,25,29,27
India,Karnataka,Bengaluru,"City Railway Station, Bengaluru - KSPCB",25-06-2024 11:00:00,12.9756843,77.5660749,CO,51,100,67
India,Karnataka,Bengaluru,"Hebbal, Bengaluru - KSPCB",25-06-2024 11:00:00,13.029152,77.585901,NH3,1,1,1
India,Karnataka,Bengaluru,"Jayanagar 5th Block, Bengaluru - KSPCB",25-06-2024 11:00:00,12.920984,77.584908,NH3,1,2,2
India,Karnataka,Bengaluru,"Jigani, Bengaluru - KSPCB",25-06-2024 11:00:00,12.7816279,77.6299145,PM10,NA,NA,NA
India,Karnataka,Bengaluru,"Kasturi Nagar, Bengaluru - KSPCB",25-06-2024 11:00:00,13.003872,77.664217,PM2.5,32,42,36
India,Karnataka,Bengaluru,"Kasturi Nagar, Bengaluru - KSPCB",25-06-2024 11:00:00,13.003872,77.664217,PM10,41,53,46
India,Karnataka,Bengaluru,"Sanegurava Halli, Bengaluru - KSPCB",25-06-2024 11:00:00,12.990328,77.5431385,NO2,20,26,22
India,Karnataka,Bengaluru,"Shivapura_Peenya, Bengaluru - KSPCB",25-06-2024 11:00:00,13.0246342,77.5080115,NH3,4,4,4
India,Karnataka,Bengaluru,"Shivapura_Peenya, Bengaluru - KSPCB",25-06-2024 11:00:00,13.0246342,77.5080115,SO2,2,8,4
India,Karnataka,Bengaluru,"Shivapura_Peenya, Bengaluru - KSPCB",25-06-2024 11:00:00,13.0246342,77.5080115,OZONE,53,55,54
India,Karnataka,Chikkaballapur,"Chikkaballapur Rural, Chikkaballapur - KSPCB",25-06-2024 11:00:00,13.428828,77.731418,PM2.5,10,30,18
India,Karnataka,Chikkaballapur,"Chikkaballapur Rural, Chikkaballapur - KSPCB",25-06-2024 11:00:00,13.428828,77.731418,NO2,5,8,6
India,Karnataka,Chikkaballapur,"Chikkaballapur Rural, Chikkaballapur - KSPCB",25-06-2024 11:00:00,13.428828,77.731418,CO,12,25,14
India,Karnataka,Chikkamagaluru,"Kalyana Nagara, Chikkamagaluru - KSPCB",25-06-2024 11:00:00,13.328028,75.797056,PM2.5,14,32,23
India,Karnataka,Chikkamagaluru,"Kalyana Nagara, Chikkamagaluru - KSPCB",25-06-2024 11:00:00,13.328028,75.797056,NH3,2,4,3
India,Karnataka,Chikkamagaluru,"Kalyana Nagara, Chikkamagaluru - KSPCB",25-06-2024 11:00:00,13.328028,75.797056,SO2,1,6,3
India,Karnataka,Davanagere,"Devaraj Urs Badavane, Davanagere - KSPCB",25-06-2024 11:00:00,14.475800,75.905200,PM2.5,NA,NA,NA
India,Karnataka,Davanagere,"Devaraj Urs Badavane, Davanagere - KSPCB",25-06-2024 11:00:00,14.475800,75.905200,CO,NA,NA,NA
India,Karnataka,Dharwad,"Kalabhavan, Dharwad - KSPCB",25-06-2024 11:00:00,15.459706,75.008381,PM2.5,18,65,43
India,Karnataka,Dharwad,"Kalabhavan, Dharwad - KSPCB",25-06-2024 11:00:00,15.459706,75.008381,NH3,2,3,2
India,Karnataka,Hassan,"B.Katihalli, Hassan - KSPCB",25-06-2024 11:00:00,13.008556,76.125258,NO2,8,36,19
India,Karnataka,Hassan,"B.Katihalli, Hassan - KSPCB",25-06-2024 11:00:00,13.008556,76.125258,NH3,1,3,2
India,Karnataka,Haveri,"Ashwini Nagar, Haveri - KSPCB",25-06-2024 11:00:00,14.791800,75.389600,NO2,20,209,41
India,Karnataka,Hubballi,"Lingaraj Nagar, Hubballi - KSPCB",25-06-2024 11:00:00,15.3714823,75.1160168,NO2,9,19,14
India,Karnataka,Hubballi,"Lingaraj Nagar, Hubballi - KSPCB",25-06-2024 11:00:00,15.3714823,75.1160168,OZONE,20,30,26
India,Karnataka,Kalaburagi,"Mahatma Basaveswar Colony, Kalaburgi - KSPCB",25-06-2024 11:00:00,17.336318,76.847397,PM10,13,34,21
India,Karnataka,Karwar,"KHB Colony, Karwar - KSPCB",25-06-2024 11:00:00,14.816666,74.141003,PM2.5,14,53,26
India,Karnataka,Karwar,"KHB Colony, Karwar - KSPCB",25-06-2024 11:00:00,14.816666,74.141003,SO2,20,21,21
India,Karnataka,Kolar,"Tamaka Ind. Area, Kolar - KSPCB",25-06-2024 11:00:00,13.1276288,78.1570122,NH3,5,9,7
India,Karnataka,Koppal,"Diwator Nagar, Koppal - KSPCB",25-06-2024 11:00:00,15.347630,76.181767,PM10,NA,NA,NA
India,Karnataka,Madikeri,"Stuart Hill, Madikeri - KSPCB",25-06-2024 11:00:00,12.415911,75.735050,PM2.5,17,35,24
India,Karnataka,Mysuru,"Hebbal 1st Stage, Mysuru - KSPCB",25-06-2024 11:00:00,12.21041,76.37376,NH3,1,3,2
India,Karnataka,Mysuru,"Hebbal 1st Stage, Mysuru - KSPCB",25-06-2024 11:00:00,12.21041,76.37376,OZONE,13,54,14
India,Karnataka,Raichur,"Haji Colony, Raichur - KSPCB",25-06-2024 11:00:00,16.208139,77.348417,PM2.5,2,12,8
India,Karnataka,Raichur,"Haji Colony, Raichur - KSPCB",25-06-2024 11:00:00,16.208139,77.348417,PM10,23,73,42
India,Karnataka,Raichur,"Haji Colony, Raichur - KSPCB",25-06-2024 11:00:00,16.208139,77.348417,SO2,62,104,71
India,Karnataka,Ramanagara,"Vijay Nagar, Ramanagara - KSPCB",25-06-2024 11:00:00,12.733409,77.298051,NO2,5,20,9
India,Karnataka,Shivamogga,"Vinoba Nagara, Shivamogga - KSPCB",25-06-2024 11:00:00,13.940000,75.555917,NO2,7,38,18
India,Karnataka,Tumakuru,"Thimmalapura, Tumakuru - KSPCB",25-06-2024 11:00:00,13.377516,77.099072,OZONE,11,22,13
India,Karnataka,Udupi,"Brahmagiri, Udupi - KSPCB",25-06-2024 11:00:00,13.34194444,74.74694444,PM10,NA,NA,NA
India,Karnataka,Udupi,"Brahmagiri, Udupi - KSPCB",25-06-2024 11:00:00,13.34194444,74.74694444,NH3,NA,NA,NA
India,Karnataka,Yadgir,"Collector Office, Yadgir - KSPCB",25-06-2024 11:00:00,16.7602,77.1428,NH3,1,1,1
India,Karnataka,Yadgir,"Collector Office, Yadgir - KSPCB",25-06-2024 11:00:00,16.7602,77.1428,CO,10,19,14
India,Kerala,Kannur,"Thavakkara, Kannur - Kerala PCB",25-06-2024 11:00:00,11.875000,75.373200,SO2,NA,NA,NA
India,Kerala,Kollam,"Polayathode, Kollam - Kerala PCB",25-06-2024 11:00:00,8.8787,76.6073,PM10,34,60,47
