country,state,city,station,last_update,latitude,longitude,pollutant_id,pollutant_min,pollutant_max,pollutant_avg
India,Andhra_Pradesh,Amaravati,"Secretariat, Amaravati - APPCB",03-02-2024 19:00:00,16.5150833,80.5181667,CO,8,84,23
India,Andhra_Pradesh,Amaravati,"Secretariat, Amaravati - APPCB",03-02-2024 19:00:00,16.5150833,80.5181667,OZONE,4,46,34
India,Andhra_Pradesh,Anantapur,"Gulzarpet, Anantapur - APPCB",03-02-2024 19:00:00,14.675886,77.593027,OZONE,2,50,42
India,Andhra_Pradesh,Chittoor,"Gangineni Cheruvu, Chittoor - APPCB",03-02-2024 19:00:00,13.204880,79.097889,PM2.5,NA,NA,NA
India,Andhra_Pradesh,Chittoor,"Gangineni Cheruvu, Chittoor - APPCB",03-02-2024 19:00:00,13.204880,79.097889,NO2,NA,NA,NA
India,Andhra_Pradesh,Rajamahendravaram,"Anand Kala Kshetram, Rajamahendravaram - APPCB",03-02-2024 19:00:00,16.9872867,81.7363176,SO2,16,25,20
India,Andhra_Pradesh,Tirupati,"Tirumala, Tirupati - APPCB",03-02-2024 19:00:00,13.67,79.35,NH3,1,2,1
India,Andhra_Pradesh,Tirupati,"Tirumala, Tirupati - APPCB",03-02-2024 19:00:00,13.67,79.35,SO2,2,14,6
India,Andhra_Pradesh,Tirupati,"Vaikuntapuram, Tirupati - APPCB",03-02-2024 19:00:00,13.615387,79.409230,PM10,17,37,23
India,Andhra_Pradesh,Vijayawada,"HB Colony, Vijayawada - APPCB",03-02-2024 19:00:00,16.536107,80.594233,PM2.5,29,59,38
India,Andhra_Pradesh,Vijayawada,"HB Colony, Vijayawada - APPCB",03-02-2024 19:00:00,16.536107,80.594233,PM10,33,68,44
India,Andhra_Pradesh,Vijayawada,"HB Colony, Vijayawada - APPCB",03-02-2024 19:00:00,16.536107,80.594233,OZONE,1,60,38
India,Andhra_Pradesh,Vijayawada,"Kanuru, Vijayawada - APPCB",03-02-2024 19:00:00,16.486692,80.699436,SO2,5,10,7
India,Andhra_Pradesh,Vijayawada,"Rajiv Gandhi Park, Vijayawada - APPCB",03-02-2024 19:00:00,16.509717,80.612222,SO2,5,8,6
India,Andhra_Pradesh,Vijayawada,"Rajiv Nagar, Vijayawada - APPCB",03-02-2024 19:00:00,16.554731,80.649110,PM2.5,41,117,70
India,Andhra_Pradesh,Vijayawada,"Rajiv Nagar, Vijayawada - APPCB",03-02-2024 19:00:00,16.554731,80.649110,CO,18,48,22
India,Andhra_Pradesh,Visakhapatnam,"GVM Corporation, Visakhapatnam - APPCB",03-02-2024 19:00:00,17.72,83.3,NO2,13,56,39
India,Assam,Byrnihat,"Central Academy for SFS, Byrnihat - PCBA",03-02-2024 19:00:00,26.071318,91.87488,PM2.5,127,500,378
India,Assam,Guwahati,"IITG, Guwahati - PCBA",03-02-2024 19:00:00,26.2028636,91.70046436,SO2,11,13,12
India,Assam,Guwahati,"LGBI Airport, Guwahati - PCBA",03-02-2024 19:00:00,26.10887,91.589544,CO,10,124,38
India,Assam,Guwahati,"LGBI Airport, Guwahati - PCBA",03-02-2024 19:00:00,26.10887,91.589544,OZONE,1,75,63
India,Assam,Guwahati,"Pan Bazaar, Guwahati - PCBA",03-02-2024 19:00:00,26.187500,91.744194,PM10,52,173,113
India,Assam,Guwahati,"Pan Bazaar, Guwahati - PCBA",03-02-2024 19:00:00,26.187500,91.744194,OZONE,17,18,17
India,Assam,Nagaon,"Christianpatty, Nagaon - PCBA",03-02-2024 19:00:00,26.349082,92.68449,PM2.5,NA,NA,NA
India,Assam,Nagaon,"Christianpatty, Nagaon - PCBA",03-02-2024 19:00:00,26.349082,92.68449,SO2,NA,NA,NA
India,Assam,Nagaon,"Christianpatty, Nagaon - PCBA",03-02-2024 19:00:00,26.349082,92.68449,OZONE,10,91,62
India,Assam,Sivasagar,"Girls College, Sivasagar - PCBA",03-02-2024 19:00:00,26.987634,94.636574,PM2.5,14,24,19
India,Assam,Sivasagar,"Girls College, Sivasagar - PCBA",03-02-2024 19:00:00,26.987634,94.636574,SO2,5,5,5
India,Bihar,Aurangabad,"Gurdeo Nagar, Aurangabad - BSPCB",03-02-2024 19:00:00,24.75746,84.366208,PM2.5,103,300,174
India,Bihar,Aurangabad,"Gurdeo Nagar, Aurangabad - BSPCB",03-02-2024 19:00:00,24.75746,84.366208,PM10,101,167,125
India,Bihar,Aurangabad,"Gurdeo Nagar, Aurangabad - BSPCB",03-02-2024 19:00:00,24.75746,84.366208,SO2,4,14,10
India,Bihar,Aurangabad,"Gurdeo Nagar, Aurangabad - BSPCB",03-02-2024 19:00:00,24.75746,84.366208,CO,2,112,31
India,Bihar,Bhagalpur,"Mayaganj, Bhagalpur - BSPCB",03-02-2024 19:00:00,25.265194,87.012947,PM10,57,148,104
India,Bihar,Bhagalpur,"Mayaganj, Bhagalpur - BSPCB",03-02-2024 19:00:00,25.265194,87.012947,CO,8,10,8
India,Bihar,Bihar Sharif,"D M Colony, Bihar Sharif - BSPCB",03-02-2024 19:00:00,25.204762,85.514960,PM2.5,92,316,200
India,Bihar,Buxar,"Charitra Van, Buxar - BSPCB (Formerly known as Central Jail)",03-02-2024 19:00:00,25.567520,83.966379,PM10,165,419,304
India,Bihar,Buxar,"Charitra Van, Buxar - BSPCB (Formerly known as Central Jail)",03-02-2024 19:00:00,25.567520,83.966379,NO2,13,18,15
India,Bihar,Buxar,"Charitra Van, Buxar - BSPCB (Formerly known as Central Jail)",03-02-2024 19:00:00,25.567520,83.966379,SO2,6,13,9
India,Bihar,Buxar,"Charitra Van, Buxar - BSPCB (Formerly known as Central Jail)",03-02-2024 19:00:00,25.567520,83.966379,OZONE,38,145,111
India,Bihar,Chhapra,"Darshan Nagar, Chhapra - BSPCB",03-02-2024 19:00:00,25.7808257,84.7446768,NO2,16,30,23
India,Bihar,Chhapra,"Darshan Nagar, Chhapra - BSPCB",03-02-2024 19:00:00,25.7808257,84.7446768,NH3,9,17,13
India,Bihar,Gaya,"Collectorate, Gaya - BSPCB",03-02-2024 19:00:00,24.7955,84.9994,OZONE,50,79,64
India,Bihar,Gaya,"SFTI Kusdihra, Gaya - BSPCB",03-02-2024 19:00:00,24.762518,84.982348,PM2.5,13,120,86
India,Bihar,Katihar,"Mirchaibari, Katihar - BSPCB",03-02-2024 19:00:00,25.560083,87.553265,PM2.5,45,207,95
India,Bihar,Katihar,"Mirchaibari, Katihar - BSPCB",03-02-2024 19:00:00,25.560083,87.553265,PM10,76,191,130
India,Bihar,Manguraha,"Forest Rest House, Manguraha - BSPCB",03-02-2024 19:00:00,27.308328,84.531742,SO2,1,9,6
India,Bihar,Motihari,"Gandak Colony, Motihari - BSPCB",03-02-2024 19:00:00,26.63086,84.90051,SO2,1,7,4
India,Bihar,Munger,"Town Hall, Munger - BSPCB",03-02-2024 19:00:00,25.376776,86.471523,NO2,8,9,9
India,Bihar,Munger,"Town Hall, Munger - BSPCB",03-02-2024 19:00:00,25.376776,86.471523,NH3,1,2,2
India,Bihar,Munger,"Town Hall, Munger - BSPCB",03-02-2024 19:00:00,25.376776,86.471523,SO2,14,40,32
India,Bihar,Munger,"Town Hall, Munger - BSPCB",03-02-2024 19:00:00,25.376776,86.471523,CO,25,176,143
India,Bihar,Muzaffarpur,"Buddha Colony, Muzaffarpur - BSPCB",03-02-2024 19:00:00,26.11442,85.39813,SO2,NA,NA,NA
India,Bihar,Muzaffarpur,"MIT-Daudpur Kothi, Muzaffarpur - BSPCB",03-02-2024 19:00:00,26.1403345,85.3650192,OZONE,10,66,50
India,Bihar,Patna,"DRM Office Danapur, Patna - BSPCB",03-02-2024 19:00:00,25.586562,85.043586,PM10,133,276,169
India,Bihar,Patna,"DRM Office Danapur, Patna - BSPCB",03-02-2024 19:00:00,25.586562,85.043586,CO,20,129,37
India,Bihar,Patna,"Govt. High School Shikarpur, Patna - BSPCB",03-02-2024 19:00:00,25.592539,85.227158,OZONE,7,61,36
India,Bihar,Patna,"Muradpur, Patna - BSPCB",03-02-2024 19:00:00,25.619651,85.147382,SO2,8,18,12
India,Bihar,Patna,"Rajbansi Nagar, Patna - BSPCB",03-02-2024 19:00:00,25.599486,85.113666,PM2.5,121,306,194
India,Bihar,Patna,"Rajbansi Nagar, Patna - BSPCB",03-02-2024 19:00:00,25.599486,85.113666,PM10,139,272,189
India,Bihar,Patna,"Samanpura, Patna - BSPCB",03-02-2024 19:00:00,25.596727,85.085624,PM10,168,500,253
India,Bihar,Patna,"Samanpura, Patna - BSPCB",03-02-2024 19:00:00,25.596727,85.085624,NO2,30,91,44
India,Bihar,Patna,"Samanpura, Patna - BSPCB",03-02-2024 19:00:00,25.596727,85.085624,SO2,16,17,16
India,Bihar,Patna,"Samanpura, Patna - BSPCB",03-02-2024 19:00:00,25.596727,85.085624,CO,42,147,55
India,Bihar,Patna,"Samanpura, Patna - BSPCB",03-02-2024 19:00:00,25.596727,85.085624,OZONE,8,42,19
India,Bihar,Purnia,"Mariam Nagar, Purnia - BSPCB",03-02-2024 19:00:00,25.366336,87.117468,NH3,1,1,1
India,Bihar,Rajgir,"Dangi Tola, Rajgir - BSPCB",03-02-2024 19:00:00,25.03280,85.41948,NH3,NA,NA,NA
India,Bihar,Saharsa,"Police Line, Saharsa - BSPCB",03-02-2024 19:00:00,25.892357,86.590325,PM2.5,67,260,168
India,Bihar,Saharsa,"Police Line, Saharsa - BSPCB",03-02-2024 19:00:00,25.892357,86.590325,PM10,97,125,109
India,Bihar,Samastipur,"DM Office_Kasipur, Samastipur - BSPCB",03-02-2024 19:00:00,25.859655,85.77944,PM10,72,144,110
India,Bihar,Samastipur,"DM Office_Kasipur, Samastipur - BSPCB",03-02-2024 19:00:00,25.859655,85.77944,NO2,3,7,5
India,Bihar,Samastipur,"DM Office_Kasipur, Samastipur - BSPCB",03-02-2024 19:00:00,25.859655,85.77944,NH3,5,5,5
India,Bihar,Sasaram,"Dada Peer, Sasaram - BSPCB",03-02-2024 19:00:00,24.952822,84.002396,PM2.5,37,202,78
India,Bihar,Siwan,"Chitragupta Nagar, Siwan - BSPCB",03-02-2024 19:00:00,26.2271665,84.3570427,PM2.5,35,163,68
India,Bihar,Siwan,"Chitragupta Nagar, Siwan - BSPCB",03-02-2024 19:00:00,26.2271665,84.3570427,NO2,12,103,28
India,Bihar,Siwan,"Chitragupta Nagar, Siwan - BSPCB",03-02-2024 19:00:00,26.2271665,84.3570427,SO2,23,36,31
India,Chandigarh,Chandigarh,"Sector 22, Chandigarh - CPCC",03-02-2024 19:00:00,30.735567,76.775714,OZONE,3,78,43
India,Chandigarh,Chandigarh,"Sector-25, Chandigarh - CPCC",03-02-2024 19:00:00,30.751462,76.762879,PM10,87,128,103
India,Chhattisgarh,Bhilai,"32Bungalows, Bhilai - CECB",03-02-2024 19:00:00,21.194815,81.314770,PM10,36,78,59
India,Chhattisgarh,Bhilai,"Civic Center, Bhilai - Bhilai Steel Plant",03-02-2024 19:00:00,21.185571,81.343175,NH3,NA,NA,NA
India,Chhattisgarh,Bhilai,"Hathkhoj, Bhilai - CECB",03-02-2024 19:00:00,21.224231,81.408350,NH3,7,8,8
India,Chhattisgarh,Bilaspur,"Mangala, Bilaspur - NTPC",03-02-2024 19:00:00,22.08815,82.13737,NO2,15,17,16
India,Chhattisgarh,Bilaspur,"Mangala, Bilaspur - NTPC",03-02-2024 19:00:00,22.08815,82.13737,SO2,1,41,16
India,Chhattisgarh,Chhal,"Nawapara SECL Colony, Chhal - CECB",03-02-2024 19:00:00,22.118125,83.140608,NO2,12,39,21
India,Chhattisgarh,Kunjemura,"OP Jindal School, Kunjemura - CECB",03-02-2024 19:00:00,22.126650,83.483212,SO2,5,67,19
India,Chhattisgarh,Milupara,"Govt. Higher Secondary School, Milupara - CECB",03-02-2024 19:00:00,22.1910172,83.5197009,PM2.5,25,52,38
India,Chhattisgarh,Raipur,"Krishak Nagar, Raipur - CECB",03-02-2024 19:00:00,21.237755,81.705301,NO2,19,38,30
India,Delhi,Delhi,"Alipur, Delhi - DPCC",03-02-2024 19:00:00,28.815329,77.153010,CO,38,68,47
India,Delhi,Delhi,"Alipur, Delhi - DPCC",03-02-2024 19:00:00,28.815329,77.153010,OZONE,5,80,50
India,Delhi,Delhi,"Ashok Vihar, Delhi - DPCC",03-02-2024 19:00:00,28.695381,77.181665,PM10,100,224,161
India,Delhi,Delhi,"Ashok Vihar, Delhi - DPCC",03-02-2024 19:00:00,28.695381,77.181665,NH3,7,11,8
India,Delhi,Delhi,"Aya Nagar, Delhi - IMD",03-02-2024 19:00:00,28.4706914,77.1099364,PM2.5,NA,NA,NA
India,Delhi,Delhi,"Aya Nagar, Delhi - IMD",03-02-2024 19:00:00,28.4706914,77.1099364,OZONE,NA,NA,NA
India,Delhi,Delhi,"Bawana, Delhi - DPCC",03-02-2024 19:00:00,28.776200,77.051074,NO2,17,59,28
India,Delhi,Delhi,"Burari Crossing, Delhi - IMD",03-02-2024 19:00:00,28.7256504,77.2011573,OZONE,20,45,36
India,Delhi,Delhi,"CRRI Mathura Road, Delhi - IMD",03-02-2024 19:00:00,28.5512005,77.2735737,CO,84,101,88
India,Delhi,Delhi,"DTU, Delhi - CPCB",03-02-2024 19:00:00,28.7500499,77.1112615,NH3,10,18,14
India,Delhi,Delhi,"DTU, Delhi - CPCB",03-02-2024 19:00:00,28.7500499,77.1112615,SO2,26,27,27
India,Delhi,Delhi,"Dwarka-Sector 8, Delhi - DPCC ",03-02-2024 19:00:00,28.5710274,77.0719006,NH3,7,14,10
India,Delhi,Delhi,"IGI Airport (T3), Delhi - IMD",03-02-2024 19:00:00,28.5627763,77.1180053,NO2,41,66,50
India,Delhi,Delhi,"ITO, Delhi - CPCB",03-02-2024 19:00:00,28.628624,77.241060,NH3,3,6,4
India,Delhi,Delhi,"ITO, Delhi - CPCB",03-02-2024 19:00:00,28.628624,77.241060,CO,13,100,55
India,Delhi,Delhi,"Jahangirpuri, Delhi - DPCC",03-02-2024 19:00:00,28.732820,77.170633,OZONE,4,92,47
India,Delhi,Delhi,"Jawaharlal Nehru Stadium, Delhi - DPCC",03-02-2024 19:00:00,28.580280,77.233829,CO,38,84,48
India,Delhi,Delhi,"Lodhi Road, Delhi - IMD",03-02-2024 19:00:00,28.5918245,77.2273074,CO,46,65,50
India,Delhi,Delhi,"Major Dhyan Chand National Stadium, Delhi - DPCC",03-02-2024 19:00:00,28.611281,77.237738,PM2.5,79,327,189
India,Delhi,Delhi,"Major Dhyan Chand National Stadium, Delhi - DPCC",03-02-2024 19:00:00,28.611281,77.237738,CO,24,75,41
India,Delhi,Delhi,"Mundka, Delhi - DPCC",03-02-2024 19:00:00,28.684678,77.076574,NO2,36,117,61
India,Delhi,Delhi,"NSIT Dwarka, Delhi - CPCB",03-02-2024 19:00:00,28.60909,77.0325413,PM10,96,406,157
India,Delhi,Delhi,"NSIT Dwarka, Delhi - CPCB",03-02-2024 19:00:00,28.60909,77.0325413,NH3,7,10,8
India,Delhi,Delhi,"NSIT Dwarka, Delhi - CPCB",03-02-2024 19:00:00,28.60909,77.0325413,OZONE,5,51,30
India,Delhi,Delhi,"Najafgarh, Delhi - DPCC",03-02-2024 19:00:00,28.570173,76.933762,PM2.5,37,233,109
India,Delhi,Delhi,"Najafgarh, Delhi - DPCC",03-02-2024 19:00:00,28.570173,76.933762,CO,22,101,29
India,Delhi,Delhi,"Nehru Nagar, Delhi - DPCC",03-02-2024 19:00:00,28.567890,77.250515,NH3,10,20,14
India,Delhi,Delhi,"Okhla Phase-2, Delhi - DPCC",03-02-2024 19:00:00,28.530785,77.271255,SO2,5,10,7
India,Delhi,Delhi,"Okhla Phase-2, Delhi - DPCC",03-02-2024 19:00:00,28.530785,77.271255,CO,21,105,54
India,Delhi,Delhi,"Patparganj, Delhi - DPCC",03-02-2024 19:00:00,28.623763,77.287209,NO2,32,87,58
India,Delhi,Delhi,"Patparganj, Delhi - DPCC",03-02-2024 19:00:00,28.623763,77.287209,CO,10,82,38
India,Delhi,Delhi,"Punjabi Bagh, Delhi - DPCC",03-02-2024 19:00:00,28.674045,77.131023,NO2,38,66,51
India,Delhi,Delhi,"Punjabi Bagh, Delhi - DPCC",03-02-2024 19:00:00,28.674045,77.131023,SO2,12,20,15
India,Delhi,Delhi,"Punjabi Bagh, Delhi - DPCC",03-02-2024 19:00:00,28.674045,77.131023,CO,14,147,97
India,Delhi,Delhi,"Punjabi Bagh, Delhi - DPCC",03-02-2024 19:00:00,28.674045,77.131023,OZONE,7,14,11
India,Delhi,Delhi,"R K Puram, Delhi - DPCC",03-02-2024 19:00:00,28.563262,77.186937,PM2.5,40,336,210
India,Delhi,Delhi,"R K Puram, Delhi - DPCC",03-02-2024 19:00:00,28.563262,77.186937,SO2,17,50,24
India,Delhi,Delhi,"Rohini, Delhi - DPCC",03-02-2024 19:00:00,28.732528,77.119920,NO2,23,67,50
India,Delhi,Delhi,"Shadipur, Delhi - CPCB",03-02-2024 19:00:00,28.6514781,77.1473105,OZONE,2,36,20
India,Delhi,Delhi,"Sirifort, Delhi - CPCB",03-02-2024 19:00:00,28.5504249,77.2159377,PM10,22,64,43
India,Delhi,Delhi,"Sirifort, Delhi - CPCB",03-02-2024 19:00:00,28.5504249,77.2159377,SO2,32,34,33
India,Delhi,Delhi,"Sonia Vihar, Delhi - DPCC",03-02-2024 19:00:00,28.710508,77.249485,PM10,100,246,168
India,Delhi,Delhi,"Sonia Vihar, Delhi - DPCC",03-02-2024 19:00:00,28.710508,77.249485,NH3,5,9,7
India,Delhi,Delhi,"Sri Aurobindo Marg, Delhi - DPCC",03-02-2024 19:00:00,28.531346,77.190156,NO2,37,65,46
India,Delhi,Delhi,"Sri Aurobindo Marg, Delhi - DPCC",03-02-2024 19:00:00,28.531346,77.190156,CO,14,42,23
India,Delhi,Delhi,"Vivek Vihar, Delhi - DPCC",03-02-2024 19:00:00,28.672342,77.315260,PM2.5,142,340,255
India,Delhi,Delhi,"Wazirpur, Delhi - DPCC",03-02-2024 19:00:00,28.699793,77.165453,NO2,87,221,143
India,Delhi,Delhi,"Wazirpur, Delhi - DPCC",03-02-2024 19:00:00,28.699793,77.165453,OZONE,2,46,21
India,Gujarat,Ahmedabad,"Gyaspur, Ahmedabad - IITM",03-02-2024 19:00:00,22.977134,72.553024,CO,32,98,58
India,Gujarat,Ahmedabad,"Maninagar, Ahmedabad - GPCB",03-02-2024 19:00:00,23.002657,72.591912,OZONE,7,88,79
India,Gujarat,Ahmedabad,"Raikhad, Ahmedabad - IITM",03-02-2024 19:00:00,23.020509,72.579261,CO,30,116,51
India,Gujarat,Ahmedabad,"Rakhial, Ahmedabad - IITM",03-02-2024 19:00:00,23.016834,72.625775,OZONE,1,47,32
India,Gujarat,Ahmedabad,"SAC ISRO Bopal, Ahmedabad - IITM",03-02-2024 19:00:00,23.041137,72.456691,PM2.5,71,402,174
India,Gujarat,Ahmedabad,"SAC ISRO Satellite, Ahmedabad - IITM",03-02-2024 19:00:00,23.023389,72.515201,PM10,92,108,101
India,Gujarat,Ahmedabad,"SVPI Airport Hansol, Ahmedabad - IITM",03-02-2024 19:00:00,23.076793,72.627874,NH3,3,4,3
India,Gujarat,Ahmedabad,"Sardar Vallabhbhai Patel Stadium, Ahmedabad - IITM",03-02-2024 19:00:00,23.043070,72.562968,CO,22,131,41
India,Gujarat,Ankleshwar,"GIDC, Ankleshwar - GPCB",03-02-2024 19:00:00,21.613267,73.010555,PM10,56,112,90
India,Gujarat,Ankleshwar,"GIDC, Ankleshwar - GPCB",03-02-2024 19:00:00,21.613267,73.010555,SO2,16,132,62
India,Gujarat,Gandhinagar,"GIFT City, Gandhinagar - IITM",03-02-2024 19:00:00,23.163798,72.677768,NH3,2,3,2
India,Gujarat,Gandhinagar,"GIFT City, Gandhinagar - IITM",03-02-2024 19:00:00,23.163798,72.677768,SO2,5,8,6
India,Gujarat,Gandhinagar,"GIFT City, Gandhinagar - IITM",03-02-2024 19:00:00,23.163798,72.677768,OZONE,13,16,16
India,Gujarat,Gandhinagar,"IIPHG Lekawada, Gandhinagar - IITM",03-02-2024 19:00:00,23.243639,72.68994,NO2,12,14,13
India,Gujarat,Gandhinagar,"IIPHG Lekawada, Gandhinagar - IITM",03-02-2024 19:00:00,23.243639,72.68994,SO2,14,19,17
India,Gujarat,Gandhinagar,"Sector-10, Gandhinagar - GPCB",03-02-2024 19:00:00,23.221714,72.654328,NH3,1,2,2
India,Gujarat,Gandhinagar,"Sector-10, Gandhinagar - GPCB",03-02-2024 19:00:00,23.221714,72.654328,SO2,8,20,11
India,Gujarat,Surat,"Science Center, Surat - SMC",03-02-2024 19:00:00,21.170046,72.795405,NO2,7,16,12
India,Gujarat,Vapi,"Phase-1 GIDC, Vapi - GPCB",03-02-2024 19:00:00,20.362421,72.918013,OZONE,3,8,8
India,Gujarat,Vatva,"Phase-4 GIDC, Vatva - GPCB",03-02-2024 19:00:00,22.969611,72.643500,NO2,33,387,139
India,Haryana,Ambala,"Patti Mehar, Ambala - HSPCB",03-02-2024 19:00:00,30.379589,76.778328,OZONE,34,46,41
India,Haryana,Bahadurgarh,"Arya Nagar, Bahadurgarh - HSPCB",03-02-2024 19:00:00,28.6701,76.9254,NH3,10,12,12
India,Haryana,Bahadurgarh,"Arya Nagar, Bahadurgarh - HSPCB",03-02-2024 19:00:00,28.6701,76.9254,CO,40,62,52
India,Haryana,Bahadurgarh,"Arya Nagar, Bahadurgarh - HSPCB",03-02-2024 19:00:00,28.6701,76.9254,OZONE,38,51,45
India,Haryana,Ballabgarh,"Nathu Colony, Ballabgarh - HSPCB",03-02-2024 19:00:00,28.3419248,77.319699,OZONE,7,22,18
India,Haryana,Bhiwani,"H.B. Colony, Bhiwani - HSPCB",03-02-2024 19:00:00,28.806223,76.141105,NH3,6,6,6
India,Haryana,Charkhi Dadri,"Mini Secretariat, Charkhi Dadri - HSPCB",03-02-2024 19:00:00,28.593883,76.270653,SO2,6,11,8
India,Haryana,Charkhi Dadri,"Mini Secretariat, Charkhi Dadri - HSPCB",03-02-2024 19:00:00,28.593883,76.270653,OZONE,14,17,16
India,Haryana,Faridabad,"New Industrial Town, Faridabad - HSPCB",03-02-2024 19:00:00,28.39072,77.30059,PM10,108,289,162
India,Haryana,Faridabad,"Sector 11, Faridabad - HSPCB",03-02-2024 19:00:00,28.376058,77.315741,CO,28,49,38
India,Haryana,Faridabad,"Sector 11, Faridabad - HSPCB",03-02-2024 19:00:00,28.376058,77.315741,OZONE,3,6,4
India,Haryana,Faridabad,"Sector 30, Faridabad - HSPCB",03-02-2024 19:00:00,28.4417,77.3217,OZONE,8,22,16
India,Haryana,Faridabad,"Sector- 16A, Faridabad - HSPCB",03-02-2024 19:00:00,28.4088421,77.3099081,CO,6,132,8
India,Haryana,Faridabad,"Sector- 16A, Faridabad - HSPCB",03-02-2024 19:00:00,28.4088421,77.3099081,OZONE,14,14,14
India,Haryana,Gurugram,"Teri Gram, Gurugram - HSPCB",03-02-2024 19:00:00,28.4275,77.1465,PM2.5,90,325,197
India,Haryana,Gurugram,"Teri Gram, Gurugram - HSPCB",03-02-2024 19:00:00,28.4275,77.1465,PM10,109,247,178
India,Haryana,Gurugram,"Vikas Sadan, Gurugram - HSPCB",03-02-2024 19:00:00,28.4501238,77.0263051,SO2,22,31,27
India,Haryana,Hisar,"Urban Estate-II, Hisar - HSPCB",03-02-2024 19:00:00,29.140560,75.744941,PM10,NA,NA,NA
India,Haryana,Hisar,"Urban Estate-II, Hisar - HSPCB",03-02-2024 19:00:00,29.140560,75.744941,OZONE,21,84,65
India,Haryana,Jind,"Police Lines, Jind - HSPCB",03-02-2024 19:00:00,29.307814,76.337619,PM10,NA,NA,NA
India,Haryana,Jind,"Police Lines, Jind - HSPCB",03-02-2024 19:00:00,29.307814,76.337619,OZONE,6,15,13
India,Haryana,Kaithal,"Rishi Nagar, Kaithal - HSPCB",03-02-2024 19:00:00,29.8006,76.4155,PM2.5,48,345,85
India,Haryana,Kaithal,"Rishi Nagar, Kaithal - HSPCB",03-02-2024 19:00:00,29.8006,76.4155,NH3,8,8,8
India,Haryana,Kaithal,"Rishi Nagar, Kaithal - HSPCB",03-02-2024 19:00:00,29.8006,76.4155,CO,2,64,19
India,Haryana,Kurukshetra,"Sector-7, Kurukshetra - HSPCB",03-02-2024 19:00:00,29.966942,76.875879,PM2.5,56,81,69
India,Haryana,Kurukshetra,"Sector-7, Kurukshetra - HSPCB",03-02-2024 19:00:00,29.966942,76.875879,SO2,1,47,18
India,Haryana,Mandikhera,"General Hospital, Mandikhera - HSPCB",03-02-2024 19:00:00,27.9002,76.9938,CO,14,34,23
India,Haryana,Manesar,"Sector-2 IMT, Manesar - HSPCB",03-02-2024 19:00:00,28.360699,76.936090,PM2.5,72,179,126
India,Haryana,Manesar,"Sector-2 IMT, Manesar - HSPCB",03-02-2024 19:00:00,28.360699,76.936090,OZONE,5,30,22
India,Haryana,Narnaul,"Shastri Nagar, Narnaul - HSPCB",03-02-2024 19:00:00,28.060249,76.113115,NO2,16,58,35
India,Haryana,Narnaul,"Shastri Nagar, Narnaul - HSPCB",03-02-2024 19:00:00,28.060249,76.113115,NH3,5,18,11
India,Haryana,Narnaul,"Shastri Nagar, Narnaul - HSPCB",03-02-2024 19:00:00,28.060249,76.113115,OZONE,9,86,73
India,Haryana,Palwal,"Shyam Nagar, Palwal - HSPCB",03-02-2024 19:00:00,28.1485564,77.3320667,NO2,5,6,5
India,Haryana,Panchkula,"Sector-6, Panchkula - HSPCB ",03-02-2024 19:00:00,30.7057778,76.8531805555555,NO2,28,30,29
India,Haryana,Panchkula,"Sector-6, Panchkula - HSPCB ",03-02-2024 19:00:00,30.7057778,76.8531805555555,OZONE,28,31,29
India,Haryana,Panipat,"Sector-18, Panipat - HSPCB",03-02-2024 19:00:00,29.497973,76.993331,OZONE,29,35,31
India,Haryana,Rohtak,"MD University, Rohtak - HSPCB",03-02-2024 19:00:00,28.52123,76.37138,PM2.5,12,142,77
India,Haryana,Sirsa,"F-Block, Sirsa - HSPCB",03-02-2024 19:00:00,29.536400,75.015800,PM10,NA,NA,NA
India,Haryana,Sirsa,"F-Block, Sirsa - HSPCB",03-02-2024 19:00:00,29.536400,75.015800,NH3,NA,NA,NA
India,Haryana,Sonipat,"Murthal, Sonipat - HSPCB",03-02-2024 19:00:00,29.027200,77.062100,SO2,13,29,20
India,Haryana,Yamuna Nagar,"Gobind Pura, Yamuna Nagar - HSPCB",03-02-2024 19:00:00,30.1480566,77.2893471,PM2.5,31,216,80
India,Haryana,Yamuna Nagar,"Gobind Pura, Yamuna Nagar - HSPCB",03-02-2024 19:00:00,30.1480566,77.2893471,PM10,39,165,83
India,Himachal Pradesh,Baddi,"HIMUDA Complex Phase-1, Baddi - HPPCB",03-02-2024 19:00:00,30.943887,76.801991,CO,16,30,20
India,Jammu_and_Kashmir,Srinagar,"Rajbagh, Srinagar - JKSPCB",03-02-2024 19:00:00,34.066206,74.819820,CO,NA,NA,NA
India,Jharkhand,Dhanbad,"Kalakusuma, Dhanbad - DMC",03-02-2024 19:00:00,23.811548,86.481238,PM10,NA,NA,NA
India,Jharkhand,Dhanbad,"Kalakusuma, Dhanbad - DMC",03-02-2024 19:00:00,23.811548,86.481238,OZONE,27,65,39
India,Jharkhand,Dhanbad,"Sardar Patel Nagar, Dhanbad - JSPCB",03-02-2024 19:00:00,23.80569,86.44268,NO2,NA,NA,NA
India,Jharkhand,Pathardih,"Mohalbani Ghat, Pathardih - DMC",03-02-2024 19:00:00,23.669880,86.411725,CO,108,150,120
India,Karnataka,Bagalkot,"Vidayagiri, Bagalkot - KSPCB",03-02-2024 19:00:00,16.172806,75.659694,NO2,10,11,10
India,Karnataka,Bagalkot,"Vidayagiri, Bagalkot - KSPCB",03-02-2024 19:00:00,16.172806,75.659694,SO2,NA,NA,NA
India,Karnataka,Bengaluru,"Bapuji Nagar, Bengaluru - KSPCB",03-02-2024 19:00:00,12.951913,77.539784,NO2,9,12,11
India,Karnataka,Bengaluru,"Bapuji Nagar, Bengaluru - KSPCB",03-02-2024 19:00:00,12.951913,77.539784,CO,36,42,38
India,Karnataka,Bengaluru,"Bapuji Nagar, Bengaluru - KSPCB",03-02-2024 19:00:00,12.951913,77.539784,OZONE,11,12,11
India,Karnataka,Bengaluru,"City Railway Station, Bengaluru - KSPCB",03-02-2024 19:00:00,12.9756843,77.5660749,CO,51,112,68
India,Karnataka,Bengaluru,"Hebbal, Bengaluru - KSPCB",03-02-2024 19:00:00,13.029152,77.585901,PM2.5,NA,NA,NA
India,Karnataka,Bengaluru,"Hebbal, Bengaluru - KSPCB",03-02-2024 19:00:00,13.029152,77.585901,NH3,NA,NA,NA
India,Karnataka,Bengaluru,"Hombegowda Nagar, Bengaluru - KSPCB",03-02-2024 19:00:00,12.938539,77.590100,SO2,3,5,4
India,Karnataka,Bengaluru,"Jigani, Bengaluru - KSPCB",03-02-2024 19:00:00,12.7816279,77.6299145,CO,46,99,61
India,Karnataka,Bengaluru,"Kasturi Nagar, Bengaluru - KSPCB",03-02-2024 19:00:00,13.003872,77.664217,PM2.5,75,188,107
India,Karnataka,Bengaluru,"Kasturi Nagar, Bengaluru - KSPCB",03-02-2024 19:00:00,13.003872,77.664217,NO2,16,17,17
India,Karnataka,Bengaluru,"Kasturi Nagar, Bengaluru - KSPCB",03-02-2024 19:00:00,13.003872,77.664217,SO2,10,10,10
India,Karnataka,Bengaluru,"Kasturi Nagar, Bengaluru - KSPCB",03-02-2024 19:00:00,13.003872,77.664217,CO,24,25,25
India,Karnataka,Bengaluru,"Peenya, Bengaluru - CPCB",03-02-2024 19:00:00,13.0270199,77.494094,NH3,5,6,6
India,Karnataka,Bengaluru,"Peenya, Bengaluru - CPCB",03-02-2024 19:00:00,13.0270199,77.494094,OZONE,34,37,36
India,Karnataka,Bengaluru,"Sanegurava Halli, Bengaluru - KSPCB",03-02-2024 19:00:00,12.990328,77.5431385,PM10,12,299,100
India,Karnataka,Bengaluru,"Shivapura_Peenya, Bengaluru - KSPCB",03-02-2024 19:00:00,13.0246342,77.5080115,CO,26,94,36
India,Karnataka,Bidar,"Naubad, Bidar - KSPCB",03-02-2024 19:00:00,17.930306,77.482194,CO,58,82,63
India,Karnataka,Chamarajanagar,"Urban, Chamarajanagar - KSPCB",03-02-2024 19:00:00,11.55358,76.55521,OZONE,8,42,31
India,Karnataka,Chikkaballapur,"Chikkaballapur Rural, Chikkaballapur - KSPCB",03-02-2024 19:00:00,13.428828,77.731418,PM10,40,169,77
India,Karnataka,Chikkaballapur,"Chikkaballapur Rural, Chikkaballapur - KSPCB",03-02-2024 19:00:00,13.428828,77.731418,SO2,16,21,18
India,Karnataka,Chikkaballapur,"Chikkaballapur Rural, Chikkaballapur - KSPCB",03-02-2024 19:00:00,13.428828,77.731418,OZONE,24,25,24
India,Karnataka,Chikkamagaluru,"Kalyana Nagara, Chikkamagaluru - KSPCB",03-02-2024 19:00:00,13.328028,75.797056,PM2.5,22,61,39
India,Karnataka,Dharwad,"Kalabhavan, Dharwad - KSPCB",03-02-2024 19:00:00,15.459706,75.008381,OZONE,2,59,44
India,Karnataka,Gadag,"Panchal Nagar, Gadag - KSPCB",03-02-2024 19:00:00,15.411456,75.638133,CO,37,70,46
India,Karnataka,Hubballi,"Lingaraj Nagar, Hubballi - KSPCB",03-02-2024 19:00:00,15.3714823,75.1160168,OZONE,2,50,44
India,Karnataka,Kalaburagi,"Lal Bahadur Shastri Nagar, Kalaburagi - KSPCB",03-02-2024 19:00:00,17.321993,76.822628,NO2,11,12,11
India,Karnataka,Kalaburagi,"Lal Bahadur Shastri Nagar, Kalaburagi - KSPCB",03-02-2024 19:00:00,17.321993,76.822628,SO2,19,23,20
India,Karnataka,Kalaburagi,"Lal Bahadur Shastri Nagar, Kalaburagi - KSPCB",03-02-2024 19:00:00,17.321993,76.822628,OZONE,13,69,61
India,Karnataka,Kalaburagi,"Mahatma Basaveswar Colony, Kalaburgi - KSPCB",03-02-2024 19:00:00,17.336318,76.847397,PM10,23,94,47
India,Karnataka,Karwar,"KHB Colony, Karwar - KSPCB",03-02-2024 19:00:00,14.816666,74.141003,NH3,2,3,2
India,Karnataka,Kolar,"Tamaka Ind. Area, Kolar - KSPCB",03-02-2024 19:00:00,13.1276288,78.1570122,CO,6,18,8
India,Karnataka,Koppal,"Diwator Nagar, Koppal - KSPCB",03-02-2024 19:00:00,15.347630,76.181767,PM2.5,12,75,36
India,Karnataka,Koppal,"Diwator Nagar, Koppal - KSPCB",03-02-2024 19:00:00,15.347630,76.181767,NH3,3,6,5
India,Karnataka,Madikeri,"Stuart Hill, Madikeri - KSPCB",03-02-2024 19:00:00,12.415911,75.735050,PM10,19,70,36
India,Karnataka,Madikeri,"Stuart Hill, Madikeri - KSPCB",03-02-2024 19:00:00,12.415911,75.735050,OZONE,25,41,35
India,Karnataka,Mysuru,"Hebbal 1st Stage, Mysuru - KSPCB",03-02-2024 19:00:00,12.21041,76.37376,PM10,51,82,62
India,Karnataka,Mysuru,"Hebbal 1st Stage, Mysuru - KSPCB",03-02-2024 19:00:00,12.21041,76.37376,CO,10,57,19
India,Karnataka,Ramanagara,"Vijay Nagar, Ramanagara - KSPCB",03-02-2024 19:00:00,12.733409,77.298051,PM10,36,78,53
India,Karnataka,Ramanagara,"Vijay Nagar, Ramanagara - KSPCB",03-02-2024 19:00:00,12.733409,77.298051,SO2,18,26,23
India,Karnataka,Shivamogga,"Vinoba Nagara, Shivamogga - KSPCB",03-02-2024 19:00:00,13.940000,75.555917,CO,12,56,36
India,Karnataka,Shivamogga,"Vinoba Nagara, Shivamogga - KSPCB",03-02-2024 19:00:00,13.940000,75.555917,OZONE,6,47,33
India,Karnataka,Udupi,"Brahmagiri, Udupi - KSPCB",03-02-2024 19:00:00,13.34194444,74.74694444,PM10,26,58,39
India,Karnataka,Udupi,"Brahmagiri, Udupi - KSPCB",03-02-2024 19:00:00,13.34194444,74.74694444,NO2,13,14,14
India,Karnataka,Udupi,"Brahmagiri, Udupi - KSPCB",03-02-2024 19:00:00,13.34194444,74.74694444,CO,40,51,42
India,Karnataka,Vijayapura,"Ibrahimpur, Vijayapura - KSPCB",03-02-2024 19:00:00,16.802639,75.722694,PM2.5,25,31,30
India,Karnataka,Yadgir,"Collector Office, Yadgir - KSPCB",03-02-2024 19:00:00,16.7602,77.1428,NO2,6,14,8
India,Karnataka,Yadgir,"Collector Office, Yadgir - KSPCB",03-02-2024 19:00:00,16.7602,77.1428,SO2,9,58,23
India,Kerala,Eloor,"Udyogamandal, Eloor - Kerala PCB",03-02-2024 19:00:00,10.073232,76.302765,SO2,1,5,2
India,Kerala,Eloor,"Udyogamandal, Eloor - Kerala PCB",03-02-2024 19:00:00,10.073232,76.302765,OZONE,10,15,14
India,Kerala,Kannur,"Thavakkara, Kannur - Kerala PCB",03-02-2024 19:00:00,11.875000,75.373200,SO2,5,6,5
India,Kerala,Kollam,"Polayathode, Kollam - Kerala PCB",03-02-2024 19:00:00,8.8787,76.6073,SO2,1,27,4
India,Kerala,Thiruvananthapuram,"Kariavattom, Thiruvananthapuram - Kerala PCB",03-02-2024 19:00:00,8.563700,76.886500,PM2.5,72,81,77
India,Kerala,Thiruvananthapuram,"Kariavattom, Thiruvananthapuram - Kerala PCB",03-02-2024 19:00:00,8.563700,76.886500,CO,12,31,21
India,Kerala,Thiruvananthapuram,"Kariavattom, Thiruvananthapuram - Kerala PCB",03-02-2024 19:00:00,8.563700,76.886500,OZONE,27,30,29
India,Kerala,Thiruvananthapuram,"Plammoodu, Thiruvananthapuram - Kerala PCB",03-02-2024 19:00:00,8.5149093,76.9435879,CO,22,52,28
India,Kerala,Thrissur,"Corporation Ground, Thrissur - Kerala PCB",03-02-2024 19:00:00,10.532400,76.215900,OZONE,20,50,35
India,Madhya Pradesh,Bhopal,"Idgah Hills, Bhopal - MPPCB",03-02-2024 19:00:00,23.264759,77.381568,NO2,16,41,29
India,Madhya Pradesh,Bhopal,"Idgah Hills, Bhopal - MPPCB",03-02-2024 19:00:00,23.264759,77.381568,NH3,4,4,4
India,Madhya Pradesh,Bhopal,"Idgah Hills, Bhopal - MPPCB",03-02-2024 19:00:00,23.264759,77.381568,SO2,8,35,13
India,Madhya Pradesh,Bhopal,"Idgah Hills, Bhopal - MPPCB",03-02-2024 19:00:00,23.264759,77.381568,OZONE,34,103,81
India,Madhya Pradesh,Bhopal,"Paryavaran Parisar, Bhopal - MPPCB",03-02-2024 19:00:00,23.210494,77.425409,PM10,61,217,138
India,Madhya Pradesh,Bhopal,"Paryavaran Parisar, Bhopal - MPPCB",03-02-2024 19:00:00,23.210494,77.425409,OZONE,2,77,59
India,Madhya Pradesh,Bhopal,"T T Nagar, Bhopal - MPPCB",03-02-2024 19:00:00,23.233584,77.400574,NH3,2,5,4
India,Madhya Pradesh,Bhopal,"T T Nagar, Bhopal - MPPCB",03-02-2024 19:00:00,23.233584,77.400574,SO2,15,56,32
India,Madhya Pradesh,Bhopal,"T T Nagar, Bhopal - MPPCB",03-02-2024 19:00:00,23.233584,77.400574,CO,40,84,55
India,Madhya Pradesh,Bhopal,"T T Nagar, Bhopal - MPPCB",03-02-2024 19:00:00,23.233584,77.400574,OZONE,8,101,80
India,Madhya Pradesh,Gwalior,"City Center, Gwalior - MPPCB",03-02-2024 19:00:00,26.203442,78.193251,PM2.5,NA,NA,NA
India,Madhya Pradesh,Gwalior,"City Center, Gwalior - MPPCB",03-02-2024 19:00:00,26.203442,78.193251,NH3,NA,NA,NA
India,Madhya Pradesh,Gwalior,"City Center, Gwalior - MPPCB",03-02-2024 19:00:00,26.203442,78.193251,SO2,NA,NA,NA
India,Madhya Pradesh,Gwalior,"Deen Dayal Nagar, Gwalior - MPPCB",03-02-2024 19:00:00,26.259242,78.216432,NH3,2,6,4
India,Madhya Pradesh,Gwalior,"Maharaj Bada, Gwalior - MPPCB",03-02-2024 19:00:00,26.200388,78.147714,NO2,24,151,52
India,Madhya Pradesh,Gwalior,"Maharaj Bada, Gwalior - MPPCB",03-02-2024 19:00:00,26.200388,78.147714,CO,12,131,46
India,Madhya Pradesh,Gwalior,"Phool Bagh, Gwalior - Mondelez Ind. Food",03-02-2024 19:00:00,26.210536,78.171,PM10,21,146,91
India,Madhya Pradesh,Gwalior,"Phool Bagh, Gwalior - Mondelez Ind. Food",03-02-2024 19:00:00,26.210536,78.171,CO,32,52,36
India,Madhya Pradesh,Indore,"Chhoti Gwaltoli, Indore - MPPCB",03-02-2024 19:00:00,22.4310,75.5213,NH3,4,6,6
India,Madhya Pradesh,Indore,"Chhoti Gwaltoli, Indore - MPPCB",03-02-2024 19:00:00,22.4310,75.5213,CO,38,126,49
India,Madhya Pradesh,Indore,"Maguda Nagar, Indore - IMC",03-02-2024 19:00:00,22.7524,75.8872,CO,20,34,21
India,Madhya Pradesh,Indore,"Residency Area, Indore - IMC",03-02-2024 19:00:00,22.7084,75.8815,NO2,28,52,39
India,Madhya Pradesh,Indore,"Residency Area, Indore - IMC",03-02-2024 19:00:00,22.7084,75.8815,NH3,NA,NA,NA
India,Madhya Pradesh,Jabalpur,"Gupteshwar, Jabalpur - JMC",03-02-2024 19:00:00,23.142888,79.916147,NO2,9,104,35
India,Madhya Pradesh,Jabalpur,"Gupteshwar, Jabalpur - JMC",03-02-2024 19:00:00,23.142888,79.916147,CO,16,121,42
India,Madhya Pradesh,Jabalpur,"Marhatal, Jabalpur - MPPCB",03-02-2024 19:00:00,23.168606,79.932247,PM10,70,156,129
India,Madhya Pradesh,Jabalpur,"Marhatal, Jabalpur - MPPCB",03-02-2024 19:00:00,23.168606,79.932247,NH3,4,5,4
India,Madhya Pradesh,Jabalpur,"Suhagi, Jabalpur - JMC",03-02-2024 19:00:00,23.218135,79.957770,NO2,NA,NA,NA
India,Madhya Pradesh,Jabalpur,"Suhagi, Jabalpur - JMC",03-02-2024 19:00:00,23.218135,79.957770,OZONE,12,112,75
India,Madhya Pradesh,Katni,"Gole Bazar, Katni - MPPCB",03-02-2024 19:00:00,23.50016,80.23284,OZONE,18,86,75
India,Madhya Pradesh,Mandideep,"Sector-D Industrial Area, Mandideep - MPPCB",03-02-2024 19:00:00,23.108440,77.511428,PM10,NA,NA,NA
India,Madhya Pradesh,Mandideep,"Sector-D Industrial Area, Mandideep - MPPCB",03-02-2024 19:00:00,23.108440,77.511428,NH3,NA,NA,NA
India,Madhya Pradesh,Mandideep,"Sector-D Industrial Area, Mandideep - MPPCB",03-02-2024 19:00:00,23.108440,77.511428,SO2,NA,NA,NA
India,Madhya Pradesh,Mandideep,"Sector-D Industrial Area, Mandideep - MPPCB",03-02-2024 19:00:00,23.108440,77.511428,OZONE,12,19,16
India,Madhya Pradesh,Pithampur,"Sector-2 Industrial Area, Pithampur - MPPCB",03-02-2024 19:00:00,22.624758,75.675238,PM10,62,190,116
India,Madhya Pradesh,Pithampur,"Sector-2 Industrial Area, Pithampur - MPPCB",03-02-2024 19:00:00,22.624758,75.675238,CO,46,65,53
India,Madhya Pradesh,Pithampur,"Sector-2 Industrial Area, Pithampur - MPPCB",03-02-2024 19:00:00,22.624758,75.675238,OZONE,39,65,60
India,Madhya Pradesh,Sagar,"Civil Lines, Sagar - MPPCB",03-02-2024 19:00:00,23.838586,78.759431,SO2,3,6,4
India,Madhya Pradesh,Sagar,"Civil Lines, Sagar - MPPCB",03-02-2024 19:00:00,23.838586,78.759431,CO,21,48,28
India,Madhya Pradesh,Sagar,"Deen Dayal Nagar, Sagar - MPPCB",03-02-2024 19:00:00,23.8640158,78.80289321,PM2.5,20,66,44
India,Madhya Pradesh,Sagar,"Deen Dayal Nagar, Sagar - MPPCB",03-02-2024 19:00:00,23.8640158,78.80289321,NO2,23,24,24
India,Madhya Pradesh,Singrauli,"Suryakiran Bhawan NCL, Singrauli - MPPCB",03-02-2024 19:00:00,24.108970,82.645580,PM2.5,NA,NA,NA
India,Madhya Pradesh,Singrauli,"Suryakiran Bhawan NCL, Singrauli - MPPCB",03-02-2024 19:00:00,24.108970,82.645580,SO2,4,90,34
India,Madhya Pradesh,Singrauli,"Suryakiran Bhawan NCL, Singrauli - MPPCB",03-02-2024 19:00:00,24.108970,82.645580,OZONE,19,76,69
India,Madhya Pradesh,Ujjain,"Mahakaleshwar Temple, Ujjain - MPPCB",03-02-2024 19:00:00,23.182719 ,75.768218 ,PM2.5,43,204,80
India,Madhya Pradesh,Ujjain,"Mahakaleshwar Temple, Ujjain - MPPCB",03-02-2024 19:00:00,23.182719 ,75.768218 ,NH3,7,9,7
India,Maharashtra,Ahmednagar,"Tarakpur, Ahmednagar - MPCB",03-02-2024 19:00:00,19.10122,74.73339,SO2,9,18,14
India,Maharashtra,Akola,"Ramdaspeth, Akola - MPCB",03-02-2024 19:00:00,20.719516,77.000253,SO2,5,19,11
India,Maharashtra,Amravati,"Shivneri Colony, Amravati - MPCB",03-02-2024 19:00:00,20.9402359,77.7895248,NH3,1,3,2
India,Maharashtra,Amravati,"Shivneri Colony, Amravati - MPCB",03-02-2024 19:00:00,20.9402359,77.7895248,OZONE,1,110,87
India,Maharashtra,Amravati,"Shri Shivaji Science College, Amaravati - MPCB",03-02-2024 19:00:00,20.939198,77.765701,OZONE,2,50,42
India,Maharashtra,Aurangabad,"Rachnakar Colony, Aurangabad - MPCB",03-02-2024 19:00:00,19.863756,75.321188,PM10,100,154,120
India,Maharashtra,Aurangabad,"Rachnakar Colony, Aurangabad - MPCB",03-02-2024 19:00:00,19.863756,75.321188,NH3,1,1,1
India,Maharashtra,Aurangabad,"Rachnakar Colony, Aurangabad - MPCB",03-02-2024 19:00:00,19.863756,75.321188,SO2,12,52,31
India,Maharashtra,Aurangabad,"Rachnakar Colony, Aurangabad - MPCB",03-02-2024 19:00:00,19.863756,75.321188,CO,19,64,25
India,Maharashtra,Badlapur,"Katrap, Badlapur - MPCB",03-02-2024 19:00:00,19.16485,73.23409,NO2,27,71,41
India,Maharashtra,Badlapur,"Katrap, Badlapur - MPCB",03-02-2024 19:00:00,19.16485,73.23409,NH3,2,3,3
India,Maharashtra,Badlapur,"Katrap, Badlapur - MPCB",03-02-2024 19:00:00,19.16485,73.23409,OZONE,1,63,32
India,Maharashtra,Belapur,"CBD Belapur, Belapur - MPCB",03-02-2024 19:00:00,19.0243902,73.0406721,NH3,16,41,26
India,Maharashtra,Belapur,"CBD Belapur, Belapur - MPCB",03-02-2024 19:00:00,19.0243902,73.0406721,SO2,1,5,3
India,Maharashtra,Bhiwandi,"Gokul Nagar, Bhiwandi - MPCB",03-02-2024 19:00:00,19.309073,73.057223,OZONE,2,38,33
India,Maharashtra,Boisar,"Khaira, Boisar - MPCB",03-02-2024 19:00:00,19.786089,72.757971,SO2,NA,NA,NA
India,Maharashtra,Boisar,"Khaira, Boisar - MPCB",03-02-2024 19:00:00,19.786089,72.757971,OZONE,NA,NA,NA
India,Maharashtra,Chandrapur,"Chauhan Colony, Chandrapur - MPCB",03-02-2024 19:00:00,19.962900,79.298714,NH3,2,2,2
India,Maharashtra,Chandrapur,"Chauhan Colony, Chandrapur - MPCB",03-02-2024 19:00:00,19.962900,79.298714,SO2,6,108,21
India,Maharashtra,Dhule,"Deopur, Dhule - MPCB",03-02-2024 19:00:00,20.918946,74.776388,PM10,52,270,139
India,Maharashtra,Dhule,"Deopur, Dhule - MPCB",03-02-2024 19:00:00,20.918946,74.776388,NO2,8,29,17
India,Maharashtra,Dhule,"Deopur, Dhule - MPCB",03-02-2024 19:00:00,20.918946,74.776388,NH3,2,4,2
India,Maharashtra,Dhule,"Deopur, Dhule - MPCB",03-02-2024 19:00:00,20.918946,74.776388,SO2,3,30,14
India,Maharashtra,Jalna,"Old MIDC, Jalna - MPCB",03-02-2024 19:00:00,19.854616,75.905894,SO2,11,15,13
India,Maharashtra,Kalyan,"Khadakpada, Kalyan - MPCB",03-02-2024 19:00:00,19.25292,73.142019,NH3,1,1,1
India,Maharashtra,Kolhapur,"Shivaji University, Kolhapur - MPCB",03-02-2024 19:00:00,16.6870449,74.2505872,PM2.5,97,156,124
India,Maharashtra,Latur,"Sawe Wadi, Latur - MPCB",03-02-2024 19:00:00,18.39963,76.57452,CO,12,34,22
India,Maharashtra,Mahad,"Kamble Tarf Birwadi, Mahad - MPCB",03-02-2024 19:00:00,18.1023399,73.4783687,CO,22,27,25
India,Maharashtra,Malegaon,"Mahesh Nagar, Malegaon - MPCB",03-02-2024 19:00:00,20.555712,74.529236,NH3,1,30,7
India,Maharashtra,Mira-Bhayandar,"Bhayandar West, Mira-Bhayandar - MPCB",03-02-2024 19:00:00,19.296481,72.840923,OZONE,1,49,39
India,Maharashtra,Mumbai,"Borivali East, Mumbai - IITM",03-02-2024 19:00:00,19.23241,72.86895,PM10,88,149,112
India,Maharashtra,Mumbai,"Borivali East, Mumbai - IITM",03-02-2024 19:00:00,19.23241,72.86895,NH3,2,8,5
India,Maharashtra,Mumbai,"Byculla, Mumbai - BMC",03-02-2024 19:00:00,18.9767,72.8380,NO2,26,89,54
India,Maharashtra,Mumbai,"Byculla, Mumbai - BMC",03-02-2024 19:00:00,18.9767,72.8380,OZONE,1,212,128
India,Maharashtra,Mumbai,"Chembur, Mumbai - MPCB",03-02-2024 19:00:00,19.0364585,72.8954371,OZONE,9,174,103
India,Maharashtra,Mumbai,"Colaba, Mumbai - MPCB",03-02-2024 19:00:00,18.910000,72.820000,OZONE,3,11,8
India,Maharashtra,Mumbai,"Ghatkopar, Mumbai - BMC",03-02-2024 19:00:00,19.083694,72.920967,CO,8,29,16
India,Maharashtra,Mumbai,"Kandivali East, Mumbai - MPCB",03-02-2024 19:00:00,19.205800,72.868200,PM10,72,436,175
India,Maharashtra,Mumbai,"Kandivali West, Mumbai - BMC",03-02-2024 19:00:00,19.215859,72.831718,PM2.5,48,138,93
India,Maharashtra,Mumbai,"Kherwadi_Bandra East, Mumbai - MPCB",03-02-2024 19:00:00,19.0632143,72.8456324,PM2.5,64,218,152
India,Maharashtra,Mumbai,"Kherwadi_Bandra East, Mumbai - MPCB",03-02-2024 19:00:00,19.0632143,72.8456324,NO2,18,64,41
India,Maharashtra,Mumbai,"Kherwadi_Bandra East, Mumbai - MPCB",03-02-2024 19:00:00,19.0632143,72.8456324,SO2,16,55,32
India,Maharashtra,Mumbai,"Khindipada-Bhandup West, Mumbai - IITM",03-02-2024 19:00:00,19.1653323,72.922099,NO2,NA,NA,NA
India,Maharashtra,Mumbai,"Kurla, Mumbai - MPCB",03-02-2024 19:00:00,19.0863,72.8888,PM10,54,122,81
India,Maharashtra,Mumbai,"Kurla, Mumbai - MPCB",03-02-2024 19:00:00,19.0863,72.8888,SO2,32,32,32
India,Maharashtra,Mumbai,"Kurla, Mumbai - MPCB",03-02-2024 19:00:00,19.0863,72.8888,CO,16,38,25
India,Maharashtra,Mumbai,"Malad West, Mumbai - IITM",03-02-2024 19:00:00,19.19709,72.82204,NH3,1,1,1
India,Maharashtra,Mumbai,"Mazgaon, Mumbai - IITM",03-02-2024 19:00:00,18.96702,72.84214,CO,4,28,12
India,Maharashtra,Mumbai,"Mindspace-Malad West, Mumbai - MPCB",03-02-2024 19:00:00,19.1878657,72.8304069,OZONE,3,115,62
India,Maharashtra,Mumbai,"Mulund West, Mumbai - MPCB",03-02-2024 19:00:00,19.1750,72.9419,PM2.5,31,63,48
India,Maharashtra,Mumbai,"Mulund West, Mumbai - MPCB",03-02-2024 19:00:00,19.1750,72.9419,NH3,9,10,10
India,Maharashtra,Mumbai,"Navy Nagar-Colaba, Mumbai - IITM",03-02-2024 19:00:00,18.897756,72.813320,OZONE,4,165,106
India,Maharashtra,Mumbai,"Powai, Mumbai - MPCB",03-02-2024 19:00:00,19.137500,72.915056,NH3,1,1,1
India,Maharashtra,Mumbai,"Powai, Mumbai - MPCB",03-02-2024 19:00:00,19.137500,72.915056,SO2,25,27,26
India,Maharashtra,Mumbai,"Sewri, Mumbai - BMC",03-02-2024 19:00:00,19.000084,72.856730,CO,10,85,24
India,Maharashtra,Mumbai,"Shivaji Nagar, Mumbai - BMC",03-02-2024 19:00:00,19.060498,72.923356,SO2,10,25,16
India,Maharashtra,Mumbai,"Vasai West, Mumbai - MPCB",03-02-2024 19:00:00,19.383200,72.820400,OZONE,6,65,41
India,Maharashtra,Mumbai,"Vile Parle West, Mumbai - MPCB",03-02-2024 19:00:00,19.10861,72.83622,CO,2,2,1
India,Maharashtra,Mumbai,"Vile Parle West, Mumbai - MPCB",03-02-2024 19:00:00,19.10861,72.83622,OZONE,6,21,14
India,Maharashtra,Mumbai,"Worli, Mumbai - MPCB",03-02-2024 19:00:00,18.9936162,72.8128113,PM10,65,135,102
India,Maharashtra,Mumbai,"Worli, Mumbai - MPCB",03-02-2024 19:00:00,18.9936162,72.8128113,CO,28,30,30
India,Maharashtra,Nagpur,"Mahal, Nagpur - MPCB",03-02-2024 19:00:00,21.14472,79.107595,PM2.5,67,150,90
India,Maharashtra,Nagpur,"Mahal, Nagpur - MPCB",03-02-2024 19:00:00,21.14472,79.107595,OZONE,3,80,61
India,Maharashtra,Nagpur,"Opp GPO Civil Lines, Nagpur - MPCB",03-02-2024 19:00:00,21.152875,79.0517531,NH3,2,16,4
India,Maharashtra,Nagpur,"Ram Nagar, Nagpur - MPCB",03-02-2024 19:00:00,21.143383,79.048912,NH3,4,6,6
India,Maharashtra,Nanded,"Sneh Nagar, Nanded - MPCB",03-02-2024 19:00:00,19.173852,77.296291,NH3,2,3,2
India,Maharashtra,Nanded,"Sneh Nagar, Nanded - MPCB",03-02-2024 19:00:00,19.173852,77.296291,SO2,14,23,20
India,Maharashtra,Nashik,"Gangapur Road, Nashik - MPCB",03-02-2024 19:00:00,20.0073285,73.7762427,PM10,50,139,91
India,Maharashtra,Nashik,"Hirawadi, Nashik - MPCB",03-02-2024 19:00:00,20.021503,73.813844,PM2.5,48,99,78
India,Maharashtra,Nashik,"Hirawadi, Nashik - MPCB",03-02-2024 19:00:00,20.021503,73.813844,PM10,74,116,96
India,Maharashtra,Nashik,"Hirawadi, Nashik - MPCB",03-02-2024 19:00:00,20.021503,73.813844,CO,4,65,20
India,Maharashtra,Nashik,"Pandav Nagari, Nashik - MPCB",03-02-2024 19:00:00,19.9591346,73.7788008,OZONE,1,70,57
India,Maharashtra,Navi Mumbai,"Kopripada-Vashi, Navi Mumbai - MPCB",03-02-2024 19:00:00,19.090337,73.014232,SO2,24,58,36
India,Maharashtra,Navi Mumbai,"Mahape, Navi Mumbai - MPCB",03-02-2024 19:00:00,19.1135051,73.008978,PM2.5,36,98,57
India,Maharashtra,Navi Mumbai,"Sanpada, Navi Mumbai - MPCB",03-02-2024 19:00:00,19.0575752,73.0151367,SO2,8,54,20
India,Maharashtra,Navi Mumbai,"Tondare-Taloja, Navi Mumbai - MPCB",03-02-2024 19:00:00,19.0630,73.1209,SO2,6,51,27
India,Maharashtra,Parbhani,"Masoom Colony, Parbhani - MPCB",03-02-2024 19:00:00,19.265594,76.761463,PM2.5,47,107,75
India,Maharashtra,Pimpri-Chinchwad,"Park Street Wakad, Pimpri Chinchwad - MPCB",03-02-2024 19:00:00,18.59051,73.77946,NO2,61,155,108
India,Maharashtra,Pimpri-Chinchwad,"Park Street Wakad, Pimpri Chinchwad - MPCB",03-02-2024 19:00:00,18.59051,73.77946,CO,17,131,34
India,Maharashtra,Pimpri-Chinchwad,"Park Street Wakad, Pimpri Chinchwad - MPCB",03-02-2024 19:00:00,18.59051,73.77946,OZONE,1,109,79
India,Maharashtra,Pimpri-Chinchwad,"Thergaon, Pimpri Chinchwad - MPCB",03-02-2024 19:00:00,18.616318,73.765797,PM2.5,125,343,260
India,Maharashtra,Pimpri-Chinchwad,"Thergaon, Pimpri Chinchwad - MPCB",03-02-2024 19:00:00,18.616318,73.765797,PM10,104,228,155
India,Maharashtra,Pune,"Bhosari, Pune - IITM",03-02-2024 19:00:00,18.640051,73.848956,CO,38,54,42
India,Maharashtra,Pune,"Karve Road, Pune - MPCB",03-02-2024 19:00:00,18.5011743,73.8165527,PM2.5,74,74,74
India,Maharashtra,Pune,"Karve Road, Pune - MPCB",03-02-2024 19:00:00,18.5011743,73.8165527,NO2,2,2,2
India,Maharashtra,Pune,"Katraj Dairy, Pune - MPCB",03-02-2024 19:00:00,18.454450,73.854155,PM2.5,44,196,107
India,Maharashtra,Pune,"Mhada Colony, Pune - IITM",03-02-2024 19:00:00,18.573040,73.927715,PM2.5,40,229,126
India,Maharashtra,Pune,"Revenue Colony-Shivajinagar, Pune - IITM",03-02-2024 19:00:00,18.530085,73.849598,PM10,89,176,131
India,Maharashtra,Pune,"Transport Nagar-Nigdi, Pune - IITM",03-02-2024 19:00:00,18.664282,73.763966,PM10,92,203,144
India,Maharashtra,Pune,"Transport Nagar-Nigdi, Pune - IITM",03-02-2024 19:00:00,18.664282,73.763966,NO2,12,50,30
India,Maharashtra,Sangli,"Vijay Nagar, Sangli - MPCB",03-02-2024 19:00:00, 16.5038,74.3623,CO,21,115,30
India,Maharashtra,Solapur,"Dnyaneshwar Nagar, Solapur - MPCB",03-02-2024 19:00:00,17.6336264,75.9132495,PM2.5,88,293,162
India,Maharashtra,Solapur,"Ratandeep Housing Society, Solapur - MPCB",03-02-2024 19:00:00,17.65439,75.90649,PM10,86,153,117
India,Maharashtra,Solapur,"Ratandeep Housing Society, Solapur - MPCB",03-02-2024 19:00:00,17.65439,75.90649,NO2,15,140,55
India,Maharashtra,Solapur,"Ratandeep Housing Society, Solapur - MPCB",03-02-2024 19:00:00,17.65439,75.90649,SO2,5,15,9
India,Maharashtra,Thane,"Kasarvadavali, Thane - MPCB",03-02-2024 19:00:00,19.26777,72.97182,PM2.5,14,311,200
India,Maharashtra,Thane,"Kasarvadavali, Thane - MPCB",03-02-2024 19:00:00,19.26777,72.97182,NO2,20,75,37
India,Maharashtra,Thane,"Kasarvadavali, Thane - MPCB",03-02-2024 19:00:00,19.26777,72.97182,CO,13,39,21
India,Maharashtra,Thane,"Kasarvadavali, Thane - MPCB",03-02-2024 19:00:00,19.26777,72.97182,OZONE,8,113,86
India,Maharashtra,Thane,"Upvan Fort, Thane - MPCB",03-02-2024 19:00:00,19.222279,72.957979,SO2,28,56,36
India,Maharashtra,Virar,"Bolinj, Virar - MPCB",03-02-2024 19:00:00,19.4458210,72.7988231,CO,20,123,33
India,Maharashtra,Virar,"Bolinj, Virar - MPCB",03-02-2024 19:00:00,19.4458210,72.7988231,OZONE,1,108,81
India,Manipur,Imphal,"DM College of Science, Imphal - Manipur PCB",03-02-2024 19:00:00,24.8207389,93.9423085,NH3,2,2,2
India,Manipur,Imphal,"DM College of Science, Imphal - Manipur PCB",03-02-2024 19:00:00,24.8207389,93.9423085,SO2,80,83,81
India,Manipur,Imphal,"DM College of Science, Imphal - Manipur PCB",03-02-2024 19:00:00,24.8207389,93.9423085,CO,6,6,6
India,Meghalaya,Shillong,"Lumpyngngad, Shillong - Meghalaya PCB",03-02-2024 19:00:00,25.5586,91.8985,PM10,47,173,98
India,Mizoram,Aizawl,"Sikulpuikawn, Aizawl - Mizoram PCB",03-02-2024 19:00:00,23.7176342,92.7192841,SO2,2,2,2
India,Odisha,Angul,"Hakimapada, Angul - OSPCB",03-02-2024 19:00:00,20.832874,85.104082,PM2.5,113,374,223
India,Odisha,Angul,"Hakimapada, Angul - OSPCB",03-02-2024 19:00:00,20.832874,85.104082,NO2,13,52,28
India,Odisha,Angul,"Hakimapada, Angul - OSPCB",03-02-2024 19:00:00,20.832874,85.104082,NH3,2,4,2
India,Odisha,Angul,"Hakimapada, Angul - OSPCB",03-02-2024 19:00:00,20.832874,85.104082,CO,8,82,38
India,Odisha,Angul,"Hakimapada, Angul - OSPCB",03-02-2024 19:00:00,20.832874,85.104082,OZONE,4,181,127
India,Odisha,Balasore,"Kalidaspur, Balasore - OSPCB",03-02-2024 19:00:00,21.51161,86.89088,PM2.5,52,312,130
India,Odisha,Balasore,"Kalidaspur, Balasore - OSPCB",03-02-2024 19:00:00,21.51161,86.89088,NO2,8,27,13
India,Odisha,Barbil,"Forest Office, Barbil - OSPCB",03-02-2024 19:00:00,22.1166054,85.3945546,PM2.5,52,270,122
India,Odisha,Barbil,"Forest Office, Barbil - OSPCB",03-02-2024 19:00:00,22.1166054,85.3945546,SO2,3,24,8
India,Odisha,Barbil,"Forest Office, Barbil - OSPCB",03-02-2024 19:00:00,22.1166054,85.3945546,OZONE,3,156,108
India,Odisha,Baripada,"Meher Colony, Baripada - OSPCB",03-02-2024 19:00:00,21.941841,86.728318,NO2,2,3,3
India,Odisha,Baripada,"Meher Colony, Baripada - OSPCB",03-02-2024 19:00:00,21.941841,86.728318,SO2,4,6,6
India,Odisha,Bhubaneswar,"Patia, Bhubaneswar - OSPCB",03-02-2024 19:00:00,20.34652,85.81630,PM2.5,42,213,102
India,Odisha,Bhubaneswar,"Patia, Bhubaneswar - OSPCB",03-02-2024 19:00:00,20.34652,85.81630,NO2,14,53,23
India,Odisha,Bhubaneswar,"Patia, Bhubaneswar - OSPCB",03-02-2024 19:00:00,20.34652,85.81630,SO2,3,80,26
India,Odisha,Bileipada,"Tata Township, Bileipada - OSPCB",03-02-2024 19:00:00,22.06156703,85.47409613,NH3,11,11,11
India,Odisha,Brajrajnagar,"GM Office, Brajrajnagar - OSPCB",03-02-2024 19:00:00,21.8004996,83.8396977,PM2.5,28,193,90
India,Odisha,Byasanagar,"Ferro Chrome Colony, Byasanagar - OSPCB",03-02-2024 19:00:00,20.94185,86.11510,PM10,59,135,90
India,Odisha,Cuttack,"CDA Area, Cuttack - OSPCB",03-02-2024 19:00:00,20.48891     ,85.84768     ,NH3,3,4,3
India,Odisha,Cuttack,"CDA Area, Cuttack - OSPCB",03-02-2024 19:00:00,20.48891     ,85.84768     ,SO2,4,49,18
India,Odisha,Keonjhar,"Jagamohanpur, Keonjhar - OSPCB",03-02-2024 19:00:00,21.643900,85.599355,PM2.5,72,176,111
India,Odisha,Nayagarh,"Dabuna, Nayagarh - OSPCB",03-02-2024 19:00:00,21.847279,85.416905,SO2,3,5,3
India,Odisha,Nayagarh,"Dabuna, Nayagarh - OSPCB",03-02-2024 19:00:00,21.847279,85.416905,CO,16,26,18
India,Odisha,Rairangpur,"Divisional Forest Office, Rairangpur - OSPCB",03-02-2024 19:00:00,22.265816,86.174829,NO2,7,8,7
India,Odisha,Rairangpur,"Divisional Forest Office, Rairangpur - OSPCB",03-02-2024 19:00:00,22.265816,86.174829,SO2,4,25,10
India,Odisha,Rourkela,"Fertilizer Township, Rourkela - OSPCB",03-02-2024 19:00:00,22.18972222,84.86277778,CO,14,28,23
India,Odisha,Rourkela,"Raghunathpali, Rourkela - OSPCB",03-02-2024 19:00:00,22.220833,84.809444,PM10,110,188,145
India,Odisha,Suakati,"OMC Colony, Suakati - OSPCB",03-02-2024 19:00:00,21.606865,85.510538,NO2,62,337,114
India,Odisha,Suakati,"OMC Colony, Suakati - OSPCB",03-02-2024 19:00:00,21.606865,85.510538,SO2,4,39,14
India,Odisha,Suakati,"OMC Colony, Suakati - OSPCB",03-02-2024 19:00:00,21.606865,85.510538,CO,10,32,30
India,Odisha,Suakati,"OMC Colony, Suakati - OSPCB",03-02-2024 19:00:00,21.606865,85.510538,OZONE,50,187,132
India,Odisha,Talcher,"Talcher Coalfields,Talcher - OSPCB",03-02-2024 19:00:00,20.9360711,85.1707021,CO,NA,NA,NA
India,Puducherry,Puducherry,"Jawahar Nagar, Puducherry - PPCC",03-02-2024 19:00:00,11.9309,79.8027,PM2.5,4,66,25
India,Punjab,Bathinda,"Hardev Nagar, Bathinda - PPCB",03-02-2024 19:00:00,30.233011,74.907758,CO,2,72,25
India,Punjab,Jalandhar,"Civil Line, Jalandhar - PPCB",03-02-2024 19:00:00,31.321907,75.578914,PM2.5,36,96,67
India,Punjab,Jalandhar,"Civil Line, Jalandhar - PPCB",03-02-2024 19:00:00,31.321907,75.578914,NH3,2,3,2
India,Punjab,Khanna,"Kalal Majra, Khanna - PPCB",03-02-2024 19:00:00,30.736056 ,76.209694,PM10,20,77,43
India,Punjab,Ludhiana,"Punjab Agricultural University, Ludhiana - PPCB",03-02-2024 19:00:00,30.9028,75.8086,NH3,6,9,7
India,Punjab,Mandi Gobindgarh,"RIMT University, Mandi Gobindgarh - PPCB",03-02-2024 19:00:00,30.649961,76.331442,OZONE,32,34,33
India,Punjab,Patiala,"Model Town, Patiala - PPCB",03-02-2024 19:00:00,30.349388,76.366642,PM2.5,26,67,47
India,Punjab,Patiala,"Model Town, Patiala - PPCB",03-02-2024 19:00:00,30.349388,76.366642,NH3,5,6,6
India,Punjab,Rupnagar,"Ratanpura, Rupnagar - Ambuja Cements",03-02-2024 19:00:00,31.0325454,76.5623046,PM2.5,11,142,53
India,Punjab,Rupnagar,"Ratanpura, Rupnagar - Ambuja Cements",03-02-2024 19:00:00,31.0325454,76.5623046,PM10,38,468,208
India,Rajasthan,Ajmer,"Civil Lines,  Ajmer - RSPCB",03-02-2024 19:00:00,26.470859,74.646594,PM10,47,110,83
India,Rajasthan,Ajmer,"Civil Lines,  Ajmer - RSPCB",03-02-2024 19:00:00,26.470859,74.646594,NO2,20,46,30
India,Rajasthan,Ajmer,"Civil Lines,  Ajmer - RSPCB",03-02-2024 19:00:00,26.470859,74.646594,OZONE,24,63,52
India,Rajasthan,Alwar,"Moti Doongri, Alwar - RSPCB",03-02-2024 19:00:00,27.554793,76.611536,NH3,5,9,8
India,Rajasthan,Banswara,"Rati Talai, Banswara - RSPCB",03-02-2024 19:00:00,23.555190,74.440010,NO2,12,99,34
India,Rajasthan,Banswara,"Rati Talai, Banswara - RSPCB",03-02-2024 19:00:00,23.555190,74.440010,SO2,4,18,11
India,Rajasthan,Bharatpur,"Krishna Nagar, Bharatpur - RSPCB",03-02-2024 19:00:00,27.215415,77.50873,PM2.5,14,87,56
India,Rajasthan,Bharatpur,"Krishna Nagar, Bharatpur - RSPCB",03-02-2024 19:00:00,27.215415,77.50873,NO2,40,68,52
India,Rajasthan,Bhilwara,"Pratap Nagar, Bhilwara - RSPCB",03-02-2024 19:00:00,25.339605,74.618883,PM10,48,308,153
India,Rajasthan,Bhilwara,"Pratap Nagar, Bhilwara - RSPCB",03-02-2024 19:00:00,25.339605,74.618883,NH3,1,3,2
India,Rajasthan,Bhiwadi,"RIICO Ind. Area III, Bhiwadi - RSPCB",03-02-2024 19:00:00,28.194909,76.862296,SO2,1,20,10
India,Rajasthan,Bhiwadi,"RIICO Ind. Area III, Bhiwadi - RSPCB",03-02-2024 19:00:00,28.194909,76.862296,OZONE,1,19,13
India,Rajasthan,Bikaner,"MM Ground, Bikaner - RSPCB",03-02-2024 19:00:00,28.018792,73.292658,PM10,83,188,120
India,Rajasthan,Bikaner,"MM Ground, Bikaner - RSPCB",03-02-2024 19:00:00,28.018792,73.292658,SO2,1,6,3
India,Rajasthan,Bikaner,"MM Ground, Bikaner - RSPCB",03-02-2024 19:00:00,28.018792,73.292658,OZONE,22,60,39
India,Rajasthan,Bundi,"New Colony, Bundi - RSPCB",03-02-2024 19:00:00,25.435774,75.644272,NO2,21,71,40
India,Rajasthan,Bundi,"New Colony, Bundi - RSPCB",03-02-2024 19:00:00,25.435774,75.644272,SO2,3,15,6
India,Rajasthan,Chittorgarh,"Shastri Nagar, Chittorgarh - RSPCB",03-02-2024 19:00:00,24.892047,74.623527,PM2.5,17,310,103
India,Rajasthan,Chittorgarh,"Shastri Nagar, Chittorgarh - RSPCB",03-02-2024 19:00:00,24.892047,74.623527,NH3,7,12,10
India,Rajasthan,Chittorgarh,"Shastri Nagar, Chittorgarh - RSPCB",03-02-2024 19:00:00,24.892047,74.623527,SO2,1,39,10
India,Rajasthan,Chittorgarh,"Shastri Nagar, Chittorgarh - RSPCB",03-02-2024 19:00:00,24.892047,74.623527,OZONE,2,110,75
India,Rajasthan,Churu,"Subash Chowk, Churu - RSPCB",03-02-2024 19:00:00,28.296139,74.961696,SO2,12,17,14
India,Rajasthan,Dausa,"Khatikan Mohalla, Dausa - RSPCB",03-02-2024 19:00:00,26.895552,76.334753,PM2.5,17,147,64
India,Rajasthan,Dausa,"Khatikan Mohalla, Dausa - RSPCB",03-02-2024 19:00:00,26.895552,76.334753,NH3,6,15,10
India,Rajasthan,Dholpur,"Raja Ganj, Dholpur - RSPCB",03-02-2024 19:00:00,26.699557,77.898881,PM2.5,3,277,156
India,Rajasthan,Dungarpur,"Bhoiwada, Dungarpur - RSPCB",03-02-2024 19:00:00,23.837789,73.714926,NH3,8,10,9
India,Rajasthan,Dungarpur,"Bhoiwada, Dungarpur - RSPCB",03-02-2024 19:00:00,23.837789,73.714926,OZONE,9,48,45
India,Rajasthan,Hanumangarh,"Housing Board, Hanumangarh - RSPCB",03-02-2024 19:00:00,29.610750,74.283608,OZONE,5,25,10
India,Rajasthan,Jaipur,"Adarsh Nagar, Jaipur - RSPCB",03-02-2024 19:00:00,26.902909,75.836858,PM10,55,124,90
India,Rajasthan,Jaipur,"Adarsh Nagar, Jaipur - RSPCB",03-02-2024 19:00:00,26.902909,75.836858,SO2,9,20,15
India,Rajasthan,Jaipur,"Adarsh Nagar, Jaipur - RSPCB",03-02-2024 19:00:00,26.902909,75.836858,CO,10,48,26
India,Rajasthan,Jaipur,"Adarsh Nagar, Jaipur - RSPCB",03-02-2024 19:00:00,26.902909,75.836858,OZONE,32,69,61
India,Rajasthan,Jaipur,"Mansarovar Sector-12, Jaipur - RSPCB",03-02-2024 19:00:00,26.843698,75.766894,CO,16,73,27
India,Rajasthan,Jaipur,"Police Commissionerate, Jaipur - RSPCB",03-02-2024 19:00:00,26.9164092,75.7994901,OZONE,21,90,70
India,Rajasthan,Jaipur,"RIICO Sitapura, Jaipur - RSPCB",03-02-2024 19:00:00,26.786682,75.827928,PM2.5,78,380,222
India,Rajasthan,Jaipur,"Sector-2 Murlipura, Jaipur - RSPCB",03-02-2024 19:00:00,26.960669,75.771817,NH3,6,6,6
India,Rajasthan,Jaipur,"Shastri Nagar, Jaipur - RSPCB",03-02-2024 19:00:00,26.9502929,75.730943,NH3,6,26,16
India,Rajasthan,Jaisalmer,"Sadar Bazar, Jaisalmer - RSPCB",03-02-2024 19:00:00,26.912329,70.909168,PM2.5,58,127,85
India,Rajasthan,Jaisalmer,"Sadar Bazar, Jaisalmer - RSPCB",03-02-2024 19:00:00,26.912329,70.909168,NH3,14,79,26
India,Rajasthan,Jalore,"Mudtra Sili, Jalore - RSPCB",03-02-2024 19:00:00,25.344694,72.626208,CO,16,131,39
India,Rajasthan,Jalore,"Mudtra Sili, Jalore - RSPCB",03-02-2024 19:00:00,25.344694,72.626208,OZONE,7,83,67
India,Rajasthan,Jhalawar,"Rajlaxmi Nagar, Jhalawar - RSPCB",03-02-2024 19:00:00,24.588397,76.172782,PM2.5,34,303,161
India,Rajasthan,Jhalawar,"Rajlaxmi Nagar, Jhalawar - RSPCB",03-02-2024 19:00:00,24.588397,76.172782,PM10,78,152,114
India,Rajasthan,Jhunjhunu,"Indra Nagar, Jhunjhunu - RSPCB",03-02-2024 19:00:00,28.108988,75.386577,NH3,14,27,19
India,Rajasthan,Jhunjhunu,"Indra Nagar, Jhunjhunu - RSPCB",03-02-2024 19:00:00,28.108988,75.386577,SO2,2,14,6
India,Rajasthan,Jhunjhunu,"Indra Nagar, Jhunjhunu - RSPCB",03-02-2024 19:00:00,28.108988,75.386577,OZONE,19,86,67
India,Rajasthan,Jodhpur,"Jhalamand, Jodhpur - RSPCB",03-02-2024 19:00:00,26.215415,73.070156,PM2.5,24,144,67
India,Rajasthan,Jodhpur,"Jhalamand, Jodhpur - RSPCB",03-02-2024 19:00:00,26.215415,73.070156,PM10,106,271,145
India,Rajasthan,Jodhpur,"Mandor, Jodhpur - RSPCB",03-02-2024 19:00:00,26.358805,73.047444,PM2.5,22,237,95
India,Rajasthan,Karauli,"Satyawati Vihar, Karauli - RSPCB",03-02-2024 19:00:00,26.506177,77.025989,SO2,13,22,18
India,Rajasthan,Kota,"Dhanmandi, Kota - RSPCB",03-02-2024 19:00:00,25.164090,75.858137,NO2,32,119,63
India,Rajasthan,Kota,"Dhanmandi, Kota - RSPCB",03-02-2024 19:00:00,25.164090,75.858137,CO,42,113,50
India,Rajasthan,Kota,"Nayapura, Kota - RSPCB",03-02-2024 19:00:00,25.196024,75.855668,NO2,24,91,54
India,Rajasthan,Nagaur,"Karni Colony, Nagaur - RSPCB",03-02-2024 19:00:00,27.213494,73.734444,CO,20,43,32
India,Rajasthan,Pali,"Indira Colony Vistar, Pali - RSPCB",03-02-2024 19:00:00,25.771061, 73.340227,PM2.5,56,157,95
India,Rajasthan,Pali,"Indira Colony Vistar, Pali - RSPCB",03-02-2024 19:00:00,25.771061, 73.340227,NO2,18,71,41
India,Rajasthan,Pali,"Indira Colony Vistar, Pali - RSPCB",03-02-2024 19:00:00,25.771061, 73.340227,CO,12,80,45
India,Rajasthan,Pratapgarh,"Pragati Nagar, Pratapgarh - RSPCB",03-02-2024 19:00:00,24.041198,74.780702,PM2.5,42,299,121
India,Rajasthan,Pratapgarh,"Pragati Nagar, Pratapgarh - RSPCB",03-02-2024 19:00:00,24.041198,74.780702,NO2,11,36,20
India,Rajasthan,Pratapgarh,"Pragati Nagar, Pratapgarh - RSPCB",03-02-2024 19:00:00,24.041198,74.780702,NH3,6,13,9
India,Rajasthan,Rajsamand,"Dhoinda, Rajsamand - RSPCB",03-02-2024 19:00:00,25.036360,73.883502,PM10,57,136,99
India,Rajasthan,Sawai Madhopur,"Sahu Nagar, Sawai Madhopur - RSPCB",03-02-2024 19:00:00,26.031443,76.359327,CO,16,68,30
India,Rajasthan,Sirohi,"Vedhaynath Colony, Sirohi - RSPCB",03-02-2024 19:00:00,24.885261,72.857549,PM2.5,18,90,41
India,Rajasthan,Sirohi,"Vedhaynath Colony, Sirohi - RSPCB",03-02-2024 19:00:00,24.885261,72.857549,PM10,34,141,72
India,Rajasthan,Tonk,"Shastri Nagar, Tonk - RSPCB",03-02-2024 19:00:00,26.159933,75.780517,PM10,83,156,114
India,Rajasthan,Tonk,"Shastri Nagar, Tonk - RSPCB",03-02-2024 19:00:00,26.159933,75.780517,SO2,2,9,5
India,Rajasthan,Udaipur,"Ashok Nagar, Udaipur - RSPCB",03-02-2024 19:00:00,24.5886166,73.6321397,NO2,48,133,79
India,Rajasthan,Udaipur,"Ashok Nagar, Udaipur - RSPCB",03-02-2024 19:00:00,24.5886166,73.6321397,OZONE,6,80,60
India,Sikkim,Gangtok,"Zero Point GICI, Gangtok - SSPCB",03-02-2024 19:00:00,27.338530,88.614099,PM10,31,69,53
India,Sikkim,Gangtok,"Zero Point GICI, Gangtok - SSPCB",03-02-2024 19:00:00,27.338530,88.614099,NH3,1,1,1
India,Sikkim,Gangtok,"Zero Point GICI, Gangtok - SSPCB",03-02-2024 19:00:00,27.338530,88.614099,CO,21,36,27
India,TamilNadu,Chennai,"Alandur Bus Depot, Chennai - CPCB",03-02-2024 19:00:00,12.9099161,80.1076538,NH3,6,12,7
India,TamilNadu,Chennai,"Gandhi Nagar_Ennore, Chennai - TNPCB",03-02-2024 19:00:00,13.218341,80.32027,NH3,2,5,4
India,TamilNadu,Chennai,"Manali, Chennai - CPCB",03-02-2024 19:00:00,13.164544,80.26285,NH3,4,8,5
India,TamilNadu,Chennai,"Manali, Chennai - CPCB",03-02-2024 19:00:00,13.164544,80.26285,CO,63,108,71
India,TamilNadu,Chennai,"Perungudi, Chennai - TNPCB",03-02-2024 19:00:00,12.9533,80.2357,PM10,24,82,51
India,TamilNadu,Chennai,"Perungudi, Chennai - TNPCB",03-02-2024 19:00:00,12.9533,80.2357,CO,10,101,26
India,TamilNadu,Chennai,"Royapuram, Chennai - TNPCB",03-02-2024 19:00:00,13.1036,80.2909,PM2.5,15,28,20
India,TamilNadu,Chennai,"Velachery Res. Area, Chennai - CPCB",03-02-2024 19:00:00,13.0052189,80.2398125,SO2,10,101,16
India,TamilNadu,Coimbatore,"PSG College of Arts and Science, Coimbatore - TNPCB",03-02-2024 19:00:00,11.0328,77.0349,SO2,16,21,18
India,TamilNadu,Cuddalore,"Kudikadu, Cuddalore - TNPCB",03-02-2024 19:00:00,11.6829898,79.7532099,NH3,5,7,5
India,TamilNadu,Cuddalore,"Semmandalam, Cuddalore - TNPCB",03-02-2024 19:00:00,11.7637683,79.7499835,OZONE,1,2,2
India,TamilNadu,Gummidipoondi,"Anthoni Pillai Nagar, Gummidipoondi - TNPCB",03-02-2024 19:00:00,13.4127,80.1081,SO2,2,77,16
India,TamilNadu,Palkalaiperur,"Bharathidasan University, Palkalaiperur - TNPCB",03-02-2024 19:00:00,10.681158,78.741746,SO2,27,28,27
India,TamilNadu,Ramanathapuram,"Chalai Bazaar, Ramanathapuram - TNPCB",03-02-2024 19:00:00,9.36399,78.831977,CO,12,12,12
India,TamilNadu,Ramanathapuram,"Chalai Bazaar, Ramanathapuram - TNPCB",03-02-2024 19:00:00,9.36399,78.831977,OZONE,14,14,14
India,TamilNadu,Salem,"Sona College of Technology, Salem - TNPCB",03-02-2024 19:00:00,11.679111,78.125052,PM2.5,20,205,80
India,TamilNadu,Thoothukudi,"Meelavittan, Thoothukudi - TNPCB",03-02-2024 19:00:00,8.816428 ,78.099039,PM10,13,64,36
India,TamilNadu,Thoothukudi,"Meelavittan, Thoothukudi - TNPCB",03-02-2024 19:00:00,8.816428 ,78.099039,CO,6,26,19
India,TamilNadu,Tirupur,"Kumaran College, Tirupur - TNPCB",03-02-2024 19:00:00,11.0973603,77.3228673,CO,18,110,32
India,TamilNadu,Tirupur,"Kumaran College, Tirupur - TNPCB",03-02-2024 19:00:00,11.0973603,77.3228673,OZONE,6,7,7
India,TamilNadu,Vellore,"Vasanthapuram, Vellore - TNPCB",03-02-2024 19:00:00,12.909494,79.131861,PM10,NA,NA,NA
India,TamilNadu,Virudhunagar,"Collectorate Office, Virudhunagar - TNPCB",03-02-2024 19:00:00,9.559382,77.948828,PM10,NA,NA,NA
India,Telangana,Hyderabad,"Bollaram Industrial Area, Hyderabad - TSPCB",03-02-2024 19:00:00,17.540891,78.358528,NO2,14,41,23
India,Telangana,Hyderabad,"Bollaram Industrial Area, Hyderabad - TSPCB",03-02-2024 19:00:00,17.540891,78.358528,NH3,3,4,4
India,Telangana,Hyderabad,"Kokapet, Hyderabad - TSPCB",03-02-2024 19:00:00,17.393559,78.339194,PM2.5,39,89,62
India,Telangana,Hyderabad,"Kokapet, Hyderabad - TSPCB",03-02-2024 19:00:00,17.393559,78.339194,SO2,6,10,7
India,Telangana,Hyderabad,"New Malakpet, Hyderabad - TSPCB",03-02-2024 19:00:00,17.37206,78.50864,CO,10,37,22
India,Telangana,Hyderabad,"Ramachandrapuram, Hyderabad - TSPCB",03-02-2024 19:00:00,17.528544,78.286195,NH3,2,3,3
India,Telangana,Hyderabad,"Ramachandrapuram, Hyderabad - TSPCB",03-02-2024 19:00:00,17.528544,78.286195,SO2,7,32,19
India,Telangana,Hyderabad,"Sanathnagar, Hyderabad - TSPCB",03-02-2024 19:00:00,17.4559458,78.4332152,OZONE,13,155,14
India,Telangana,Hyderabad,"Somajiguda, Hyderabad - TSPCB",03-02-2024 19:00:00,17.417094,78.457437,PM2.5,32,80,51
India,Telangana,Hyderabad,"Somajiguda, Hyderabad - TSPCB",03-02-2024 19:00:00,17.417094,78.457437,PM10,67,91,75
India,Telangana,Hyderabad,"Somajiguda, Hyderabad - TSPCB",03-02-2024 19:00:00,17.417094,78.457437,SO2,7,16,11
India,Telangana,Hyderabad,"Somajiguda, Hyderabad - TSPCB",03-02-2024 19:00:00,17.417094,78.457437,OZONE,5,18,15
India,Telangana,Hyderabad,"Zoo Park, Hyderabad - TSPCB",03-02-2024 19:00:00,17.349694,78.451437,NH3,1,1,1
India,Tripura,Agartala,"Bardowali, Agartala - Tripura SPCB",03-02-2024 19:00:00,23.8175497,91.2726974,PM10,NA,NA,NA
India,Tripura,Agartala,"Bardowali, Agartala - Tripura SPCB",03-02-2024 19:00:00,23.8175497,91.2726974,NO2,NA,NA,NA
India,Tripura,Agartala,"Bardowali, Agartala - Tripura SPCB",03-02-2024 19:00:00,23.8175497,91.2726974,SO2,NA,NA,NA
India,Uttar_Pradesh,Agra,"Manoharpur, Agra - UPPCB",03-02-2024 19:00:00,27.23711,78.01936,NO2,17,20,18
India,Uttar_Pradesh,Agra,"Manoharpur, Agra - UPPCB",03-02-2024 19:00:00,27.23711,78.01936,CO,8,16,10
India,Uttar_Pradesh,Agra,"Manoharpur, Agra - UPPCB",03-02-2024 19:00:00,27.23711,78.01936,OZONE,4,17,10
India,Uttar_Pradesh,Agra,"Rohta, Agra - UPPCB",03-02-2024 19:00:00,27.106972,78.000111,PM10,19,96,59
India,Uttar_Pradesh,Agra,"Sanjay Palace, Agra - UPPCB",03-02-2024 19:00:00,27.19865833,78.00598056,SO2,3,27,14
India,Uttar_Pradesh,Agra,"Sector-3B Avas Vikas Colony, Agra - UPPCB",03-02-2024 19:00:00,27.19412,77.96237,NO2,12,40,22
India,Uttar_Pradesh,Agra,"Sector-3B Avas Vikas Colony, Agra - UPPCB",03-02-2024 19:00:00,27.19412,77.96237,NH3,3,6,4
India,Uttar_Pradesh,Agra,"Sector-3B Avas Vikas Colony, Agra - UPPCB",03-02-2024 19:00:00,27.19412,77.96237,CO,2,14,3
India,Uttar_Pradesh,Agra,"Shahjahan Garden, Agra - UPPCB",03-02-2024 19:00:00,27.169338,78.03582,SO2,35,40,37
India,Uttar_Pradesh,Baghpat,"Sardar Patel Inter College, Baghpat - UPPCB",03-02-2024 19:00:00,28.964949,77.278761,NO2,35,64,46
India,Uttar_Pradesh,Bareilly,"Rajendra Nagar, Bareilly - UPPCB",03-02-2024 19:00:00,28.38910936,79.42963708,PM2.5,24,47,36
India,Uttar_Pradesh,Bareilly,"Rajendra Nagar, Bareilly - UPPCB",03-02-2024 19:00:00,28.38910936,79.42963708,NH3,1,2,1
India,Uttar_Pradesh,Bareilly,"Rajendra Nagar, Bareilly - UPPCB",03-02-2024 19:00:00,28.38910936,79.42963708,OZONE,9,17,13
India,Uttar_Pradesh,Bulandshahr,"Yamunapuram, Bulandshahr - UPPCB",03-02-2024 19:00:00,28.406963,77.849831,PM2.5,60,277,128
India,Uttar_Pradesh,Bulandshahr,"Yamunapuram, Bulandshahr - UPPCB",03-02-2024 19:00:00,28.406963,77.849831,SO2,19,51,34
India,Uttar_Pradesh,Firozabad,"Nagla Bhau, Firozabad - UPPCB",03-02-2024 19:00:00,27.168897,78.376960,PM2.5,48,155,72
India,Uttar_Pradesh,Firozabad,"Nagla Bhau, Firozabad - UPPCB",03-02-2024 19:00:00,27.168897,78.376960,NH3,1,2,2
India,Uttar_Pradesh,Firozabad,"Vibhab Nagar, Firozabad - UPPCB",03-02-2024 19:00:00,27.1594,78.3953,PM2.5,NA,NA,NA
India,Uttar_Pradesh,Firozabad,"Vibhab Nagar, Firozabad - UPPCB",03-02-2024 19:00:00,27.1594,78.3953,PM10,NA,NA,NA
India,Uttar_Pradesh,Firozabad,"Vibhab Nagar, Firozabad - UPPCB",03-02-2024 19:00:00,27.1594,78.3953,NO2,NA,NA,NA
India,Uttar_Pradesh,Firozabad,"Vibhab Nagar, Firozabad - UPPCB",03-02-2024 19:00:00,27.1594,78.3953,NH3,NA,NA,NA
India,Uttar_Pradesh,Ghaziabad,"Indirapuram, Ghaziabad - UPPCB",03-02-2024 19:00:00,28.646233,77.358075,PM10,110,236,150
India,Uttar_Pradesh,Ghaziabad,"Indirapuram, Ghaziabad - UPPCB",03-02-2024 19:00:00,28.646233,77.358075,NO2,50,121,76
India,Uttar_Pradesh,Ghaziabad,"Loni, Ghaziabad - UPPCB",03-02-2024 19:00:00,28.757294,77.278792,NO2,23,80,42
India,Uttar_Pradesh,Ghaziabad,"Sanjay Nagar, Ghaziabad - UPPCB",03-02-2024 19:00:00,28.685382,77.453839,SO2,12,37,22
India,Uttar_Pradesh,Ghaziabad,"Vasundhara, Ghaziabad - UPPCB",03-02-2024 19:00:00,28.6603346,77.3572563,NO2,2,154,74
India,Uttar_Pradesh,Ghaziabad,"Vasundhara, Ghaziabad - UPPCB",03-02-2024 19:00:00,28.6603346,77.3572563,SO2,3,34,15
India,Uttar_Pradesh,Greater Noida,"Knowledge Park - III, Greater Noida - UPPCB",03-02-2024 19:00:00,28.47272,77.482000,NO2,36,152,87
India,Uttar_Pradesh,Greater Noida,"Knowledge Park - III, Greater Noida - UPPCB",03-02-2024 19:00:00,28.47272,77.482000,SO2,13,33,20
India,Uttar_Pradesh,Greater Noida,"Knowledge Park - III, Greater Noida - UPPCB",03-02-2024 19:00:00,28.47272,77.482000,OZONE,7,80,38
India,Uttar_Pradesh,Hapur,"Anand Vihar, Hapur - UPPCB",03-02-2024 19:00:00,28.725645,77.749675,NH3,6,10,8
India,Uttar_Pradesh,Hapur,"Anand Vihar, Hapur - UPPCB",03-02-2024 19:00:00,28.725645,77.749675,CO,22,62,36
India,Uttar_Pradesh,Hapur,"Anand Vihar, Hapur - UPPCB",03-02-2024 19:00:00,28.725645,77.749675,OZONE,9,119,79
India,Uttar_Pradesh,Kanpur,"FTI Kidwai Nagar, Kanpur - UPPCB",03-02-2024 19:00:00,26.428282,80.327067,PM10,66,138,101
India,Uttar_Pradesh,Kanpur,"FTI Kidwai Nagar, Kanpur - UPPCB",03-02-2024 19:00:00,26.428282,80.327067,CO,28,44,32
India,Uttar_Pradesh,Kanpur,"FTI Kidwai Nagar, Kanpur - UPPCB",03-02-2024 19:00:00,26.428282,80.327067,OZONE,3,7,6
India,Uttar_Pradesh,Kanpur,"NSI Kalyanpur, Kanpur - UPPCB",03-02-2024 19:00:00,26.509954,80.249612,PM2.5,9,82,57
India,Uttar_Pradesh,Kanpur,"NSI Kalyanpur, Kanpur - UPPCB",03-02-2024 19:00:00,26.509954,80.249612,OZONE,2,21,6
India,Uttar_Pradesh,Kanpur,"Nehru Nagar, Kanpur - UPPCB",03-02-2024 19:00:00,26.4703136,80.3229863,CO,21,106,42
India,Uttar_Pradesh,Khurja,"Kalindi Kunj, Khurja - UPPCB",03-02-2024 19:00:00,28.2348927,77.8683002,PM2.5,2,124,43
India,Uttar_Pradesh,Lucknow,"B R Ambedkar University, Lucknow - UPPCB",03-02-2024 19:00:00,26.766433,80.927299,SO2,24,28,25
India,Uttar_Pradesh,Lucknow,"Gomti Nagar, Lucknow - UPPCB",03-02-2024 19:00:00,26.868120,81.005119,NO2,6,9,8
India,Uttar_Pradesh,Lucknow,"Gomti Nagar, Lucknow - UPPCB",03-02-2024 19:00:00,26.868120,81.005119,SO2,2,17,9
India,Uttar_Pradesh,Lucknow,"Kukrail Picnic Spot-1, Lucknow - UPPCB",03-02-2024 19:00:00,26.90723,80.98579,PM2.5,22,105,71
India,Uttar_Pradesh,Lucknow,"Kukrail Picnic Spot-1, Lucknow - UPPCB",03-02-2024 19:00:00,26.90723,80.98579,NH3,2,2,2
India,Uttar_Pradesh,Lucknow,"Talkatora District Industries Center, Lucknow - CPCB",03-02-2024 19:00:00,26.83399722,80.8917361,PM10,90,124,108
India,Uttar_Pradesh,Meerut,"Ganga Nagar, Meerut - UPPCB",03-02-2024 19:00:00,28.999264,77.7590354,PM2.5,42,96,67
India,Uttar_Pradesh,Meerut,"Pallavpuram Phase 2, Meerut - UPPCB",03-02-2024 19:00:00,29.063510,77.709723,PM2.5,55,150,85
India,Uttar_Pradesh,Meerut,"Pallavpuram Phase 2, Meerut - UPPCB",03-02-2024 19:00:00,29.063510,77.709723,OZONE,2,34,12
India,Uttar_Pradesh,Moradabad,"Buddhi Vihar, Moradabad - UPPCB",03-02-2024 19:00:00,28.83526,78.74460,PM2.5,25,64,43
India,Uttar_Pradesh,Moradabad,"Buddhi Vihar, Moradabad - UPPCB",03-02-2024 19:00:00,28.83526,78.74460,NH3,2,2,2
India,Uttar_Pradesh,Moradabad,"Eco Herbal Park, Moradabad - UPPCB",03-02-2024 19:00:00,28.840739,78.697531,OZONE,9,16,11
India,Uttar_Pradesh,Moradabad,"Jigar Colony, Moradabad - UPPCB",03-02-2024 19:00:00,28.856664,78.772638,PM2.5,30,88,51
India,Uttar_Pradesh,Moradabad,"Jigar Colony, Moradabad - UPPCB",03-02-2024 19:00:00,28.856664,78.772638,PM10,57,109,80
India,Uttar_Pradesh,Moradabad,"Jigar Colony, Moradabad - UPPCB",03-02-2024 19:00:00,28.856664,78.772638,NH3,5,8,5
India,Uttar_Pradesh,Moradabad,"Jigar Colony, Moradabad - UPPCB",03-02-2024 19:00:00,28.856664,78.772638,SO2,22,28,24
India,Uttar_Pradesh,Moradabad,"Kashiram Nagar, Moradabad - UPPCB",03-02-2024 19:00:00,28.849399,78.742362,NH3,4,4,4
India,Uttar_Pradesh,Moradabad,"Kashiram Nagar, Moradabad - UPPCB",03-02-2024 19:00:00,28.849399,78.742362,SO2,27,36,30
India,Uttar_Pradesh,Moradabad,"Kashiram Nagar, Moradabad - UPPCB",03-02-2024 19:00:00,28.849399,78.742362,CO,12,36,30
India,Uttar_Pradesh,Moradabad,"Transport Nagar, Moradabad - UPPCB",03-02-2024 19:00:00,28.802625,78.753728,NO2,17,26,20
India,Uttar_Pradesh,Muzaffarnagar,"New Mandi, Muzaffarnagar - UPPCB",03-02-2024 19:00:00,29.4723508,77.7194031,NH3,5,7,6
India,Uttar_Pradesh,Noida,"Sector-116, Noida - UPPCB",03-02-2024 19:00:00,28.569230,77.393848,CO,22,105,63
India,Uttar_Pradesh,Prayagraj,"Jhunsi, Prayagraj - UPPCB",03-02-2024 19:00:00,25.425602,81.917152,PM10,50,114,75
India,Uttar_Pradesh,Prayagraj,"Motilal Nehru NIT, Prayagraj - UPPCB",03-02-2024 19:00:00,25.494,81.863,PM2.5,17,87,53
India,Uttar_Pradesh,Prayagraj,"Motilal Nehru NIT, Prayagraj - UPPCB",03-02-2024 19:00:00,25.494,81.863,NO2,12,12,12
India,Uttar_Pradesh,Prayagraj,"Motilal Nehru NIT, Prayagraj - UPPCB",03-02-2024 19:00:00,25.494,81.863,CO,11,38,16
India,Uttar_Pradesh,Varanasi,"Bhelupur, Varanasi - UPPCB",03-02-2024 19:00:00,25.301778,82.996789,NO2,NA,NA,NA
India,Uttar_Pradesh,Varanasi,"Maldahiya, Varanasi - UPPCB",03-02-2024 19:00:00,25.32393,82.99687,PM2.5,6,52,20
India,Uttar_Pradesh,Varanasi,"Maldahiya, Varanasi - UPPCB",03-02-2024 19:00:00,25.32393,82.99687,PM10,22,44,32
India,Uttar_Pradesh,Varanasi,"Maldahiya, Varanasi - UPPCB",03-02-2024 19:00:00,25.32393,82.99687,NO2,1,4,1
India,Uttar_Pradesh,Vrindavan,"Omex Eternity, Vrindavan - UPPCB",03-02-2024 19:00:00,27.5714090,77.6557570,NH3,3,6,4
India,Uttar_Pradesh,Vrindavan,"Omex Eternity, Vrindavan - UPPCB",03-02-2024 19:00:00,27.5714090,77.6557570,OZONE,30,31,30
India,Uttarakhand,Kashipur,"Govt. Girls Inter College, Kashipur - UKPCB",03-02-2024 19:00:00,29.2124114,78.9611753,PM10,49,84,66
India,Uttarakhand,Kashipur,"Govt. Girls Inter College, Kashipur - UKPCB",03-02-2024 19:00:00,29.2124114,78.9611753,NO2,12,61,30
India,Uttarakhand,Rishikesh,"Shivaji Nagar, Rishikesh - UKPCB",03-02-2024 19:00:00,30.075911,78.2859547,PM2.5,19,50,34
India,Uttarakhand,Rishikesh,"Shivaji Nagar, Rishikesh - UKPCB",03-02-2024 19:00:00,30.075911,78.2859547,NH3,3,4,4
India,Uttarakhand,Rishikesh,"Shivaji Nagar, Rishikesh - UKPCB",03-02-2024 19:00:00,30.075911,78.2859547,SO2,3,5,4
India,West_Bengal,Asansol,"Asansol Court Area, Asansol - WBPCB",03-02-2024 19:00:00,23.685297,86.945968,OZONE,13,55,43
India,West_Bengal,Barrackpore,"SVSPA Campus, Barrackpore - WBPCB",03-02-2024 19:00:00,22.7605581,88.3617589,PM10,111,229,154
India,West_Bengal,Durgapur,"Sidhu Kanhu Indoor Stadium, Durgapur - WBPCB",03-02-2024 19:00:00,23.5404352,87.2892225,NO2,24,48,34
India,West_Bengal,Durgapur,"Sidhu Kanhu Indoor Stadium, Durgapur - WBPCB",03-02-2024 19:00:00,23.5404352,87.2892225,SO2,12,48,29
India,West_Bengal,Howrah,"Belur Math, Howrah - WBPCB",03-02-2024 19:00:00,22.629801,88.352017,PM2.5,NA,NA,NA
India,West_Bengal,Howrah,"Belur Math, Howrah - WBPCB",03-02-2024 19:00:00,22.629801,88.352017,PM10,NA,NA,NA
India,West_Bengal,Howrah,"Belur Math, Howrah - WBPCB",03-02-2024 19:00:00,22.629801,88.352017,NO2,NA,NA,NA
India,West_Bengal,Howrah,"Belur Math, Howrah - WBPCB",03-02-2024 19:00:00,22.629801,88.352017,NH3,NA,NA,NA
India,West_Bengal,Howrah,"Belur Math, Howrah - WBPCB",03-02-2024 19:00:00,22.629801,88.352017,SO2,NA,NA,NA
India,West_Bengal,Howrah,"Ghusuri, Howrah - WBPCB",03-02-2024 19:00:00,22.611968,88.347422,PM2.5,90,403,239
India,West_Bengal,Howrah,"Ghusuri, Howrah - WBPCB",03-02-2024 19:00:00,22.611968,88.347422,OZONE,9,21,15
India,West_Bengal,Howrah,"Padmapukur, Howrah - WBPCB",03-02-2024 19:00:00,22.5687319,88.2797276,OZONE,2,81,50
India,West_Bengal,Kolkata,"Ballygunge, Kolkata - WBPCB",03-02-2024 19:00:00,22.5367507,88.3638022,SO2,11,43,21
India,West_Bengal,Kolkata,"Bidhannagar, Kolkata - WBPCB",03-02-2024 19:00:00,22.58157048,88.41002457,PM10,86,294,148
India,West_Bengal,Kolkata,"Fort William, Kolkata - WBPCB",03-02-2024 19:00:00,22.556640,88.342674,PM10,89,191,127
India,West_Bengal,Kolkata,"Rabindra Bharati University, Kolkata - WBPCB",03-02-2024 19:00:00,22.627847,88.380669,PM10,92,210,125
India,West_Bengal,Kolkata,"Rabindra Sarobar, Kolkata - WBPCB",03-02-2024 19:00:00,22.51106,88.35142,PM2.5,58,184,100
India,West_Bengal,Kolkata,"Rabindra Sarobar, Kolkata - WBPCB",03-02-2024 19:00:00,22.51106,88.35142,PM10,73,124,99
India,West_Bengal,Kolkata,"Rabindra Sarobar, Kolkata - WBPCB",03-02-2024 19:00:00,22.51106,88.35142,NH3,3,8,5
India,West_Bengal,Kolkata,"Rabindra Sarobar, Kolkata - WBPCB",03-02-2024 19:00:00,22.51106,88.35142,CO,18,85,28
India,West_Bengal,Kolkata,"Victoria, Kolkata - WBPCB",03-02-2024 19:00:00,22.5448082,88.3403691,PM10,105,163,125
India,West_Bengal,Kolkata,"Victoria, Kolkata - WBPCB",03-02-2024 19:00:00,22.5448082,88.3403691,NO2,4,39,16
India,West_Bengal,Kolkata,"Victoria, Kolkata - WBPCB",03-02-2024 19:00:00,22.5448082,88.3403691,NH3,2,9,5
India,West_Bengal,Kolkata,"Victoria, Kolkata - WBPCB",03-02-2024 19:00:00,22.5448082,88.3403691,SO2,6,35,14
India,West_Bengal,Siliguri,"Ward-32 Bapupara, Siliguri - WBPCB",03-02-2024 19:00:00,26.6879226,88.4152495,PM2.5,105,155,126
India,Andhra_Pradesh,Amaravati,"Secretariat, Amaravati - APPCB",03-02-2024 19:00:00,16.5150833,80.5181667,NH3,3,4,4
India,Andhra_Pradesh,Anantapur,"Gulzarpet, Anantapur - APPCB",03-02-2024 19:00:00,14.675886,77.593027,SO2,6,14,8
India,Andhra_Pradesh,Anantapur,"Gulzarpet, Anantapur - APPCB",03-02-2024 19:00:00,14.675886,77.593027,CO,39,76,44
India,Andhra_Pradesh,Chittoor,"Gangineni Cheruvu, Chittoor - APPCB",03-02-2024 19:00:00,13.204880,79.097889,PM10,NA,NA,NA
India,Andhra_Pradesh,Chittoor,"Gangineni Cheruvu, Chittoor - APPCB",03-02-2024 19:00:00,13.204880,79.097889,SO2,NA,NA,NA
India,Andhra_Pradesh,Kadapa,"Yerramukkapalli, Kadapa - APPCB",03-02-2024 19:00:00,14.465052,78.824187,PM10,20,60,39
India,Andhra_Pradesh,Kadapa,"Yerramukkapalli, Kadapa - APPCB",03-02-2024 19:00:00,14.465052,78.824187,OZONE,17,74,63
India,Andhra_Pradesh,Rajamahendravaram,"Anand Kala Kshetram, Rajamahendravaram - APPCB",03-02-2024 19:00:00,16.9872867,81.7363176,PM10,49,129,81
India,Andhra_Pradesh,Rajamahendravaram,"Anand Kala Kshetram, Rajamahendravaram - APPCB",03-02-2024 19:00:00,16.9872867,81.7363176,OZONE,4,7,5
India,Andhra_Pradesh,Tirupati,"Tirumala, Tirupati - APPCB",03-02-2024 19:00:00,13.67,79.35,PM2.5,36,84,60
India,Andhra_Pradesh,Tirupati,"Vaikuntapuram, Tirupati - APPCB",03-02-2024 19:00:00,13.615387,79.409230,PM2.5,19,42,27
India,Andhra_Pradesh,Vijayawada,"HB Colony, Vijayawada - APPCB",03-02-2024 19:00:00,16.536107,80.594233,NH3,4,5,4
India,Andhra_Pradesh,Vijayawada,"Kanuru, Vijayawada - APPCB",03-02-2024 19:00:00,16.486692,80.699436,NO2,14,20,16
India,Andhra_Pradesh,Vijayawada,"Kanuru, Vijayawada - APPCB",03-02-2024 19:00:00,16.486692,80.699436,CO,4,68,4
India,Andhra_Pradesh,Vijayawada,"Kanuru, Vijayawada - APPCB",03-02-2024 19:00:00,16.486692,80.699436,OZONE,29,29,29
India,Andhra_Pradesh,Vijayawada,"Rajiv Gandhi Park, Vijayawada - APPCB",03-02-2024 19:00:00,16.509717,80.612222,PM10,48,67,58
India,Andhra_Pradesh,Vijayawada,"Rajiv Nagar, Vijayawada - APPCB",03-02-2024 19:00:00,16.554731,80.649110,NH3,1,2,2
India,Andhra_Pradesh,Visakhapatnam,"GVM Corporation, Visakhapatnam - APPCB",03-02-2024 19:00:00,17.72,83.3,PM2.5,30,92,62
India,Andhra_Pradesh,Visakhapatnam,"GVM Corporation, Visakhapatnam - APPCB",03-02-2024 19:00:00,17.72,83.3,PM10,58,134,91
India,Arunachal_Pradesh,Naharlagun,"Naharlagun, Naharlagun - APSPCB",03-02-2024 19:00:00,27.103358,93.679645,PM2.5,17,99,54
India,Arunachal_Pradesh,Naharlagun,"Naharlagun, Naharlagun - APSPCB",03-02-2024 19:00:00,27.103358,93.679645,NO2,2,2,2
India,Assam,Byrnihat,"Central Academy for SFS, Byrnihat - PCBA",03-02-2024 19:00:00,26.071318,91.87488,NH3,2,8,7
India,Assam,Byrnihat,"Central Academy for SFS, Byrnihat - PCBA",03-02-2024 19:00:00,26.071318,91.87488,SO2,9,19,13
India,Assam,Guwahati,"LGBI Airport, Guwahati - PCBA",03-02-2024 19:00:00,26.10887,91.589544,NO2,3,28,16
India,Assam,Guwahati,"LGBI Airport, Guwahati - PCBA",03-02-2024 19:00:00,26.10887,91.589544,SO2,NA,NA,NA
India,Assam,Guwahati,"Pan Bazaar, Guwahati - PCBA",03-02-2024 19:00:00,26.187500,91.744194,NH3,3,4,3
India,Assam,Guwahati,"Pan Bazaar, Guwahati - PCBA",03-02-2024 19:00:00,26.187500,91.744194,SO2,52,72,61
India,Assam,Guwahati,"Railway Colony, Guwahati - PCBA",03-02-2024 19:00:00,26.181742,91.78063,OZONE,7,40,25
India,Assam,Nalbari,"Bata Chowk, Nalbari - PCBA",03-02-2024 19:00:00,26.446912,91.439057,NH3,1,2,1
India,Assam,Nalbari,"Bata Chowk, Nalbari - PCBA",03-02-2024 19:00:00,26.446912,91.439057,OZONE,19,117,89
India,Assam,Silchar,"Tarapur, Silchar - PCBA",03-02-2024 19:00:00,24.82827,92.79525,NO2,24,49,33
India,Assam,Silchar,"Tarapur, Silchar - PCBA",03-02-2024 19:00:00,24.82827,92.79525,SO2,1,6,4
India,Bihar,Arrah,"New DM Office, Arrah - BSPCB",03-02-2024 19:00:00,25.5626095,84.663264,PM2.5,NA,NA,NA
India,Bihar,Arrah,"New DM Office, Arrah - BSPCB",03-02-2024 19:00:00,25.5626095,84.663264,CO,4,22,6
India,Bihar,Aurangabad,"Gurdeo Nagar, Aurangabad - BSPCB",03-02-2024 19:00:00,24.75746,84.366208,OZONE,11,74,61
India,Bihar,Bettiah,"Kamalnath Nagar, Bettiah - BSPCB",03-02-2024 19:00:00,26.80365,84.51954,CO,76,79,77
India,Bihar,Bhagalpur,"DM Office_Kachari Chowk, Bhagalpur - BSPCB",03-02-2024 19:00:00,25.251013,86.989001,SO2,1,14,7
India,Bihar,Bhagalpur,"Mayaganj, Bhagalpur - BSPCB",03-02-2024 19:00:00,25.265194,87.012947,SO2,3,13,11
India,Bihar,Buxar,"Charitra Van, Buxar - BSPCB (Formerly known as Central Jail)",03-02-2024 19:00:00,25.567520,83.966379,NH3,1,3,2
India,Bihar,Buxar,"Charitra Van, Buxar - BSPCB (Formerly known as Central Jail)",03-02-2024 19:00:00,25.567520,83.966379,CO,10,68,33
India,Bihar,Chhapra,"Darshan Nagar, Chhapra - BSPCB",03-02-2024 19:00:00,25.7808257,84.7446768,SO2,8,78,52
India,Bihar,Gaya,"Collectorate, Gaya - BSPCB",03-02-2024 19:00:00,24.7955,84.9994,NO2,16,21,18
India,Bihar,Gaya,"Kareemganj, Gaya - BSPCB",03-02-2024 19:00:00,24.792403,84.992416,NO2,30,31,30
India,Bihar,Gaya,"Kareemganj, Gaya - BSPCB",03-02-2024 19:00:00,24.792403,84.992416,NH3,1,6,3
India,Bihar,Gaya,"SFTI Kusdihra, Gaya - BSPCB",03-02-2024 19:00:00,24.762518,84.982348,OZONE,6,47,36
India,Bihar,Katihar,"Mirchaibari, Katihar - BSPCB",03-02-2024 19:00:00,25.560083,87.553265,CO,4,59,27
India,Bihar,Katihar,"Mirchaibari, Katihar - BSPCB",03-02-2024 19:00:00,25.560083,87.553265,OZONE,19,23,21
India,Bihar,Kishanganj,"SDM Office_Khagra, Kishanganj - BSPCB",03-02-2024 19:00:00,26.0881305,87.93840336,PM10,106,209,148
India,Bihar,Kishanganj,"SDM Office_Khagra, Kishanganj - BSPCB",03-02-2024 19:00:00,26.0881305,87.93840336,SO2,6,16,10
India,Bihar,Kishanganj,"SDM Office_Khagra, Kishanganj - BSPCB",03-02-2024 19:00:00,26.0881305,87.93840336,OZONE,16,37,31
India,Bihar,Manguraha,"Forest Rest House, Manguraha - BSPCB",03-02-2024 19:00:00,27.308328,84.531742,PM2.5,20,150,69
India,Bihar,Manguraha,"Forest Rest House, Manguraha - BSPCB",03-02-2024 19:00:00,27.308328,84.531742,PM10,37,157,85
India,Bihar,Manguraha,"Forest Rest House, Manguraha - BSPCB",03-02-2024 19:00:00,27.308328,84.531742,CO,1,108,30
India,Bihar,Motihari,"Gandak Colony, Motihari - BSPCB",03-02-2024 19:00:00,26.63086,84.90051,PM2.5,53,140,79
India,Bihar,Motihari,"Gandak Colony, Motihari - BSPCB",03-02-2024 19:00:00,26.63086,84.90051,NH3,7,9,8
India,Bihar,Motihari,"Gandak Colony, Motihari - BSPCB",03-02-2024 19:00:00,26.63086,84.90051,OZONE,32,96,77
India,Bihar,Munger,"Town Hall, Munger - BSPCB",03-02-2024 19:00:00,25.376776,86.471523,PM10,67,196,112
India,Bihar,Muzaffarpur,"Buddha Colony, Muzaffarpur - BSPCB",03-02-2024 19:00:00,26.11442,85.39813,PM10,NA,NA,NA
India,Bihar,Muzaffarpur,"Buddha Colony, Muzaffarpur - BSPCB",03-02-2024 19:00:00,26.11442,85.39813,CO,4,50,10
India,Bihar,Muzaffarpur,"MIT-Daudpur Kothi, Muzaffarpur - BSPCB",03-02-2024 19:00:00,26.1403345,85.3650192,PM10,79,183,124
India,Bihar,Muzaffarpur,"MIT-Daudpur Kothi, Muzaffarpur - BSPCB",03-02-2024 19:00:00,26.1403345,85.3650192,NH3,3,4,4
India,Bihar,Muzaffarpur,"Muzaffarpur Collectorate, Muzaffarpur - BSPCB",03-02-2024 19:00:00,26.1209,85.3647,PM2.5,41,300,125
India,Bihar,Muzaffarpur,"Muzaffarpur Collectorate, Muzaffarpur - BSPCB",03-02-2024 19:00:00,26.1209,85.3647,NO2,1,9,7
India,Bihar,Patna,"DRM Office Danapur, Patna - BSPCB",03-02-2024 19:00:00,25.586562,85.043586,SO2,6,9,8
India,Bihar,Patna,"Govt. High School Shikarpur, Patna - BSPCB",03-02-2024 19:00:00,25.592539,85.227158,PM10,114,256,160
India,Bihar,Patna,"Govt. High School Shikarpur, Patna - BSPCB",03-02-2024 19:00:00,25.592539,85.227158,SO2,2,9,6
India,Bihar,Patna,"IGSC Planetarium Complex, Patna - BSPCB",03-02-2024 19:00:00,25.610369,85.132568,PM2.5,21,92,43
India,Bihar,Patna,"Muradpur, Patna - BSPCB",03-02-2024 19:00:00,25.619651,85.147382,PM2.5,71,328,179
India,Bihar,Patna,"Muradpur, Patna - BSPCB",03-02-2024 19:00:00,25.619651,85.147382,NO2,9,20,13
India,Bihar,Patna,"Muradpur, Patna - BSPCB",03-02-2024 19:00:00,25.619651,85.147382,OZONE,16,85,72
India,Bihar,Patna,"Rajbansi Nagar, Patna - BSPCB",03-02-2024 19:00:00,25.599486,85.113666,NO2,63,92,73
India,Bihar,Patna,"Samanpura, Patna - BSPCB",03-02-2024 19:00:00,25.596727,85.085624,PM2.5,78,500,259
India,Bihar,Rajgir,"Dangi Tola, Rajgir - BSPCB",03-02-2024 19:00:00,25.03280,85.41948,CO,10,11,10
India,Bihar,Saharsa,"Police Line, Saharsa - BSPCB",03-02-2024 19:00:00,25.892357,86.590325,OZONE,20,70,54
India,Bihar,Samastipur,"DM Office_Kasipur, Samastipur - BSPCB",03-02-2024 19:00:00,25.859655,85.77944,SO2,4,14,10
India,Bihar,Sasaram,"Dada Peer, Sasaram - BSPCB",03-02-2024 19:00:00,24.952822,84.002396,PM10,55,121,85
India,Bihar,Sasaram,"Dada Peer, Sasaram - BSPCB",03-02-2024 19:00:00,24.952822,84.002396,OZONE,4,6,4
India,Chandigarh,Chandigarh,"Sector 22, Chandigarh - CPCC",03-02-2024 19:00:00,30.735567,76.775714,PM2.5,42,237,84
India,Chandigarh,Chandigarh,"Sector 22, Chandigarh - CPCC",03-02-2024 19:00:00,30.735567,76.775714,CO,34,79,47
India,Chandigarh,Chandigarh,"Sector-53, Chandigarh - CPCC",03-02-2024 19:00:00,30.719859,76.738637,PM2.5,30,280,77
India,Chandigarh,Chandigarh,"Sector-53, Chandigarh - CPCC",03-02-2024 19:00:00,30.719859,76.738637,CO,34,100,55
India,Chandigarh,Chandigarh,"Sector-53, Chandigarh - CPCC",03-02-2024 19:00:00,30.719859,76.738637,OZONE,6,36,21
India,Chhattisgarh,Bhilai,"32Bungalows, Bhilai - CECB",03-02-2024 19:00:00,21.194815,81.314770,NO2,19,29,23
India,Chhattisgarh,Bhilai,"32Bungalows, Bhilai - CECB",03-02-2024 19:00:00,21.194815,81.314770,OZONE,4,7,5
India,Chhattisgarh,Bhilai,"Civic Center, Bhilai - Bhilai Steel Plant",03-02-2024 19:00:00,21.185571,81.343175,NO2,NA,NA,NA
India,Chhattisgarh,Bhilai,"Civic Center, Bhilai - Bhilai Steel Plant",03-02-2024 19:00:00,21.185571,81.343175,OZONE,7,38,25
India,Chhattisgarh,Bilaspur,"Mangala, Bilaspur - NTPC",03-02-2024 19:00:00,22.08815,82.13737,PM10,32,90,60
India,Chhattisgarh,Chhal,"Nawapara SECL Colony, Chhal - CECB",03-02-2024 19:00:00,22.118125,83.140608,PM10,44,107,70
India,Chhattisgarh,Chhal,"Nawapara SECL Colony, Chhal - CECB",03-02-2024 19:00:00,22.118125,83.140608,CO,36,98,48
India,Chhattisgarh,Kunjemura,"OP Jindal School, Kunjemura - CECB",03-02-2024 19:00:00,22.126650,83.483212,PM2.5,14,323,74
India,Chhattisgarh,Kunjemura,"OP Jindal School, Kunjemura - CECB",03-02-2024 19:00:00,22.126650,83.483212,PM10,44,500,157
India,Chhattisgarh,Kunjemura,"OP Jindal School, Kunjemura - CECB",03-02-2024 19:00:00,22.126650,83.483212,NH3,1,4,2
India,Chhattisgarh,Kunjemura,"OP Jindal School, Kunjemura - CECB",03-02-2024 19:00:00,22.126650,83.483212,CO,16,106,20
India,Chhattisgarh,Milupara,"Govt. Higher Secondary School, Milupara - CECB",03-02-2024 19:00:00,22.1910172,83.5197009,SO2,9,16,11
India,Chhattisgarh,Raipur,"Bhatagaon New ISBT, Raipur - CECB",03-02-2024 19:00:00,21.219665,81.630094,PM10,40,125,77
India,Chhattisgarh,Raipur,"Bhatagaon New ISBT, Raipur - CECB",03-02-2024 19:00:00,21.219665,81.630094,CO,22,56,27
India,Chhattisgarh,Raipur,"Krishak Nagar, Raipur - CECB",03-02-2024 19:00:00,21.237755,81.705301,PM2.5,35,60,49
India,Chhattisgarh,Raipur,"Krishak Nagar, Raipur - CECB",03-02-2024 19:00:00,21.237755,81.705301,NH3,1,1,1
India,Chhattisgarh,Raipur,"Krishak Nagar, Raipur - CECB",03-02-2024 19:00:00,21.237755,81.705301,OZONE,3,6,4
India,Chhattisgarh,Raipur,"Siltara Phase-II, Raipur - CECB",03-02-2024 19:00:00,21.371751,81.664929,NH3,3,3,3
India,Chhattisgarh,Raipur,"Siltara Phase-II, Raipur - CECB",03-02-2024 19:00:00,21.371751,81.664929,OZONE,3,8,5
India,Delhi,Delhi,"Anand Vihar, Delhi - DPCC",03-02-2024 19:00:00,28.647622,77.3158090,NH3,5,9,7
India,Delhi,Delhi,"Anand Vihar, Delhi - DPCC",03-02-2024 19:00:00,28.647622,77.3158090,OZONE,15,16,15
India,Delhi,Delhi,"Ashok Vihar, Delhi - DPCC",03-02-2024 19:00:00,28.695381,77.181665,OZONE,4,11,7
India,Delhi,Delhi,"Aya Nagar, Delhi - IMD",03-02-2024 19:00:00,28.4706914,77.1099364,CO,NA,NA,NA
India,Delhi,Delhi,"Bawana, Delhi - DPCC",03-02-2024 19:00:00,28.776200,77.051074,PM10,86,172,131
India,Delhi,Delhi,"Burari Crossing, Delhi - IMD",03-02-2024 19:00:00,28.7256504,77.2011573,PM2.5,79,344,200
India,Delhi,Delhi,"Dwarka-Sector 8, Delhi - DPCC ",03-02-2024 19:00:00,28.5710274,77.0719006,PM2.5,68,325,176
India,Delhi,Delhi,"Dwarka-Sector 8, Delhi - DPCC ",03-02-2024 19:00:00,28.5710274,77.0719006,PM10,79,258,137
India,Delhi,Delhi,"IGI Airport (T3), Delhi - IMD",03-02-2024 19:00:00,28.5627763,77.1180053,PM2.5,64,184,141
India,Delhi,Delhi,"IHBAS, Dilshad Garden, Delhi - CPCB",03-02-2024 19:00:00,28.6811736,77.3025234,PM2.5,59,163,95
India,Delhi,Delhi,"IHBAS, Dilshad Garden, Delhi - CPCB",03-02-2024 19:00:00,28.6811736,77.3025234,CO,14,92,44
India,Delhi,Delhi,"Jahangirpuri, Delhi - DPCC",03-02-2024 19:00:00,28.732820,77.170633,NO2,34,106,56
India,Delhi,Delhi,"Jahangirpuri, Delhi - DPCC",03-02-2024 19:00:00,28.732820,77.170633,NH3,2,69,17
India,Delhi,Delhi,"Jahangirpuri, Delhi - DPCC",03-02-2024 19:00:00,28.732820,77.170633,SO2,12,38,21
India,Delhi,Delhi,"Jawaharlal Nehru Stadium, Delhi - DPCC",03-02-2024 19:00:00,28.580280,77.233829,PM2.5,48,321,169
India,Delhi,Delhi,"Jawaharlal Nehru Stadium, Delhi - DPCC",03-02-2024 19:00:00,28.580280,77.233829,PM10,95,173,133
India,Delhi,Delhi,"Jawaharlal Nehru Stadium, Delhi - DPCC",03-02-2024 19:00:00,28.580280,77.233829,NO2,49,125,78
India,Delhi,Delhi,"Lodhi Road, Delhi - IMD",03-02-2024 19:00:00,28.5918245,77.2273074,PM2.5,27,103,58
India,Delhi,Delhi,"Major Dhyan Chand National Stadium, Delhi - DPCC",03-02-2024 19:00:00,28.611281,77.237738,NH3,7,12,9
India,Delhi,Delhi,"Major Dhyan Chand National Stadium, Delhi - DPCC",03-02-2024 19:00:00,28.611281,77.237738,SO2,2,31,13
India,Delhi,Delhi,"NSIT Dwarka, Delhi - CPCB",03-02-2024 19:00:00,28.60909,77.0325413,SO2,7,18,13
India,Delhi,Delhi,"Najafgarh, Delhi - DPCC",03-02-2024 19:00:00,28.570173,76.933762,NH3,5,7,6
India,Delhi,Delhi,"Narela, Delhi - DPCC",03-02-2024 19:00:00,28.822836,77.101981,NH3,NA,NA,NA
India,Delhi,Delhi,"Narela, Delhi - DPCC",03-02-2024 19:00:00,28.822836,77.101981,CO,NA,NA,NA
India,Delhi,Delhi,"North Campus, DU, Delhi - IMD",03-02-2024 19:00:00,28.6573814,77.1585447,PM10,106,180,145
India,Delhi,Delhi,"North Campus, DU, Delhi - IMD",03-02-2024 19:00:00,28.6573814,77.1585447,CO,25,43,33
India,Delhi,Delhi,"Okhla Phase-2, Delhi - DPCC",03-02-2024 19:00:00,28.530785,77.271255,NH3,8,16,12
India,Delhi,Delhi,"Patparganj, Delhi - DPCC",03-02-2024 19:00:00,28.623763,77.287209,SO2,9,13,11
India,Delhi,Delhi,"Pusa, Delhi - DPCC",03-02-2024 19:00:00,28.639652,77.146275,PM2.5,181,383,272
India,Delhi,Delhi,"Pusa, Delhi - DPCC",03-02-2024 19:00:00,28.639652,77.146275,NH3,23,38,28
India,Delhi,Delhi,"Pusa, Delhi - DPCC",03-02-2024 19:00:00,28.639652,77.146275,OZONE,14,26,21
India,Delhi,Delhi,"Pusa, Delhi - IMD",03-02-2024 19:00:00,28.636110,77.173332,PM10,69,452,144
India,Delhi,Delhi,"R K Puram, Delhi - DPCC",03-02-2024 19:00:00,28.563262,77.186937,NH3,4,9,6
India,Delhi,Delhi,"Rohini, Delhi - DPCC",03-02-2024 19:00:00,28.732528,77.119920,SO2,10,26,14
India,Delhi,Delhi,"Rohini, Delhi - DPCC",03-02-2024 19:00:00,28.732528,77.119920,CO,18,78,43
India,Delhi,Delhi,"Shadipur, Delhi - CPCB",03-02-2024 19:00:00,28.6514781,77.1473105,NO2,35,51,43
India,Delhi,Delhi,"Sirifort, Delhi - CPCB",03-02-2024 19:00:00,28.5504249,77.2159377,NO2,145,196,166
India,Delhi,Delhi,"Sirifort, Delhi - CPCB",03-02-2024 19:00:00,28.5504249,77.2159377,NH3,10,15,13
India,Delhi,Delhi,"Sonia Vihar, Delhi - DPCC",03-02-2024 19:00:00,28.710508,77.249485,NO2,36,102,67
India,Delhi,Delhi,"Sri Aurobindo Marg, Delhi - DPCC",03-02-2024 19:00:00,28.531346,77.190156,PM2.5,27,273,158
India,Delhi,Delhi,"Wazirpur, Delhi - DPCC",03-02-2024 19:00:00,28.699793,77.165453,PM2.5,126,360,275
India,Delhi,Delhi,"Wazirpur, Delhi - DPCC",03-02-2024 19:00:00,28.699793,77.165453,NH3,2,6,4
India,Gujarat,Ahmedabad,"Gyaspur, Ahmedabad - IITM",03-02-2024 19:00:00,22.977134,72.553024,NH3,3,4,4
India,Gujarat,Ahmedabad,"Raikhad, Ahmedabad - IITM",03-02-2024 19:00:00,23.020509,72.579261,PM10,40,134,82
India,Gujarat,Ahmedabad,"Raikhad, Ahmedabad - IITM",03-02-2024 19:00:00,23.020509,72.579261,NO2,12,18,13
India,Gujarat,Ahmedabad,"Rakhial, Ahmedabad - IITM",03-02-2024 19:00:00,23.016834,72.625775,NO2,8,140,43
India,Gujarat,Ahmedabad,"SAC ISRO Bopal, Ahmedabad - IITM",03-02-2024 19:00:00,23.041137,72.456691,PM10,66,340,119
India,Gujarat,Ahmedabad,"SAC ISRO Bopal, Ahmedabad - IITM",03-02-2024 19:00:00,23.041137,72.456691,NO2,11,18,15
India,Gujarat,Ahmedabad,"SAC ISRO Satellite, Ahmedabad - IITM",03-02-2024 19:00:00,23.023389,72.515201,PM2.5,139,180,161
India,Gujarat,Ahmedabad,"SAC ISRO Satellite, Ahmedabad - IITM",03-02-2024 19:00:00,23.023389,72.515201,CO,39,41,40
India,Gujarat,Ahmedabad,"SAC ISRO Satellite, Ahmedabad - IITM",03-02-2024 19:00:00,23.023389,72.515201,OZONE,1,20,17
India,Gujarat,Ahmedabad,"SVPI Airport Hansol, Ahmedabad - IITM",03-02-2024 19:00:00,23.076793,72.627874,CO,36,117,44
India,Gujarat,Ahmedabad,"Sardar Vallabhbhai Patel Stadium, Ahmedabad - IITM",03-02-2024 19:00:00,23.043070,72.562968,NO2,12,14,13
India,Gujarat,Ahmedabad,"Sardar Vallabhbhai Patel Stadium, Ahmedabad - IITM",03-02-2024 19:00:00,23.043070,72.562968,OZONE,9,24,18
India,Gujarat,Ankleshwar,"GIDC, Ankleshwar - GPCB",03-02-2024 19:00:00,21.613267,73.010555,NO2,33,34,34
India,Gujarat,Gandhinagar,"GIFT City, Gandhinagar - IITM",03-02-2024 19:00:00,23.163798,72.677768,NO2,9,13,10
India,Gujarat,Gandhinagar,"Sector-10, Gandhinagar - GPCB",03-02-2024 19:00:00,23.221714,72.654328,OZONE,2,40,32
India,Gujarat,Surat,"Science Center, Surat - SMC",03-02-2024 19:00:00,21.170046,72.795405,PM10,22,131,52
India,Gujarat,Surat,"Science Center, Surat - SMC",03-02-2024 19:00:00,21.170046,72.795405,SO2,17,28,19
India,Gujarat,Vapi,"Phase-1 GIDC, Vapi - GPCB",03-02-2024 19:00:00,20.362421,72.918013,NH3,16,19,17
India,Gujarat,Vatva,"Phase-4 GIDC, Vatva - GPCB",03-02-2024 19:00:00,22.969611,72.643500,OZONE,2,3,2
India,Haryana,Ambala,"Patti Mehar, Ambala - HSPCB",03-02-2024 19:00:00,30.379589,76.778328,PM2.5,15,51,34
India,Haryana,Ambala,"Patti Mehar, Ambala - HSPCB",03-02-2024 19:00:00,30.379589,76.778328,NO2,2,232,131
India,Haryana,Ambala,"Patti Mehar, Ambala - HSPCB",03-02-2024 19:00:00,30.379589,76.778328,NH3,4,11,7
India,Haryana,Ambala,"Patti Mehar, Ambala - HSPCB",03-02-2024 19:00:00,30.379589,76.778328,SO2,1,47,14
India,Haryana,Bahadurgarh,"Arya Nagar, Bahadurgarh - HSPCB",03-02-2024 19:00:00,28.6701,76.9254,SO2,12,20,15
India,Haryana,Ballabgarh,"Nathu Colony, Ballabgarh - HSPCB",03-02-2024 19:00:00,28.3419248,77.319699,NO2,11,13,12
India,Haryana,Charkhi Dadri,"Mini Secretariat, Charkhi Dadri - HSPCB",03-02-2024 19:00:00,28.593883,76.270653,PM2.5,33,231,114
India,Haryana,Charkhi Dadri,"Mini Secretariat, Charkhi Dadri - HSPCB",03-02-2024 19:00:00,28.593883,76.270653,CO,10,90,29
India,Haryana,Dharuhera,"Municipal Corporation Office, Dharuhera -  HSPCB",03-02-2024 19:00:00,28.206800,76.799700,SO2,11,25,15
India,Haryana,Faridabad,"Sector 11, Faridabad - HSPCB",03-02-2024 19:00:00,28.376058,77.315741,NO2,30,34,31
India,Haryana,Fatehabad,"Huda Sector, Fatehabad - HSPCB",03-02-2024 19:00:00,29.503664,75.467934,PM2.5,41,190,93
India,Haryana,Fatehabad,"Huda Sector, Fatehabad - HSPCB",03-02-2024 19:00:00,29.503664,75.467934,SO2,2,14,8
India,Haryana,Fatehabad,"Huda Sector, Fatehabad - HSPCB",03-02-2024 19:00:00,29.503664,75.467934,OZONE,20,38,23
India,Haryana,Gurugram,"Sector-51, Gurugram - HSPCB",03-02-2024 19:00:00,28.4227,77.0667,NO2,13,29,23
India,Haryana,Gurugram,"Sector-51, Gurugram - HSPCB",03-02-2024 19:00:00,28.4227,77.0667,SO2,3,6,3
India,Haryana,Gurugram,"Teri Gram, Gurugram - HSPCB",03-02-2024 19:00:00,28.4275,77.1465,SO2,3,5,4
India,Haryana,Gurugram,"Vikas Sadan, Gurugram - HSPCB",03-02-2024 19:00:00,28.4501238,77.0263051,PM2.5,96,232,154
India,Haryana,Jind,"Police Lines, Jind - HSPCB",03-02-2024 19:00:00,29.307814,76.337619,NH3,NA,NA,NA
India,Haryana,Kaithal,"Rishi Nagar, Kaithal - HSPCB",03-02-2024 19:00:00,29.8006,76.4155,PM10,47,194,76
India,Haryana,Karnal,"Sector-12, Karnal - HSPCB",03-02-2024 19:00:00,29.695300,77.002700,NO2,7,12,10
India,Haryana,Mandikhera,"General Hospital, Mandikhera - HSPCB",03-02-2024 19:00:00,27.9002,76.9938,PM10,50,81,64
India,Haryana,Manesar,"Sector-2 IMT, Manesar - HSPCB",03-02-2024 19:00:00,28.360699,76.936090,NH3,1,7,5
India,Haryana,Palwal,"Shyam Nagar, Palwal - HSPCB",03-02-2024 19:00:00,28.1485564,77.3320667,PM2.5,31,72,47
India,Haryana,Palwal,"Shyam Nagar, Palwal - HSPCB",03-02-2024 19:00:00,28.1485564,77.3320667,PM10,44,109,91
India,Haryana,Palwal,"Shyam Nagar, Palwal - HSPCB",03-02-2024 19:00:00,28.1485564,77.3320667,SO2,5,23,14
India,Haryana,Panipat,"Sector-18, Panipat - HSPCB",03-02-2024 19:00:00,29.497973,76.993331,PM2.5,127,140,133
India,Haryana,Panipat,"Sector-18, Panipat - HSPCB",03-02-2024 19:00:00,29.497973,76.993331,NH3,2,3,2
India,Haryana,Sirsa,"F-Block, Sirsa - HSPCB",03-02-2024 19:00:00,29.536400,75.015800,PM2.5,NA,NA,NA
India,Haryana,Sirsa,"F-Block, Sirsa - HSPCB",03-02-2024 19:00:00,29.536400,75.015800,SO2,NA,NA,NA
India,Haryana,Sonipat,"Murthal, Sonipat - HSPCB",03-02-2024 19:00:00,29.027200,77.062100,NH3,5,10,9
India,Haryana,Sonipat,"Murthal, Sonipat - HSPCB",03-02-2024 19:00:00,29.027200,77.062100,CO,2,22,14
India,Haryana,Sonipat,"Murthal, Sonipat - HSPCB",03-02-2024 19:00:00,29.027200,77.062100,OZONE,17,36,35
India,Haryana,Yamuna Nagar,"Gobind Pura, Yamuna Nagar - HSPCB",03-02-2024 19:00:00,30.1480566,77.2893471,NO2,5,5,5
India,Haryana,Yamuna Nagar,"Gobind Pura, Yamuna Nagar - HSPCB",03-02-2024 19:00:00,30.1480566,77.2893471,NH3,3,5,4
India,Haryana,Yamuna Nagar,"Gobind Pura, Yamuna Nagar - HSPCB",03-02-2024 19:00:00,30.1480566,77.2893471,OZONE,5,19,13
India,Himachal Pradesh,Baddi,"HIMUDA Complex Phase-1, Baddi - HPPCB",03-02-2024 19:00:00,30.943887,76.801991,SO2,NA,NA,NA
India,Jammu_and_Kashmir,Srinagar,"Rajbagh, Srinagar - JKSPCB",03-02-2024 19:00:00,34.066206,74.819820,PM10,NA,NA,NA
India,Jammu_and_Kashmir,Srinagar,"Rajbagh, Srinagar - JKSPCB",03-02-2024 19:00:00,34.066206,74.819820,SO2,NA,NA,NA
India,Jammu_and_Kashmir,Srinagar,"Rajbagh, Srinagar - JKSPCB",03-02-2024 19:00:00,34.066206,74.819820,OZONE,NA,NA,NA
India,Jharkhand,Dhanbad,"Kalakusuma, Dhanbad - DMC",03-02-2024 19:00:00,23.811548,86.481238,PM2.5,NA,NA,NA
India,Jharkhand,Pathardih,"Mohalbani Ghat, Pathardih - DMC",03-02-2024 19:00:00,23.669880,86.411725,PM2.5,NA,NA,NA
India,Karnataka,Bagalkot,"Vidayagiri, Bagalkot - KSPCB",03-02-2024 19:00:00,16.172806,75.659694,NH3,1,2,1
India,Karnataka,Belgaum,"Ramteerth Nagar, Belgaum - KSPCB",03-02-2024 19:00:00,15.888653,74.541751,NH3,33,34,33
India,Karnataka,Bengaluru,"BTM Layout, Bengaluru - CPCB",03-02-2024 19:00:00,12.9135218,77.5950804,NH3,11,17,13
India,Karnataka,Bengaluru,"Bapuji Nagar, Bengaluru - KSPCB",03-02-2024 19:00:00,12.951913,77.539784,SO2,6,7,7
India,Karnataka,Bengaluru,"City Railway Station, Bengaluru - KSPCB",03-02-2024 19:00:00,12.9756843,77.5660749,PM10,62,111,75
India,Karnataka,Bengaluru,"Hebbal, Bengaluru - KSPCB",03-02-2024 19:00:00,13.029152,77.585901,PM10,NA,NA,NA
India,Karnataka,Bengaluru,"Hebbal, Bengaluru - KSPCB",03-02-2024 19:00:00,13.029152,77.585901,NO2,NA,NA,NA
India,Karnataka,Bengaluru,"Hebbal, Bengaluru - KSPCB",03-02-2024 19:00:00,13.029152,77.585901,OZONE,7,47,18
India,Karnataka,Bengaluru,"Hombegowda Nagar, Bengaluru - KSPCB",03-02-2024 19:00:00,12.938539,77.590100,PM10,56,143,83
India,Karnataka,Bengaluru,"Jigani, Bengaluru - KSPCB",03-02-2024 19:00:00,12.7816279,77.6299145,PM2.5,3,252,107
India,Karnataka,Bengaluru,"Jigani, Bengaluru - KSPCB",03-02-2024 19:00:00,12.7816279,77.6299145,PM10,30,188,97
India,Karnataka,Bengaluru,"Jigani, Bengaluru - KSPCB",03-02-2024 19:00:00,12.7816279,77.6299145,SO2,6,11,9
India,Karnataka,Bengaluru,"Kasturi Nagar, Bengaluru - KSPCB",03-02-2024 19:00:00,13.003872,77.664217,NH3,3,4,4
India,Karnataka,Bengaluru,"Peenya, Bengaluru - CPCB",03-02-2024 19:00:00,13.0270199,77.494094,NO2,7,12,9
India,Karnataka,Bengaluru,"RVCE-Mailasandra, Bengaluru - KSPCB",03-02-2024 19:00:00,12.921418,77.502466,PM10,82,419,158
India,Karnataka,Bengaluru,"RVCE-Mailasandra, Bengaluru - KSPCB",03-02-2024 19:00:00,12.921418,77.502466,CO,40,87,59
India,Karnataka,Bengaluru,"Sanegurava Halli, Bengaluru - KSPCB",03-02-2024 19:00:00,12.990328,77.5431385,CO,3,35,19
India,Karnataka,Bengaluru,"Shivapura_Peenya, Bengaluru - KSPCB",03-02-2024 19:00:00,13.0246342,77.5080115,NO2,15,16,16
India,Karnataka,Bengaluru,"Shivapura_Peenya, Bengaluru - KSPCB",03-02-2024 19:00:00,13.0246342,77.5080115,SO2,5,12,8
India,Karnataka,Bidar,"Naubad, Bidar - KSPCB",03-02-2024 19:00:00,17.930306,77.482194,SO2,15,18,16
India,Karnataka,Chamarajanagar,"Urban, Chamarajanagar - KSPCB",03-02-2024 19:00:00,11.55358,76.55521,CO,19,35,22
India,Karnataka,Chikkamagaluru,"Kalyana Nagara, Chikkamagaluru - KSPCB",03-02-2024 19:00:00,13.328028,75.797056,SO2,1,4,2
India,Karnataka,Chikkamagaluru,"Kalyana Nagara, Chikkamagaluru - KSPCB",03-02-2024 19:00:00,13.328028,75.797056,OZONE,16,77,66
India,Karnataka,Davanagere,"Devaraj Urs Badavane, Davanagere - KSPCB",03-02-2024 19:00:00,14.475800,75.905200,NO2,9,16,11
India,Karnataka,Davanagere,"Devaraj Urs Badavane, Davanagere - KSPCB",03-02-2024 19:00:00,14.475800,75.905200,OZONE,22,29,26
India,Karnataka,Dharwad,"Kalabhavan, Dharwad - KSPCB",03-02-2024 19:00:00,15.459706,75.008381,PM10,48,134,95
India,Karnataka,Dharwad,"Kalabhavan, Dharwad - KSPCB",03-02-2024 19:00:00,15.459706,75.008381,NO2,3,28,19
India,Karnataka,Dharwad,"Kalabhavan, Dharwad - KSPCB",03-02-2024 19:00:00,15.459706,75.008381,NH3,3,3,3
India,Karnataka,Gadag,"Panchal Nagar, Gadag - KSPCB",03-02-2024 19:00:00,15.411456,75.638133,PM2.5,21,80,44
India,Karnataka,Gadag,"Panchal Nagar, Gadag - KSPCB",03-02-2024 19:00:00,15.411456,75.638133,PM10,24,85,47
