country,state,city,station,last_update,latitude,longitude,pollutant_id,pollutant_min,pollutant_max,pollutant_avg
India,Andhra_Pradesh,Amaravati,"Secretariat, Amaravati - APPCB",03-08-2024 02:00:00,16.5150833,80.5181667,NO2,3,16,9
India,Andhra_Pradesh,Anantapur,"Gulzarpet, Anantapur - APPCB",03-08-2024 02:00:00,14.675886,77.593027,CO,11,39,23
India,Andhra_Pradesh,Chittoor,"Gangineni Cheruvu, Chittoor - APPCB",03-08-2024 02:00:00,13.204880,79.097889,NH3,3,4,3
India,Andhra_Pradesh,Rajamahendravaram,"Anand Kala Kshetram, Rajamahendravaram - APPCB",03-08-2024 02:00:00,16.9872867,81.7363176,SO2,10,13,12
India,Andhra_Pradesh,Tirupati,"Tirumala, Tirupati - APPCB",03-08-2024 02:00:00,13.67,79.35,PM10,10,45,28
India,Andhra_Pradesh,Tirupati,"Tirumala, Tirupati - APPCB",03-08-2024 02:00:00,13.67,79.35,NO2,10,28,18
India,Andhra_Pradesh,Tirupati,"Vaikuntapuram, Tirupati - APPCB",03-08-2024 02:00:00,13.615387,79.409230,PM2.5,12,348,74
India,Andhra_Pradesh,Vijayawada,"Kanuru, Vijayawada - APPCB",03-08-2024 02:00:00,16.486692,80.699436,PM2.5,31,43,38
India,Andhra_Pradesh,Vijayawada,"Kanuru, Vijayawada - APPCB",03-08-2024 02:00:00,16.486692,80.699436,CO,10,18,15
India,Andhra_Pradesh,Vijayawada,"Kanuru, Vijayawada - APPCB",03-08-2024 02:00:00,16.486692,80.699436,OZONE,22,27,23
India,Andhra_Pradesh,Vijayawada,"Rajiv Gandhi Park, Vijayawada - APPCB",03-08-2024 02:00:00,16.509717,80.612222,PM2.5,37,54,45
India,Andhra_Pradesh,Vijayawada,"Rajiv Nagar, Vijayawada - APPCB",03-08-2024 02:00:00,16.554731,80.649110,NH3,1,2,2
India,Andhra_Pradesh,Vijayawada,"Rajiv Nagar, Vijayawada - APPCB",03-08-2024 02:00:00,16.554731,80.649110,OZONE,15,24,19
India,Andhra_Pradesh,Visakhapatnam,"GVM Corporation, Visakhapatnam - APPCB",03-08-2024 02:00:00,17.72,83.3,OZONE,11,15,13
India,Arunachal_Pradesh,Naharlagun,"Naharlagun, Naharlagun - APSPCB",03-08-2024 02:00:00,27.103358,93.679645,PM10,4,51,21
India,Arunachal_Pradesh,Naharlagun,"Naharlagun, Naharlagun - APSPCB",03-08-2024 02:00:00,27.103358,93.679645,NO2,3,3,3
India,Arunachal_Pradesh,Naharlagun,"Naharlagun, Naharlagun - APSPCB",03-08-2024 02:00:00,27.103358,93.679645,SO2,4,4,4
India,Arunachal_Pradesh,Naharlagun,"Naharlagun, Naharlagun - APSPCB",03-08-2024 02:00:00,27.103358,93.679645,OZONE,3,3,3
India,Assam,Guwahati,"LGBI Airport, Guwahati - PCBA",03-08-2024 02:00:00,26.10887,91.589544,PM10,6,405,92
India,Assam,Guwahati,"LGBI Airport, Guwahati - PCBA",03-08-2024 02:00:00,26.10887,91.589544,NH3,1,4,2
India,Assam,Nagaon,"Christianpatty, Nagaon - PCBA",03-08-2024 02:00:00,26.349082,92.68449,CO,40,64,50
India,Assam,Nalbari,"Bata Chowk, Nalbari - PCBA",03-08-2024 02:00:00,26.446912,91.439057,PM10,9,99,59
India,Assam,Silchar,"Tarapur, Silchar - PCBA",03-08-2024 02:00:00,24.82827,92.79525,PM2.5,36,41,37
India,Assam,Silchar,"Tarapur, Silchar - PCBA",03-08-2024 02:00:00,24.82827,92.79525,PM10,41,65,52
India,Assam,Silchar,"Tarapur, Silchar - PCBA",03-08-2024 02:00:00,24.82827,92.79525,NH3,1,1,1
India,Bihar,Araria,"Kharahiya Basti, Araria - BSPCB",03-08-2024 02:00:00,26.146529,87.454184,PM10,NA,NA,NA
India,Bihar,Araria,"Kharahiya Basti, Araria - BSPCB",03-08-2024 02:00:00,26.146529,87.454184,OZONE,1,10,6
India,Bihar,Aurangabad,"Gurdeo Nagar, Aurangabad - BSPCB",03-08-2024 02:00:00,24.75746,84.366208,PM2.5,NA,NA,NA
India,Bihar,Aurangabad,"Gurdeo Nagar, Aurangabad - BSPCB",03-08-2024 02:00:00,24.75746,84.366208,SO2,6,14,8
India,Bihar,Aurangabad,"Gurdeo Nagar, Aurangabad - BSPCB",03-08-2024 02:00:00,24.75746,84.366208,OZONE,12,32,22
India,Bihar,Bhagalpur,"DM Office_Kachari Chowk, Bhagalpur - BSPCB",03-08-2024 02:00:00,25.251013,86.989001,PM10,NA,NA,NA
India,Bihar,Bhagalpur,"DM Office_Kachari Chowk, Bhagalpur - BSPCB",03-08-2024 02:00:00,25.251013,86.989001,OZONE,38,53,47
India,Bihar,Bhagalpur,"Mayaganj, Bhagalpur - BSPCB",03-08-2024 02:00:00,25.265194,87.012947,PM2.5,NA,NA,NA
India,Bihar,Bhagalpur,"Mayaganj, Bhagalpur - BSPCB",03-08-2024 02:00:00,25.265194,87.012947,SO2,NA,NA,NA
India,Bihar,Bihar Sharif,"D M Colony, Bihar Sharif - BSPCB",03-08-2024 02:00:00,25.204762,85.514960,PM2.5,NA,NA,NA
India,Bihar,Bihar Sharif,"D M Colony, Bihar Sharif - BSPCB",03-08-2024 02:00:00,25.204762,85.514960,NH3,NA,NA,NA
India,Bihar,Bihar Sharif,"D M Colony, Bihar Sharif - BSPCB",03-08-2024 02:00:00,25.204762,85.514960,SO2,NA,NA,NA
India,Bihar,Bihar Sharif,"D M Colony, Bihar Sharif - BSPCB",03-08-2024 02:00:00,25.204762,85.514960,OZONE,29,29,29
India,Bihar,Buxar,"Charitra Van, Buxar - BSPCB (Formerly known as Central Jail)",03-08-2024 02:00:00,25.567520,83.966379,OZONE,8,37,20
India,Bihar,Chhapra,"Darshan Nagar, Chhapra - BSPCB",03-08-2024 02:00:00,25.7808257,84.7446768,PM2.5,NA,NA,NA
India,Bihar,Chhapra,"Darshan Nagar, Chhapra - BSPCB",03-08-2024 02:00:00,25.7808257,84.7446768,SO2,1,8,3
India,Bihar,Gaya,"Kareemganj, Gaya - BSPCB",03-08-2024 02:00:00,24.792403,84.992416,NO2,17,22,19
India,Bihar,Gaya,"Kareemganj, Gaya - BSPCB",03-08-2024 02:00:00,24.792403,84.992416,NH3,3,4,3
India,Bihar,Katihar,"Mirchaibari, Katihar - BSPCB",03-08-2024 02:00:00,25.560083,87.553265,PM10,NA,NA,NA
India,Bihar,Kishanganj,"SDM Office_Khagra, Kishanganj - BSPCB",03-08-2024 02:00:00,26.0881305,87.93840336,NH3,6,8,7
India,Bihar,Motihari,"Gandak Colony, Motihari - BSPCB",03-08-2024 02:00:00,26.63086,84.90051,SO2,NA,NA,NA
India,Bihar,Munger,"Town Hall, Munger - BSPCB",03-08-2024 02:00:00,25.376776,86.471523,PM2.5,NA,NA,NA
India,Bihar,Munger,"Town Hall, Munger - BSPCB",03-08-2024 02:00:00,25.376776,86.471523,CO,2,14,10
India,Bihar,Munger,"Town Hall, Munger - BSPCB",03-08-2024 02:00:00,25.376776,86.471523,OZONE,2,3,2
India,Bihar,Muzaffarpur,"Buddha Colony, Muzaffarpur - BSPCB",03-08-2024 02:00:00,26.11442,85.39813,SO2,NA,NA,NA
India,Bihar,Muzaffarpur,"Buddha Colony, Muzaffarpur - BSPCB",03-08-2024 02:00:00,26.11442,85.39813,CO,5,65,7
India,Bihar,Muzaffarpur,"MIT-Daudpur Kothi, Muzaffarpur - BSPCB",03-08-2024 02:00:00,26.1403345,85.3650192,OZONE,NA,NA,NA
India,Bihar,Muzaffarpur,"Muzaffarpur Collectorate, Muzaffarpur - BSPCB",03-08-2024 02:00:00,26.1209,85.3647,PM2.5,12,20,18
India,Bihar,Patna,"Govt. High School Shikarpur, Patna - BSPCB",03-08-2024 02:00:00,25.592539,85.227158,PM2.5,26,44,31
India,Bihar,Patna,"Govt. High School Shikarpur, Patna - BSPCB",03-08-2024 02:00:00,25.592539,85.227158,PM10,26,79,47
India,Bihar,Patna,"IGSC Planetarium Complex, Patna - BSPCB",03-08-2024 02:00:00,25.610369,85.132568,NO2,14,14,14
India,Bihar,Patna,"IGSC Planetarium Complex, Patna - BSPCB",03-08-2024 02:00:00,25.610369,85.132568,CO,14,19,15
India,Bihar,Patna,"Muradpur, Patna - BSPCB",03-08-2024 02:00:00,25.619651,85.147382,NO2,5,33,10
India,Bihar,Patna,"Rajbansi Nagar, Patna - BSPCB",03-08-2024 02:00:00,25.599486,85.113666,SO2,1,13,9
India,Bihar,Patna,"Rajbansi Nagar, Patna - BSPCB",03-08-2024 02:00:00,25.599486,85.113666,OZONE,4,10,7
India,Bihar,Patna,"Samanpura, Patna - BSPCB",03-08-2024 02:00:00,25.596727,85.085624,OZONE,26,80,53
India,Bihar,Rajgir,"Dangi Tola, Rajgir - BSPCB",03-08-2024 02:00:00,25.03280,85.41948,NH3,NA,NA,NA
India,Bihar,Saharsa,"Police Line, Saharsa - BSPCB",03-08-2024 02:00:00,25.892357,86.590325,PM2.5,NA,NA,NA
India,Bihar,Saharsa,"Police Line, Saharsa - BSPCB",03-08-2024 02:00:00,25.892357,86.590325,SO2,NA,NA,NA
India,Bihar,Siwan,"Chitragupta Nagar, Siwan - BSPCB",03-08-2024 02:00:00,26.2271665,84.3570427,NO2,NA,NA,NA
India,Bihar,Siwan,"Chitragupta Nagar, Siwan - BSPCB",03-08-2024 02:00:00,26.2271665,84.3570427,SO2,NA,NA,NA
India,Chandigarh,Chandigarh,"Sector-25, Chandigarh - CPCC",03-08-2024 02:00:00,30.751462,76.762879,PM2.5,27,54,42
India,Chandigarh,Chandigarh,"Sector-25, Chandigarh - CPCC",03-08-2024 02:00:00,30.751462,76.762879,NH3,16,38,23
India,Chandigarh,Chandigarh,"Sector-53, Chandigarh - CPCC",03-08-2024 02:00:00,30.719859,76.738637,OZONE,6,72,14
India,Chhattisgarh,Bhilai,"32Bungalows, Bhilai - CECB",03-08-2024 02:00:00,21.194815,81.314770,PM2.5,11,31,16
India,Chhattisgarh,Bhilai,"32Bungalows, Bhilai - CECB",03-08-2024 02:00:00,21.194815,81.314770,CO,6,8,8
India,Chhattisgarh,Bhilai,"Hathkhoj, Bhilai - CECB",03-08-2024 02:00:00,21.224231,81.408350,PM2.5,12,22,14
India,Chhattisgarh,Bilaspur,"Mangala, Bilaspur - NTPC",03-08-2024 02:00:00,22.08815,82.13737,PM2.5,5,20,12
India,Chhattisgarh,Bilaspur,"Mangala, Bilaspur - NTPC",03-08-2024 02:00:00,22.08815,82.13737,NO2,8,11,10
India,Chhattisgarh,Chhal,"Nawapara SECL Colony, Chhal - CECB",03-08-2024 02:00:00,22.118125,83.140608,OZONE,NA,NA,NA
India,Chhattisgarh,Korba,"Rampur, Korba - CECB",03-08-2024 02:00:00,22.368195,82.746431,PM10,17,35,23
India,Chhattisgarh,Korba,"Urja Nagar, Korba - CECB",03-08-2024 02:00:00,22.348441,82.549611,SO2,5,6,5
India,Chhattisgarh,Kunjemura,"OP Jindal School, Kunjemura - CECB",03-08-2024 02:00:00,22.126650,83.483212,NO2,10,29,18
India,Chhattisgarh,Raipur,"AIIMS, Raipur - CECB",03-08-2024 02:00:00,21.258815,81.578979,OZONE,1,5,1
India,Chhattisgarh,Raipur,"Krishak Nagar, Raipur - CECB",03-08-2024 02:00:00,21.237755,81.705301,SO2,8,14,11
India,Chhattisgarh,Raipur,"Siltara Phase-II, Raipur - CECB",03-08-2024 02:00:00,21.371751,81.664929,PM10,NA,NA,NA
India,Delhi,Delhi,"Alipur, Delhi - DPCC",03-08-2024 02:00:00,28.815329,77.153010,NH3,6,11,7
India,Delhi,Delhi,"Anand Vihar, Delhi - DPCC",03-08-2024 02:00:00,28.647622,77.3158090,OZONE,85,128,124
India,Delhi,Delhi,"Ashok Vihar, Delhi - DPCC",03-08-2024 02:00:00,28.695381,77.181665,NH3,6,15,10
India,Delhi,Delhi,"Aya Nagar, Delhi - IMD",03-08-2024 02:00:00,28.4706914,77.1099364,PM2.5,7,285,49
India,Delhi,Delhi,"Burari Crossing, Delhi - IMD",03-08-2024 02:00:00,28.7256504,77.2011573,PM10,36,108,72
India,Delhi,Delhi,"Chandni Chowk, Delhi - IITM",03-08-2024 02:00:00,28.656756,77.227234,CO,8,70,34
India,Delhi,Delhi,"DTU, Delhi - CPCB",03-08-2024 02:00:00,28.7500499,77.1112615,PM2.5,8,69,34
India,Delhi,Delhi,"Dr. Karni Singh Shooting Range, Delhi - DPCC",03-08-2024 02:00:00,28.498571,77.264840,SO2,3,12,8
India,Delhi,Delhi,"IGI Airport (T3), Delhi - IMD",03-08-2024 02:00:00,28.5627763,77.1180053,PM2.5,16,61,43
India,Delhi,Delhi,"IGI Airport (T3), Delhi - IMD",03-08-2024 02:00:00,28.5627763,77.1180053,PM10,19,100,62
India,Delhi,Delhi,"IGI Airport (T3), Delhi - IMD",03-08-2024 02:00:00,28.5627763,77.1180053,CO,26,54,42
India,Delhi,Delhi,"IHBAS, Dilshad Garden, Delhi - CPCB",03-08-2024 02:00:00,28.6811736,77.3025234,NO2,11,53,30
India,Delhi,Delhi,"IHBAS, Dilshad Garden, Delhi - CPCB",03-08-2024 02:00:00,28.6811736,77.3025234,OZONE,11,17,16
India,Delhi,Delhi,"ITO, Delhi - CPCB",03-08-2024 02:00:00,28.628624,77.241060,SO2,4,50,15
India,Delhi,Delhi,"Jahangirpuri, Delhi - DPCC",03-08-2024 02:00:00,28.732820,77.170633,OZONE,20,43,35
India,Delhi,Delhi,"Jawaharlal Nehru Stadium, Delhi - DPCC",03-08-2024 02:00:00,28.580280,77.233829,OZONE,5,41,19
India,Delhi,Delhi,"Lodhi Road, Delhi - IMD",03-08-2024 02:00:00,28.5918245,77.2273074,CO,9,20,17
India,Delhi,Delhi,"Lodhi Road, Delhi - IMD",03-08-2024 02:00:00,28.5918245,77.2273074,OZONE,24,55,29
India,Delhi,Delhi,"Major Dhyan Chand National Stadium, Delhi - DPCC",03-08-2024 02:00:00,28.611281,77.237738,PM10,30,101,61
India,Delhi,Delhi,"Major Dhyan Chand National Stadium, Delhi - DPCC",03-08-2024 02:00:00,28.611281,77.237738,OZONE,1,37,13
India,Delhi,Delhi,"Mandir Marg, Delhi - DPCC",03-08-2024 02:00:00,28.636429,77.201067,SO2,4,9,6
India,Delhi,Delhi,"Mundka, Delhi - DPCC",03-08-2024 02:00:00,28.684678,77.076574,NO2,36,87,57
India,Delhi,Delhi,"Mundka, Delhi - DPCC",03-08-2024 02:00:00,28.684678,77.076574,OZONE,8,92,26
India,Delhi,Delhi,"NSIT Dwarka, Delhi - CPCB",03-08-2024 02:00:00,28.60909,77.0325413,CO,22,69,48
India,Delhi,Delhi,"NSIT Dwarka, Delhi - CPCB",03-08-2024 02:00:00,28.60909,77.0325413,OZONE,7,10,9
India,Delhi,Delhi,"Najafgarh, Delhi - DPCC",03-08-2024 02:00:00,28.570173,76.933762,PM2.5,12,67,33
India,Delhi,Delhi,"Najafgarh, Delhi - DPCC",03-08-2024 02:00:00,28.570173,76.933762,OZONE,5,31,16
India,Delhi,Delhi,"Narela, Delhi - DPCC",03-08-2024 02:00:00,28.822836,77.101981,NO2,16,49,29
India,Delhi,Delhi,"Nehru Nagar, Delhi - DPCC",03-08-2024 02:00:00,28.567890,77.250515,NH3,3,5,4
India,Delhi,Delhi,"New Moti Bagh, Delhi - MHUA",03-08-2024 02:00:00,28.57834,77.18400,PM2.5,10,64,30
India,Delhi,Delhi,"New Moti Bagh, Delhi - MHUA",03-08-2024 02:00:00,28.57834,77.18400,NO2,7,9,8
India,Delhi,Delhi,"Okhla Phase-2, Delhi - DPCC",03-08-2024 02:00:00,28.530785,77.271255,PM2.5,12,65,39
India,Delhi,Delhi,"Okhla Phase-2, Delhi - DPCC",03-08-2024 02:00:00,28.530785,77.271255,NO2,23,55,38
India,Delhi,Delhi,"Okhla Phase-2, Delhi - DPCC",03-08-2024 02:00:00,28.530785,77.271255,CO,8,76,61
India,Delhi,Delhi,"Patparganj, Delhi - DPCC",03-08-2024 02:00:00,28.623763,77.287209,PM10,30,120,70
India,Delhi,Delhi,"Pusa, Delhi - DPCC",03-08-2024 02:00:00,28.639652,77.146275,OZONE,5,7,7
India,Delhi,Delhi,"Pusa, Delhi - IMD",03-08-2024 02:00:00,28.636110,77.173332,OZONE,2,94,58
India,Delhi,Delhi,"R K Puram, Delhi - DPCC",03-08-2024 02:00:00,28.563262,77.186937,PM2.5,3,133,63
India,Delhi,Delhi,"R K Puram, Delhi - DPCC",03-08-2024 02:00:00,28.563262,77.186937,PM10,29,107,68
India,Delhi,Delhi,"R K Puram, Delhi - DPCC",03-08-2024 02:00:00,28.563262,77.186937,NO2,10,71,35
India,Delhi,Delhi,"R K Puram, Delhi - DPCC",03-08-2024 02:00:00,28.563262,77.186937,SO2,17,30,22
India,Delhi,Delhi,"R K Puram, Delhi - DPCC",03-08-2024 02:00:00,28.563262,77.186937,CO,19,56,42
India,Delhi,Delhi,"Rohini, Delhi - DPCC",03-08-2024 02:00:00,28.732528,77.119920,PM10,42,127,91
India,Delhi,Delhi,"Shadipur, Delhi - CPCB",03-08-2024 02:00:00,28.6514781,77.1473105,PM10,62,118,84
India,Delhi,Delhi,"Shadipur, Delhi - CPCB",03-08-2024 02:00:00,28.6514781,77.1473105,SO2,2,30,16
India,Delhi,Delhi,"Sirifort, Delhi - CPCB",03-08-2024 02:00:00,28.5504249,77.2159377,NO2,1,27,10
India,Delhi,Delhi,"Sonia Vihar, Delhi - DPCC",03-08-2024 02:00:00,28.710508,77.249485,SO2,3,8,6
India,Delhi,Delhi,"Sonia Vihar, Delhi - DPCC",03-08-2024 02:00:00,28.710508,77.249485,CO,32,68,49
India,Delhi,Delhi,"Sri Aurobindo Marg, Delhi - DPCC",03-08-2024 02:00:00,28.531346,77.190156,PM2.5,10,60,34
India,Delhi,Delhi,"Sri Aurobindo Marg, Delhi - DPCC",03-08-2024 02:00:00,28.531346,77.190156,CO,43,106,74
India,Delhi,Delhi,"Sri Aurobindo Marg, Delhi - DPCC",03-08-2024 02:00:00,28.531346,77.190156,OZONE,28,63,43
India,Delhi,Delhi,"Vivek Vihar, Delhi - DPCC",03-08-2024 02:00:00,28.672342,77.315260,NO2,21,42,30
India,Delhi,Delhi,"Vivek Vihar, Delhi - DPCC",03-08-2024 02:00:00,28.672342,77.315260,NH3,14,17,16
India,Delhi,Delhi,"Vivek Vihar, Delhi - DPCC",03-08-2024 02:00:00,28.672342,77.315260,OZONE,2,16,8
India,Delhi,Delhi,"Wazirpur, Delhi - DPCC",03-08-2024 02:00:00,28.699793,77.165453,NO2,23,110,52
India,Delhi,Delhi,"Wazirpur, Delhi - DPCC",03-08-2024 02:00:00,28.699793,77.165453,NH3,5,8,8
India,Gujarat,Ahmedabad,"Chandkheda, Ahmedabad - IITM",03-08-2024 02:00:00,23.107969,72.574648,PM2.5,13,30,24
India,Gujarat,Ahmedabad,"Chandkheda, Ahmedabad - IITM",03-08-2024 02:00:00,23.107969,72.574648,PM10,13,36,26
India,Gujarat,Ahmedabad,"Chandkheda, Ahmedabad - IITM",03-08-2024 02:00:00,23.107969,72.574648,NO2,21,48,36
India,Gujarat,Ahmedabad,"Gyaspur, Ahmedabad - IITM",03-08-2024 02:00:00,22.977134,72.553024,SO2,18,21,20
India,Gujarat,Ahmedabad,"Maninagar, Ahmedabad - GPCB",03-08-2024 02:00:00,23.002657,72.591912,CO,30,80,57
India,Gujarat,Ahmedabad,"Raikhad, Ahmedabad - IITM",03-08-2024 02:00:00,23.020509,72.579261,NH3,3,8,6
India,Gujarat,Ahmedabad,"Rakhial, Ahmedabad - IITM",03-08-2024 02:00:00,23.016834,72.625775,NO2,6,33,19
India,Gujarat,Ahmedabad,"SVPI Airport Hansol, Ahmedabad - IITM",03-08-2024 02:00:00,23.076793,72.627874,SO2,2,27,14
India,Gujarat,Ahmedabad,"Sardar Vallabhbhai Patel Stadium, Ahmedabad - IITM",03-08-2024 02:00:00,23.043070,72.562968,PM2.5,15,60,32
India,Gujarat,Ahmedabad,"Sardar Vallabhbhai Patel Stadium, Ahmedabad - IITM",03-08-2024 02:00:00,23.043070,72.562968,OZONE,11,42,17
India,Gujarat,Ankleshwar,"GIDC, Ankleshwar - GPCB",03-08-2024 02:00:00,21.613267,73.010555,PM2.5,16,40,24
India,Gujarat,Ankleshwar,"GIDC, Ankleshwar - GPCB",03-08-2024 02:00:00,21.613267,73.010555,CO,41,88,67
India,Gujarat,Surat,"Science Center, Surat - SMC",03-08-2024 02:00:00,21.170046,72.795405,SO2,11,13,12
India,Gujarat,Vapi,"Phase-1 GIDC, Vapi - GPCB",03-08-2024 02:00:00,20.362421,72.918013,SO2,52,57,53
India,Gujarat,Vatva,"Phase-4 GIDC, Vatva - GPCB",03-08-2024 02:00:00,22.969611,72.643500,PM2.5,NA,NA,NA
India,Gujarat,Vatva,"Phase-4 GIDC, Vatva - GPCB",03-08-2024 02:00:00,22.969611,72.643500,NO2,NA,NA,NA
India,Haryana,Ambala,"Patti Mehar, Ambala - HSPCB",03-08-2024 02:00:00,30.379589,76.778328,PM10,37,96,53
India,Haryana,Bhiwani,"H.B. Colony, Bhiwani - HSPCB",03-08-2024 02:00:00,28.806223,76.141105,SO2,4,106,20
India,Haryana,Bhiwani,"H.B. Colony, Bhiwani - HSPCB",03-08-2024 02:00:00,28.806223,76.141105,CO,26,106,68
India,Haryana,Charkhi Dadri,"Mini Secretariat, Charkhi Dadri - HSPCB",03-08-2024 02:00:00,28.593883,76.270653,PM10,3,46,25
India,Haryana,Charkhi Dadri,"Mini Secretariat, Charkhi Dadri - HSPCB",03-08-2024 02:00:00,28.593883,76.270653,CO,10,40,16
India,Haryana,Dharuhera,"Municipal Corporation Office, Dharuhera -  HSPCB",03-08-2024 02:00:00,28.206800,76.799700,SO2,7,17,11
India,Haryana,Faridabad,"New Industrial Town, Faridabad - HSPCB",03-08-2024 02:00:00,28.39072,77.30059,PM2.5,10,105,58
India,Haryana,Faridabad,"New Industrial Town, Faridabad - HSPCB",03-08-2024 02:00:00,28.39072,77.30059,NO2,10,36,17
India,Haryana,Faridabad,"New Industrial Town, Faridabad - HSPCB",03-08-2024 02:00:00,28.39072,77.30059,SO2,NA,NA,NA
India,Haryana,Faridabad,"Sector 30, Faridabad - HSPCB",03-08-2024 02:00:00,28.4417,77.3217,PM2.5,NA,NA,NA
India,Haryana,Faridabad,"Sector 30, Faridabad - HSPCB",03-08-2024 02:00:00,28.4417,77.3217,PM10,NA,NA,NA
India,Haryana,Faridabad,"Sector 30, Faridabad - HSPCB",03-08-2024 02:00:00,28.4417,77.3217,OZONE,7,10,7
India,Haryana,Faridabad,"Sector- 16A, Faridabad - HSPCB",03-08-2024 02:00:00,28.4088421,77.3099081,PM2.5,NA,NA,NA
India,Haryana,Faridabad,"Sector- 16A, Faridabad - HSPCB",03-08-2024 02:00:00,28.4088421,77.3099081,NO2,NA,NA,NA
India,Haryana,Faridabad,"Sector- 16A, Faridabad - HSPCB",03-08-2024 02:00:00,28.4088421,77.3099081,OZONE,NA,NA,NA
India,Haryana,Fatehabad,"Huda Sector, Fatehabad - HSPCB",03-08-2024 02:00:00,29.503664,75.467934,NO2,29,44,34
India,Haryana,Fatehabad,"Huda Sector, Fatehabad - HSPCB",03-08-2024 02:00:00,29.503664,75.467934,CO,119,135,120
India,Haryana,Gurugram,"Sector-51, Gurugram - HSPCB",03-08-2024 02:00:00,28.4227,77.0667,NO2,14,29,26
India,Haryana,Gurugram,"Teri Gram, Gurugram - HSPCB",03-08-2024 02:00:00,28.4275,77.1465,PM2.5,1,141,73
India,Haryana,Gurugram,"Teri Gram, Gurugram - HSPCB",03-08-2024 02:00:00,28.4275,77.1465,NO2,2,6,4
India,Haryana,Gurugram,"Vikas Sadan, Gurugram - HSPCB",03-08-2024 02:00:00,28.4501238,77.0263051,PM2.5,52,126,79
India,Haryana,Gurugram,"Vikas Sadan, Gurugram - HSPCB",03-08-2024 02:00:00,28.4501238,77.0263051,SO2,5,67,40
India,Haryana,Jind,"Police Lines, Jind - HSPCB",03-08-2024 02:00:00,29.307814,76.337619,OZONE,37,154,91
India,Haryana,Kaithal,"Rishi Nagar, Kaithal - HSPCB",03-08-2024 02:00:00,29.8006,76.4155,PM10,30,74,48
India,Haryana,Kaithal,"Rishi Nagar, Kaithal - HSPCB",03-08-2024 02:00:00,29.8006,76.4155,NH3,8,12,10
India,Haryana,Kaithal,"Rishi Nagar, Kaithal - HSPCB",03-08-2024 02:00:00,29.8006,76.4155,SO2,10,113,32
India,Haryana,Kaithal,"Rishi Nagar, Kaithal - HSPCB",03-08-2024 02:00:00,29.8006,76.4155,CO,10,34,18
India,Haryana,Karnal,"Sector-12, Karnal - HSPCB",03-08-2024 02:00:00,29.695300,77.002700,NO2,7,12,10
India,Haryana,Kurukshetra,"Sector-7, Kurukshetra - HSPCB",03-08-2024 02:00:00,29.966942,76.875879,SO2,1,109,14
India,Haryana,Kurukshetra,"Sector-7, Kurukshetra - HSPCB",03-08-2024 02:00:00,29.966942,76.875879,CO,10,26,21
India,Haryana,Manesar,"Sector-2 IMT, Manesar - HSPCB",03-08-2024 02:00:00,28.360699,76.936090,PM10,18,62,32
India,Haryana,Manesar,"Sector-2 IMT, Manesar - HSPCB",03-08-2024 02:00:00,28.360699,76.936090,CO,6,19,13
India,Haryana,Narnaul,"Shastri Nagar, Narnaul - HSPCB",03-08-2024 02:00:00,28.060249,76.113115,PM10,30,47,37
India,Haryana,Rohtak,"MD University, Rohtak - HSPCB",03-08-2024 02:00:00,28.52123,76.37138,NO2,49,80,52
India,Haryana,Sonipat,"Murthal, Sonipat - HSPCB",03-08-2024 02:00:00,29.027200,77.062100,PM10,17,48,29
India,Haryana,Sonipat,"Murthal, Sonipat - HSPCB",03-08-2024 02:00:00,29.027200,77.062100,CO,4,34,7
India,Haryana,Yamuna Nagar,"Gobind Pura, Yamuna Nagar - HSPCB",03-08-2024 02:00:00,30.1480566,77.2893471,PM2.5,26,49,33
India,Haryana,Yamuna Nagar,"Gobind Pura, Yamuna Nagar - HSPCB",03-08-2024 02:00:00,30.1480566,77.2893471,NH3,1,6,4
India,Haryana,Yamuna Nagar,"Gobind Pura, Yamuna Nagar - HSPCB",03-08-2024 02:00:00,30.1480566,77.2893471,SO2,1,19,6
India,Himachal Pradesh,Baddi,"HIMUDA Complex Phase-1, Baddi - HPPCB",03-08-2024 02:00:00,30.943887,76.801991,NH3,6,7,6
India,Jharkhand,Dhanbad,"Kalakusuma, Dhanbad - DMC",03-08-2024 02:00:00,23.811548,86.481238,OZONE,29,29,29
India,Jharkhand,Jorapokhar,"Tata Stadium, Jorapokhar - JSPCB",03-08-2024 02:00:00,23.707909,86.414670,NH3,NA,NA,NA
India,Karnataka,Bagalkot,"Vidayagiri, Bagalkot - KSPCB",03-08-2024 02:00:00,16.172806,75.659694,OZONE,7,17,12
India,Karnataka,Bengaluru,"BTM Layout, Bengaluru - CPCB",03-08-2024 02:00:00,12.9135218,77.5950804,NO2,25,35,29
India,Karnataka,Bengaluru,"Bapuji Nagar, Bengaluru - KSPCB",03-08-2024 02:00:00,12.951913,77.539784,SO2,5,8,7
India,Karnataka,Bengaluru,"Bapuji Nagar, Bengaluru - KSPCB",03-08-2024 02:00:00,12.951913,77.539784,OZONE,26,40,27
India,Karnataka,Bengaluru,"City Railway Station, Bengaluru - KSPCB",03-08-2024 02:00:00,12.9756843,77.5660749,NO2,24,28,26
India,Karnataka,Bengaluru,"Jayanagar 5th Block, Bengaluru - KSPCB",03-08-2024 02:00:00,12.920984,77.584908,SO2,7,18,12
India,Karnataka,Bengaluru,"Jigani, Bengaluru - KSPCB",03-08-2024 02:00:00,12.7816279,77.6299145,NH3,3,5,4
India,Karnataka,Bengaluru,"Jigani, Bengaluru - KSPCB",03-08-2024 02:00:00,12.7816279,77.6299145,CO,32,48,41
India,Karnataka,Bengaluru,"Jigani, Bengaluru - KSPCB",03-08-2024 02:00:00,12.7816279,77.6299145,OZONE,19,28,21
India,Karnataka,Bengaluru,"Kasturi Nagar, Bengaluru - KSPCB",03-08-2024 02:00:00,13.003872,77.664217,PM2.5,41,46,43
India,Karnataka,Bengaluru,"Kasturi Nagar, Bengaluru - KSPCB",03-08-2024 02:00:00,13.003872,77.664217,NO2,16,17,17
India,Karnataka,Bengaluru,"Kasturi Nagar, Bengaluru - KSPCB",03-08-2024 02:00:00,13.003872,77.664217,CO,25,26,25
India,Karnataka,Bengaluru,"Peenya, Bengaluru - CPCB",03-08-2024 02:00:00,13.0270199,77.494094,SO2,10,25,16
India,Karnataka,Bengaluru,"Sanegurava Halli, Bengaluru - KSPCB",03-08-2024 02:00:00,12.990328,77.5431385,PM10,34,48,38
India,Karnataka,Bengaluru,"Shivapura_Peenya, Bengaluru - KSPCB",03-08-2024 02:00:00,13.0246342,77.5080115,CO,13,32,16
India,Karnataka,Bengaluru,"Shivapura_Peenya, Bengaluru - KSPCB",03-08-2024 02:00:00,13.0246342,77.5080115,OZONE,32,32,32
India,Karnataka,Bengaluru,"Silk Board, Bengaluru - KSPCB",03-08-2024 02:00:00,12.917348,77.622813,PM2.5,3,28,16
India,Karnataka,Bengaluru,"Silk Board, Bengaluru - KSPCB",03-08-2024 02:00:00,12.917348,77.622813,SO2,8,14,11
India,Karnataka,Bengaluru,"Silk Board, Bengaluru - KSPCB",03-08-2024 02:00:00,12.917348,77.622813,CO,2,86,44
India,Karnataka,Bidar,"Naubad, Bidar - KSPCB",03-08-2024 02:00:00,17.930306,77.482194,PM2.5,3,25,14
India,Karnataka,Bidar,"Naubad, Bidar - KSPCB",03-08-2024 02:00:00,17.930306,77.482194,CO,17,60,35
India,Karnataka,Chikkaballapur,"Chikkaballapur Rural, Chikkaballapur - KSPCB",03-08-2024 02:00:00,13.428828,77.731418,OZONE,24,25,25
India,Karnataka,Chikkamagaluru,"Kalyana Nagara, Chikkamagaluru - KSPCB",03-08-2024 02:00:00,13.328028,75.797056,PM10,22,98,49
India,Karnataka,Chikkamagaluru,"Kalyana Nagara, Chikkamagaluru - KSPCB",03-08-2024 02:00:00,13.328028,75.797056,OZONE,11,31,24
India,Karnataka,Davanagere,"Devaraj Urs Badavane, Davanagere - KSPCB",03-08-2024 02:00:00,14.475800,75.905200,NO2,8,12,9
India,Karnataka,Dharwad,"Kalabhavan, Dharwad - KSPCB",03-08-2024 02:00:00,15.459706,75.008381,SO2,1,3,2
India,Karnataka,Dharwad,"Kalabhavan, Dharwad - KSPCB",03-08-2024 02:00:00,15.459706,75.008381,CO,9,44,28
India,Karnataka,Gadag,"Panchal Nagar, Gadag - KSPCB",03-08-2024 02:00:00,15.411456,75.638133,SO2,15,26,18
India,Karnataka,Hubballi,"Deshpande Nagar, Hubballi - KSPCB",03-08-2024 02:00:00,15.351773,75.140726,PM2.5,NA,NA,NA
India,Karnataka,Hubballi,"Deshpande Nagar, Hubballi - KSPCB",03-08-2024 02:00:00,15.351773,75.140726,NH3,NA,NA,NA
India,Karnataka,Kalaburagi,"Lal Bahadur Shastri Nagar, Kalaburagi - KSPCB",03-08-2024 02:00:00,17.321993,76.822628,PM10,11,41,20
India,Karnataka,Kalaburagi,"Mahatma Basaveswar Colony, Kalaburgi - KSPCB",03-08-2024 02:00:00,17.336318,76.847397,CO,25,55,44
India,Karnataka,Kalaburagi,"Mahatma Basaveswar Colony, Kalaburgi - KSPCB",03-08-2024 02:00:00,17.336318,76.847397,OZONE,6,15,7
India,Karnataka,Karwar,"KHB Colony, Karwar - KSPCB",03-08-2024 02:00:00,14.816666,74.141003,CO,10,10,10
India,Karnataka,Koppal,"Diwator Nagar, Koppal - KSPCB",03-08-2024 02:00:00,15.347630,76.181767,PM2.5,2,9,4
India,Karnataka,Mangalore,"Kadri, Mangalore - KSPCB",03-08-2024 02:00:00,12.889250,74.853000,SO2,7,17,11
India,Karnataka,Mysuru,"Hebbal 1st Stage, Mysuru - KSPCB",03-08-2024 02:00:00,12.21041,76.37376,PM2.5,12,36,22
India,Karnataka,Ramanagara,"Vijay Nagar, Ramanagara - KSPCB",03-08-2024 02:00:00,12.733409,77.298051,CO,2,36,14
India,Karnataka,Ramanagara,"Vijay Nagar, Ramanagara - KSPCB",03-08-2024 02:00:00,12.733409,77.298051,OZONE,25,33,30
India,Karnataka,Tumakuru,"Thimmalapura, Tumakuru - KSPCB",03-08-2024 02:00:00,13.377516,77.099072,CO,30,34,32
India,Karnataka,Udupi,"Brahmagiri, Udupi - KSPCB",03-08-2024 02:00:00,13.34194444,74.74694444,PM10,2,45,17
India,Karnataka,Udupi,"Brahmagiri, Udupi - KSPCB",03-08-2024 02:00:00,13.34194444,74.74694444,SO2,15,21,19
India,Karnataka,Vijayapura,"Ibrahimpur, Vijayapura - KSPCB",03-08-2024 02:00:00,16.802639,75.722694,OZONE,13,16,15
India,Karnataka,Yadgir,"Collector Office, Yadgir - KSPCB",03-08-2024 02:00:00,16.7602,77.1428,PM10,NA,NA,NA
India,Kerala,Eloor,"Udyogamandal, Eloor - Kerala PCB",03-08-2024 02:00:00,10.073232,76.302765,PM2.5,42,60,47
India,Kerala,Eloor,"Udyogamandal, Eloor - Kerala PCB",03-08-2024 02:00:00,10.073232,76.302765,NO2,5,6,5
India,Kerala,Kollam,"Polayathode, Kollam - Kerala PCB",03-08-2024 02:00:00,8.8787,76.6073,NO2,8,9,8
India,Kerala,Thiruvananthapuram,"Kariavattom, Thiruvananthapuram - Kerala PCB",03-08-2024 02:00:00,8.563700,76.886500,OZONE,36,36,36
India,Kerala,Thiruvananthapuram,"Plammoodu, Thiruvananthapuram - Kerala PCB",03-08-2024 02:00:00,8.5149093,76.9435879,NO2,3,71,45
India,Kerala,Thiruvananthapuram,"Plammoodu, Thiruvananthapuram - Kerala PCB",03-08-2024 02:00:00,8.5149093,76.9435879,OZONE,3,50,11
India,Kerala,Thrissur,"Corporation Ground, Thrissur - Kerala PCB",03-08-2024 02:00:00,10.532400,76.215900,NO2,8,8,8
India,Kerala,Thrissur,"Corporation Ground, Thrissur - Kerala PCB",03-08-2024 02:00:00,10.532400,76.215900,SO2,1,2,2
India,Madhya Pradesh,Bhopal,"Idgah Hills, Bhopal - MPPCB",03-08-2024 02:00:00,23.264759,77.381568,PM10,7,67,27
India,Madhya Pradesh,Bhopal,"Paryavaran Parisar, Bhopal - MPPCB",03-08-2024 02:00:00,23.210494,77.425409,PM2.5,13,47,23
India,Madhya Pradesh,Bhopal,"Paryavaran Parisar, Bhopal - MPPCB",03-08-2024 02:00:00,23.210494,77.425409,NH3,2,2,2
India,Madhya Pradesh,Bhopal,"T T Nagar, Bhopal - MPPCB",03-08-2024 02:00:00,23.233584,77.400574,NO2,12,20,16
India,Madhya Pradesh,Bhopal,"T T Nagar, Bhopal - MPPCB",03-08-2024 02:00:00,23.233584,77.400574,CO,4,30,14
India,Madhya Pradesh,Bhopal,"T T Nagar, Bhopal - MPPCB",03-08-2024 02:00:00,23.233584,77.400574,OZONE,36,46,38
India,Madhya Pradesh,Dewas,"Bhopal Chauraha, Dewas - MPPCB",03-08-2024 02:00:00,22.9682591,76.064118,SO2,14,87,41
India,Madhya Pradesh,Dewas,"Bhopal Chauraha, Dewas - MPPCB",03-08-2024 02:00:00,22.9682591,76.064118,OZONE,23,67,30
India,Madhya Pradesh,Gwalior,"City Center, Gwalior - MPPCB",03-08-2024 02:00:00,26.203442,78.193251,NH3,4,5,5
India,Madhya Pradesh,Gwalior,"Maharaj Bada, Gwalior - MPPCB",03-08-2024 02:00:00,26.200388,78.147714,NH3,4,9,5
India,Madhya Pradesh,Gwalior,"Maharaj Bada, Gwalior - MPPCB",03-08-2024 02:00:00,26.200388,78.147714,SO2,4,8,6
India,Madhya Pradesh,Indore,"Residency Area, Indore - IMC",03-08-2024 02:00:00,22.7084,75.8815,SO2,24,25,25
India,Madhya Pradesh,Jabalpur,"Govindh Bhavan Colony, Jabalpur - JMC",03-08-2024 02:00:00,23.163174,79.973061,PM2.5,12,20,16
India,Madhya Pradesh,Jabalpur,"Govindh Bhavan Colony, Jabalpur - JMC",03-08-2024 02:00:00,23.163174,79.973061,NH3,2,2,2
India,Madhya Pradesh,Jabalpur,"Marhatal, Jabalpur - MPPCB",03-08-2024 02:00:00,23.168606,79.932247,SO2,18,24,21
India,Madhya Pradesh,Mandideep,"Sector-D Industrial Area, Mandideep - MPPCB",03-08-2024 02:00:00,23.108440,77.511428,NO2,1,19,6
India,Madhya Pradesh,Mandideep,"Sector-D Industrial Area, Mandideep - MPPCB",03-08-2024 02:00:00,23.108440,77.511428,OZONE,22,26,25
India,Madhya Pradesh,Pithampur,"Sector-2 Industrial Area, Pithampur - MPPCB",03-08-2024 02:00:00,22.624758,75.675238,CO,48,54,52
India,Madhya Pradesh,Ratlam,"Shasthri Nagar, Ratlam - IPCA Lab",03-08-2024 02:00:00,23.331731,75.045981,PM10,8,84,28
India,Madhya Pradesh,Sagar,"Deen Dayal Nagar, Sagar - MPPCB",03-08-2024 02:00:00,23.8640158,78.80289321,PM10,17,44,27
India,Madhya Pradesh,Satna,"Bandhavgar Colony, Satna - Birla Cement",03-08-2024 02:00:00,24.58434363,80.8549414,PM10,19,31,26
India,Madhya Pradesh,Singrauli,"Suryakiran Bhawan NCL, Singrauli - MPPCB",03-08-2024 02:00:00,24.108970,82.645580,PM2.5,3,43,20
India,Madhya Pradesh,Singrauli,"Suryakiran Bhawan NCL, Singrauli - MPPCB",03-08-2024 02:00:00,24.108970,82.645580,CO,38,68,53
India,Maharashtra,Akola,"Ramdaspeth, Akola - MPCB",03-08-2024 02:00:00,20.719516,77.000253,OZONE,3,16,10
India,Maharashtra,Amravati,"Shivneri Colony, Amravati - MPCB",03-08-2024 02:00:00,20.9402359,77.7895248,PM10,11,32,20
India,Maharashtra,Amravati,"Shri Shivaji Science College, Amaravati - MPCB",03-08-2024 02:00:00,20.939198,77.765701,OZONE,2,14,9
India,Maharashtra,Badlapur,"Katrap, Badlapur - MPCB",03-08-2024 02:00:00,19.16485,73.23409,PM2.5,21,40,28
India,Maharashtra,Badlapur,"Katrap, Badlapur - MPCB",03-08-2024 02:00:00,19.16485,73.23409,NH3,3,5,3
India,Maharashtra,Badlapur,"Katrap, Badlapur - MPCB",03-08-2024 02:00:00,19.16485,73.23409,SO2,5,15,9
India,Maharashtra,Badlapur,"Katrap, Badlapur - MPCB",03-08-2024 02:00:00,19.16485,73.23409,OZONE,7,28,13
India,Maharashtra,Bhiwandi,"Gokul Nagar, Bhiwandi - MPCB",03-08-2024 02:00:00,19.309073,73.057223,NH3,2,4,3
India,Maharashtra,Boisar,"Khaira, Boisar - MPCB",03-08-2024 02:00:00,19.786089,72.757971,CO,1,18,12
India,Maharashtra,Chandrapur,"Chauhan Colony, Chandrapur - MPCB",03-08-2024 02:00:00,19.962900,79.298714,CO,25,35,27
India,Maharashtra,Chandrapur,"MIDC Khutala, Chandrapur - MPCB",03-08-2024 02:00:00,19.9775302,79.2337086,PM10,NA,NA,NA
India,Maharashtra,Chandrapur,"MIDC Khutala, Chandrapur - MPCB",03-08-2024 02:00:00,19.9775302,79.2337086,OZONE,3,10,5
India,Maharashtra,Jalgaon,"Prabhat Colony, Jalgaon - MPCB",03-08-2024 02:00:00,21.001264,75.565602,SO2,4,12,7
India,Maharashtra,Jalna,"Old MIDC, Jalna - MPCB",03-08-2024 02:00:00,19.854616,75.905894,SO2,5,7,6
India,Maharashtra,Kalyan,"Khadakpada, Kalyan - MPCB",03-08-2024 02:00:00,19.25292,73.142019,NO2,10,15,12
India,Maharashtra,Kalyan,"Khadakpada, Kalyan - MPCB",03-08-2024 02:00:00,19.25292,73.142019,SO2,1,13,10
India,Maharashtra,Kolhapur,"Sinchan Bhavan, Kolhapur - MPCB",03-08-2024 02:00:00,16.7143745,74.2426398,PM10,19,34,26
India,Maharashtra,Kolhapur,"Sinchan Bhavan, Kolhapur - MPCB",03-08-2024 02:00:00,16.7143745,74.2426398,NH3,7,8,7
India,Maharashtra,Latur,"Sawe Wadi, Latur - MPCB",03-08-2024 02:00:00,18.39963,76.57452,NO2,1,26,11
India,Maharashtra,Mahad,"Kamble Tarf Birwadi, Mahad - MPCB",03-08-2024 02:00:00,18.1023399,73.4783687,NH3,3,3,3
India,Maharashtra,Malegaon,"Mahesh Nagar, Malegaon - MPCB",03-08-2024 02:00:00,20.555712,74.529236,CO,18,30,24
India,Maharashtra,Mira-Bhayandar,"Bhayandar West, Mira-Bhayandar - MPCB",03-08-2024 02:00:00,19.296481,72.840923,OZONE,15,19,16
India,Maharashtra,Mumbai,"Bandra Kurla Complex, Mumbai - MPCB",03-08-2024 02:00:00,19.065931,72.862131,PM2.5,9,25,17
India,Maharashtra,Mumbai,"Bandra Kurla Complex, Mumbai - MPCB",03-08-2024 02:00:00,19.065931,72.862131,NO2,2,18,8
India,Maharashtra,Mumbai,"Bandra Kurla Complex, Mumbai - MPCB",03-08-2024 02:00:00,19.065931,72.862131,NH3,3,7,5
India,Maharashtra,Mumbai,"Borivali East, Mumbai - IITM",03-08-2024 02:00:00,19.23241,72.86895,PM2.5,12,29,19
India,Maharashtra,Mumbai,"Borivali East, Mumbai - IITM",03-08-2024 02:00:00,19.23241,72.86895,PM10,25,46,34
India,Maharashtra,Mumbai,"Borivali East, Mumbai - IITM",03-08-2024 02:00:00,19.23241,72.86895,NH3,NA,NA,NA
India,Maharashtra,Mumbai,"Borivali East, Mumbai - MPCB",03-08-2024 02:00:00,19.2243333,72.8658113,SO2,9,12,11
India,Maharashtra,Mumbai,"Borivali East, Mumbai - MPCB",03-08-2024 02:00:00,19.2243333,72.8658113,OZONE,9,10,10
India,Maharashtra,Mumbai,"Byculla, Mumbai - BMC",03-08-2024 02:00:00,18.9767,72.8380,NO2,2,8,6
India,Maharashtra,Mumbai,"Chembur, Mumbai - MPCB",03-08-2024 02:00:00,19.0364585,72.8954371,NH3,5,8,7
India,Maharashtra,Mumbai,"Chhatrapati Shivaji Intl. Airport (T2), Mumbai - MPCB",03-08-2024 02:00:00,19.10078,72.87462,NH3,1,1,1
India,Maharashtra,Mumbai,"Colaba, Mumbai - MPCB",03-08-2024 02:00:00,18.910000,72.820000,NH3,1,1,1
India,Maharashtra,Mumbai,"Deonar, Mumbai - IITM",03-08-2024 02:00:00,19.04946,72.9230,PM10,16,34,25
India,Maharashtra,Mumbai,"Kandivali West, Mumbai - BMC",03-08-2024 02:00:00,19.215859,72.831718,OZONE,1,8,6
India,Maharashtra,Mumbai,"Khindipada-Bhandup West, Mumbai - IITM",03-08-2024 02:00:00,19.1653323,72.922099,NO2,5,8,7
India,Maharashtra,Mumbai,"Kurla, Mumbai - MPCB",03-08-2024 02:00:00,19.0863,72.8888,CO,2,12,10
India,Maharashtra,Mumbai,"Mindspace-Malad West, Mumbai - MPCB",03-08-2024 02:00:00,19.1878657,72.8304069,PM10,25,36,29
India,Maharashtra,Mumbai,"Mindspace-Malad West, Mumbai - MPCB",03-08-2024 02:00:00,19.1878657,72.8304069,SO2,1,6,4
India,Maharashtra,Mumbai,"Powai, Mumbai - MPCB",03-08-2024 02:00:00,19.137500,72.915056,PM2.5,4,18,11
India,Maharashtra,Mumbai,"Powai, Mumbai - MPCB",03-08-2024 02:00:00,19.137500,72.915056,PM10,20,37,28
India,Maharashtra,Mumbai,"Powai, Mumbai - MPCB",03-08-2024 02:00:00,19.137500,72.915056,NO2,14,20,17
India,Maharashtra,Mumbai,"Shivaji Nagar, Mumbai - BMC",03-08-2024 02:00:00,19.060498,72.923356,NO2,5,35,23
India,Maharashtra,Mumbai,"Shivaji Nagar, Mumbai - BMC",03-08-2024 02:00:00,19.060498,72.923356,OZONE,1,5,1
India,Maharashtra,Mumbai,"Sion, Mumbai - MPCB",03-08-2024 02:00:00,19.047000,72.874600,PM10,NA,NA,NA
India,Maharashtra,Mumbai,"Sion, Mumbai - MPCB",03-08-2024 02:00:00,19.047000,72.874600,NO2,NA,NA,NA
India,Maharashtra,Mumbai,"Vasai West, Mumbai - MPCB",03-08-2024 02:00:00,19.383200,72.820400,NO2,26,29,27
India,Maharashtra,Mumbai,"Vasai West, Mumbai - MPCB",03-08-2024 02:00:00,19.383200,72.820400,NH3,4,4,4
India,Maharashtra,Mumbai,"Vile Parle West, Mumbai - MPCB",03-08-2024 02:00:00,19.10861,72.83622,NH3,11,11,11
India,Maharashtra,Mumbai,"Worli, Mumbai - MPCB",03-08-2024 02:00:00,18.9936162,72.8128113,OZONE,8,11,9
India,Maharashtra,Nagpur,"Ambazari, Nagpur - MPCB",03-08-2024 02:00:00,21.121801,79.04952,OZONE,1,4,2
India,Maharashtra,Nagpur,"Mahal, Nagpur - MPCB",03-08-2024 02:00:00,21.14472,79.107595,PM10,NA,NA,NA
India,Maharashtra,Nagpur,"Opp GPO Civil Lines, Nagpur - MPCB",03-08-2024 02:00:00,21.152875,79.0517531,SO2,8,11,9
India,Maharashtra,Nagpur,"Opp GPO Civil Lines, Nagpur - MPCB",03-08-2024 02:00:00,21.152875,79.0517531,CO,10,56,33
India,Maharashtra,Nagpur,"Ram Nagar, Nagpur - MPCB",03-08-2024 02:00:00,21.143383,79.048912,NH3,2,3,2
India,Maharashtra,Nanded,"Sneh Nagar, Nanded - MPCB",03-08-2024 02:00:00,19.173852,77.296291,PM2.5,11,34,18
India,Maharashtra,Nanded,"Sneh Nagar, Nanded - MPCB",03-08-2024 02:00:00,19.173852,77.296291,CO,20,27,22
India,Maharashtra,Nashik,"Gangapur Road, Nashik - MPCB",03-08-2024 02:00:00,20.0073285,73.7762427,PM2.5,NA,NA,NA
India,Maharashtra,Nashik,"MIDC Ambad, Nashik - MPCB",03-08-2024 02:00:00,19.950220,73.731480,SO2,3,5,3
India,Maharashtra,Nashik,"MIDC Ambad, Nashik - MPCB",03-08-2024 02:00:00,19.950220,73.731480,CO,9,26,16
India,Maharashtra,Nashik,"Pandav Nagari, Nashik - MPCB",03-08-2024 02:00:00,19.9591346,73.7788008,SO2,1,6,3
India,Maharashtra,Nashik,"Pandav Nagari, Nashik - MPCB",03-08-2024 02:00:00,19.9591346,73.7788008,CO,14,18,16
India,Maharashtra,Navi Mumbai,"Mahape, Navi Mumbai - MPCB",03-08-2024 02:00:00,19.1135051,73.008978,CO,12,19,16
India,Maharashtra,Navi Mumbai,"Sanpada, Navi Mumbai - MPCB",03-08-2024 02:00:00,19.0575752,73.0151367,NH3,3,4,3
India,Maharashtra,Navi Mumbai,"Sector-19A Nerul, Navi Mumbai - IITM",03-08-2024 02:00:00,19.044,73.0325,PM10,2,17,6
India,Maharashtra,Navi Mumbai,"Sector-2E Kalamboli, Navi Mumbai - MPCB",03-08-2024 02:00:00,19.02579,73.10297,NH3,1,2,1
India,Maharashtra,Navi Mumbai,"Sector-2E Kalamboli, Navi Mumbai - MPCB",03-08-2024 02:00:00,19.02579,73.10297,CO,1,14,8
India,Maharashtra,Navi Mumbai,"Tondare-Taloja, Navi Mumbai - MPCB",03-08-2024 02:00:00,19.0630,73.1209,PM10,28,39,33
India,Maharashtra,Parbhani,"Masoom Colony, Parbhani - MPCB",03-08-2024 02:00:00,19.265594,76.761463,PM10,17,37,28
India,Maharashtra,Pimpri-Chinchwad,"Gavalinagar, Pimpri Chinchwad - MPCB",03-08-2024 02:00:00,18.63673,73.82487,OZONE,3,11,7
India,Maharashtra,Pimpri-Chinchwad,"Park Street Wakad, Pimpri Chinchwad - MPCB",03-08-2024 02:00:00,18.59051,73.77946,CO,4,28,13
India,Maharashtra,Pimpri-Chinchwad,"Thergaon, Pimpri Chinchwad - MPCB",03-08-2024 02:00:00,18.616318,73.765797,PM2.5,3,9,5
India,Maharashtra,Pimpri-Chinchwad,"Thergaon, Pimpri Chinchwad - MPCB",03-08-2024 02:00:00,18.616318,73.765797,NH3,2,10,6
India,Maharashtra,Pune,"Bhumkar Nagar, Pune - IITM",03-08-2024 02:00:00,18.605770,73.749976,PM2.5,5,28,11
India,Maharashtra,Pune,"Bhumkar Nagar, Pune - IITM",03-08-2024 02:00:00,18.605770,73.749976,CO,14,98,29
India,Maharashtra,Pune,"Karve Road, Pune - MPCB",03-08-2024 02:00:00,18.5011743,73.8165527,NO2,NA,NA,NA
India,Maharashtra,Pune,"Karve Road, Pune - MPCB",03-08-2024 02:00:00,18.5011743,73.8165527,CO,2,22,7
India,Maharashtra,Pune,"Katraj Dairy, Pune - MPCB",03-08-2024 02:00:00,18.454450,73.854155,PM10,28,28,28
India,Maharashtra,Pune,"Katraj Dairy, Pune - MPCB",03-08-2024 02:00:00,18.454450,73.854155,SO2,1,1,1
India,Maharashtra,Pune,"Revenue Colony-Shivajinagar, Pune - IITM",03-08-2024 02:00:00,18.530085,73.849598,NO2,16,28,21
India,Maharashtra,Pune,"Revenue Colony-Shivajinagar, Pune - IITM",03-08-2024 02:00:00,18.530085,73.849598,CO,78,105,101
India,Maharashtra,Pune,"Savitribai Phule Pune University, Pune - MPCB",03-08-2024 02:00:00,18.547056,73.826908,PM2.5,6,20,11
India,Maharashtra,Pune,"Savitribai Phule Pune University, Pune - MPCB",03-08-2024 02:00:00,18.547056,73.826908,CO,16,30,23
India,Maharashtra,Pune,"Transport Nagar-Nigdi, Pune - IITM",03-08-2024 02:00:00,18.664282,73.763966,PM2.5,17,37,21
India,Maharashtra,Sangli,"Vijay Nagar, Sangli - MPCB",03-08-2024 02:00:00, 16.5038,74.3623,PM2.5,4,12,7
India,Maharashtra,Sangli,"Vijay Nagar, Sangli - MPCB",03-08-2024 02:00:00, 16.5038,74.3623,NH3,1,1,1
India,Maharashtra,Sangli,"Vijay Nagar, Sangli - MPCB",03-08-2024 02:00:00, 16.5038,74.3623,CO,4,13,9
India,Maharashtra,Solapur,"Dnyaneshwar Nagar, Solapur - MPCB",03-08-2024 02:00:00,17.6336264,75.9132495,SO2,2,3,2
India,Maharashtra,Solapur,"Dnyaneshwar Nagar, Solapur - MPCB",03-08-2024 02:00:00,17.6336264,75.9132495,OZONE,14,24,19
India,Maharashtra,Solapur,"Ratandeep Housing Society, Solapur - MPCB",03-08-2024 02:00:00,17.65439,75.90649,PM2.5,6,30,17
India,Maharashtra,Solapur,"Solapur, Solapur - MPCB",03-08-2024 02:00:00,17.6599188,75.9063906,NO2,54,54,54
India,Maharashtra,Thane,"Pimpleshwar Mandir, Thane - MPCB",03-08-2024 02:00:00,19.192056,72.9585188,NH3,3,4,4
India,Maharashtra,Thane,"Pimpleshwar Mandir, Thane - MPCB",03-08-2024 02:00:00,19.192056,72.9585188,SO2,1,13,5
India,Maharashtra,Thane,"Pimpleshwar Mandir, Thane - MPCB",03-08-2024 02:00:00,19.192056,72.9585188,CO,5,86,34
India,Maharashtra,Thane,"Upvan Fort, Thane - MPCB",03-08-2024 02:00:00,19.222279,72.957979,SO2,14,17,15
India,Maharashtra,Virar,"Bolinj, Virar - MPCB",03-08-2024 02:00:00,19.4458210,72.7988231,SO2,1,2,1
India,Manipur,Imphal,"DM College of Science, Imphal - Manipur PCB",03-08-2024 02:00:00,24.8207389,93.9423085,PM2.5,1,8,4
India,Meghalaya,Shillong,"Lumpyngngad, Shillong - Meghalaya PCB",03-08-2024 02:00:00,25.5586,91.8985,OZONE,8,36,18
India,Nagaland,Kohima,"PWD Juction, Kohima - NPCB",03-08-2024 02:00:00,25.6635413,94.0989878,PM10,6,48,18
India,Odisha,Angul,"Hakimapada, Angul - OSPCB",03-08-2024 02:00:00,20.832874,85.104082,SO2,5,9,7
India,Odisha,Balasore,"Kalidaspur, Balasore - OSPCB",03-08-2024 02:00:00,21.51161,86.89088,NH3,1,1,1
India,Odisha,Balasore,"Kalidaspur, Balasore - OSPCB",03-08-2024 02:00:00,21.51161,86.89088,CO,70,78,75
India,Odisha,Balasore,"Kalidaspur, Balasore - OSPCB",03-08-2024 02:00:00,21.51161,86.89088,OZONE,18,41,28
India,Odisha,Barbil,"Forest Office, Barbil - OSPCB",03-08-2024 02:00:00,22.1166054,85.3945546,NH3,3,4,4
India,Odisha,Barbil,"Forest Office, Barbil - OSPCB",03-08-2024 02:00:00,22.1166054,85.3945546,CO,24,57,36
India,Odisha,Baripada,"Meher Colony, Baripada - OSPCB",03-08-2024 02:00:00,21.941841,86.728318,OZONE,37,53,42
India,Odisha,Bhubaneswar,"Lingraj Mandir, Bhubaneswar - OSPCB",03-08-2024 02:00:00,20.240790,85.836784,OZONE,19,54,37
India,Odisha,Bhubaneswar,"Patia, Bhubaneswar - OSPCB",03-08-2024 02:00:00,20.34652,85.81630,PM2.5,2,38,19
India,Odisha,Bhubaneswar,"Patia, Bhubaneswar - OSPCB",03-08-2024 02:00:00,20.34652,85.81630,NH3,1,2,1
India,Odisha,Bhubaneswar,"Patia, Bhubaneswar - OSPCB",03-08-2024 02:00:00,20.34652,85.81630,OZONE,16,64,40
India,Odisha,Byasanagar,"Ferro Chrome Colony, Byasanagar - OSPCB",03-08-2024 02:00:00,20.94185,86.11510,PM2.5,NA,NA,NA
India,Odisha,Byasanagar,"Ferro Chrome Colony, Byasanagar - OSPCB",03-08-2024 02:00:00,20.94185,86.11510,SO2,4,7,5
India,Odisha,Byasanagar,"Ferro Chrome Colony, Byasanagar - OSPCB",03-08-2024 02:00:00,20.94185,86.11510,CO,6,68,29
India,Odisha,Cuttack,"CDA Area, Cuttack - OSPCB",03-08-2024 02:00:00,20.48891     ,85.84768     ,OZONE,13,41,26
India,Odisha,Keonjhar,"Jagamohanpur, Keonjhar - OSPCB",03-08-2024 02:00:00,21.643900,85.599355,PM10,NA,NA,NA
India,Odisha,Keonjhar,"Jagamohanpur, Keonjhar - OSPCB",03-08-2024 02:00:00,21.643900,85.599355,NO2,NA,NA,NA
India,Odisha,Nayagarh,"Dabuna, Nayagarh - OSPCB",03-08-2024 02:00:00,21.847279,85.416905,NH3,3,3,3
India,Odisha,Nayagarh,"Dabuna, Nayagarh - OSPCB",03-08-2024 02:00:00,21.847279,85.416905,SO2,2,2,2
India,Odisha,Nayagarh,"Dabuna, Nayagarh - OSPCB",03-08-2024 02:00:00,21.847279,85.416905,OZONE,1,2,2
India,Odisha,Rairangpur,"Divisional Forest Office, Rairangpur - OSPCB",03-08-2024 02:00:00,22.265816,86.174829,CO,18,42,30
India,Odisha,Rairangpur,"Divisional Forest Office, Rairangpur - OSPCB",03-08-2024 02:00:00,22.265816,86.174829,OZONE,42,48,45
India,Odisha,Rourkela,"Fertilizer Township, Rourkela - OSPCB",03-08-2024 02:00:00,22.18972222,84.86277778,PM10,NA,NA,NA
India,Odisha,Rourkela,"Fertilizer Township, Rourkela - OSPCB",03-08-2024 02:00:00,22.18972222,84.86277778,CO,14,25,22
India,Odisha,Rourkela,"Sector-2, Rourkela - OSPCB",03-08-2024 02:00:00,22.24500000,84.88111111,PM2.5,13,100,45
India,Odisha,Rourkela,"Sector-2, Rourkela - OSPCB",03-08-2024 02:00:00,22.24500000,84.88111111,PM10,19,71,35
India,Odisha,Suakati,"OMC Colony, Suakati - OSPCB",03-08-2024 02:00:00,21.606865,85.510538,PM2.5,12,21,16
India,Odisha,Suakati,"OMC Colony, Suakati - OSPCB",03-08-2024 02:00:00,21.606865,85.510538,NH3,4,4,4
India,Odisha,Suakati,"OMC Colony, Suakati - OSPCB",03-08-2024 02:00:00,21.606865,85.510538,SO2,2,4,3
India,Odisha,Talcher,"Talcher Coalfields,Talcher - OSPCB",03-08-2024 02:00:00,20.9360711,85.1707021,PM10,10,62,28
India,Odisha,Talcher,"Talcher Coalfields,Talcher - OSPCB",03-08-2024 02:00:00,20.9360711,85.1707021,OZONE,21,41,29
India,Puducherry,Puducherry,"Jawahar Nagar, Puducherry - PPCC",03-08-2024 02:00:00,11.9309,79.8027,OZONE,27,76,39
India,Punjab,Amritsar,"Golden Temple, Amritsar - PPCB",03-08-2024 02:00:00,31.620000,74.876512,PM2.5,54,86,67
India,Punjab,Jalandhar,"Civil Line, Jalandhar - PPCB",03-08-2024 02:00:00,31.321907,75.578914,NO2,13,18,15
India,Punjab,Khanna,"Kalal Majra, Khanna - PPCB",03-08-2024 02:00:00,30.736056 ,76.209694,PM2.5,39,75,57
India,Punjab,Mandi Gobindgarh,"RIMT University, Mandi Gobindgarh - PPCB",03-08-2024 02:00:00,30.649961,76.331442,PM10,10,406,146
India,Punjab,Mandi Gobindgarh,"RIMT University, Mandi Gobindgarh - PPCB",03-08-2024 02:00:00,30.649961,76.331442,NO2,30,30,30
India,Punjab,Mandi Gobindgarh,"RIMT University, Mandi Gobindgarh - PPCB",03-08-2024 02:00:00,30.649961,76.331442,NH3,7,7,7
India,Punjab,Mandi Gobindgarh,"RIMT University, Mandi Gobindgarh - PPCB",03-08-2024 02:00:00,30.649961,76.331442,OZONE,49,53,50
India,Punjab,Patiala,"Model Town, Patiala - PPCB",03-08-2024 02:00:00,30.349388,76.366642,PM10,22,77,43
India,Punjab,Patiala,"Model Town, Patiala - PPCB",03-08-2024 02:00:00,30.349388,76.366642,CO,23,57,36
India,Punjab,Patiala,"Model Town, Patiala - PPCB",03-08-2024 02:00:00,30.349388,76.366642,OZONE,31,47,38
India,Rajasthan,Ajmer,"Civil Lines,  Ajmer - RSPCB",03-08-2024 02:00:00,26.470859,74.646594,OZONE,9,139,17
India,Rajasthan,Alwar,"Moti Doongri, Alwar - RSPCB",03-08-2024 02:00:00,27.554793,76.611536,SO2,14,25,18
India,Rajasthan,Banswara,"Rati Talai, Banswara - RSPCB",03-08-2024 02:00:00,23.555190,74.440010,CO,4,50,24
India,Rajasthan,Baran,"Bamboliya, Baran - RSPCB",03-08-2024 02:00:00,25.106006,76.469948,NH3,2,3,2
India,Rajasthan,Baran,"Bamboliya, Baran - RSPCB",03-08-2024 02:00:00,25.106006,76.469948,SO2,5,8,7
India,Rajasthan,Baran,"Bamboliya, Baran - RSPCB",03-08-2024 02:00:00,25.106006,76.469948,OZONE,18,128,25
India,Rajasthan,Barmer,"Railway Colony, Barmer - RSPCB",03-08-2024 02:00:00,25.747299,71.393989,NO2,2,8,5
India,Rajasthan,Barmer,"Railway Colony, Barmer - RSPCB",03-08-2024 02:00:00,25.747299,71.393989,NH3,3,8,4
India,Rajasthan,Bhilwara,"Pratap Nagar, Bhilwara - RSPCB",03-08-2024 02:00:00,25.339605,74.618883,SO2,2,15,9
India,Rajasthan,Bhiwadi,"RIICO Ind. Area III, Bhiwadi - RSPCB",03-08-2024 02:00:00,28.194909,76.862296,NO2,4,42,29
India,Rajasthan,Bhiwadi,"RIICO Ind. Area III, Bhiwadi - RSPCB",03-08-2024 02:00:00,28.194909,76.862296,SO2,1,25,11
India,Rajasthan,Bhiwadi,"Vasundhara Nagar_UIT, Bhiwadi - RSPCB",03-08-2024 02:00:00,28.207266,76.829265,CO,10,29,20
India,Rajasthan,Bikaner,"MM Ground, Bikaner - RSPCB",03-08-2024 02:00:00,28.018792,73.292658,PM2.5,2,20,6
India,Rajasthan,Bikaner,"MM Ground, Bikaner - RSPCB",03-08-2024 02:00:00,28.018792,73.292658,OZONE,14,19,17
India,Rajasthan,Bundi,"New Colony, Bundi - RSPCB",03-08-2024 02:00:00,25.435774,75.644272,NH3,NA,NA,NA
India,Rajasthan,Chittorgarh,"Shastri Nagar, Chittorgarh - RSPCB",03-08-2024 02:00:00,24.892047,74.623527,NO2,8,13,10
India,Rajasthan,Chittorgarh,"Shastri Nagar, Chittorgarh - RSPCB",03-08-2024 02:00:00,24.892047,74.623527,SO2,5,9,7
India,Rajasthan,Chittorgarh,"Shastri Nagar, Chittorgarh - RSPCB",03-08-2024 02:00:00,24.892047,74.623527,OZONE,2,60,22
India,Rajasthan,Hanumangarh,"Housing Board, Hanumangarh - RSPCB",03-08-2024 02:00:00,29.610750,74.283608,SO2,7,15,10
India,Rajasthan,Jaipur,"Adarsh Nagar, Jaipur - RSPCB",03-08-2024 02:00:00,26.902909,75.836858,NH3,3,7,4
India,Rajasthan,Jaipur,"Adarsh Nagar, Jaipur - RSPCB",03-08-2024 02:00:00,26.902909,75.836858,OZONE,6,32,9
India,Rajasthan,Jaipur,"Mansarovar Sector-12, Jaipur - RSPCB",03-08-2024 02:00:00,26.843698,75.766894,PM2.5,NA,NA,NA
India,Rajasthan,Jaipur,"Mansarovar Sector-12, Jaipur - RSPCB",03-08-2024 02:00:00,26.843698,75.766894,PM10,NA,NA,NA
India,Rajasthan,Jaipur,"Mansarovar Sector-12, Jaipur - RSPCB",03-08-2024 02:00:00,26.843698,75.766894,NO2,12,44,19
India,Rajasthan,Jaipur,"Mansarovar Sector-12, Jaipur - RSPCB",03-08-2024 02:00:00,26.843698,75.766894,NH3,5,12,7
India,Rajasthan,Jaipur,"Mansarovar Sector-12, Jaipur - RSPCB",03-08-2024 02:00:00,26.843698,75.766894,SO2,1,16,3
India,Rajasthan,Jaipur,"Mansarovar Sector-12, Jaipur - RSPCB",03-08-2024 02:00:00,26.843698,75.766894,CO,2,18,14
India,Rajasthan,Jaipur,"Police Commissionerate, Jaipur - RSPCB",03-08-2024 02:00:00,26.9164092,75.7994901,PM2.5,21,38,28
India,Rajasthan,Jaipur,"Police Commissionerate, Jaipur - RSPCB",03-08-2024 02:00:00,26.9164092,75.7994901,NO2,15,27,20
India,Rajasthan,Jaipur,"Police Commissionerate, Jaipur - RSPCB",03-08-2024 02:00:00,26.9164092,75.7994901,OZONE,23,46,28
India,Rajasthan,Jaipur,"Sector-2 Murlipura, Jaipur - RSPCB",03-08-2024 02:00:00,26.960669,75.771817,OZONE,15,28,17
India,Rajasthan,Jaipur,"Shastri Nagar, Jaipur - RSPCB",03-08-2024 02:00:00,26.9502929,75.730943,SO2,1,74,30
India,Rajasthan,Jaisalmer,"Sadar Bazar, Jaisalmer - RSPCB",03-08-2024 02:00:00,26.912329,70.909168,PM10,18,67,40
India,Rajasthan,Jaisalmer,"Sadar Bazar, Jaisalmer - RSPCB",03-08-2024 02:00:00,26.912329,70.909168,OZONE,7,65,33
India,Rajasthan,Jalore,"Mudtra Sili, Jalore - RSPCB",03-08-2024 02:00:00,25.344694,72.626208,NO2,2,12,6
India,Rajasthan,Jhalawar,"Rajlaxmi Nagar, Jhalawar - RSPCB",03-08-2024 02:00:00,24.588397,76.172782,CO,NA,NA,NA
India,Rajasthan,Jhunjhunu,"Indra Nagar, Jhunjhunu - RSPCB",03-08-2024 02:00:00,28.108988,75.386577,PM10,11,70,43
India,Rajasthan,Jhunjhunu,"Indra Nagar, Jhunjhunu - RSPCB",03-08-2024 02:00:00,28.108988,75.386577,SO2,3,4,3
India,Rajasthan,Jodhpur,"Collectorate, Jodhpur - RSPCB",03-08-2024 02:00:00,26.268249,73.0193853,NO2,3,12,4
India,Rajasthan,Jodhpur,"Digari Kalan, Jodhpur - RSPCB",03-08-2024 02:00:00,26.295810,73.082283,PM2.5,2,18,9
India,Rajasthan,Jodhpur,"Digari Kalan, Jodhpur - RSPCB",03-08-2024 02:00:00,26.295810,73.082283,NH3,3,5,3
India,Rajasthan,Jodhpur,"Jhalamand, Jodhpur - RSPCB",03-08-2024 02:00:00,26.215415,73.070156,SO2,1,3,1
India,Rajasthan,Jodhpur,"Mandor, Jodhpur - RSPCB",03-08-2024 02:00:00,26.358805,73.047444,CO,4,12,8
India,Rajasthan,Jodhpur,"Samrat Ashok Udhyan, Jodhpur - RSPCB",03-08-2024 02:00:00,26.253384,72.976571,PM2.5,2,30,15
India,Rajasthan,Karauli,"Satyawati Vihar, Karauli - RSPCB",03-08-2024 02:00:00,26.506177,77.025989,CO,1,22,5
India,Rajasthan,Kota,"Dhanmandi, Kota - RSPCB",03-08-2024 02:00:00,25.164090,75.858137,PM10,16,34,25
India,Rajasthan,Kota,"Shrinath Puram, Kota - RSPCB",03-08-2024 02:00:00,25.14389,75.821256,OZONE,19,28,23
India,Rajasthan,Nagaur,"Karni Colony, Nagaur - RSPCB",03-08-2024 02:00:00,27.213494,73.734444,PM10,NA,NA,NA
India,Rajasthan,Nagaur,"Karni Colony, Nagaur - RSPCB",03-08-2024 02:00:00,27.213494,73.734444,NO2,4,16,8
India,Rajasthan,Pali,"Indira Colony Vistar, Pali - RSPCB",03-08-2024 02:00:00,25.771061, 73.340227,PM10,18,61,38
India,Rajasthan,Rajsamand,"Dhoinda, Rajsamand - RSPCB",03-08-2024 02:00:00,25.036360,73.883502,CO,8,48,20
India,Rajasthan,Sawai Madhopur,"Sahu Nagar, Sawai Madhopur - RSPCB",03-08-2024 02:00:00,26.031443,76.359327,PM2.5,7,22,14
India,Rajasthan,Sawai Madhopur,"Sahu Nagar, Sawai Madhopur - RSPCB",03-08-2024 02:00:00,26.031443,76.359327,PM10,5,43,19
India,Rajasthan,Sawai Madhopur,"Sahu Nagar, Sawai Madhopur - RSPCB",03-08-2024 02:00:00,26.031443,76.359327,CO,26,41,37
India,Rajasthan,Sirohi,"Vedhaynath Colony, Sirohi - RSPCB",03-08-2024 02:00:00,24.885261,72.857549,NH3,2,4,3
India,Rajasthan,Sri Ganganagar,"Old City, Sri Ganganagar - RSPCB",03-08-2024 02:00:00,29.931624,73.864511,NO2,16,48,33
India,Rajasthan,Udaipur,"Ashok Nagar, Udaipur - RSPCB",03-08-2024 02:00:00,24.5886166,73.6321397,PM10,14,54,31
India,Rajasthan,Udaipur,"Ashok Nagar, Udaipur - RSPCB",03-08-2024 02:00:00,24.5886166,73.6321397,NH3,6,31,17
India,Sikkim,Gangtok,"Zero Point GICI, Gangtok - SSPCB",03-08-2024 02:00:00,27.338530,88.614099,PM2.5,6,10,8
India,TamilNadu,Chennai,"Alandur Bus Depot, Chennai - CPCB",03-08-2024 02:00:00,12.9099161,80.1076538,OZONE,1,8,5
India,TamilNadu,Chennai,"Kodungaiyur, Chennai - TNPCB",03-08-2024 02:00:00,13.1278,80.2642,PM2.5,NA,NA,NA
India,TamilNadu,Chennai,"Kodungaiyur, Chennai - TNPCB",03-08-2024 02:00:00,13.1278,80.2642,NO2,NA,NA,NA
India,TamilNadu,Chennai,"Kodungaiyur, Chennai - TNPCB",03-08-2024 02:00:00,13.1278,80.2642,OZONE,28,73,41
India,TamilNadu,Chennai,"Manali, Chennai - CPCB",03-08-2024 02:00:00,13.164544,80.26285,SO2,3,7,5
India,TamilNadu,Chennai,"Perungudi, Chennai - TNPCB",03-08-2024 02:00:00,12.9533,80.2357,PM10,9,139,74
India,TamilNadu,Chennai,"Velachery Res. Area, Chennai - CPCB",03-08-2024 02:00:00,13.0052189,80.2398125,SO2,11,11,11
India,TamilNadu,Coimbatore,"PSG College of Arts and Science, Coimbatore - TNPCB",03-08-2024 02:00:00,11.0328,77.0349,PM2.5,NA,NA,NA
India,TamilNadu,Coimbatore,"PSG College of Arts and Science, Coimbatore - TNPCB",03-08-2024 02:00:00,11.0328,77.0349,OZONE,NA,NA,NA
India,TamilNadu,Cuddalore,"Semmandalam, Cuddalore - TNPCB",03-08-2024 02:00:00,11.7637683,79.7499835,PM2.5,9,49,26
India,TamilNadu,Gummidipoondi,"Anthoni Pillai Nagar, Gummidipoondi - TNPCB",03-08-2024 02:00:00,13.4127,80.1081,NH3,1,5,3
India,TamilNadu,Ooty,"Bombay Castel, Ooty - TNPCB",03-08-2024 02:00:00,11.4068288,76.7138973,CO,NA,NA,NA
India,TamilNadu,Palkalaiperur,"Bharathidasan University, Palkalaiperur - TNPCB",03-08-2024 02:00:00,10.681158,78.741746,OZONE,1,1,1
India,TamilNadu,Thoothukudi,"Meelavittan, Thoothukudi - TNPCB",03-08-2024 02:00:00,8.816428 ,78.099039,NO2,19,33,23
India,TamilNadu,Thoothukudi,"Meelavittan, Thoothukudi - TNPCB",03-08-2024 02:00:00,8.816428 ,78.099039,SO2,11,19,15
India,TamilNadu,Thoothukudi,"Meelavittan, Thoothukudi - TNPCB",03-08-2024 02:00:00,8.816428 ,78.099039,CO,10,28,23
India,TamilNadu,Vellore,"Vasanthapuram, Vellore - TNPCB",03-08-2024 02:00:00,12.909494,79.131861,NO2,NA,NA,NA
India,TamilNadu,Virudhunagar,"Collectorate Office, Virudhunagar - TNPCB",03-08-2024 02:00:00,9.559382,77.948828,NH3,2,7,7
India,TamilNadu,Virudhunagar,"Collectorate Office, Virudhunagar - TNPCB",03-08-2024 02:00:00,9.559382,77.948828,SO2,21,24,23
India,TamilNadu,Virudhunagar,"Collectorate Office, Virudhunagar - TNPCB",03-08-2024 02:00:00,9.559382,77.948828,CO,22,24,23
India,Telangana,Hyderabad,"Bollaram Industrial Area, Hyderabad - TSPCB",03-08-2024 02:00:00,17.540891,78.358528,OZONE,33,35,34
India,Telangana,Hyderabad,"Central University, Hyderabad - TSPCB",03-08-2024 02:00:00,17.460103,78.334361,NO2,12,31,22
India,Telangana,Hyderabad,"Central University, Hyderabad - TSPCB",03-08-2024 02:00:00,17.460103,78.334361,NH3,2,5,4
India,Telangana,Hyderabad,"Central University, Hyderabad - TSPCB",03-08-2024 02:00:00,17.460103,78.334361,CO,4,17,13
India,Telangana,Hyderabad,"ECIL Kapra, Hyderabad - TSPCB",03-08-2024 02:00:00,17.470431,78.566959,NH3,4,9,6
India,Telangana,Hyderabad,"ECIL Kapra, Hyderabad - TSPCB",03-08-2024 02:00:00,17.470431,78.566959,CO,10,44,30
India,Telangana,Hyderabad,"ICRISAT Patancheru, Hyderabad - TSPCB",03-08-2024 02:00:00,17.518400,78.278777,NO2,7,141,15
India,Telangana,Hyderabad,"ICRISAT Patancheru, Hyderabad - TSPCB",03-08-2024 02:00:00,17.518400,78.278777,OZONE,7,16,12
India,Telangana,Hyderabad,"IDA Pashamylaram, Hyderabad - TSPCB",03-08-2024 02:00:00,17.5316895,78.218939,PM10,15,52,27
India,Telangana,Hyderabad,"Kokapet, Hyderabad - TSPCB",03-08-2024 02:00:00,17.393559,78.339194,PM10,NA,NA,NA
India,Telangana,Hyderabad,"Kokapet, Hyderabad - TSPCB",03-08-2024 02:00:00,17.393559,78.339194,SO2,NA,NA,NA
India,Telangana,Hyderabad,"Kokapet, Hyderabad - TSPCB",03-08-2024 02:00:00,17.393559,78.339194,OZONE,5,14,6
India,Telangana,Hyderabad,"New Malakpet, Hyderabad - TSPCB",03-08-2024 02:00:00,17.37206,78.50864,NH3,NA,NA,NA
India,Telangana,Hyderabad,"New Malakpet, Hyderabad - TSPCB",03-08-2024 02:00:00,17.37206,78.50864,OZONE,NA,NA,NA
India,Telangana,Hyderabad,"Sanathnagar, Hyderabad - TSPCB",03-08-2024 02:00:00,17.4559458,78.4332152,SO2,2,28,6
India,Telangana,Hyderabad,"Zoo Park, Hyderabad - TSPCB",03-08-2024 02:00:00,17.349694,78.451437,PM2.5,2,9,4
India,Uttar_Pradesh,Agra,"Manoharpur, Agra - UPPCB",03-08-2024 02:00:00,27.23711,78.01936,NH3,2,2,2
India,Uttar_Pradesh,Agra,"Sector-3B Avas Vikas Colony, Agra - UPPCB",03-08-2024 02:00:00,27.19412,77.96237,SO2,16,20,18
India,Uttar_Pradesh,Agra,"Shahjahan Garden, Agra - UPPCB",03-08-2024 02:00:00,27.169338,78.03582,NO2,20,21,21
India,Uttar_Pradesh,Agra,"Shahjahan Garden, Agra - UPPCB",03-08-2024 02:00:00,27.169338,78.03582,OZONE,1,1,1
India,Uttar_Pradesh,Agra,"Shastripuram, Agra - UPPCB",03-08-2024 02:00:00,27.19862,77.92066,PM10,16,30,22
India,Uttar_Pradesh,Agra,"Shastripuram, Agra - UPPCB",03-08-2024 02:00:00,27.19862,77.92066,NO2,21,100,28
India,Uttar_Pradesh,Bareilly,"Civil Lines, Bareilly - UPPCB",03-08-2024 02:00:00,28.359581,79.414455,PM2.5,1,13,6
India,Uttar_Pradesh,Bareilly,"Civil Lines, Bareilly - UPPCB",03-08-2024 02:00:00,28.359581,79.414455,SO2,32,41,34
India,Uttar_Pradesh,Bareilly,"Rajendra Nagar, Bareilly - UPPCB",03-08-2024 02:00:00,28.38910936,79.42963708,NO2,2,4,2
India,Uttar_Pradesh,Bareilly,"Rajendra Nagar, Bareilly - UPPCB",03-08-2024 02:00:00,28.38910936,79.42963708,NH3,1,1,1
India,Uttar_Pradesh,Bulandshahr,"Yamunapuram, Bulandshahr - UPPCB",03-08-2024 02:00:00,28.406963,77.849831,PM10,18,61,32
India,Uttar_Pradesh,Ghaziabad,"Indirapuram, Ghaziabad - UPPCB",03-08-2024 02:00:00,28.646233,77.358075,CO,28,54,41
India,Uttar_Pradesh,Ghaziabad,"Indirapuram, Ghaziabad - UPPCB",03-08-2024 02:00:00,28.646233,77.358075,OZONE,7,32,20
India,Uttar_Pradesh,Ghaziabad,"Loni, Ghaziabad - UPPCB",03-08-2024 02:00:00,28.757294,77.278792,NH3,1,3,2
India,Uttar_Pradesh,Ghaziabad,"Sanjay Nagar, Ghaziabad - UPPCB",03-08-2024 02:00:00,28.685382,77.453839,OZONE,1,12,8
India,Uttar_Pradesh,Ghaziabad,"Vasundhara, Ghaziabad - UPPCB",03-08-2024 02:00:00,28.6603346,77.3572563,NH3,4,6,5
India,Uttar_Pradesh,Gorakhpur,"Madan Mohan Malaviya University of Technology, Gorakhpur - UPPCB",03-08-2024 02:00:00,26.730136,83.433859,CO,1,22,2
India,Uttar_Pradesh,Gorakhpur,"Madan Mohan Malaviya University of Technology, Gorakhpur - UPPCB",03-08-2024 02:00:00,26.730136,83.433859,OZONE,12,12,12
India,Uttar_Pradesh,Greater Noida,"Knowledge Park - III, Greater Noida - UPPCB",03-08-2024 02:00:00,28.47272,77.482000,PM2.5,21,90,41
India,Uttar_Pradesh,Greater Noida,"Knowledge Park - III, Greater Noida - UPPCB",03-08-2024 02:00:00,28.47272,77.482000,OZONE,5,65,29
India,Uttar_Pradesh,Greater Noida,"Knowledge Park - V, Greater Noida - UPPCB",03-08-2024 02:00:00,28.557054,77.453663,PM2.5,22,79,48
India,Uttar_Pradesh,Greater Noida,"Knowledge Park - V, Greater Noida - UPPCB",03-08-2024 02:00:00,28.557054,77.453663,CO,36,64,49
India,Uttar_Pradesh,Hapur,"Anand Vihar, Hapur - UPPCB",03-08-2024 02:00:00,28.725645,77.749675,PM2.5,18,48,29
India,Uttar_Pradesh,Hapur,"Anand Vihar, Hapur - UPPCB",03-08-2024 02:00:00,28.725645,77.749675,PM10,15,42,28
India,Uttar_Pradesh,Jhansi,"Shivaji Nagar, Jhansi - UPPCB",03-08-2024 02:00:00,25.4547,78.6039,PM2.5,6,57,20
India,Uttar_Pradesh,Kanpur,"FTI Kidwai Nagar, Kanpur - UPPCB",03-08-2024 02:00:00,26.428282,80.327067,SO2,18,20,19
India,Uttar_Pradesh,Kanpur,"FTI Kidwai Nagar, Kanpur - UPPCB",03-08-2024 02:00:00,26.428282,80.327067,CO,14,39,33
India,Uttar_Pradesh,Kanpur,"FTI Kidwai Nagar, Kanpur - UPPCB",03-08-2024 02:00:00,26.428282,80.327067,OZONE,12,31,16
India,Uttar_Pradesh,Kanpur,"NSI Kalyanpur, Kanpur - UPPCB",03-08-2024 02:00:00,26.509954,80.249612,PM2.5,NA,NA,NA
India,Uttar_Pradesh,Kanpur,"Nehru Nagar, Kanpur - UPPCB",03-08-2024 02:00:00,26.4703136,80.3229863,NO2,16,45,33
India,Uttar_Pradesh,Kanpur,"Nehru Nagar, Kanpur - UPPCB",03-08-2024 02:00:00,26.4703136,80.3229863,CO,28,76,62
India,Uttar_Pradesh,Kanpur,"Nehru Nagar, Kanpur - UPPCB",03-08-2024 02:00:00,26.4703136,80.3229863,OZONE,19,50,38
India,Uttar_Pradesh,Khurja,"Kalindi Kunj, Khurja - UPPCB",03-08-2024 02:00:00,28.2348927,77.8683002,PM10,21,146,59
India,Uttar_Pradesh,Khurja,"Kalindi Kunj, Khurja - UPPCB",03-08-2024 02:00:00,28.2348927,77.8683002,CO,13,34,24
India,Uttar_Pradesh,Khurja,"Kalindi Kunj, Khurja - UPPCB",03-08-2024 02:00:00,28.2348927,77.8683002,OZONE,20,98,63
India,Uttar_Pradesh,Lucknow,"Gomti Nagar, Lucknow - UPPCB",03-08-2024 02:00:00,26.868120,81.005119,NO2,9,10,10
India,Uttar_Pradesh,Lucknow,"Gomti Nagar, Lucknow - UPPCB",03-08-2024 02:00:00,26.868120,81.005119,SO2,9,16,12
India,Uttar_Pradesh,Lucknow,"Kendriya Vidyalaya, Lucknow - CPCB",03-08-2024 02:00:00,26.906111,80.948222,SO2,4,8,6
India,Uttar_Pradesh,Lucknow,"Kendriya Vidyalaya, Lucknow - CPCB",03-08-2024 02:00:00,26.906111,80.948222,OZONE,2,16,6
India,Uttar_Pradesh,Lucknow,"Kukrail Picnic Spot-1, Lucknow - UPPCB",03-08-2024 02:00:00,26.90723,80.98579,PM2.5,1,27,15
India,Uttar_Pradesh,Lucknow,"Kukrail Picnic Spot-1, Lucknow - UPPCB",03-08-2024 02:00:00,26.90723,80.98579,CO,9,14,12
India,Uttar_Pradesh,Meerut,"Ganga Nagar, Meerut - UPPCB",03-08-2024 02:00:00,28.999264,77.7590354,PM2.5,8,25,18
India,Uttar_Pradesh,Meerut,"Jai Bhim Nagar, Meerut - UPPCB",03-08-2024 02:00:00,28.9535882,77.7622941,NH3,6,10,7
India,Uttar_Pradesh,Meerut,"Pallavpuram Phase 2, Meerut - UPPCB",03-08-2024 02:00:00,29.063510,77.709723,NH3,6,9,8
India,Uttar_Pradesh,Moradabad,"Buddhi Vihar, Moradabad - UPPCB",03-08-2024 02:00:00,28.83526,78.74460,PM2.5,16,57,30
India,Uttar_Pradesh,Moradabad,"Buddhi Vihar, Moradabad - UPPCB",03-08-2024 02:00:00,28.83526,78.74460,OZONE,7,16,10
India,Uttar_Pradesh,Moradabad,"Eco Herbal Park, Moradabad - UPPCB",03-08-2024 02:00:00,28.840739,78.697531,SO2,3,20,12
India,Uttar_Pradesh,Moradabad,"Eco Herbal Park, Moradabad - UPPCB",03-08-2024 02:00:00,28.840739,78.697531,CO,16,47,29
India,Uttar_Pradesh,Moradabad,"Employment Office, Moradabad - UPPCB",03-08-2024 02:00:00,28.88528,78.73880,PM10,34,67,48
India,Uttar_Pradesh,Moradabad,"Jigar Colony, Moradabad - UPPCB",03-08-2024 02:00:00,28.856664,78.772638,NH3,3,4,4
India,Uttar_Pradesh,Moradabad,"Jigar Colony, Moradabad - UPPCB",03-08-2024 02:00:00,28.856664,78.772638,SO2,9,18,11
India,Uttar_Pradesh,Moradabad,"Kashiram Nagar, Moradabad - UPPCB",03-08-2024 02:00:00,28.849399,78.742362,NH3,4,4,4
India,Uttar_Pradesh,Noida,"Sector - 125, Noida - UPPCB",03-08-2024 02:00:00,28.5447608,77.3231257,PM10,7,321,79
India,Uttar_Pradesh,Noida,"Sector-1, Noida - UPPCB",03-08-2024 02:00:00,28.5898,77.3101,CO,4,49,28
India,Uttar_Pradesh,Noida,"Sector-116, Noida - UPPCB",03-08-2024 02:00:00,28.569230,77.393848,NH3,4,11,7
India,Uttar_Pradesh,Prayagraj,"Nagar Nigam, Prayagraj - UPPCB",03-08-2024 02:00:00,25.44919916 ,81.82735986 ,NH3,3,5,4
India,Uttar_Pradesh,Prayagraj,"Nagar Nigam, Prayagraj - UPPCB",03-08-2024 02:00:00,25.44919916 ,81.82735986 ,SO2,18,100,55
India,Uttar_Pradesh,Prayagraj,"Nagar Nigam, Prayagraj - UPPCB",03-08-2024 02:00:00,25.44919916 ,81.82735986 ,CO,5,66,38
India,Uttar_Pradesh,Varanasi,"Bhelupur, Varanasi - UPPCB",03-08-2024 02:00:00,25.301778,82.996789,NO2,8,8,8
India,Uttar_Pradesh,Varanasi,"IESD Banaras Hindu University, Varanasi - UPPCB",03-08-2024 02:00:00,25.262326,82.995408,PM2.5,1,29,7
India,Uttar_Pradesh,Varanasi,"IESD Banaras Hindu University, Varanasi - UPPCB",03-08-2024 02:00:00,25.262326,82.995408,SO2,26,28,27
India,Uttar_Pradesh,Vrindavan,"Omex Eternity, Vrindavan - UPPCB",03-08-2024 02:00:00,27.5714090,77.6557570,PM2.5,7,15,10
India,Uttarakhand,Kashipur,"Govt. Girls Inter College, Kashipur - UKPCB",03-08-2024 02:00:00,29.2124114,78.9611753,PM2.5,27,56,43
India,Uttarakhand,Kashipur,"Govt. Girls Inter College, Kashipur - UKPCB",03-08-2024 02:00:00,29.2124114,78.9611753,NO2,6,13,8
India,Uttarakhand,Rishikesh,"Shivaji Nagar, Rishikesh - UKPCB",03-08-2024 02:00:00,30.075911,78.2859547,NO2,4,18,9
India,West_Bengal,Asansol,"Evelyn Lodge, Asansol - WBPCB",03-08-2024 02:00:00,23.6979360,86.9443950,PM2.5,2,46,19
India,West_Bengal,Asansol,"Evelyn Lodge, Asansol - WBPCB",03-08-2024 02:00:00,23.6979360,86.9443950,PM10,7,52,22
India,West_Bengal,Asansol,"Trivenidevi Bhalotia College, Asansol - WBPCB",03-08-2024 02:00:00,23.616515,87.119133,PM2.5,4,113,31
India,West_Bengal,Asansol,"Trivenidevi Bhalotia College, Asansol - WBPCB",03-08-2024 02:00:00,23.616515,87.119133,OZONE,8,26,19
India,West_Bengal,Durgapur,"PCBL Residential Complex, Durgapur - WBPCB",03-08-2024 02:00:00,23.5087640,87.3544400,PM2.5,20,208,72
India,West_Bengal,Durgapur,"PCBL Residential Complex, Durgapur - WBPCB",03-08-2024 02:00:00,23.5087640,87.3544400,SO2,3,3,3
India,West_Bengal,Durgapur,"Sidhu Kanhu Indoor Stadium, Durgapur - WBPCB",03-08-2024 02:00:00,23.5404352,87.2892225,PM2.5,14,62,34
India,West_Bengal,Durgapur,"Sidhu Kanhu Indoor Stadium, Durgapur - WBPCB",03-08-2024 02:00:00,23.5404352,87.2892225,NO2,17,30,21
India,West_Bengal,Durgapur,"Sidhu Kanhu Indoor Stadium, Durgapur - WBPCB",03-08-2024 02:00:00,23.5404352,87.2892225,CO,16,58,26
India,West_Bengal,Howrah,"Belur Math, Howrah - WBPCB",03-08-2024 02:00:00,22.629801,88.352017,PM10,20,57,33
India,West_Bengal,Howrah,"Belur Math, Howrah - WBPCB",03-08-2024 02:00:00,22.629801,88.352017,SO2,3,11,8
India,West_Bengal,Howrah,"Ghusuri, Howrah - WBPCB",03-08-2024 02:00:00,22.611968,88.347422,PM10,22,49,33
India,West_Bengal,Howrah,"Ghusuri, Howrah - WBPCB",03-08-2024 02:00:00,22.611968,88.347422,SO2,5,7,6
India,West_Bengal,Howrah,"Ghusuri, Howrah - WBPCB",03-08-2024 02:00:00,22.611968,88.347422,OZONE,10,13,12
India,West_Bengal,Howrah,"Padmapukur, Howrah - WBPCB",03-08-2024 02:00:00,22.5687319,88.2797276,PM2.5,23,74,37
India,West_Bengal,Howrah,"Padmapukur, Howrah - WBPCB",03-08-2024 02:00:00,22.5687319,88.2797276,PM10,32,93,50
India,West_Bengal,Kolkata,"Ballygunge, Kolkata - WBPCB",03-08-2024 02:00:00,22.5367507,88.3638022,NO2,16,73,32
India,West_Bengal,Kolkata,"Bidhannagar, Kolkata - WBPCB",03-08-2024 02:00:00,22.58157048,88.41002457,PM2.5,16,57,34
India,West_Bengal,Kolkata,"Bidhannagar, Kolkata - WBPCB",03-08-2024 02:00:00,22.58157048,88.41002457,PM10,22,44,30
India,West_Bengal,Kolkata,"Bidhannagar, Kolkata - WBPCB",03-08-2024 02:00:00,22.58157048,88.41002457,NH3,4,4,4
India,West_Bengal,Kolkata,"Bidhannagar, Kolkata - WBPCB",03-08-2024 02:00:00,22.58157048,88.41002457,OZONE,9,15,12
India,West_Bengal,Kolkata,"Fort William, Kolkata - WBPCB",03-08-2024 02:00:00,22.556640,88.342674,NO2,46,83,57
India,West_Bengal,Kolkata,"Fort William, Kolkata - WBPCB",03-08-2024 02:00:00,22.556640,88.342674,OZONE,22,49,37
India,West_Bengal,Kolkata,"Jadavpur, Kolkata - WBPCB",03-08-2024 02:00:00,22.49929,88.36917,OZONE,16,34,20
India,West_Bengal,Kolkata,"Rabindra Bharati University, Kolkata - WBPCB",03-08-2024 02:00:00,22.627847,88.380669,NO2,40,45,42
India,West_Bengal,Kolkata,"Rabindra Bharati University, Kolkata - WBPCB",03-08-2024 02:00:00,22.627847,88.380669,SO2,1,9,5
India,West_Bengal,Kolkata,"Rabindra Bharati University, Kolkata - WBPCB",03-08-2024 02:00:00,22.627847,88.380669,CO,22,32,28
India,West_Bengal,Kolkata,"Rabindra Sarobar, Kolkata - WBPCB",03-08-2024 02:00:00,22.51106,88.35142,NH3,4,6,5
India,West_Bengal,Kolkata,"Rabindra Sarobar, Kolkata - WBPCB",03-08-2024 02:00:00,22.51106,88.35142,OZONE,11,24,15
India,West_Bengal,Kolkata,"Victoria, Kolkata - WBPCB",03-08-2024 02:00:00,22.5448082,88.3403691,PM2.5,18,46,29
India,West_Bengal,Siliguri,"Ward-32 Bapupara, Siliguri - WBPCB",03-08-2024 02:00:00,26.6879226,88.4152495,PM2.5,22,33,28
India,West_Bengal,Siliguri,"Ward-32 Bapupara, Siliguri - WBPCB",03-08-2024 02:00:00,26.6879226,88.4152495,NO2,18,19,19
India,Andhra_Pradesh,Amaravati,"Secretariat, Amaravati - APPCB",03-08-2024 02:00:00,16.5150833,80.5181667,SO2,7,30,15
India,Andhra_Pradesh,Chittoor,"Gangineni Cheruvu, Chittoor - APPCB",03-08-2024 02:00:00,13.204880,79.097889,NO2,7,9,9
India,Andhra_Pradesh,Kadapa,"Yerramukkapalli, Kadapa - APPCB",03-08-2024 02:00:00,14.465052,78.824187,PM10,35,58,46
India,Andhra_Pradesh,Rajamahendravaram,"Anand Kala Kshetram, Rajamahendravaram - APPCB",03-08-2024 02:00:00,16.9872867,81.7363176,PM10,15,82,32
India,Andhra_Pradesh,Rajamahendravaram,"Anand Kala Kshetram, Rajamahendravaram - APPCB",03-08-2024 02:00:00,16.9872867,81.7363176,OZONE,5,6,5
India,Andhra_Pradesh,Tirupati,"Tirumala, Tirupati - APPCB",03-08-2024 02:00:00,13.67,79.35,PM2.5,5,30,17
India,Andhra_Pradesh,Tirupati,"Tirumala, Tirupati - APPCB",03-08-2024 02:00:00,13.67,79.35,NH3,1,2,1
India,Andhra_Pradesh,Tirupati,"Vaikuntapuram, Tirupati - APPCB",03-08-2024 02:00:00,13.615387,79.409230,SO2,3,9,6
India,Andhra_Pradesh,Tirupati,"Vaikuntapuram, Tirupati - APPCB",03-08-2024 02:00:00,13.615387,79.409230,CO,12,34,21
India,Andhra_Pradesh,Vijayawada,"HB Colony, Vijayawada - APPCB",03-08-2024 02:00:00,16.536107,80.594233,NH3,4,4,4
India,Andhra_Pradesh,Vijayawada,"HB Colony, Vijayawada - APPCB",03-08-2024 02:00:00,16.536107,80.594233,OZONE,8,15,11
India,Andhra_Pradesh,Vijayawada,"Kanuru, Vijayawada - APPCB",03-08-2024 02:00:00,16.486692,80.699436,PM10,41,54,49
India,Andhra_Pradesh,Vijayawada,"Kanuru, Vijayawada - APPCB",03-08-2024 02:00:00,16.486692,80.699436,NH3,4,4,4
India,Andhra_Pradesh,Vijayawada,"Kanuru, Vijayawada - APPCB",03-08-2024 02:00:00,16.486692,80.699436,SO2,7,8,7
India,Andhra_Pradesh,Vijayawada,"Rajiv Gandhi Park, Vijayawada - APPCB",03-08-2024 02:00:00,16.509717,80.612222,NO2,26,36,30
India,Andhra_Pradesh,Vijayawada,"Rajiv Gandhi Park, Vijayawada - APPCB",03-08-2024 02:00:00,16.509717,80.612222,CO,40,40,40
India,Andhra_Pradesh,Vijayawada,"Rajiv Nagar, Vijayawada - APPCB",03-08-2024 02:00:00,16.554731,80.649110,PM2.5,28,30,29
India,Andhra_Pradesh,Visakhapatnam,"GVM Corporation, Visakhapatnam - APPCB",03-08-2024 02:00:00,17.72,83.3,PM2.5,21,88,47
India,Andhra_Pradesh,Visakhapatnam,"GVM Corporation, Visakhapatnam - APPCB",03-08-2024 02:00:00,17.72,83.3,PM10,48,162,96
India,Andhra_Pradesh,Visakhapatnam,"GVM Corporation, Visakhapatnam - APPCB",03-08-2024 02:00:00,17.72,83.3,NO2,41,64,49
India,Andhra_Pradesh,Visakhapatnam,"GVM Corporation, Visakhapatnam - APPCB",03-08-2024 02:00:00,17.72,83.3,NH3,2,6,3
India,Andhra_Pradesh,Visakhapatnam,"GVM Corporation, Visakhapatnam - APPCB",03-08-2024 02:00:00,17.72,83.3,CO,1,52,20
India,Assam,Byrnihat,"Central Academy for SFS, Byrnihat - PCBA",03-08-2024 02:00:00,26.071318,91.87488,PM2.5,8,460,196
India,Assam,Byrnihat,"Central Academy for SFS, Byrnihat - PCBA",03-08-2024 02:00:00,26.071318,91.87488,PM10,6,421,144
India,Assam,Byrnihat,"Central Academy for SFS, Byrnihat - PCBA",03-08-2024 02:00:00,26.071318,91.87488,SO2,3,36,20
India,Assam,Byrnihat,"Central Academy for SFS, Byrnihat - PCBA",03-08-2024 02:00:00,26.071318,91.87488,CO,NA,NA,NA
India,Assam,Guwahati,"IITG, Guwahati - PCBA",03-08-2024 02:00:00,26.2028636,91.70046436,CO,5,44,8
India,Assam,Guwahati,"LGBI Airport, Guwahati - PCBA",03-08-2024 02:00:00,26.10887,91.589544,PM2.5,7,426,126
India,Assam,Guwahati,"LGBI Airport, Guwahati - PCBA",03-08-2024 02:00:00,26.10887,91.589544,NO2,6,28,13
India,Assam,Guwahati,"Railway Colony, Guwahati - PCBA",03-08-2024 02:00:00,26.181742,91.78063,PM10,5,61,23
India,Assam,Guwahati,"Railway Colony, Guwahati - PCBA",03-08-2024 02:00:00,26.181742,91.78063,SO2,3,3,3
India,Assam,Nagaon,"Christianpatty, Nagaon - PCBA",03-08-2024 02:00:00,26.349082,92.68449,NH3,1,2,1
India,Assam,Silchar,"Tarapur, Silchar - PCBA",03-08-2024 02:00:00,24.82827,92.79525,CO,38,64,54
India,Assam,Sivasagar,"Girls College, Sivasagar - PCBA",03-08-2024 02:00:00,26.987634,94.636574,SO2,1,13,7
India,Assam,Sivasagar,"Girls College, Sivasagar - PCBA",03-08-2024 02:00:00,26.987634,94.636574,CO,18,22,21
India,Bihar,Araria,"Kharahiya Basti, Araria - BSPCB",03-08-2024 02:00:00,26.146529,87.454184,NO2,NA,NA,NA
India,Bihar,Arrah,"New DM Office, Arrah - BSPCB",03-08-2024 02:00:00,25.5626095,84.663264,NH3,2,2,2
India,Bihar,Arrah,"New DM Office, Arrah - BSPCB",03-08-2024 02:00:00,25.5626095,84.663264,CO,17,24,20
India,Bihar,Bhagalpur,"DM Office_Kachari Chowk, Bhagalpur - BSPCB",03-08-2024 02:00:00,25.251013,86.989001,NH3,NA,NA,NA
India,Bihar,Bhagalpur,"DM Office_Kachari Chowk, Bhagalpur - BSPCB",03-08-2024 02:00:00,25.251013,86.989001,SO2,NA,NA,NA
India,Bihar,Bhagalpur,"Mayaganj, Bhagalpur - BSPCB",03-08-2024 02:00:00,25.265194,87.012947,PM10,NA,NA,NA
India,Bihar,Bhagalpur,"Mayaganj, Bhagalpur - BSPCB",03-08-2024 02:00:00,25.265194,87.012947,NO2,NA,NA,NA
India,Bihar,Bhagalpur,"Mayaganj, Bhagalpur - BSPCB",03-08-2024 02:00:00,25.265194,87.012947,NH3,NA,NA,NA
India,Bihar,Buxar,"Charitra Van, Buxar - BSPCB (Formerly known as Central Jail)",03-08-2024 02:00:00,25.567520,83.966379,NH3,1,2,1
India,Bihar,Buxar,"Charitra Van, Buxar - BSPCB (Formerly known as Central Jail)",03-08-2024 02:00:00,25.567520,83.966379,CO,38,56,47
India,Bihar,Gaya,"Collectorate, Gaya - BSPCB",03-08-2024 02:00:00,24.7955,84.9994,NO2,4,5,5
India,Bihar,Gaya,"Collectorate, Gaya - BSPCB",03-08-2024 02:00:00,24.7955,84.9994,OZONE,20,22,21
India,Bihar,Gaya,"Kareemganj, Gaya - BSPCB",03-08-2024 02:00:00,24.792403,84.992416,PM2.5,2,190,42
India,Bihar,Gaya,"Kareemganj, Gaya - BSPCB",03-08-2024 02:00:00,24.792403,84.992416,CO,7,45,28
India,Bihar,Gaya,"Kareemganj, Gaya - BSPCB",03-08-2024 02:00:00,24.792403,84.992416,OZONE,8,113,46
India,Bihar,Gaya,"SFTI Kusdihra, Gaya - BSPCB",03-08-2024 02:00:00,24.762518,84.982348,PM2.5,10,41,21
India,Bihar,Gaya,"SFTI Kusdihra, Gaya - BSPCB",03-08-2024 02:00:00,24.762518,84.982348,CO,8,32,26
India,Bihar,Hajipur,"Industrial Area, Hajipur - BSPCB",03-08-2024 02:00:00,25.697189,85.245900,NH3,NA,NA,NA
India,Bihar,Katihar,"Mirchaibari, Katihar - BSPCB",03-08-2024 02:00:00,25.560083,87.553265,PM2.5,NA,NA,NA
India,Bihar,Katihar,"Mirchaibari, Katihar - BSPCB",03-08-2024 02:00:00,25.560083,87.553265,SO2,8,13,10
India,Bihar,Katihar,"Mirchaibari, Katihar - BSPCB",03-08-2024 02:00:00,25.560083,87.553265,OZONE,4,4,4
India,Bihar,Kishanganj,"SDM Office_Khagra, Kishanganj - BSPCB",03-08-2024 02:00:00,26.0881305,87.93840336,PM10,NA,NA,NA
India,Bihar,Manguraha,"Forest Rest House, Manguraha - BSPCB",03-08-2024 02:00:00,27.308328,84.531742,NH3,NA,NA,NA
India,Bihar,Manguraha,"Forest Rest House, Manguraha - BSPCB",03-08-2024 02:00:00,27.308328,84.531742,CO,27,64,41
India,Bihar,Munger,"Town Hall, Munger - BSPCB",03-08-2024 02:00:00,25.376776,86.471523,NO2,NA,NA,NA
India,Bihar,Muzaffarpur,"MIT-Daudpur Kothi, Muzaffarpur - BSPCB",03-08-2024 02:00:00,26.1403345,85.3650192,NH3,NA,NA,NA
India,Bihar,Muzaffarpur,"Muzaffarpur Collectorate, Muzaffarpur - BSPCB",03-08-2024 02:00:00,26.1209,85.3647,NO2,32,36,34
India,Bihar,Patna,"DRM Office Danapur, Patna - BSPCB",03-08-2024 02:00:00,25.586562,85.043586,PM2.5,10,19,13
India,Bihar,Patna,"Govt. High School Shikarpur, Patna - BSPCB",03-08-2024 02:00:00,25.592539,85.227158,NO2,32,34,33
India,Bihar,Patna,"Govt. High School Shikarpur, Patna - BSPCB",03-08-2024 02:00:00,25.592539,85.227158,OZONE,36,41,37
India,Bihar,Patna,"Muradpur, Patna - BSPCB",03-08-2024 02:00:00,25.619651,85.147382,PM10,15,91,42
India,Bihar,Patna,"Muradpur, Patna - BSPCB",03-08-2024 02:00:00,25.619651,85.147382,NH3,6,9,7
India,Bihar,Patna,"Muradpur, Patna - BSPCB",03-08-2024 02:00:00,25.619651,85.147382,OZONE,5,62,14
India,Bihar,Patna,"Samanpura, Patna - BSPCB",03-08-2024 02:00:00,25.596727,85.085624,PM2.5,10,75,32
India,Bihar,Rajgir,"Dangi Tola, Rajgir - BSPCB",03-08-2024 02:00:00,25.03280,85.41948,PM2.5,NA,NA,NA
India,Bihar,Samastipur,"DM Office_Kasipur, Samastipur - BSPCB",03-08-2024 02:00:00,25.859655,85.77944,SO2,NA,NA,NA
India,Bihar,Siwan,"Chitragupta Nagar, Siwan - BSPCB",03-08-2024 02:00:00,26.2271665,84.3570427,PM2.5,NA,NA,NA
India,Chandigarh,Chandigarh,"Sector 22, Chandigarh - CPCC",03-08-2024 02:00:00,30.735567,76.775714,PM2.5,2,55,15
India,Chandigarh,Chandigarh,"Sector 22, Chandigarh - CPCC",03-08-2024 02:00:00,30.735567,76.775714,PM10,24,107,53
India,Chandigarh,Chandigarh,"Sector 22, Chandigarh - CPCC",03-08-2024 02:00:00,30.735567,76.775714,CO,32,94,59
India,Chandigarh,Chandigarh,"Sector-25, Chandigarh - CPCC",03-08-2024 02:00:00,30.751462,76.762879,PM10,27,64,41
India,Chandigarh,Chandigarh,"Sector-25, Chandigarh - CPCC",03-08-2024 02:00:00,30.751462,76.762879,CO,17,67,45
India,Chandigarh,Chandigarh,"Sector-25, Chandigarh - CPCC",03-08-2024 02:00:00,30.751462,76.762879,OZONE,3,37,9
India,Chandigarh,Chandigarh,"Sector-53, Chandigarh - CPCC",03-08-2024 02:00:00,30.719859,76.738637,NO2,NA,NA,NA
India,Chandigarh,Chandigarh,"Sector-53, Chandigarh - CPCC",03-08-2024 02:00:00,30.719859,76.738637,SO2,4,9,6
India,Chhattisgarh,Bhilai,"Civic Center, Bhilai - Bhilai Steel Plant",03-08-2024 02:00:00,21.185571,81.343175,NH3,3,4,4
India,Chhattisgarh,Bilaspur,"Mangala, Bilaspur - NTPC",03-08-2024 02:00:00,22.08815,82.13737,SO2,7,12,10
India,Chhattisgarh,Chhal,"Nawapara SECL Colony, Chhal - CECB",03-08-2024 02:00:00,22.118125,83.140608,NO2,NA,NA,NA
India,Chhattisgarh,Korba,"Rampur, Korba - CECB",03-08-2024 02:00:00,22.368195,82.746431,SO2,5,10,8
India,Chhattisgarh,Korba,"Rampur, Korba - CECB",03-08-2024 02:00:00,22.368195,82.746431,OZONE,4,10,4
India,Chhattisgarh,Korba,"Urja Nagar, Korba - CECB",03-08-2024 02:00:00,22.348441,82.549611,NO2,22,26,25
India,Chhattisgarh,Korba,"Urja Nagar, Korba - CECB",03-08-2024 02:00:00,22.348441,82.549611,CO,16,22,20
India,Chhattisgarh,Kunjemura,"OP Jindal School, Kunjemura - CECB",03-08-2024 02:00:00,22.126650,83.483212,NH3,2,2,2
India,Chhattisgarh,Raipur,"AIIMS, Raipur - CECB",03-08-2024 02:00:00,21.258815,81.578979,NO2,NA,NA,NA
India,Chhattisgarh,Raipur,"AIIMS, Raipur - CECB",03-08-2024 02:00:00,21.258815,81.578979,CO,13,35,22
India,Chhattisgarh,Raipur,"Krishak Nagar, Raipur - CECB",03-08-2024 02:00:00,21.237755,81.705301,PM10,5,29,12
India,Chhattisgarh,Raipur,"Siltara Phase-II, Raipur - CECB",03-08-2024 02:00:00,21.371751,81.664929,NO2,NA,NA,NA
India,Delhi,Delhi,"Alipur, Delhi - DPCC",03-08-2024 02:00:00,28.815329,77.153010,PM2.5,5,93,44
India,Delhi,Delhi,"Ashok Vihar, Delhi - DPCC",03-08-2024 02:00:00,28.695381,77.181665,PM2.5,13,207,71
India,Delhi,Delhi,"Ashok Vihar, Delhi - DPCC",03-08-2024 02:00:00,28.695381,77.181665,PM10,23,108,66
India,Delhi,Delhi,"Ashok Vihar, Delhi - DPCC",03-08-2024 02:00:00,28.695381,77.181665,NO2,19,68,41
India,Delhi,Delhi,"Ashok Vihar, Delhi - DPCC",03-08-2024 02:00:00,28.695381,77.181665,SO2,9,21,15
India,Delhi,Delhi,"Ashok Vihar, Delhi - DPCC",03-08-2024 02:00:00,28.695381,77.181665,OZONE,14,59,27
India,Delhi,Delhi,"Aya Nagar, Delhi - IMD",03-08-2024 02:00:00,28.4706914,77.1099364,PM10,9,52,26
India,Delhi,Delhi,"Aya Nagar, Delhi - IMD",03-08-2024 02:00:00,28.4706914,77.1099364,CO,24,46,39
India,Delhi,Delhi,"Bawana, Delhi - DPCC",03-08-2024 02:00:00,28.776200,77.051074,NO2,5,32,18
India,Delhi,Delhi,"Bawana, Delhi - DPCC",03-08-2024 02:00:00,28.776200,77.051074,SO2,10,13,11
India,Delhi,Delhi,"Bawana, Delhi - DPCC",03-08-2024 02:00:00,28.776200,77.051074,CO,30,50,42
India,Delhi,Delhi,"Chandni Chowk, Delhi - IITM",03-08-2024 02:00:00,28.656756,77.227234,SO2,19,77,52
India,Delhi,Delhi,"DTU, Delhi - CPCB",03-08-2024 02:00:00,28.7500499,77.1112615,CO,24,36,29
India,Delhi,Delhi,"DTU, Delhi - CPCB",03-08-2024 02:00:00,28.7500499,77.1112615,OZONE,22,71,41
India,Delhi,Delhi,"Dr. Karni Singh Shooting Range, Delhi - DPCC",03-08-2024 02:00:00,28.498571,77.264840,PM10,20,80,50
India,Delhi,Delhi,"Dr. Karni Singh Shooting Range, Delhi - DPCC",03-08-2024 02:00:00,28.498571,77.264840,NH3,5,10,8
India,Delhi,Delhi,"Dwarka-Sector 8, Delhi - DPCC ",03-08-2024 02:00:00,28.5710274,77.0719006,PM2.5,20,77,54
India,Delhi,Delhi,"Dwarka-Sector 8, Delhi - DPCC ",03-08-2024 02:00:00,28.5710274,77.0719006,NO2,34,107,57
India,Delhi,Delhi,"Dwarka-Sector 8, Delhi - DPCC ",03-08-2024 02:00:00,28.5710274,77.0719006,NH3,7,10,8
India,Delhi,Delhi,"Dwarka-Sector 8, Delhi - DPCC ",03-08-2024 02:00:00,28.5710274,77.0719006,SO2,7,13,8
India,Delhi,Delhi,"Dwarka-Sector 8, Delhi - DPCC ",03-08-2024 02:00:00,28.5710274,77.0719006,CO,18,103,62
India,Delhi,Delhi,"Dwarka-Sector 8, Delhi - DPCC ",03-08-2024 02:00:00,28.5710274,77.0719006,OZONE,10,28,14
India,Delhi,Delhi,"IHBAS, Dilshad Garden, Delhi - CPCB",03-08-2024 02:00:00,28.6811736,77.3025234,NH3,4,8,5
India,Delhi,Delhi,"ITO, Delhi - CPCB",03-08-2024 02:00:00,28.628624,77.241060,PM2.5,39,89,64
India,Delhi,Delhi,"ITO, Delhi - CPCB",03-08-2024 02:00:00,28.628624,77.241060,PM10,28,63,45
India,Delhi,Delhi,"ITO, Delhi - CPCB",03-08-2024 02:00:00,28.628624,77.241060,OZONE,25,86,52
India,Delhi,Delhi,"Jahangirpuri, Delhi - DPCC",03-08-2024 02:00:00,28.732820,77.170633,PM2.5,13,197,82
India,Delhi,Delhi,"Jahangirpuri, Delhi - DPCC",03-08-2024 02:00:00,28.732820,77.170633,NH3,2,3,2
India,Delhi,Delhi,"Jahangirpuri, Delhi - DPCC",03-08-2024 02:00:00,28.732820,77.170633,SO2,5,15,11
India,Delhi,Delhi,"Jahangirpuri, Delhi - DPCC",03-08-2024 02:00:00,28.732820,77.170633,CO,35,86,72
India,Delhi,Delhi,"Jawaharlal Nehru Stadium, Delhi - DPCC",03-08-2024 02:00:00,28.580280,77.233829,SO2,1,11,5
India,Delhi,Delhi,"Jawaharlal Nehru Stadium, Delhi - DPCC",03-08-2024 02:00:00,28.580280,77.233829,CO,36,78,61
India,Delhi,Delhi,"Mandir Marg, Delhi - DPCC",03-08-2024 02:00:00,28.636429,77.201067,NO2,44,57,52
India,Delhi,Delhi,"Mandir Marg, Delhi - DPCC",03-08-2024 02:00:00,28.636429,77.201067,CO,14,47,34
India,Delhi,Delhi,"Mundka, Delhi - DPCC",03-08-2024 02:00:00,28.684678,77.076574,CO,38,70,52
India,Delhi,Delhi,"NSIT Dwarka, Delhi - CPCB",03-08-2024 02:00:00,28.60909,77.0325413,PM10,44,102,63
India,Delhi,Delhi,"NSIT Dwarka, Delhi - CPCB",03-08-2024 02:00:00,28.60909,77.0325413,NO2,15,38,27
India,Delhi,Delhi,"Narela, Delhi - DPCC",03-08-2024 02:00:00,28.822836,77.101981,PM2.5,10,98,48
India,Delhi,Delhi,"Narela, Delhi - DPCC",03-08-2024 02:00:00,28.822836,77.101981,PM10,30,115,74
India,Delhi,Delhi,"Narela, Delhi - DPCC",03-08-2024 02:00:00,28.822836,77.101981,NH3,6,8,7
India,Delhi,Delhi,"Nehru Nagar, Delhi - DPCC",03-08-2024 02:00:00,28.567890,77.250515,SO2,2,11,7
India,Delhi,Delhi,"New Moti Bagh, Delhi - MHUA",03-08-2024 02:00:00,28.57834,77.18400,CO,30,89,69
India,Delhi,Delhi,"North Campus, DU, Delhi - IMD",03-08-2024 02:00:00,28.6573814,77.1585447,PM2.5,NA,NA,NA
India,Delhi,Delhi,"North Campus, DU, Delhi - IMD",03-08-2024 02:00:00,28.6573814,77.1585447,PM10,NA,NA,NA
India,Delhi,Delhi,"North Campus, DU, Delhi - IMD",03-08-2024 02:00:00,28.6573814,77.1585447,CO,33,80,52
India,Delhi,Delhi,"North Campus, DU, Delhi - IMD",03-08-2024 02:00:00,28.6573814,77.1585447,OZONE,10,65,24
India,Delhi,Delhi,"Okhla Phase-2, Delhi - DPCC",03-08-2024 02:00:00,28.530785,77.271255,OZONE,6,35,19
India,Delhi,Delhi,"Patparganj, Delhi - DPCC",03-08-2024 02:00:00,28.623763,77.287209,PM2.5,NA,NA,NA
India,Delhi,Delhi,"Patparganj, Delhi - DPCC",03-08-2024 02:00:00,28.623763,77.287209,NH3,4,7,6
India,Delhi,Delhi,"Patparganj, Delhi - DPCC",03-08-2024 02:00:00,28.623763,77.287209,CO,8,73,38
India,Delhi,Delhi,"Patparganj, Delhi - DPCC",03-08-2024 02:00:00,28.623763,77.287209,OZONE,2,32,12
India,Delhi,Delhi,"Punjabi Bagh, Delhi - DPCC",03-08-2024 02:00:00,28.674045,77.131023,PM2.5,8,167,80
India,Delhi,Delhi,"Punjabi Bagh, Delhi - DPCC",03-08-2024 02:00:00,28.674045,77.131023,NO2,18,54,34
India,Delhi,Delhi,"Punjabi Bagh, Delhi - DPCC",03-08-2024 02:00:00,28.674045,77.131023,OZONE,4,41,14
India,Delhi,Delhi,"Pusa, Delhi - DPCC",03-08-2024 02:00:00,28.639652,77.146275,NH3,4,7,6
India,Delhi,Delhi,"Pusa, Delhi - IMD",03-08-2024 02:00:00,28.636110,77.173332,PM2.5,22,112,55
India,Delhi,Delhi,"Pusa, Delhi - IMD",03-08-2024 02:00:00,28.636110,77.173332,CO,44,76,64
India,Delhi,Delhi,"Rohini, Delhi - DPCC",03-08-2024 02:00:00,28.732528,77.119920,PM2.5,18,163,69
India,Delhi,Delhi,"Rohini, Delhi - DPCC",03-08-2024 02:00:00,28.732528,77.119920,NH3,7,11,8
India,Delhi,Delhi,"Rohini, Delhi - DPCC",03-08-2024 02:00:00,28.732528,77.119920,SO2,5,7,6
India,Delhi,Delhi,"Shadipur, Delhi - CPCB",03-08-2024 02:00:00,28.6514781,77.1473105,NH3,10,12,11
India,Delhi,Delhi,"Sonia Vihar, Delhi - DPCC",03-08-2024 02:00:00,28.710508,77.249485,PM10,41,149,86
India,Delhi,Delhi,"Sri Aurobindo Marg, Delhi - DPCC",03-08-2024 02:00:00,28.531346,77.190156,PM10,29,99,60
India,Delhi,Delhi,"Vivek Vihar, Delhi - DPCC",03-08-2024 02:00:00,28.672342,77.315260,PM2.5,20,135,54
India,Delhi,Delhi,"Wazirpur, Delhi - DPCC",03-08-2024 02:00:00,28.699793,77.165453,OZONE,10,43,23
India,Gujarat,Ahmedabad,"Chandkheda, Ahmedabad - IITM",03-08-2024 02:00:00,23.107969,72.574648,CO,24,44,33
India,Gujarat,Ahmedabad,"Gyaspur, Ahmedabad - IITM",03-08-2024 02:00:00,22.977134,72.553024,PM10,17,63,37
India,Gujarat,Ahmedabad,"Gyaspur, Ahmedabad - IITM",03-08-2024 02:00:00,22.977134,72.553024,NO2,35,50,41
India,Gujarat,Ahmedabad,"Maninagar, Ahmedabad - GPCB",03-08-2024 02:00:00,23.002657,72.591912,SO2,28,40,33
India,Gujarat,Ahmedabad,"Maninagar, Ahmedabad - GPCB",03-08-2024 02:00:00,23.002657,72.591912,OZONE,14,20,17
India,Gujarat,Ahmedabad,"Rakhial, Ahmedabad - IITM",03-08-2024 02:00:00,23.016834,72.625775,NH3,3,6,5
India,Gujarat,Ahmedabad,"Rakhial, Ahmedabad - IITM",03-08-2024 02:00:00,23.016834,72.625775,SO2,7,17,11
India,Gujarat,Ahmedabad,"Rakhial, Ahmedabad - IITM",03-08-2024 02:00:00,23.016834,72.625775,CO,24,40,31
India,Gujarat,Ahmedabad,"Rakhial, Ahmedabad - IITM",03-08-2024 02:00:00,23.016834,72.625775,OZONE,6,39,18
India,Gujarat,Ahmedabad,"SVPI Airport Hansol, Ahmedabad - IITM",03-08-2024 02:00:00,23.076793,72.627874,NH3,5,6,6
India,Gujarat,Ankleshwar,"GIDC, Ankleshwar - GPCB",03-08-2024 02:00:00,21.613267,73.010555,SO2,5,40,21
India,Gujarat,Gandhinagar,"GIFT City, Gandhinagar - IITM",03-08-2024 02:00:00,23.163798,72.677768,PM2.5,20,36,28
India,Gujarat,Gandhinagar,"GIFT City, Gandhinagar - IITM",03-08-2024 02:00:00,23.163798,72.677768,PM10,30,54,42
India,Gujarat,Gandhinagar,"GIFT City, Gandhinagar - IITM",03-08-2024 02:00:00,23.163798,72.677768,NH3,2,6,4
India,Gujarat,Gandhinagar,"GIFT City, Gandhinagar - IITM",03-08-2024 02:00:00,23.163798,72.677768,CO,18,52,33
India,Gujarat,Gandhinagar,"Sector-10, Gandhinagar - GPCB",03-08-2024 02:00:00,23.221714,72.654328,PM10,15,76,36
India,Gujarat,Vatva,"Phase-4 GIDC, Vatva - GPCB",03-08-2024 02:00:00,22.969611,72.643500,NH3,NA,NA,NA
India,Gujarat,Vatva,"Phase-4 GIDC, Vatva - GPCB",03-08-2024 02:00:00,22.969611,72.643500,OZONE,4,4,4
India,Haryana,Ambala,"Patti Mehar, Ambala - HSPCB",03-08-2024 02:00:00,30.379589,76.778328,NH3,5,12,8
India,Haryana,Ambala,"Patti Mehar, Ambala - HSPCB",03-08-2024 02:00:00,30.379589,76.778328,SO2,4,14,9
India,Haryana,Bahadurgarh,"Arya Nagar, Bahadurgarh - HSPCB",03-08-2024 02:00:00,28.6701,76.9254,NH3,8,10,9
India,Haryana,Bahadurgarh,"Arya Nagar, Bahadurgarh - HSPCB",03-08-2024 02:00:00,28.6701,76.9254,CO,6,24,13
India,Haryana,Bahadurgarh,"Arya Nagar, Bahadurgarh - HSPCB",03-08-2024 02:00:00,28.6701,76.9254,OZONE,33,45,38
India,Haryana,Ballabgarh,"Nathu Colony, Ballabgarh - HSPCB",03-08-2024 02:00:00,28.3419248,77.319699,NH3,1,2,2
India,Haryana,Ballabgarh,"Nathu Colony, Ballabgarh - HSPCB",03-08-2024 02:00:00,28.3419248,77.319699,OZONE,16,46,25
India,Haryana,Bhiwani,"H.B. Colony, Bhiwani - HSPCB",03-08-2024 02:00:00,28.806223,76.141105,PM2.5,16,66,45
India,Haryana,Bhiwani,"H.B. Colony, Bhiwani - HSPCB",03-08-2024 02:00:00,28.806223,76.141105,PM10,69,110,84
India,Haryana,Bhiwani,"H.B. Colony, Bhiwani - HSPCB",03-08-2024 02:00:00,28.806223,76.141105,OZONE,13,44,16
India,Haryana,Charkhi Dadri,"Mini Secretariat, Charkhi Dadri - HSPCB",03-08-2024 02:00:00,28.593883,76.270653,NO2,15,21,18
India,Haryana,Dharuhera,"Municipal Corporation Office, Dharuhera -  HSPCB",03-08-2024 02:00:00,28.206800,76.799700,PM2.5,36,61,47
India,Haryana,Faridabad,"New Industrial Town, Faridabad - HSPCB",03-08-2024 02:00:00,28.39072,77.30059,PM10,10,102,58
India,Haryana,Faridabad,"Sector 11, Faridabad - HSPCB",03-08-2024 02:00:00,28.376058,77.315741,SO2,4,96,16
India,Haryana,Faridabad,"Sector 11, Faridabad - HSPCB",03-08-2024 02:00:00,28.376058,77.315741,CO,30,74,41
India,Haryana,Faridabad,"Sector 30, Faridabad - HSPCB",03-08-2024 02:00:00,28.4417,77.3217,SO2,NA,NA,NA
India,Haryana,Faridabad,"Sector- 16A, Faridabad - HSPCB",03-08-2024 02:00:00,28.4088421,77.3099081,CO,NA,NA,NA
India,Haryana,Fatehabad,"Huda Sector, Fatehabad - HSPCB",03-08-2024 02:00:00,29.503664,75.467934,PM10,NA,NA,NA
India,Haryana,Fatehabad,"Huda Sector, Fatehabad - HSPCB",03-08-2024 02:00:00,29.503664,75.467934,NH3,8,20,12
India,Haryana,Gurugram,"Sector-51, Gurugram - HSPCB",03-08-2024 02:00:00,28.4227,77.0667,SO2,1,10,3
India,Haryana,Gurugram,"Teri Gram, Gurugram - HSPCB",03-08-2024 02:00:00,28.4275,77.1465,CO,8,48,32
India,Haryana,Gurugram,"Vikas Sadan, Gurugram - HSPCB",03-08-2024 02:00:00,28.4501238,77.0263051,CO,49,128,82
India,Haryana,Gurugram,"Vikas Sadan, Gurugram - HSPCB",03-08-2024 02:00:00,28.4501238,77.0263051,OZONE,8,68,19
India,Haryana,Jind,"Police Lines, Jind - HSPCB",03-08-2024 02:00:00,29.307814,76.337619,PM10,28,60,44
India,Haryana,Jind,"Police Lines, Jind - HSPCB",03-08-2024 02:00:00,29.307814,76.337619,SO2,1,2,1
India,Haryana,Kaithal,"Rishi Nagar, Kaithal - HSPCB",03-08-2024 02:00:00,29.8006,76.4155,OZONE,13,93,62
India,Haryana,Karnal,"Sector-12, Karnal - HSPCB",03-08-2024 02:00:00,29.695300,77.002700,CO,24,34,31
India,Haryana,Mandikhera,"General Hospital, Mandikhera - HSPCB",03-08-2024 02:00:00,27.9002,76.9938,CO,5,11,8
India,Haryana,Manesar,"Sector-2 IMT, Manesar - HSPCB",03-08-2024 02:00:00,28.360699,76.936090,PM2.5,18,62,32
India,Haryana,Manesar,"Sector-2 IMT, Manesar - HSPCB",03-08-2024 02:00:00,28.360699,76.936090,NO2,18,19,18
India,Haryana,Narnaul,"Shastri Nagar, Narnaul - HSPCB",03-08-2024 02:00:00,28.060249,76.113115,NO2,15,32,25
India,Haryana,Palwal,"Shyam Nagar, Palwal - HSPCB",03-08-2024 02:00:00,28.1485564,77.3320667,PM10,17,52,39
India,Haryana,Palwal,"Shyam Nagar, Palwal - HSPCB",03-08-2024 02:00:00,28.1485564,77.3320667,SO2,2,13,8
India,Haryana,Palwal,"Shyam Nagar, Palwal - HSPCB",03-08-2024 02:00:00,28.1485564,77.3320667,CO,10,62,15
India,Haryana,Panchkula,"Sector-6, Panchkula - HSPCB ",03-08-2024 02:00:00,30.7057778,76.8531805555555,SO2,2,8,2
India,Haryana,Panchkula,"Sector-6, Panchkula - HSPCB ",03-08-2024 02:00:00,30.7057778,76.8531805555555,CO,3,16,9
India,Haryana,Panipat,"Sector-18, Panipat - HSPCB",03-08-2024 02:00:00,29.432304,76.972765,NO2,31,31,31
India,Haryana,Panipat,"Sector-18, Panipat - HSPCB",03-08-2024 02:00:00,29.432304,76.972765,CO,24,26,25
India,Haryana,Rohtak,"MD University, Rohtak - HSPCB",03-08-2024 02:00:00,28.52123,76.37138,PM2.5,40,397,94
India,Haryana,Rohtak,"MD University, Rohtak - HSPCB",03-08-2024 02:00:00,28.52123,76.37138,CO,14,54,35
India,Haryana,Sirsa,"F-Block, Sirsa - HSPCB",03-08-2024 02:00:00,29.536400,75.015800,SO2,8,55,13
India,Haryana,Yamuna Nagar,"Gobind Pura, Yamuna Nagar - HSPCB",03-08-2024 02:00:00,30.1480566,77.2893471,PM10,34,65,44
India,Jammu_and_Kashmir,Srinagar,"Rajbagh, Srinagar - JKSPCB",03-08-2024 02:00:00,34.066206,74.819820,PM2.5,18,42,32
India,Jammu_and_Kashmir,Srinagar,"Rajbagh, Srinagar - JKSPCB",03-08-2024 02:00:00,34.066206,74.819820,NO2,6,7,7
India,Jammu_and_Kashmir,Srinagar,"Rajbagh, Srinagar - JKSPCB",03-08-2024 02:00:00,34.066206,74.819820,NH3,1,1,1
India,Jharkhand,Jorapokhar,"Tata Stadium, Jorapokhar - JSPCB",03-08-2024 02:00:00,23.707909,86.414670,PM10,NA,NA,NA
India,Jharkhand,Jorapokhar,"Tata Stadium, Jorapokhar - JSPCB",03-08-2024 02:00:00,23.707909,86.414670,CO,6,20,20
India,Jharkhand,Jorapokhar,"Tata Stadium, Jorapokhar - JSPCB",03-08-2024 02:00:00,23.707909,86.414670,OZONE,2,5,4
India,Karnataka,Bagalkot,"Vidayagiri, Bagalkot - KSPCB",03-08-2024 02:00:00,16.172806,75.659694,NO2,10,11,11
India,Karnataka,Belgaum,"Ramteerth Nagar, Belgaum - KSPCB",03-08-2024 02:00:00,15.888653,74.541751,SO2,NA,NA,NA
India,Karnataka,Bengaluru,"BTM Layout, Bengaluru - CPCB",03-08-2024 02:00:00,12.9135218,77.5950804,CO,30,30,30
India,Karnataka,Bengaluru,"Hebbal, Bengaluru - KSPCB",03-08-2024 02:00:00,13.029152,77.585901,PM2.5,NA,NA,NA
India,Karnataka,Bengaluru,"Hebbal, Bengaluru - KSPCB",03-08-2024 02:00:00,13.029152,77.585901,PM10,16,32,26
India,Karnataka,Bengaluru,"Hombegowda Nagar, Bengaluru - KSPCB",03-08-2024 02:00:00,12.938539,77.590100,PM2.5,3,14,10
India,Karnataka,Bengaluru,"Hombegowda Nagar, Bengaluru - KSPCB",03-08-2024 02:00:00,12.938539,77.590100,NO2,7,15,10
India,Karnataka,Bengaluru,"Hombegowda Nagar, Bengaluru - KSPCB",03-08-2024 02:00:00,12.938539,77.590100,CO,10,26,16
India,Karnataka,Bengaluru,"Jayanagar 5th Block, Bengaluru - KSPCB",03-08-2024 02:00:00,12.920984,77.584908,NH3,2,2,2
India,Karnataka,Bengaluru,"Peenya, Bengaluru - CPCB",03-08-2024 02:00:00,13.0270199,77.494094,NO2,22,36,29
India,Karnataka,Bengaluru,"RVCE-Mailasandra, Bengaluru - KSPCB",03-08-2024 02:00:00,12.921418,77.502466,SO2,10,13,11
India,Karnataka,Bengaluru,"RVCE-Mailasandra, Bengaluru - KSPCB",03-08-2024 02:00:00,12.921418,77.502466,OZONE,42,42,42
India,Karnataka,Bengaluru,"Sanegurava Halli, Bengaluru - KSPCB",03-08-2024 02:00:00,12.990328,77.5431385,NO2,20,25,22
India,Karnataka,Bengaluru,"Shivapura_Peenya, Bengaluru - KSPCB",03-08-2024 02:00:00,13.0246342,77.5080115,NO2,15,16,15
India,Karnataka,Bengaluru,"Shivapura_Peenya, Bengaluru - KSPCB",03-08-2024 02:00:00,13.0246342,77.5080115,NH3,4,4,4
India,Karnataka,Bengaluru,"Silk Board, Bengaluru - KSPCB",03-08-2024 02:00:00,12.917348,77.622813,NH3,1,1,1
India,Karnataka,Bidar,"Naubad, Bidar - KSPCB",03-08-2024 02:00:00,17.930306,77.482194,SO2,15,52,22
India,Karnataka,Chamarajanagar,"Urban, Chamarajanagar - KSPCB",03-08-2024 02:00:00,11.55358,76.55521,PM2.5,20,45,29
India,Karnataka,Chamarajanagar,"Urban, Chamarajanagar - KSPCB",03-08-2024 02:00:00,11.55358,76.55521,SO2,2,8,4
India,Karnataka,Chikkaballapur,"Chikkaballapur Rural, Chikkaballapur - KSPCB",03-08-2024 02:00:00,13.428828,77.731418,PM2.5,4,18,10
India,Karnataka,Chikkaballapur,"Chikkaballapur Rural, Chikkaballapur - KSPCB",03-08-2024 02:00:00,13.428828,77.731418,PM10,10,30,20
India,Karnataka,Chikkamagaluru,"Kalyana Nagara, Chikkamagaluru - KSPCB",03-08-2024 02:00:00,13.328028,75.797056,SO2,1,18,3
India,Karnataka,Dharwad,"Kalabhavan, Dharwad - KSPCB",03-08-2024 02:00:00,15.459706,75.008381,NH3,2,4,2
India,Karnataka,Gadag,"Panchal Nagar, Gadag - KSPCB",03-08-2024 02:00:00,15.411456,75.638133,PM2.5,2,12,6
India,Karnataka,Hassan,"B.Katihalli, Hassan - KSPCB",03-08-2024 02:00:00,13.008556,76.125258,PM10,12,74,30
India,Karnataka,Haveri,"Ashwini Nagar, Haveri - KSPCB",03-08-2024 02:00:00,14.791800,75.389600,PM2.5,3,20,12
India,Karnataka,Haveri,"Ashwini Nagar, Haveri - KSPCB",03-08-2024 02:00:00,14.791800,75.389600,NO2,NA,NA,NA
India,Karnataka,Haveri,"Ashwini Nagar, Haveri - KSPCB",03-08-2024 02:00:00,14.791800,75.389600,NH3,NA,NA,NA
India,Karnataka,Hubballi,"Deshpande Nagar, Hubballi - KSPCB",03-08-2024 02:00:00,15.351773,75.140726,PM10,NA,NA,NA
India,Karnataka,Hubballi,"Lingaraj Nagar, Hubballi - KSPCB",03-08-2024 02:00:00,15.3714823,75.1160168,PM10,35,64,48
India,Karnataka,Hubballi,"Lingaraj Nagar, Hubballi - KSPCB",03-08-2024 02:00:00,15.3714823,75.1160168,CO,1,10,3
India,Karnataka,Karwar,"KHB Colony, Karwar - KSPCB",03-08-2024 02:00:00,14.816666,74.141003,SO2,24,25,24
India,Karnataka,Kolar,"Tamaka Ind. Area, Kolar - KSPCB",03-08-2024 02:00:00,13.1276288,78.1570122,PM10,13,77,50
India,Karnataka,Kolar,"Tamaka Ind. Area, Kolar - KSPCB",03-08-2024 02:00:00,13.1276288,78.1570122,SO2,15,22,20
India,Karnataka,Kolar,"Tamaka Ind. Area, Kolar - KSPCB",03-08-2024 02:00:00,13.1276288,78.1570122,OZONE,12,31,18
India,Karnataka,Koppal,"Diwator Nagar, Koppal - KSPCB",03-08-2024 02:00:00,15.347630,76.181767,NO2,15,52,34
India,Karnataka,Madikeri,"Stuart Hill, Madikeri - KSPCB",03-08-2024 02:00:00,12.415911,75.735050,PM10,15,32,21
India,Karnataka,Madikeri,"Stuart Hill, Madikeri - KSPCB",03-08-2024 02:00:00,12.415911,75.735050,NO2,1,2,1
India,Karnataka,Madikeri,"Stuart Hill, Madikeri - KSPCB",03-08-2024 02:00:00,12.415911,75.735050,CO,5,30,15
India,Karnataka,Mangalore,"Kadri, Mangalore - KSPCB",03-08-2024 02:00:00,12.889250,74.853000,PM2.5,8,93,30
India,Karnataka,Mangalore,"Kadri, Mangalore - KSPCB",03-08-2024 02:00:00,12.889250,74.853000,NO2,5,7,6
India,Karnataka,Mangalore,"Kadri, Mangalore - KSPCB",03-08-2024 02:00:00,12.889250,74.853000,OZONE,33,37,35
India,Karnataka,Mysuru,"Hebbal 1st Stage, Mysuru - KSPCB",03-08-2024 02:00:00,12.21041,76.37376,PM10,24,53,34
India,Karnataka,Mysuru,"Hebbal 1st Stage, Mysuru - KSPCB",03-08-2024 02:00:00,12.21041,76.37376,OZONE,4,46,27
India,Karnataka,Shivamogga,"Vinoba Nagara, Shivamogga - KSPCB",03-08-2024 02:00:00,13.940000,75.555917,PM2.5,22,41,29
India,Karnataka,Shivamogga,"Vinoba Nagara, Shivamogga - KSPCB",03-08-2024 02:00:00,13.940000,75.555917,OZONE,12,24,18
India,Karnataka,Tumakuru,"Thimmalapura, Tumakuru - KSPCB",03-08-2024 02:00:00,13.377516,77.099072,OZONE,6,9,7
India,Karnataka,Udupi,"Brahmagiri, Udupi - KSPCB",03-08-2024 02:00:00,13.34194444,74.74694444,NH3,2,3,2
India,Karnataka,Vijayapura,"Ibrahimpur, Vijayapura - KSPCB",03-08-2024 02:00:00,16.802639,75.722694,NO2,17,19,19
India,Kerala,Eloor,"Udyogamandal, Eloor - Kerala PCB",03-08-2024 02:00:00,10.073232,76.302765,SO2,1,2,1
India,Kerala,Eloor,"Udyogamandal, Eloor - Kerala PCB",03-08-2024 02:00:00,10.073232,76.302765,CO,4,102,27
India,Kerala,Eloor,"Udyogamandal, Eloor - Kerala PCB",03-08-2024 02:00:00,10.073232,76.302765,OZONE,10,11,10
India,Kerala,Thiruvananthapuram,"Kariavattom, Thiruvananthapuram - Kerala PCB",03-08-2024 02:00:00,8.563700,76.886500,CO,18,42,25
India,Kerala,Thiruvananthapuram,"Plammoodu, Thiruvananthapuram - Kerala PCB",03-08-2024 02:00:00,8.5149093,76.9435879,SO2,4,17,10
India,Kerala,Thrissur,"Corporation Ground, Thrissur - Kerala PCB",03-08-2024 02:00:00,10.532400,76.215900,CO,38,46,43
India,Kerala,Thrissur,"Corporation Ground, Thrissur - Kerala PCB",03-08-2024 02:00:00,10.532400,76.215900,OZONE,30,31,30
India,Madhya Pradesh,Bhopal,"Idgah Hills, Bhopal - MPPCB",03-08-2024 02:00:00,23.264759,77.381568,NH3,2,3,3
India,Madhya Pradesh,Bhopal,"Idgah Hills, Bhopal - MPPCB",03-08-2024 02:00:00,23.264759,77.381568,SO2,4,7,6
India,Madhya Pradesh,Bhopal,"Paryavaran Parisar, Bhopal - MPPCB",03-08-2024 02:00:00,23.210494,77.425409,CO,16,21,17
India,Madhya Pradesh,Bhopal,"T T Nagar, Bhopal - MPPCB",03-08-2024 02:00:00,23.233584,77.400574,NH3,3,5,4
India,Madhya Pradesh,Damoh,"Shrivastav Colony, Damoh - MPPCB",03-08-2024 02:00:00,23.81748678,79.446246,PM2.5,NA,NA,NA
India,Madhya Pradesh,Dewas,"Bhopal Chauraha, Dewas - MPPCB",03-08-2024 02:00:00,22.9682591,76.064118,NO2,12,14,13
India,Madhya Pradesh,Gwalior,"Maharaj Bada, Gwalior - MPPCB",03-08-2024 02:00:00,26.200388,78.147714,PM2.5,8,22,15
India,Madhya Pradesh,Indore,"Maguda Nagar, Indore - IMC",03-08-2024 02:00:00,22.7524,75.8872,PM10,5,20,14
India,Madhya Pradesh,Indore,"Maguda Nagar, Indore - IMC",03-08-2024 02:00:00,22.7524,75.8872,NO2,3,3,3
India,Madhya Pradesh,Indore,"Maguda Nagar, Indore - IMC",03-08-2024 02:00:00,22.7524,75.8872,SO2,36,37,36
India,Madhya Pradesh,Indore,"Maguda Nagar, Indore - IMC",03-08-2024 02:00:00,22.7524,75.8872,CO,12,18,17
India,Madhya Pradesh,Indore,"Regional Park, Indore - IMC",03-08-2024 02:00:00,22.6780,75.8559,SO2,45,47,46
India,Madhya Pradesh,Indore,"Regional Park, Indore - IMC",03-08-2024 02:00:00,22.6780,75.8559,CO,16,19,18
India,Madhya Pradesh,Indore,"Residency Area, Indore - IMC",03-08-2024 02:00:00,22.7084,75.8815,PM10,10,35,21
India,Madhya Pradesh,Jabalpur,"Gupteshwar, Jabalpur - JMC",03-08-2024 02:00:00,23.142888,79.916147,NO2,5,9,7
India,Madhya Pradesh,Jabalpur,"Gupteshwar, Jabalpur - JMC",03-08-2024 02:00:00,23.142888,79.916147,CO,8,36,25
India,Madhya Pradesh,Jabalpur,"Marhatal, Jabalpur - MPPCB",03-08-2024 02:00:00,23.168606,79.932247,NO2,6,25,14
India,Madhya Pradesh,Jabalpur,"Suhagi, Jabalpur - JMC",03-08-2024 02:00:00,23.218135,79.957770,PM2.5,7,15,12
India,Madhya Pradesh,Jabalpur,"Suhagi, Jabalpur - JMC",03-08-2024 02:00:00,23.218135,79.957770,PM10,10,17,13
India,Madhya Pradesh,Jabalpur,"Suhagi, Jabalpur - JMC",03-08-2024 02:00:00,23.218135,79.957770,NO2,10,12,11
India,Madhya Pradesh,Jabalpur,"Suhagi, Jabalpur - JMC",03-08-2024 02:00:00,23.218135,79.957770,SO2,6,8,7
India,Madhya Pradesh,Jabalpur,"Suhagi, Jabalpur - JMC",03-08-2024 02:00:00,23.218135,79.957770,CO,35,47,44
India,Madhya Pradesh,Jabalpur,"Suhagi, Jabalpur - JMC",03-08-2024 02:00:00,23.218135,79.957770,OZONE,4,5,4
