country,state,city,station,last_update,latitude,longitude,pollutant_id,pollutant_min,pollutant_max,pollutant_avg
India,Andhra_Pradesh,Anantapur,"Gulzarpet, Anantapur - APPCB",28-03-2024 17:00:00,14.675886,77.593027,PM2.5,29,89,53
India,Andhra_Pradesh,Chittoor,"Gangineni Cheruvu, Chittoor - APPCB",28-03-2024 17:00:00,13.204880,79.097889,CO,NA,NA,NA
India,Andhra_Pradesh,Kadapa,"Yerramukkapalli, Kadapa - APPCB",28-03-2024 17:00:00,14.465052,78.824187,PM2.5,13,49,28
India,Andhra_Pradesh,Kadapa,"Yerramukkapalli, Kadapa - APPCB",28-03-2024 17:00:00,14.465052,78.824187,NO2,8,8,8
India,Andhra_Pradesh,Kadapa,"Yerramukkapalli, Kadapa - APPCB",28-03-2024 17:00:00,14.465052,78.824187,OZONE,22,78,53
India,Andhra_Pradesh,Rajamahendravaram,"Anand Kala Kshetram, Rajamahendravaram - APPCB",28-03-2024 17:00:00,16.9872867,81.7363176,PM2.5,15,36,24
India,Andhra_Pradesh,Rajamahendravaram,"Anand Kala Kshetram, Rajamahendravaram - APPCB",28-03-2024 17:00:00,16.9872867,81.7363176,NH3,3,6,3
India,Andhra_Pradesh,Rajamahendravaram,"Anand Kala Kshetram, Rajamahendravaram - APPCB",28-03-2024 17:00:00,16.9872867,81.7363176,OZONE,10,25,22
India,Andhra_Pradesh,Tirupati,"Tirumala, Tirupati - APPCB",28-03-2024 17:00:00,13.67,79.35,NH3,1,2,1
India,Andhra_Pradesh,Tirupati,"Tirumala, Tirupati - APPCB",28-03-2024 17:00:00,13.67,79.35,CO,14,47,20
India,Andhra_Pradesh,Vijayawada,"HB Colony, Vijayawada - APPCB",28-03-2024 17:00:00,16.536107,80.594233,NH3,4,4,4
India,Andhra_Pradesh,Vijayawada,"Kanuru, Vijayawada - APPCB",28-03-2024 17:00:00,16.486692,80.699436,SO2,5,9,7
India,Andhra_Pradesh,Vijayawada,"Rajiv Gandhi Park, Vijayawada - APPCB",28-03-2024 17:00:00,16.509717,80.612222,PM10,37,68,49
India,Andhra_Pradesh,Vijayawada,"Rajiv Gandhi Park, Vijayawada - APPCB",28-03-2024 17:00:00,16.509717,80.612222,SO2,2,7,4
India,Arunachal_Pradesh,Naharlagun,"Naharlagun, Naharlagun - APSPCB",28-03-2024 17:00:00,27.103358,93.679645,PM10,15,90,43
India,Assam,Byrnihat,"Central Academy for SFS, Byrnihat - PCBA",28-03-2024 17:00:00,26.071318,91.87488,NO2,45,112,72
India,Assam,Guwahati,"IITG, Guwahati - PCBA",28-03-2024 17:00:00,26.2028636,91.70046436,OZONE,4,33,26
India,Assam,Guwahati,"LGBI Airport, Guwahati - PCBA",28-03-2024 17:00:00,26.10887,91.589544,NH3,1,5,3
India,Assam,Guwahati,"Pan Bazaar, Guwahati - PCBA",28-03-2024 17:00:00,26.187500,91.744194,NH3,NA,NA,NA
India,Assam,Guwahati,"Pan Bazaar, Guwahati - PCBA",28-03-2024 17:00:00,26.187500,91.744194,CO,14,30,26
India,Assam,Nalbari,"Bata Chowk, Nalbari - PCBA",28-03-2024 17:00:00,26.446912,91.439057,OZONE,19,99,86
India,Assam,Silchar,"Tarapur, Silchar - PCBA",28-03-2024 17:00:00,24.82827,92.79525,SO2,2,16,6
India,Assam,Sivasagar,"Girls College, Sivasagar - PCBA",28-03-2024 17:00:00,26.987634,94.636574,PM2.5,39,52,46
India,Bihar,Aurangabad,"Gurdeo Nagar, Aurangabad - BSPCB",28-03-2024 17:00:00,24.75746,84.366208,OZONE,16,66,48
India,Bihar,Bettiah,"Kamalnath Nagar, Bettiah - BSPCB",28-03-2024 17:00:00,26.80365,84.51954,NH3,3,3,3
India,Bihar,Bhagalpur,"DM Office_Kachari Chowk, Bhagalpur - BSPCB",28-03-2024 17:00:00,25.251013,86.989001,PM2.5,NA,NA,NA
India,Bihar,Bhagalpur,"DM Office_Kachari Chowk, Bhagalpur - BSPCB",28-03-2024 17:00:00,25.251013,86.989001,NO2,NA,NA,NA
India,Bihar,Bhagalpur,"DM Office_Kachari Chowk, Bhagalpur - BSPCB",28-03-2024 17:00:00,25.251013,86.989001,CO,32,68,59
India,Bihar,Bhagalpur,"Mayaganj, Bhagalpur - BSPCB",28-03-2024 17:00:00,25.265194,87.012947,PM10,78,125,96
India,Bihar,Bhagalpur,"Mayaganj, Bhagalpur - BSPCB",28-03-2024 17:00:00,25.265194,87.012947,NO2,4,10,7
India,Bihar,Bhagalpur,"Mayaganj, Bhagalpur - BSPCB",28-03-2024 17:00:00,25.265194,87.012947,SO2,11,12,12
India,Bihar,Bihar Sharif,"D M Colony, Bihar Sharif - BSPCB",28-03-2024 17:00:00,25.204762,85.514960,PM2.5,48,117,80
India,Bihar,Buxar,"Charitra Van, Buxar - BSPCB (Formerly known as Central Jail)",28-03-2024 17:00:00,25.567520,83.966379,PM10,74,158,101
India,Bihar,Buxar,"Charitra Van, Buxar - BSPCB (Formerly known as Central Jail)",28-03-2024 17:00:00,25.567520,83.966379,CO,44,104,71
India,Bihar,Chhapra,"Darshan Nagar, Chhapra - BSPCB",28-03-2024 17:00:00,25.7808257,84.7446768,CO,30,61,45
India,Bihar,Chhapra,"Darshan Nagar, Chhapra - BSPCB",28-03-2024 17:00:00,25.7808257,84.7446768,OZONE,1,12,6
India,Bihar,Gaya,"Collectorate, Gaya - BSPCB",28-03-2024 17:00:00,24.7955,84.9994,NO2,1,4,3
India,Bihar,Gaya,"Collectorate, Gaya - BSPCB",28-03-2024 17:00:00,24.7955,84.9994,OZONE,44,83,62
India,Bihar,Gaya,"Kareemganj, Gaya - BSPCB",28-03-2024 17:00:00,24.792403,84.992416,CO,4,102,32
India,Bihar,Gaya,"SFTI Kusdihra, Gaya - BSPCB",28-03-2024 17:00:00,24.762518,84.982348,PM10,60,94,75
India,Bihar,Gaya,"SFTI Kusdihra, Gaya - BSPCB",28-03-2024 17:00:00,24.762518,84.982348,SO2,6,10,8
India,Bihar,Hajipur,"Industrial Area, Hajipur - BSPCB",28-03-2024 17:00:00,25.697189,85.245900,PM2.5,22,72,44
India,Bihar,Motihari,"Gandak Colony, Motihari - BSPCB",28-03-2024 17:00:00,26.63086,84.90051,CO,8,21,11
India,Bihar,Munger,"Town Hall, Munger - BSPCB",28-03-2024 17:00:00,25.376776,86.471523,PM2.5,47,100,74
India,Bihar,Munger,"Town Hall, Munger - BSPCB",28-03-2024 17:00:00,25.376776,86.471523,PM10,56,114,87
India,Bihar,Munger,"Town Hall, Munger - BSPCB",28-03-2024 17:00:00,25.376776,86.471523,CO,2,10,6
India,Bihar,Muzaffarpur,"Buddha Colony, Muzaffarpur - BSPCB",28-03-2024 17:00:00,26.11442,85.39813,OZONE,28,66,37
India,Bihar,Patna,"DRM Office Danapur, Patna - BSPCB",28-03-2024 17:00:00,25.586562,85.043586,NO2,9,24,13
India,Bihar,Patna,"Govt. High School Shikarpur, Patna - BSPCB",28-03-2024 17:00:00,25.592539,85.227158,OZONE,1,59,50
India,Bihar,Patna,"IGSC Planetarium Complex, Patna - BSPCB",28-03-2024 17:00:00,25.610369,85.132568,SO2,5,5,5
India,Bihar,Patna,"Muradpur, Patna - BSPCB",28-03-2024 17:00:00,25.619651,85.147382,OZONE,5,28,19
India,Bihar,Patna,"Rajbansi Nagar, Patna - BSPCB",28-03-2024 17:00:00,25.599486,85.113666,SO2,6,17,12
India,Bihar,Patna,"Rajbansi Nagar, Patna - BSPCB",28-03-2024 17:00:00,25.599486,85.113666,CO,21,70,36
India,Bihar,Purnia,"Mariam Nagar, Purnia - BSPCB",28-03-2024 17:00:00,25.366336,87.117468,PM2.5,18,80,30
India,Bihar,Purnia,"Mariam Nagar, Purnia - BSPCB",28-03-2024 17:00:00,25.366336,87.117468,NH3,2,2,2
India,Bihar,Purnia,"Mariam Nagar, Purnia - BSPCB",28-03-2024 17:00:00,25.366336,87.117468,OZONE,4,15,8
India,Bihar,Rajgir,"Dangi Tola, Rajgir - BSPCB",28-03-2024 17:00:00,25.03280,85.41948,PM10,32,222,105
India,Bihar,Rajgir,"Dangi Tola, Rajgir - BSPCB",28-03-2024 17:00:00,25.03280,85.41948,NH3,1,5,1
India,Bihar,Saharsa,"Police Line, Saharsa - BSPCB",28-03-2024 17:00:00,25.892357,86.590325,CO,14,45,31
India,Bihar,Samastipur,"DM Office_Kasipur, Samastipur - BSPCB",28-03-2024 17:00:00,25.859655,85.77944,PM2.5,32,113,56
India,Bihar,Samastipur,"DM Office_Kasipur, Samastipur - BSPCB",28-03-2024 17:00:00,25.859655,85.77944,NO2,19,41,34
India,Bihar,Samastipur,"DM Office_Kasipur, Samastipur - BSPCB",28-03-2024 17:00:00,25.859655,85.77944,SO2,6,15,12
India,Bihar,Siwan,"Chitragupta Nagar, Siwan - BSPCB",28-03-2024 17:00:00,26.2271665,84.3570427,NH3,1,2,2
India,Bihar,Siwan,"Chitragupta Nagar, Siwan - BSPCB",28-03-2024 17:00:00,26.2271665,84.3570427,SO2,24,34,32
India,Chandigarh,Chandigarh,"Sector 22, Chandigarh - CPCC",28-03-2024 17:00:00,30.735567,76.775714,OZONE,27,98,65
India,Chandigarh,Chandigarh,"Sector-25, Chandigarh - CPCC",28-03-2024 17:00:00,30.751462,76.762879,NH3,13,18,16
India,Chandigarh,Chandigarh,"Sector-25, Chandigarh - CPCC",28-03-2024 17:00:00,30.751462,76.762879,SO2,4,37,11
India,Chhattisgarh,Bhilai,"32Bungalows, Bhilai - CECB",28-03-2024 17:00:00,21.194815,81.314770,OZONE,4,23,15
India,Chhattisgarh,Bhilai,"Civic Center, Bhilai - Bhilai Steel Plant",28-03-2024 17:00:00,21.185571,81.343175,PM2.5,35,69,53
India,Chhattisgarh,Bilaspur,"Mangala, Bilaspur - NTPC",28-03-2024 17:00:00,22.08815,82.13737,SO2,4,17,11
India,Chhattisgarh,Chhal,"Nawapara SECL Colony, Chhal - CECB",28-03-2024 17:00:00,22.118125,83.140608,PM10,97,144,118
India,Chhattisgarh,Chhal,"Nawapara SECL Colony, Chhal - CECB",28-03-2024 17:00:00,22.118125,83.140608,NO2,21,50,31
India,Chhattisgarh,Korba,"Urja Nagar, Korba - CECB",28-03-2024 17:00:00,22.348441,82.549611,PM2.5,2,16,7
India,Chhattisgarh,Korba,"Urja Nagar, Korba - CECB",28-03-2024 17:00:00,22.348441,82.549611,OZONE,1,10,3
India,Chhattisgarh,Kunjemura,"OP Jindal School, Kunjemura - CECB",28-03-2024 17:00:00,22.126650,83.483212,SO2,2,22,7
India,Chhattisgarh,Milupara,"Govt. Higher Secondary School, Milupara - CECB",28-03-2024 17:00:00,22.1910172,83.5197009,OZONE,2,36,34
India,Chhattisgarh,Raipur,"AIIMS, Raipur - CECB",28-03-2024 17:00:00,21.258815,81.578979,CO,26,53,43
India,Chhattisgarh,Raipur,"Bhatagaon New ISBT, Raipur - CECB",28-03-2024 17:00:00,21.219665,81.630094,NO2,57,87,70
India,Chhattisgarh,Raipur,"Bhatagaon New ISBT, Raipur - CECB",28-03-2024 17:00:00,21.219665,81.630094,OZONE,3,9,7
India,Chhattisgarh,Raipur,"Krishak Nagar, Raipur - CECB",28-03-2024 17:00:00,21.237755,81.705301,PM10,50,76,60
India,Chhattisgarh,Raipur,"Siltara Phase-II, Raipur - CECB",28-03-2024 17:00:00,21.371751,81.664929,NO2,26,74,52
India,Chhattisgarh,Tumidih,"OP Jindal Industrial Park, Tumidih - CECB",28-03-2024 17:00:00,22.06631475,83.33820077,NH3,NA,NA,NA
India,Delhi,Delhi,"Ashok Vihar, Delhi - DPCC",28-03-2024 17:00:00,28.695381,77.181665,NH3,12,16,14
India,Delhi,Delhi,"Ashok Vihar, Delhi - DPCC",28-03-2024 17:00:00,28.695381,77.181665,CO,14,52,29
India,Delhi,Delhi,"Ashok Vihar, Delhi - DPCC",28-03-2024 17:00:00,28.695381,77.181665,OZONE,2,12,8
India,Delhi,Delhi,"Aya Nagar, Delhi - IMD",28-03-2024 17:00:00,28.4706914,77.1099364,OZONE,2,34,25
India,Delhi,Delhi,"Burari Crossing, Delhi - IMD",28-03-2024 17:00:00,28.7256504,77.2011573,PM2.5,50,276,151
India,Delhi,Delhi,"CRRI Mathura Road, Delhi - IMD",28-03-2024 17:00:00,28.5512005,77.2735737,PM10,66,125,92
India,Delhi,Delhi,"CRRI Mathura Road, Delhi - IMD",28-03-2024 17:00:00,28.5512005,77.2735737,CO,34,64,55
India,Delhi,Delhi,"Chandni Chowk, Delhi - IITM",28-03-2024 17:00:00,28.656756,77.227234,NO2,11,208,60
India,Delhi,Delhi,"DTU, Delhi - CPCB",28-03-2024 17:00:00,28.7500499,77.1112615,SO2,29,31,30
India,Delhi,Delhi,"Dwarka-Sector 8, Delhi - DPCC ",28-03-2024 17:00:00,28.5710274,77.0719006,NH3,6,9,8
India,Delhi,Delhi,"IGI Airport (T3), Delhi - IMD",28-03-2024 17:00:00,28.5627763,77.1180053,OZONE,1,61,34
India,Delhi,Delhi,"IHBAS, Dilshad Garden, Delhi - CPCB",28-03-2024 17:00:00,28.6811736,77.3025234,PM2.5,80,210,126
India,Delhi,Delhi,"IHBAS, Dilshad Garden, Delhi - CPCB",28-03-2024 17:00:00,28.6811736,77.3025234,SO2,3,48,26
India,Delhi,Delhi,"ITO, Delhi - CPCB",28-03-2024 17:00:00,28.628624,77.241060,NH3,1,10,4
India,Delhi,Delhi,"ITO, Delhi - CPCB",28-03-2024 17:00:00,28.628624,77.241060,CO,28,76,42
India,Delhi,Delhi,"Jahangirpuri, Delhi - DPCC",28-03-2024 17:00:00,28.732820,77.170633,NH3,2,13,8
India,Delhi,Delhi,"Jahangirpuri, Delhi - DPCC",28-03-2024 17:00:00,28.732820,77.170633,SO2,8,58,24
India,Delhi,Delhi,"Jawaharlal Nehru Stadium, Delhi - DPCC",28-03-2024 17:00:00,28.580280,77.233829,PM2.5,23,119,74
India,Delhi,Delhi,"Jawaharlal Nehru Stadium, Delhi - DPCC",28-03-2024 17:00:00,28.580280,77.233829,PM10,87,149,119
India,Delhi,Delhi,"Jawaharlal Nehru Stadium, Delhi - DPCC",28-03-2024 17:00:00,28.580280,77.233829,OZONE,1,263,219
India,Delhi,Delhi,"Lodhi Road, Delhi - IITM",28-03-2024 17:00:00,28.588333,77.221667,PM2.5,64,500,310
India,Delhi,Delhi,"Lodhi Road, Delhi - IITM",28-03-2024 17:00:00,28.588333,77.221667,CO,58,68,60
India,Delhi,Delhi,"Lodhi Road, Delhi - IMD",28-03-2024 17:00:00,28.5918245,77.2273074,PM2.5,45,145,88
India,Delhi,Delhi,"Lodhi Road, Delhi - IMD",28-03-2024 17:00:00,28.5918245,77.2273074,NO2,2,8,5
India,Delhi,Delhi,"Major Dhyan Chand National Stadium, Delhi - DPCC",28-03-2024 17:00:00,28.611281,77.237738,CO,32,66,45
India,Delhi,Delhi,"Mandir Marg, Delhi - DPCC",28-03-2024 17:00:00,28.636429,77.201067,PM2.5,41,179,97
India,Delhi,Delhi,"Mandir Marg, Delhi - DPCC",28-03-2024 17:00:00,28.636429,77.201067,PM10,65,135,102
India,Delhi,Delhi,"Mandir Marg, Delhi - DPCC",28-03-2024 17:00:00,28.636429,77.201067,NO2,118,155,129
India,Delhi,Delhi,"Mandir Marg, Delhi - DPCC",28-03-2024 17:00:00,28.636429,77.201067,NH3,7,8,7
India,Delhi,Delhi,"Mandir Marg, Delhi - DPCC",28-03-2024 17:00:00,28.636429,77.201067,SO2,3,14,8
India,Delhi,Delhi,"Mundka, Delhi - DPCC",28-03-2024 17:00:00,28.684678,77.076574,NO2,22,98,46
India,Delhi,Delhi,"Mundka, Delhi - DPCC",28-03-2024 17:00:00,28.684678,77.076574,NH3,4,8,6
India,Delhi,Delhi,"Mundka, Delhi - DPCC",28-03-2024 17:00:00,28.684678,77.076574,SO2,7,44,20
India,Delhi,Delhi,"NSIT Dwarka, Delhi - CPCB",28-03-2024 17:00:00,28.60909,77.0325413,PM2.5,65,319,201
India,Delhi,Delhi,"Najafgarh, Delhi - DPCC",28-03-2024 17:00:00,28.570173,76.933762,NO2,4,19,9
India,Delhi,Delhi,"Najafgarh, Delhi - DPCC",28-03-2024 17:00:00,28.570173,76.933762,NH3,12,13,13
India,Delhi,Delhi,"Najafgarh, Delhi - DPCC",28-03-2024 17:00:00,28.570173,76.933762,CO,19,86,46
India,Delhi,Delhi,"Najafgarh, Delhi - DPCC",28-03-2024 17:00:00,28.570173,76.933762,OZONE,12,161,117
India,Delhi,Delhi,"Narela, Delhi - DPCC",28-03-2024 17:00:00,28.822836,77.101981,PM2.5,34,339,146
India,Delhi,Delhi,"Nehru Nagar, Delhi - DPCC",28-03-2024 17:00:00,28.567890,77.250515,OZONE,2,205,116
India,Delhi,Delhi,"Okhla Phase-2, Delhi - DPCC",28-03-2024 17:00:00,28.530785,77.271255,PM2.5,42,146,87
India,Delhi,Delhi,"Patparganj, Delhi - DPCC",28-03-2024 17:00:00,28.623763,77.287209,PM10,103,182,146
India,Delhi,Delhi,"Patparganj, Delhi - DPCC",28-03-2024 17:00:00,28.623763,77.287209,CO,17,60,30
India,Delhi,Delhi,"Punjabi Bagh, Delhi - DPCC",28-03-2024 17:00:00,28.674045,77.131023,PM10,97,195,129
India,Delhi,Delhi,"Pusa, Delhi - DPCC",28-03-2024 17:00:00,28.639652,77.146275,NH3,6,12,9
India,Delhi,Delhi,"Pusa, Delhi - DPCC",28-03-2024 17:00:00,28.639652,77.146275,OZONE,10,109,65
India,Delhi,Delhi,"Pusa, Delhi - IMD",28-03-2024 17:00:00,28.636110,77.173332,PM10,NA,NA,NA
India,Delhi,Delhi,"Pusa, Delhi - IMD",28-03-2024 17:00:00,28.636110,77.173332,CO,62,86,78
India,Delhi,Delhi,"R K Puram, Delhi - DPCC",28-03-2024 17:00:00,28.563262,77.186937,NO2,15,35,24
India,Delhi,Delhi,"Shadipur, Delhi - CPCB",28-03-2024 17:00:00,28.6514781,77.1473105,PM2.5,78,356,237
India,Delhi,Delhi,"Sonia Vihar, Delhi - DPCC",28-03-2024 17:00:00,28.710508,77.249485,OZONE,8,78,47
India,Delhi,Delhi,"Sri Aurobindo Marg, Delhi - DPCC",28-03-2024 17:00:00,28.531346,77.190156,NH3,7,9,8
India,Delhi,Delhi,"Sri Aurobindo Marg, Delhi - DPCC",28-03-2024 17:00:00,28.531346,77.190156,OZONE,1,69,43
India,Delhi,Delhi,"Vivek Vihar, Delhi - DPCC",28-03-2024 17:00:00,28.672342,77.315260,PM10,107,177,146
India,Delhi,Delhi,"Vivek Vihar, Delhi - DPCC",28-03-2024 17:00:00,28.672342,77.315260,CO,21,65,32
India,Delhi,Delhi,"Wazirpur, Delhi - DPCC",28-03-2024 17:00:00,28.699793,77.165453,NH3,9,10,10
India,Gujarat,Ahmedabad,"Chandkheda, Ahmedabad - IITM",28-03-2024 17:00:00,23.107969,72.574648,PM2.5,89,143,123
India,Gujarat,Ahmedabad,"Gyaspur, Ahmedabad - IITM",28-03-2024 17:00:00,22.977134,72.553024,NH3,9,12,10
India,Gujarat,Ahmedabad,"Maninagar, Ahmedabad - GPCB",28-03-2024 17:00:00,23.002657,72.591912,CO,18,105,63
India,Gujarat,Ahmedabad,"Raikhad, Ahmedabad - IITM",28-03-2024 17:00:00,23.020509,72.579261,PM10,44,282,89
India,Gujarat,Ahmedabad,"Raikhad, Ahmedabad - IITM",28-03-2024 17:00:00,23.020509,72.579261,SO2,4,11,7
India,Gujarat,Ahmedabad,"Rakhial, Ahmedabad - IITM",28-03-2024 17:00:00,23.016834,72.625775,NO2,14,105,35
India,Gujarat,Ahmedabad,"Rakhial, Ahmedabad - IITM",28-03-2024 17:00:00,23.016834,72.625775,SO2,5,41,12
India,Gujarat,Ahmedabad,"SAC ISRO Satellite, Ahmedabad - IITM",28-03-2024 17:00:00,23.023389,72.515201,OZONE,10,20,18
India,Gujarat,Ahmedabad,"Sardar Vallabhbhai Patel Stadium, Ahmedabad - IITM",28-03-2024 17:00:00,23.043070,72.562968,PM10,78,188,103
India,Gujarat,Ahmedabad,"Sardar Vallabhbhai Patel Stadium, Ahmedabad - IITM",28-03-2024 17:00:00,23.043070,72.562968,NO2,6,35,30
India,Gujarat,Ahmedabad,"Sardar Vallabhbhai Patel Stadium, Ahmedabad - IITM",28-03-2024 17:00:00,23.043070,72.562968,SO2,1,49,9
India,Gujarat,Ankleshwar,"GIDC, Ankleshwar - GPCB",28-03-2024 17:00:00,21.613267,73.010555,PM2.5,51,82,68
India,Gujarat,Gandhinagar,"GIFT City, Gandhinagar - IITM",28-03-2024 17:00:00,23.163798,72.677768,PM10,59,119,85
India,Gujarat,Gandhinagar,"IIPHG Lekawada, Gandhinagar - IITM",28-03-2024 17:00:00,23.243639,72.68994,PM2.5,65,160,105
India,Gujarat,Gandhinagar,"IIPHG Lekawada, Gandhinagar - IITM",28-03-2024 17:00:00,23.243639,72.68994,NO2,37,47,41
India,Gujarat,Gandhinagar,"Sector-10, Gandhinagar - GPCB",28-03-2024 17:00:00,23.221714,72.654328,SO2,4,8,5
India,Gujarat,Gandhinagar,"Sector-10, Gandhinagar - GPCB",28-03-2024 17:00:00,23.221714,72.654328,CO,21,101,22
India,Gujarat,Nandesari,"GIDC, Nandesari - Nandesari Ind. Association",28-03-2024 17:00:00,22.410802,73.097923,NO2,5,31,15
India,Gujarat,Nandesari,"GIDC, Nandesari - Nandesari Ind. Association",28-03-2024 17:00:00,22.410802,73.097923,SO2,7,18,12
India,Gujarat,Surat,"Science Center, Surat - SMC",28-03-2024 17:00:00,21.170046,72.795405,NO2,43,69,58
India,Gujarat,Vapi,"Phase-1 GIDC, Vapi - GPCB",28-03-2024 17:00:00,20.362421,72.918013,SO2,50,52,51
India,Gujarat,Vatva,"Phase-4 GIDC, Vatva - GPCB",28-03-2024 17:00:00,22.969611,72.643500,SO2,12,72,30
India,Haryana,Ballabgarh,"Nathu Colony, Ballabgarh - HSPCB",28-03-2024 17:00:00,28.3419248,77.319699,PM10,108,183,144
India,Haryana,Ballabgarh,"Nathu Colony, Ballabgarh - HSPCB",28-03-2024 17:00:00,28.3419248,77.319699,NO2,11,14,13
India,Haryana,Ballabgarh,"Nathu Colony, Ballabgarh - HSPCB",28-03-2024 17:00:00,28.3419248,77.319699,NH3,1,3,2
India,Haryana,Bhiwani,"H.B. Colony, Bhiwani - HSPCB",28-03-2024 17:00:00,28.806223,76.141105,PM10,56,114,76
India,Haryana,Dharuhera,"Municipal Corporation Office, Dharuhera -  HSPCB",28-03-2024 17:00:00,28.206800,76.799700,SO2,2,7,3
India,Haryana,Dharuhera,"Municipal Corporation Office, Dharuhera -  HSPCB",28-03-2024 17:00:00,28.206800,76.799700,OZONE,44,63,58
India,Haryana,Faridabad,"Sector 30, Faridabad - HSPCB",28-03-2024 17:00:00,28.4417,77.3217,SO2,3,14,7
India,Haryana,Faridabad,"Sector 30, Faridabad - HSPCB",28-03-2024 17:00:00,28.4417,77.3217,OZONE,5,110,69
India,Haryana,Gurugram,"Sector-51, Gurugram - HSPCB",28-03-2024 17:00:00,28.4227,77.0667,NH3,6,14,8
India,Haryana,Gurugram,"Teri Gram, Gurugram - HSPCB",28-03-2024 17:00:00,28.4275,77.1465,PM2.5,58,303,156
India,Haryana,Gurugram,"Teri Gram, Gurugram - HSPCB",28-03-2024 17:00:00,28.4275,77.1465,OZONE,13,18,15
India,Haryana,Gurugram,"Vikas Sadan, Gurugram - HSPCB",28-03-2024 17:00:00,28.4501238,77.0263051,NO2,5,25,14
India,Haryana,Hisar,"Urban Estate-II, Hisar - HSPCB",28-03-2024 17:00:00,29.140560,75.744941,PM10,61,89,76
India,Haryana,Hisar,"Urban Estate-II, Hisar - HSPCB",28-03-2024 17:00:00,29.140560,75.744941,CO,40,57,47
India,Haryana,Hisar,"Urban Estate-II, Hisar - HSPCB",28-03-2024 17:00:00,29.140560,75.744941,OZONE,35,98,69
India,Haryana,Jind,"Police Lines, Jind - HSPCB",28-03-2024 17:00:00,29.307814,76.337619,PM10,45,75,61
India,Haryana,Jind,"Police Lines, Jind - HSPCB",28-03-2024 17:00:00,29.307814,76.337619,SO2,3,10,6
India,Haryana,Kaithal,"Rishi Nagar, Kaithal - HSPCB",28-03-2024 17:00:00,29.8006,76.4155,SO2,2,35,17
India,Haryana,Karnal,"Sector-12, Karnal - HSPCB",28-03-2024 17:00:00,29.695300,77.002700,PM10,44,74,60
India,Haryana,Kurukshetra,"Sector-7, Kurukshetra - HSPCB",28-03-2024 17:00:00,29.966942,76.875879,NO2,10,20,10
India,Haryana,Kurukshetra,"Sector-7, Kurukshetra - HSPCB",28-03-2024 17:00:00,29.966942,76.875879,CO,6,30,18
India,Haryana,Mandikhera,"General Hospital, Mandikhera - HSPCB",28-03-2024 17:00:00,27.9002,76.9938,SO2,30,39,34
India,Haryana,Manesar,"Sector-2 IMT, Manesar - HSPCB",28-03-2024 17:00:00,28.360699,76.936090,SO2,3,16,10
India,Haryana,Narnaul,"Shastri Nagar, Narnaul - HSPCB",28-03-2024 17:00:00,28.060249,76.113115,PM10,32,66,42
India,Haryana,Palwal,"Shyam Nagar, Palwal - HSPCB",28-03-2024 17:00:00,28.1485564,77.3320667,NO2,23,24,24
India,Haryana,Panchkula,"Sector-6, Panchkula - HSPCB ",28-03-2024 17:00:00,30.7057778,76.8531805555555,OZONE,50,59,56
India,Haryana,Panipat,"Sector-18, Panipat - HSPCB",28-03-2024 17:00:00,29.497973,76.993331,PM2.5,NA,NA,NA
India,Haryana,Panipat,"Sector-18, Panipat - HSPCB",28-03-2024 17:00:00,29.497973,76.993331,PM10,NA,NA,NA
India,Haryana,Rohtak,"MD University, Rohtak - HSPCB",28-03-2024 17:00:00,28.52123,76.37138,PM2.5,1,26,7
India,Haryana,Rohtak,"MD University, Rohtak - HSPCB",28-03-2024 17:00:00,28.52123,76.37138,CO,28,72,40
India,Haryana,Rohtak,"MD University, Rohtak - HSPCB",28-03-2024 17:00:00,28.52123,76.37138,OZONE,46,52,48
India,Haryana,Sirsa,"F-Block, Sirsa - HSPCB",28-03-2024 17:00:00,29.536400,75.015800,CO,25,44,36
India,Haryana,Sirsa,"F-Block, Sirsa - HSPCB",28-03-2024 17:00:00,29.536400,75.015800,OZONE,20,79,62
India,Haryana,Sonipat,"Murthal, Sonipat - HSPCB",28-03-2024 17:00:00,29.027200,77.062100,NO2,37,44,40
India,Haryana,Sonipat,"Murthal, Sonipat - HSPCB",28-03-2024 17:00:00,29.027200,77.062100,NH3,7,10,9
India,Haryana,Sonipat,"Murthal, Sonipat - HSPCB",28-03-2024 17:00:00,29.027200,77.062100,OZONE,17,36,33
India,Haryana,Yamuna Nagar,"Gobind Pura, Yamuna Nagar - HSPCB",28-03-2024 17:00:00,30.1480566,77.2893471,NO2,3,4,4
India,Haryana,Yamuna Nagar,"Gobind Pura, Yamuna Nagar - HSPCB",28-03-2024 17:00:00,30.1480566,77.2893471,SO2,2,13,7
India,Jharkhand,Dhanbad,"Kalakusuma, Dhanbad - DMC",28-03-2024 17:00:00,23.811548,86.481238,SO2,14,135,25
India,Jharkhand,Dhanbad,"Sardar Patel Nagar, Dhanbad - JSPCB",28-03-2024 17:00:00,23.80569,86.44268,PM2.5,NA,NA,NA
India,Jharkhand,Dhanbad,"Sardar Patel Nagar, Dhanbad - JSPCB",28-03-2024 17:00:00,23.80569,86.44268,CO,16,110,67
India,Karnataka,Bagalkot,"Vidayagiri, Bagalkot - KSPCB",28-03-2024 17:00:00,16.172806,75.659694,PM2.5,25,38,36
India,Karnataka,Bagalkot,"Vidayagiri, Bagalkot - KSPCB",28-03-2024 17:00:00,16.172806,75.659694,NO2,9,10,9
India,Karnataka,Bengaluru,"Bapuji Nagar, Bengaluru - KSPCB",28-03-2024 17:00:00,12.951913,77.539784,OZONE,4,29,14
India,Karnataka,Bengaluru,"Hebbal, Bengaluru - KSPCB",28-03-2024 17:00:00,13.029152,77.585901,CO,12,33,21
India,Karnataka,Bengaluru,"Hombegowda Nagar, Bengaluru - KSPCB",28-03-2024 17:00:00,12.938539,77.590100,OZONE,4,5,4
India,Karnataka,Bengaluru,"Jayanagar 5th Block, Bengaluru - KSPCB",28-03-2024 17:00:00,12.920984,77.584908,PM2.5,52,127,77
India,Karnataka,Bengaluru,"Jayanagar 5th Block, Bengaluru - KSPCB",28-03-2024 17:00:00,12.920984,77.584908,NO2,7,14,10
India,Karnataka,Bengaluru,"Jayanagar 5th Block, Bengaluru - KSPCB",28-03-2024 17:00:00,12.920984,77.584908,OZONE,27,28,28
India,Karnataka,Bengaluru,"Jigani, Bengaluru - KSPCB",28-03-2024 17:00:00,12.7816279,77.6299145,NO2,NA,NA,NA
India,Karnataka,Bengaluru,"Jigani, Bengaluru - KSPCB",28-03-2024 17:00:00,12.7816279,77.6299145,NH3,NA,NA,NA
India,Karnataka,Bengaluru,"Sanegurava Halli, Bengaluru - KSPCB",28-03-2024 17:00:00,12.990328,77.5431385,CO,6,36,17
India,Karnataka,Bengaluru,"Shivapura_Peenya, Bengaluru - KSPCB",28-03-2024 17:00:00,13.0246342,77.5080115,OZONE,53,56,54
India,Karnataka,Bengaluru,"Silk Board, Bengaluru - KSPCB",28-03-2024 17:00:00,12.917348,77.622813,NH3,6,8,7
India,Karnataka,Bengaluru,"Silk Board, Bengaluru - KSPCB",28-03-2024 17:00:00,12.917348,77.622813,CO,12,26,20
India,Karnataka,Bidar,"Naubad, Bidar - KSPCB",28-03-2024 17:00:00,17.930306,77.482194,SO2,14,20,17
India,Karnataka,Chamarajanagar,"Urban, Chamarajanagar - KSPCB",28-03-2024 17:00:00,11.55358,76.55521,NH3,1,2,2
India,Karnataka,Chikkaballapur,"Chikkaballapur Rural, Chikkaballapur - KSPCB",28-03-2024 17:00:00,13.428828,77.731418,PM10,46,113,74
India,Karnataka,Chikkamagaluru,"Kalyana Nagara, Chikkamagaluru - KSPCB",28-03-2024 17:00:00,13.328028,75.797056,PM10,25,94,50
India,Karnataka,Davanagere,"Devaraj Urs Badavane, Davanagere - KSPCB",28-03-2024 17:00:00,14.475800,75.905200,SO2,3,6,5
India,Karnataka,Dharwad,"Kalabhavan, Dharwad - KSPCB",28-03-2024 17:00:00,15.459706,75.008381,SO2,1,6,2
India,Karnataka,Dharwad,"Kalabhavan, Dharwad - KSPCB",28-03-2024 17:00:00,15.459706,75.008381,OZONE,2,25,13
India,Karnataka,Hassan,"B.Katihalli, Hassan - KSPCB",28-03-2024 17:00:00,13.008556,76.125258,NH3,4,7,5
India,Karnataka,Haveri,"Ashwini Nagar, Haveri - KSPCB",28-03-2024 17:00:00,14.791800,75.389600,PM10,59,161,78
India,Karnataka,Haveri,"Ashwini Nagar, Haveri - KSPCB",28-03-2024 17:00:00,14.791800,75.389600,OZONE,18,20,19
India,Karnataka,Hubballi,"Deshpande Nagar, Hubballi - KSPCB",28-03-2024 17:00:00,15.351773,75.140726,NO2,26,27,27
India,Karnataka,Hubballi,"Deshpande Nagar, Hubballi - KSPCB",28-03-2024 17:00:00,15.351773,75.140726,NH3,4,8,6
India,Karnataka,Kalaburagi,"Lal Bahadur Shastri Nagar, Kalaburagi - KSPCB",28-03-2024 17:00:00,17.321993,76.822628,CO,42,45,42
India,Karnataka,Kalaburagi,"Lal Bahadur Shastri Nagar, Kalaburagi - KSPCB",28-03-2024 17:00:00,17.321993,76.822628,OZONE,22,98,64
India,Karnataka,Kalaburagi,"Mahatma Basaveswar Colony, Kalaburgi - KSPCB",28-03-2024 17:00:00,17.336318,76.847397,NO2,8,23,14
India,Karnataka,Kalaburagi,"Mahatma Basaveswar Colony, Kalaburgi - KSPCB",28-03-2024 17:00:00,17.336318,76.847397,SO2,6,30,10
India,Karnataka,Karwar,"KHB Colony, Karwar - KSPCB",28-03-2024 17:00:00,14.816666,74.141003,PM2.5,32,73,45
India,Karnataka,Karwar,"KHB Colony, Karwar - KSPCB",28-03-2024 17:00:00,14.816666,74.141003,NH3,2,22,6
India,Karnataka,Madikeri,"Stuart Hill, Madikeri - KSPCB",28-03-2024 17:00:00,12.415911,75.735050,PM10,19,53,37
India,Karnataka,Madikeri,"Stuart Hill, Madikeri - KSPCB",28-03-2024 17:00:00,12.415911,75.735050,NO2,3,10,6
India,Karnataka,Mangalore,"Kadri, Mangalore - KSPCB",28-03-2024 17:00:00,12.889250,74.853000,PM10,32,65,48
India,Karnataka,Mangalore,"Kadri, Mangalore - KSPCB",28-03-2024 17:00:00,12.889250,74.853000,OZONE,30,35,32
India,Karnataka,Mysuru,"Hebbal 1st Stage, Mysuru - KSPCB",28-03-2024 17:00:00,12.21041,76.37376,OZONE,11,89,49
India,Karnataka,Raichur,"Haji Colony, Raichur - KSPCB",28-03-2024 17:00:00,16.208139,77.348417,NO2,15,48,31
India,Karnataka,Raichur,"Haji Colony, Raichur - KSPCB",28-03-2024 17:00:00,16.208139,77.348417,SO2,68,90,76
India,Karnataka,Ramanagara,"Vijay Nagar, Ramanagara - KSPCB",28-03-2024 17:00:00,12.733409,77.298051,CO,1,41,22
India,Karnataka,Tumakuru,"Thimmalapura, Tumakuru - KSPCB",28-03-2024 17:00:00,13.377516,77.099072,PM2.5,NA,NA,NA
India,Karnataka,Udupi,"Brahmagiri, Udupi - KSPCB",28-03-2024 17:00:00,13.34194444,74.74694444,PM10,50,101,73
India,Karnataka,Yadgir,"Collector Office, Yadgir - KSPCB",28-03-2024 17:00:00,16.7602,77.1428,OZONE,18,19,19
India,Kerala,Eloor,"Udyogamandal, Eloor - Kerala PCB",28-03-2024 17:00:00,10.073232,76.302765,PM10,39,51,43
India,Kerala,Eloor,"Udyogamandal, Eloor - Kerala PCB",28-03-2024 17:00:00,10.073232,76.302765,OZONE,11,18,16
India,Kerala,Kollam,"Polayathode, Kollam - Kerala PCB",28-03-2024 17:00:00,8.8787,76.6073,NH3,1,1,1
India,Kerala,Thiruvananthapuram,"Kariavattom, Thiruvananthapuram - Kerala PCB",28-03-2024 17:00:00,8.563700,76.886500,PM10,92,104,98
India,Kerala,Thiruvananthapuram,"Kariavattom, Thiruvananthapuram - Kerala PCB",28-03-2024 17:00:00,8.563700,76.886500,NO2,8,10,9
India,Kerala,Thiruvananthapuram,"Plammoodu, Thiruvananthapuram - Kerala PCB",28-03-2024 17:00:00,8.5149093,76.9435879,NO2,7,9,8
India,Kerala,Thiruvananthapuram,"Plammoodu, Thiruvananthapuram - Kerala PCB",28-03-2024 17:00:00,8.5149093,76.9435879,NH3,2,2,2
India,Kerala,Thiruvananthapuram,"Plammoodu, Thiruvananthapuram - Kerala PCB",28-03-2024 17:00:00,8.5149093,76.9435879,SO2,6,14,9
India,Kerala,Thrissur,"Corporation Ground, Thrissur - Kerala PCB",28-03-2024 17:00:00,10.532400,76.215900,NH3,NA,NA,NA
India,Madhya Pradesh,Bhopal,"Idgah Hills, Bhopal - MPPCB",28-03-2024 17:00:00,23.264759,77.381568,PM10,79,215,134
India,Madhya Pradesh,Bhopal,"Idgah Hills, Bhopal - MPPCB",28-03-2024 17:00:00,23.264759,77.381568,CO,32,102,54
India,Madhya Pradesh,Bhopal,"T T Nagar, Bhopal - MPPCB",28-03-2024 17:00:00,23.233584,77.400574,NH3,1,6,4
India,Madhya Pradesh,Dewas,"Bhopal Chauraha, Dewas - MPPCB",28-03-2024 17:00:00,22.9682591,76.064118,SO2,24,46,38
India,Madhya Pradesh,Dewas,"Bhopal Chauraha, Dewas - MPPCB",28-03-2024 17:00:00,22.9682591,76.064118,CO,16,96,25
India,Madhya Pradesh,Gwalior,"City Center, Gwalior - MPPCB",28-03-2024 17:00:00,26.203442,78.193251,PM2.5,28,198,92
India,Madhya Pradesh,Gwalior,"City Center, Gwalior - MPPCB",28-03-2024 17:00:00,26.203442,78.193251,NH3,4,13,9
India,Madhya Pradesh,Gwalior,"City Center, Gwalior - MPPCB",28-03-2024 17:00:00,26.203442,78.193251,CO,16,120,48
India,Madhya Pradesh,Gwalior,"Maharaj Bada, Gwalior - MPPCB",28-03-2024 17:00:00,26.200388,78.147714,PM2.5,28,227,94
India,Madhya Pradesh,Gwalior,"Maharaj Bada, Gwalior - MPPCB",28-03-2024 17:00:00,26.200388,78.147714,CO,24,154,52
India,Madhya Pradesh,Indore,"Chhoti Gwaltoli, Indore - MPPCB",28-03-2024 17:00:00,22.4310,75.5213,NO2,49,174,94
India,Madhya Pradesh,Jabalpur,"Govindh Bhavan Colony, Jabalpur - JMC",28-03-2024 17:00:00,23.163174,79.973061,NH3,8,17,12
India,Madhya Pradesh,Jabalpur,"Govindh Bhavan Colony, Jabalpur - JMC",28-03-2024 17:00:00,23.163174,79.973061,CO,9,24,16
India,Madhya Pradesh,Jabalpur,"Gupteshwar, Jabalpur - JMC",28-03-2024 17:00:00,23.142888,79.916147,PM2.5,63,257,128
India,Madhya Pradesh,Jabalpur,"Gupteshwar, Jabalpur - JMC",28-03-2024 17:00:00,23.142888,79.916147,OZONE,7,101,86
India,Madhya Pradesh,Jabalpur,"Marhatal, Jabalpur - MPPCB",28-03-2024 17:00:00,23.168606,79.932247,OZONE,1,96,82
India,Madhya Pradesh,Katni,"Gole Bazar, Katni - MPPCB",28-03-2024 17:00:00,23.50016,80.23284,CO,19,70,38
India,Madhya Pradesh,Mandideep,"Sector-D Industrial Area, Mandideep - MPPCB",28-03-2024 17:00:00,23.108440,77.511428,SO2,8,124,73
India,Madhya Pradesh,Sagar,"Deen Dayal Nagar, Sagar - MPPCB",28-03-2024 17:00:00,23.8640158,78.80289321,PM10,17,58,36
India,Madhya Pradesh,Satna,"Bandhavgar Colony, Satna - Birla Cement",28-03-2024 17:00:00,24.58434363,80.8549414,SO2,2,5,3
India,Madhya Pradesh,Satna,"Bandhavgar Colony, Satna - Birla Cement",28-03-2024 17:00:00,24.58434363,80.8549414,CO,28,72,43
India,Madhya Pradesh,Singrauli,"Suryakiran Bhawan NCL, Singrauli - MPPCB",28-03-2024 17:00:00,24.108970,82.645580,PM2.5,71,266,141
India,Madhya Pradesh,Singrauli,"Suryakiran Bhawan NCL, Singrauli - MPPCB",28-03-2024 17:00:00,24.108970,82.645580,PM10,97,202,140
India,Madhya Pradesh,Ujjain,"Mahakaleshwar Temple, Ujjain - MPPCB",28-03-2024 17:00:00,23.182719 ,75.768218 ,PM10,89,189,136
India,Madhya Pradesh,Ujjain,"Mahakaleshwar Temple, Ujjain - MPPCB",28-03-2024 17:00:00,23.182719 ,75.768218 ,CO,22,104,44
India,Maharashtra,Ahmednagar,"Tarakpur, Ahmednagar - MPCB",28-03-2024 17:00:00,19.10122,74.73339,NH3,3,6,5
India,Maharashtra,Amravati,"Shivneri Colony, Amravati - MPCB",28-03-2024 17:00:00,20.9402359,77.7895248,OZONE,15,147,107
India,Maharashtra,Amravati,"Shri Shivaji Science College, Amaravati - MPCB",28-03-2024 17:00:00,20.939198,77.765701,PM2.5,47,225,126
India,Maharashtra,Amravati,"Shri Shivaji Science College, Amaravati - MPCB",28-03-2024 17:00:00,20.939198,77.765701,SO2,3,12,5
India,Maharashtra,Amravati,"Shri Shivaji Science College, Amaravati - MPCB",28-03-2024 17:00:00,20.939198,77.765701,CO,36,117,42
India,Maharashtra,Aurangabad,"MIDC Chilkalthana, Aurangabad - MPCB",28-03-2024 17:00:00,19.875620,75.387310,NH3,3,4,4
India,Maharashtra,Aurangabad,"More Chowk Waluj, Aurangabad - MPCB",28-03-2024 17:00:00,19.8389439,75.244448,NO2,28,48,41
India,Maharashtra,Aurangabad,"More Chowk Waluj, Aurangabad - MPCB",28-03-2024 17:00:00,19.8389439,75.244448,SO2,2,6,4
India,Maharashtra,Aurangabad,"More Chowk Waluj, Aurangabad - MPCB",28-03-2024 17:00:00,19.8389439,75.244448,CO,6,106,20
India,Maharashtra,Aurangabad,"More Chowk Waluj, Aurangabad - MPCB",28-03-2024 17:00:00,19.8389439,75.244448,OZONE,10,108,84
India,Maharashtra,Aurangabad,"Rachnakar Colony, Aurangabad - MPCB",28-03-2024 17:00:00,19.863756,75.321188,CO,16,109,24
India,Maharashtra,Badlapur,"Katrap, Badlapur - MPCB",28-03-2024 17:00:00,19.16485,73.23409,PM2.5,64,193,105
India,Maharashtra,Badlapur,"Katrap, Badlapur - MPCB",28-03-2024 17:00:00,19.16485,73.23409,NH3,1,5,2
India,Maharashtra,Badlapur,"Katrap, Badlapur - MPCB",28-03-2024 17:00:00,19.16485,73.23409,SO2,1,14,4
India,Maharashtra,Badlapur,"Katrap, Badlapur - MPCB",28-03-2024 17:00:00,19.16485,73.23409,CO,16,99,34
India,Maharashtra,Boisar,"Khaira, Boisar - MPCB",28-03-2024 17:00:00,19.786089,72.757971,NH3,2,19,5
India,Maharashtra,Boisar,"Khaira, Boisar - MPCB",28-03-2024 17:00:00,19.786089,72.757971,CO,6,54,14
India,Maharashtra,Chandrapur,"Chauhan Colony, Chandrapur - MPCB",28-03-2024 17:00:00,19.962900,79.298714,PM10,55,94,72
India,Maharashtra,Chandrapur,"Chauhan Colony, Chandrapur - MPCB",28-03-2024 17:00:00,19.962900,79.298714,OZONE,9,9,9
India,Maharashtra,Chandrapur,"MIDC Khutala, Chandrapur - MPCB",28-03-2024 17:00:00,19.9775302,79.2337086,CO,22,54,29
India,Maharashtra,Dhule,"Deopur, Dhule - MPCB",28-03-2024 17:00:00,20.918946,74.776388,PM10,78,335,126
India,Maharashtra,Jalgaon,"Prabhat Colony, Jalgaon - MPCB",28-03-2024 17:00:00,21.001264,75.565602,NO2,9,113,38
India,Maharashtra,Jalgaon,"Prabhat Colony, Jalgaon - MPCB",28-03-2024 17:00:00,21.001264,75.565602,NH3,3,14,7
India,Maharashtra,Jalgaon,"Prabhat Colony, Jalgaon - MPCB",28-03-2024 17:00:00,21.001264,75.565602,SO2,7,30,13
India,Maharashtra,Jalgaon,"Prabhat Colony, Jalgaon - MPCB",28-03-2024 17:00:00,21.001264,75.565602,CO,12,40,15
India,Maharashtra,Jalna,"Old MIDC, Jalna - MPCB",28-03-2024 17:00:00,19.854616,75.905894,PM10,125,352,163
India,Maharashtra,Jalna,"Old MIDC, Jalna - MPCB",28-03-2024 17:00:00,19.854616,75.905894,OZONE,1,172,56
India,Maharashtra,Kalyan,"Khadakpada, Kalyan - MPCB",28-03-2024 17:00:00,19.25292,73.142019,PM10,84,170,122
India,Maharashtra,Kalyan,"Khadakpada, Kalyan - MPCB",28-03-2024 17:00:00,19.25292,73.142019,NO2,33,41,37
India,Maharashtra,Kolhapur,"Shivaji University, Kolhapur - MPCB",28-03-2024 17:00:00,16.6870449,74.2505872,CO,36,82,54
India,Maharashtra,Kolhapur,"Sinchan Bhavan, Kolhapur - MPCB",28-03-2024 17:00:00,16.7143745,74.2426398,PM2.5,28,71,49
India,Maharashtra,Kolhapur,"Sinchan Bhavan, Kolhapur - MPCB",28-03-2024 17:00:00,16.7143745,74.2426398,NO2,14,38,22
India,Maharashtra,Mahad,"Kamble Tarf Birwadi, Mahad - MPCB",28-03-2024 17:00:00,18.1023399,73.4783687,OZONE,5,77,40
India,Maharashtra,Mira-Bhayandar,"Bhayandar West, Mira-Bhayandar - MPCB",28-03-2024 17:00:00,19.296481,72.840923,NO2,4,24,11
India,Maharashtra,Mira-Bhayandar,"Bhayandar West, Mira-Bhayandar - MPCB",28-03-2024 17:00:00,19.296481,72.840923,NH3,4,6,4
India,Maharashtra,Mumbai,"Bandra Kurla Complex, Mumbai - MPCB",28-03-2024 17:00:00,19.065931,72.862131,PM2.5,NA,NA,NA
India,Maharashtra,Mumbai,"Bandra Kurla Complex, Mumbai - MPCB",28-03-2024 17:00:00,19.065931,72.862131,SO2,NA,NA,NA
India,Maharashtra,Mumbai,"Chakala-Andheri East, Mumbai - IITM",28-03-2024 17:00:00,19.11074,72.86084,OZONE,12,46,37
India,Maharashtra,Mumbai,"Chembur, Mumbai - MPCB",28-03-2024 17:00:00,19.0364585,72.8954371,PM2.5,42,157,66
India,Maharashtra,Mumbai,"Chembur, Mumbai - MPCB",28-03-2024 17:00:00,19.0364585,72.8954371,PM10,50,114,76
India,Maharashtra,Mumbai,"Chembur, Mumbai - MPCB",28-03-2024 17:00:00,19.0364585,72.8954371,CO,18,44,28
India,Maharashtra,Mumbai,"Chhatrapati Shivaji Intl. Airport (T2), Mumbai - MPCB",28-03-2024 17:00:00,19.10078,72.87462,PM2.5,37,78,59
India,Maharashtra,Mumbai,"Chhatrapati Shivaji Intl. Airport (T2), Mumbai - MPCB",28-03-2024 17:00:00,19.10078,72.87462,PM10,87,153,120
India,Maharashtra,Mumbai,"Chhatrapati Shivaji Intl. Airport (T2), Mumbai - MPCB",28-03-2024 17:00:00,19.10078,72.87462,SO2,20,28,23
India,Maharashtra,Mumbai,"Colaba, Mumbai - MPCB",28-03-2024 17:00:00,18.910000,72.820000,PM10,25,52,36
India,Maharashtra,Mumbai,"Kandivali East, Mumbai - MPCB",28-03-2024 17:00:00,19.205800,72.868200,NO2,15,251,41
India,Maharashtra,Mumbai,"Kandivali West, Mumbai - BMC",28-03-2024 17:00:00,19.215859,72.831718,PM10,25,50,36
India,Maharashtra,Mumbai,"Kandivali West, Mumbai - BMC",28-03-2024 17:00:00,19.215859,72.831718,NO2,9,49,17
India,Maharashtra,Mumbai,"Kherwadi_Bandra East, Mumbai - MPCB",28-03-2024 17:00:00,19.0632143,72.8456324,PM2.5,20,61,42
India,Maharashtra,Mumbai,"Kherwadi_Bandra East, Mumbai - MPCB",28-03-2024 17:00:00,19.0632143,72.8456324,NO2,6,34,19
India,Maharashtra,Mumbai,"Kurla, Mumbai - MPCB",28-03-2024 17:00:00,19.0863,72.8888,PM10,66,322,131
India,Maharashtra,Mumbai,"Mazgaon, Mumbai - IITM",28-03-2024 17:00:00,18.96702,72.84214,NH3,12,31,22
India,Maharashtra,Mumbai,"Mindspace-Malad West, Mumbai - MPCB",28-03-2024 17:00:00,19.1878657,72.8304069,NH3,4,5,5
India,Maharashtra,Mumbai,"Mulund West, Mumbai - MPCB",28-03-2024 17:00:00,19.1750,72.9419,NO2,20,25,21
India,Maharashtra,Mumbai,"Mulund West, Mumbai - MPCB",28-03-2024 17:00:00,19.1750,72.9419,CO,35,36,35
India,Maharashtra,Mumbai,"Navy Nagar-Colaba, Mumbai - IITM",28-03-2024 17:00:00,18.897756,72.813320,PM10,37,70,60
India,Maharashtra,Mumbai,"Powai, Mumbai - MPCB",28-03-2024 17:00:00,19.137500,72.915056,NH3,1,1,1
India,Maharashtra,Mumbai,"Sewri, Mumbai - BMC",28-03-2024 17:00:00,19.000084,72.856730,NO2,26,65,43
India,Maharashtra,Mumbai,"Sewri, Mumbai - BMC",28-03-2024 17:00:00,19.000084,72.856730,SO2,2,7,4
India,Maharashtra,Mumbai,"Sewri, Mumbai - BMC",28-03-2024 17:00:00,19.000084,72.856730,CO,16,36,24
India,Maharashtra,Mumbai,"Shivaji Nagar, Mumbai - BMC",28-03-2024 17:00:00,19.060498,72.923356,PM2.5,37,73,50
India,Maharashtra,Mumbai,"Shivaji Nagar, Mumbai - BMC",28-03-2024 17:00:00,19.060498,72.923356,OZONE,1,52,26
India,Maharashtra,Mumbai,"Sion, Mumbai - MPCB",28-03-2024 17:00:00,19.047000,72.874600,PM2.5,39,87,59
India,Maharashtra,Mumbai,"Sion, Mumbai - MPCB",28-03-2024 17:00:00,19.047000,72.874600,NH3,1,1,1
India,Maharashtra,Mumbai,"Sion, Mumbai - MPCB",28-03-2024 17:00:00,19.047000,72.874600,OZONE,18,34,21
India,Maharashtra,Mumbai,"Worli, Mumbai - MPCB",28-03-2024 17:00:00,18.9936162,72.8128113,SO2,11,12,11
India,Maharashtra,Nagpur,"Mahal, Nagpur - MPCB",28-03-2024 17:00:00,21.14472,79.107595,NO2,NA,NA,NA
India,Maharashtra,Nagpur,"Opp GPO Civil Lines, Nagpur - MPCB",28-03-2024 17:00:00,21.152875,79.0517531,PM10,81,146,118
India,Maharashtra,Nagpur,"Ram Nagar, Nagpur - MPCB",28-03-2024 17:00:00,21.143383,79.048912,NO2,7,54,28
India,Maharashtra,Nanded,"Sneh Nagar, Nanded - MPCB",28-03-2024 17:00:00,19.173852,77.296291,SO2,3,7,5
India,Maharashtra,Nashik,"Gangapur Road, Nashik - MPCB",28-03-2024 17:00:00,20.0073285,73.7762427,SO2,1,13,4
India,Maharashtra,Nashik,"Hirawadi, Nashik - MPCB",28-03-2024 17:00:00,20.021503,73.813844,NH3,2,2,2
India,Maharashtra,Nashik,"MIDC Ambad, Nashik - MPCB",28-03-2024 17:00:00,19.950220,73.731480,PM10,53,89,68
India,Maharashtra,Nashik,"Pandav Nagari, Nashik - MPCB",28-03-2024 17:00:00,19.9591346,73.7788008,PM2.5,55,80,64
India,Maharashtra,Nashik,"Pandav Nagari, Nashik - MPCB",28-03-2024 17:00:00,19.9591346,73.7788008,NH3,4,6,5
India,Maharashtra,Nashik,"Pandav Nagari, Nashik - MPCB",28-03-2024 17:00:00,19.9591346,73.7788008,SO2,9,24,14
India,Maharashtra,Navi Mumbai,"Kopripada-Vashi, Navi Mumbai - MPCB",28-03-2024 17:00:00,19.090337,73.014232,NO2,29,62,46
India,Maharashtra,Navi Mumbai,"Kopripada-Vashi, Navi Mumbai - MPCB",28-03-2024 17:00:00,19.090337,73.014232,NH3,7,26,11
India,Maharashtra,Navi Mumbai,"Kopripada-Vashi, Navi Mumbai - MPCB",28-03-2024 17:00:00,19.090337,73.014232,OZONE,9,83,43
India,Maharashtra,Navi Mumbai,"Nerul, Navi Mumbai - MPCB",28-03-2024 17:00:00,19.008751,73.016620,CO,22,46,38
India,Maharashtra,Navi Mumbai,"Sanpada, Navi Mumbai - MPCB",28-03-2024 17:00:00,19.0575752,73.0151367,SO2,2,8,4
India,Maharashtra,Navi Mumbai,"Sector-19A Nerul, Navi Mumbai - IITM",28-03-2024 17:00:00,19.044,73.0325,NO2,32,69,49
India,Maharashtra,Navi Mumbai,"Sector-2E Kalamboli, Navi Mumbai - MPCB",28-03-2024 17:00:00,19.02579,73.10297,PM2.5,24,54,36
India,Maharashtra,Pimpri-Chinchwad,"Gavalinagar, Pimpri Chinchwad - MPCB",28-03-2024 17:00:00,18.63673,73.82487,PM2.5,56,155,90
India,Maharashtra,Pimpri-Chinchwad,"Gavalinagar, Pimpri Chinchwad - MPCB",28-03-2024 17:00:00,18.63673,73.82487,PM10,61,156,109
India,Maharashtra,Pimpri-Chinchwad,"Thergaon, Pimpri Chinchwad - MPCB",28-03-2024 17:00:00,18.616318,73.765797,PM2.5,78,198,118
India,Maharashtra,Pimpri-Chinchwad,"Thergaon, Pimpri Chinchwad - MPCB",28-03-2024 17:00:00,18.616318,73.765797,NO2,31,98,64
India,Maharashtra,Pimpri-Chinchwad,"Thergaon, Pimpri Chinchwad - MPCB",28-03-2024 17:00:00,18.616318,73.765797,SO2,4,7,5
India,Maharashtra,Pune,"Bhosari, Pune - IITM",28-03-2024 17:00:00,18.640051,73.848956,NO2,13,14,14
India,Maharashtra,Pune,"Karve Road, Pune - MPCB",28-03-2024 17:00:00,18.5011743,73.8165527,SO2,20,23,22
India,Maharashtra,Pune,"Katraj Dairy, Pune - MPCB",28-03-2024 17:00:00,18.454450,73.854155,PM2.5,50,100,66
India,Maharashtra,Pune,"Katraj Dairy, Pune - MPCB",28-03-2024 17:00:00,18.454450,73.854155,PM10,66,122,86
India,Maharashtra,Pune,"Katraj Dairy, Pune - MPCB",28-03-2024 17:00:00,18.454450,73.854155,NO2,16,42,27
India,Maharashtra,Pune,"Katraj Dairy, Pune - MPCB",28-03-2024 17:00:00,18.454450,73.854155,NH3,1,6,3
India,Maharashtra,Pune,"Mhada Colony, Pune - IITM",28-03-2024 17:00:00,18.573040,73.927715,PM10,53,122,87
India,Maharashtra,Pune,"Mhada Colony, Pune - IITM",28-03-2024 17:00:00,18.573040,73.927715,CO,38,60,48
India,Maharashtra,Pune,"Revenue Colony-Shivajinagar, Pune - IITM",28-03-2024 17:00:00,18.530085,73.849598,SO2,81,117,103
India,Maharashtra,Pune,"Savitribai Phule Pune University, Pune - MPCB",28-03-2024 17:00:00,18.547056,73.826908,NO2,1,15,11
India,Maharashtra,Pune,"Savitribai Phule Pune University, Pune - MPCB",28-03-2024 17:00:00,18.547056,73.826908,SO2,8,19,12
India,Maharashtra,Solapur,"Dnyaneshwar Nagar, Solapur - MPCB",28-03-2024 17:00:00,17.6336264,75.9132495,CO,1,32,15
India,Maharashtra,Solapur,"Ratandeep Housing Society, Solapur - MPCB",28-03-2024 17:00:00,17.65439,75.90649,PM10,79,109,94
India,Maharashtra,Solapur,"Ratandeep Housing Society, Solapur - MPCB",28-03-2024 17:00:00,17.65439,75.90649,OZONE,58,154,124
India,Maharashtra,Thane,"Upvan Fort, Thane - MPCB",28-03-2024 17:00:00,19.222279,72.957979,SO2,3,92,19
India,Maharashtra,Thane,"Upvan Fort, Thane - MPCB",28-03-2024 17:00:00,19.222279,72.957979,CO,2,52,26
India,Maharashtra,Ulhasnagar,"Sidhi Vinayak Nagar, Ulhasnagar - MPCB",28-03-2024 17:00:00,19.235581,73.159121,PM10,96,156,125
India,Maharashtra,Virar,"Bolinj, Virar - MPCB",28-03-2024 17:00:00,19.4458210,72.7988231,NH3,5,10,7
India,Manipur,Imphal,"DM College of Science, Imphal - Manipur PCB",28-03-2024 17:00:00,24.8207389,93.9423085,SO2,89,93,91
India,Manipur,Imphal,"Manipur University, Imphal - Manipur PCB",28-03-2024 17:00:00,24.7524239,93.9286218,NH3,NA,NA,NA
India,Manipur,Imphal,"Manipur University, Imphal - Manipur PCB",28-03-2024 17:00:00,24.7524239,93.9286218,SO2,79,83,81
India,Meghalaya,Shillong,"Lumpyngngad, Shillong - Meghalaya PCB",28-03-2024 17:00:00,25.5586,91.8985,NO2,1,1,1
India,Meghalaya,Shillong,"Lumpyngngad, Shillong - Meghalaya PCB",28-03-2024 17:00:00,25.5586,91.8985,SO2,37,39,38
India,Meghalaya,Shillong,"Lumpyngngad, Shillong - Meghalaya PCB",28-03-2024 17:00:00,25.5586,91.8985,CO,8,24,20
India,Meghalaya,Shillong,"Lumpyngngad, Shillong - Meghalaya PCB",28-03-2024 17:00:00,25.5586,91.8985,OZONE,35,149,60
India,Mizoram,Aizawl,"Sikulpuikawn, Aizawl - Mizoram PCB",28-03-2024 17:00:00,23.7176342,92.7192841,SO2,2,2,2
India,Mizoram,Aizawl,"Sikulpuikawn, Aizawl - Mizoram PCB",28-03-2024 17:00:00,23.7176342,92.7192841,CO,15,22,17
India,Nagaland,Kohima,"PWD Juction, Kohima - NPCB",28-03-2024 17:00:00,25.6635413,94.0989878,NH3,1,1,1
India,Nagaland,Kohima,"PWD Juction, Kohima - NPCB",28-03-2024 17:00:00,25.6635413,94.0989878,OZONE,11,39,20
India,Odisha,Angul,"Hakimapada, Angul - OSPCB",28-03-2024 17:00:00,20.832874,85.104082,PM2.5,40,308,145
India,Odisha,Angul,"Hakimapada, Angul - OSPCB",28-03-2024 17:00:00,20.832874,85.104082,NO2,8,27,15
India,Odisha,Angul,"Hakimapada, Angul - OSPCB",28-03-2024 17:00:00,20.832874,85.104082,NH3,1,1,1
India,Odisha,Angul,"Hakimapada, Angul - OSPCB",28-03-2024 17:00:00,20.832874,85.104082,SO2,7,125,36
India,Odisha,Balasore,"Kalidaspur, Balasore - OSPCB",28-03-2024 17:00:00,21.51161,86.89088,SO2,17,62,29
India,Odisha,Balasore,"Kalidaspur, Balasore - OSPCB",28-03-2024 17:00:00,21.51161,86.89088,OZONE,19,107,77
India,Odisha,Bhubaneswar,"Lingraj Mandir, Bhubaneswar - OSPCB",28-03-2024 17:00:00,20.240790,85.836784,PM2.5,3,83,35
India,Odisha,Bhubaneswar,"Lingraj Mandir, Bhubaneswar - OSPCB",28-03-2024 17:00:00,20.240790,85.836784,NO2,4,20,12
India,Odisha,Bhubaneswar,"Lingraj Mandir, Bhubaneswar - OSPCB",28-03-2024 17:00:00,20.240790,85.836784,OZONE,12,154,97
India,Odisha,Bhubaneswar,"Patia, Bhubaneswar - OSPCB",28-03-2024 17:00:00,20.34652,85.81630,NO2,3,12,7
India,Odisha,Bhubaneswar,"Patia, Bhubaneswar - OSPCB",28-03-2024 17:00:00,20.34652,85.81630,NH3,1,4,2
India,Odisha,Bileipada,"Tata Township, Bileipada - OSPCB",28-03-2024 17:00:00,22.06156703,85.47409613,CO,28,103,55
India,Odisha,Brajrajnagar,"GM Office, Brajrajnagar - OSPCB",28-03-2024 17:00:00,21.8004996,83.8396977,SO2,20,21,21
India,Odisha,Brajrajnagar,"GM Office, Brajrajnagar - OSPCB",28-03-2024 17:00:00,21.8004996,83.8396977,OZONE,19,20,19
India,Odisha,Byasanagar,"Ferro Chrome Colony, Byasanagar - OSPCB",28-03-2024 17:00:00,20.94185,86.11510,NH3,1,4,2
India,Odisha,Byasanagar,"Ferro Chrome Colony, Byasanagar - OSPCB",28-03-2024 17:00:00,20.94185,86.11510,OZONE,7,244,200
India,Odisha,Cuttack,"CDA Area, Cuttack - OSPCB",28-03-2024 17:00:00,20.48891     ,85.84768     ,CO,13,28,24
India,Odisha,Cuttack,"CDA Area, Cuttack - OSPCB",28-03-2024 17:00:00,20.48891     ,85.84768     ,OZONE,6,160,104
India,Odisha,Keonjhar,"Jagamohanpur, Keonjhar - OSPCB",28-03-2024 17:00:00,21.643900,85.599355,SO2,4,10,5
India,Odisha,Nayagarh,"Dabuna, Nayagarh - OSPCB",28-03-2024 17:00:00,21.847279,85.416905,CO,4,21,8
India,Odisha,Rairangpur,"Divisional Forest Office, Rairangpur - OSPCB",28-03-2024 17:00:00,22.265816,86.174829,CO,16,43,18
India,Odisha,Rourkela,"Raghunathpali, Rourkela - OSPCB",28-03-2024 17:00:00,22.220833,84.809444,PM2.5,85,261,189
India,Odisha,Rourkela,"Raghunathpali, Rourkela - OSPCB",28-03-2024 17:00:00,22.220833,84.809444,NH3,1,3,2
India,Odisha,Suakati,"OMC Colony, Suakati - OSPCB",28-03-2024 17:00:00,21.606865,85.510538,PM2.5,125,283,182
India,Odisha,Suakati,"OMC Colony, Suakati - OSPCB",28-03-2024 17:00:00,21.606865,85.510538,NO2,NA,NA,NA
India,Odisha,Talcher,"Talcher Coalfields,Talcher - OSPCB",28-03-2024 17:00:00,20.9360711,85.1707021,CO,10,66,34
India,Odisha,Tensa,"Barsua Iron Ore Mines, Tensa - OSPCB",28-03-2024 17:00:00,21.869985,85.167016,NO2,28,61,39
India,Odisha,Tensa,"Barsua Iron Ore Mines, Tensa - OSPCB",28-03-2024 17:00:00,21.869985,85.167016,CO,14,28,19
India,Punjab,Amritsar,"Golden Temple, Amritsar - PPCB",28-03-2024 17:00:00,31.620000,74.876512,CO,2,103,33
India,Punjab,Bathinda,"Hardev Nagar, Bathinda - PPCB",28-03-2024 17:00:00,30.233011,74.907758,CO,4,4,2
India,Punjab,Jalandhar,"Civil Line, Jalandhar - PPCB",28-03-2024 17:00:00,31.321907,75.578914,SO2,8,13,10
India,Punjab,Khanna,"Kalal Majra, Khanna - PPCB",28-03-2024 17:00:00,30.736056 ,76.209694,PM10,45,88,67
India,Punjab,Khanna,"Kalal Majra, Khanna - PPCB",28-03-2024 17:00:00,30.736056 ,76.209694,NO2,24,24,24
India,Punjab,Ludhiana,"Punjab Agricultural University, Ludhiana - PPCB",28-03-2024 17:00:00,30.9028,75.8086,OZONE,12,29,25
India,Punjab,Patiala,"Model Town, Patiala - PPCB",28-03-2024 17:00:00,30.349388,76.366642,PM2.5,36,232,81
India,Punjab,Rupnagar,"Ratanpura, Rupnagar - Ambuja Cements",28-03-2024 17:00:00,31.0325454,76.5623046,PM2.5,61,218,119
India,Punjab,Rupnagar,"Ratanpura, Rupnagar - Ambuja Cements",28-03-2024 17:00:00,31.0325454,76.5623046,PM10,130,400,205
India,Rajasthan,Ajmer,"Civil Lines,  Ajmer - RSPCB",28-03-2024 17:00:00,26.470859,74.646594,PM10,58,148,106
India,Rajasthan,Alwar,"Moti Doongri, Alwar - RSPCB",28-03-2024 17:00:00,27.554793,76.611536,PM10,61,130,90
India,Rajasthan,Alwar,"Moti Doongri, Alwar - RSPCB",28-03-2024 17:00:00,27.554793,76.611536,SO2,5,63,28
India,Rajasthan,Banswara,"Rati Talai, Banswara - RSPCB",28-03-2024 17:00:00,23.555190,74.440010,NO2,13,112,37
India,Rajasthan,Banswara,"Rati Talai, Banswara - RSPCB",28-03-2024 17:00:00,23.555190,74.440010,NH3,4,15,8
India,Rajasthan,Baran,"Bamboliya, Baran - RSPCB",28-03-2024 17:00:00,25.106006,76.469948,NO2,7,45,20
India,Rajasthan,Baran,"Bamboliya, Baran - RSPCB",28-03-2024 17:00:00,25.106006,76.469948,NH3,2,6,4
India,Rajasthan,Baran,"Bamboliya, Baran - RSPCB",28-03-2024 17:00:00,25.106006,76.469948,CO,14,38,23
India,Rajasthan,Barmer,"Railway Colony, Barmer - RSPCB",28-03-2024 17:00:00,25.747299,71.393989,NH3,9,18,13
India,Rajasthan,Barmer,"Railway Colony, Barmer - RSPCB",28-03-2024 17:00:00,25.747299,71.393989,SO2,6,17,10
India,Rajasthan,Bharatpur,"Krishna Nagar, Bharatpur - RSPCB",28-03-2024 17:00:00,27.215415,77.50873,PM2.5,71,334,152
India,Rajasthan,Bharatpur,"Krishna Nagar, Bharatpur - RSPCB",28-03-2024 17:00:00,27.215415,77.50873,CO,10,110,48
India,Rajasthan,Bhilwara,"Pratap Nagar, Bhilwara - RSPCB",28-03-2024 17:00:00,25.339605,74.618883,PM10,38,124,67
India,Rajasthan,Bhilwara,"Pratap Nagar, Bhilwara - RSPCB",28-03-2024 17:00:00,25.339605,74.618883,NO2,13,94,29
India,Rajasthan,Bhilwara,"Pratap Nagar, Bhilwara - RSPCB",28-03-2024 17:00:00,25.339605,74.618883,SO2,3,33,14
India,Rajasthan,Bhilwara,"Pratap Nagar, Bhilwara - RSPCB",28-03-2024 17:00:00,25.339605,74.618883,OZONE,12,79,44
India,Rajasthan,Bikaner,"MM Ground, Bikaner - RSPCB",28-03-2024 17:00:00,28.018792,73.292658,NH3,9,17,14
India,Rajasthan,Bikaner,"MM Ground, Bikaner - RSPCB",28-03-2024 17:00:00,28.018792,73.292658,CO,22,140,32
India,Rajasthan,Bundi,"New Colony, Bundi - RSPCB",28-03-2024 17:00:00,25.435774,75.644272,NO2,10,128,43
India,Rajasthan,Bundi,"New Colony, Bundi - RSPCB",28-03-2024 17:00:00,25.435774,75.644272,SO2,5,37,12
India,Rajasthan,Chittorgarh,"Shastri Nagar, Chittorgarh - RSPCB",28-03-2024 17:00:00,24.892047,74.623527,NO2,7,119,48
India,Rajasthan,Churu,"Subash Chowk, Churu - RSPCB",28-03-2024 17:00:00,28.296139,74.961696,NH3,9,16,13
India,Rajasthan,Dholpur,"Raja Ganj, Dholpur - RSPCB",28-03-2024 17:00:00,26.699557,77.898881,NH3,10,18,13
India,Rajasthan,Dungarpur,"Bhoiwada, Dungarpur - RSPCB",28-03-2024 17:00:00,23.837789,73.714926,PM10,63,105,86
India,Rajasthan,Dungarpur,"Bhoiwada, Dungarpur - RSPCB",28-03-2024 17:00:00,23.837789,73.714926,NH3,1,3,2
India,Rajasthan,Hanumangarh,"Housing Board, Hanumangarh - RSPCB",28-03-2024 17:00:00,29.610750,74.283608,OZONE,6,66,38
India,Rajasthan,Jaipur,"Adarsh Nagar, Jaipur - RSPCB",28-03-2024 17:00:00,26.902909,75.836858,SO2,2,27,14
India,Rajasthan,Jaipur,"Mansarovar Sector-12, Jaipur - RSPCB",28-03-2024 17:00:00,26.843698,75.766894,NO2,8,112,36
India,Rajasthan,Jaipur,"Mansarovar Sector-12, Jaipur - RSPCB",28-03-2024 17:00:00,26.843698,75.766894,CO,24,58,39
India,Rajasthan,Jaipur,"Mansarovar Sector-12, Jaipur - RSPCB",28-03-2024 17:00:00,26.843698,75.766894,OZONE,59,100,69
India,Rajasthan,Jaipur,"Police Commissionerate, Jaipur - RSPCB",28-03-2024 17:00:00,26.9164092,75.7994901,CO,26,70,38
India,Rajasthan,Jaipur,"Police Commissionerate, Jaipur - RSPCB",28-03-2024 17:00:00,26.9164092,75.7994901,OZONE,35,128,94
India,Rajasthan,Jaipur,"RIICO Sitapura, Jaipur - RSPCB",28-03-2024 17:00:00,26.786682,75.827928,NH3,2,25,7
India,Rajasthan,Jaipur,"Sector-2 Murlipura, Jaipur - RSPCB",28-03-2024 17:00:00,26.960669,75.771817,NH3,1,6,1
India,Rajasthan,Jaipur,"Sector-2 Murlipura, Jaipur - RSPCB",28-03-2024 17:00:00,26.960669,75.771817,SO2,9,26,13
India,Rajasthan,Jaipur,"Sector-2 Murlipura, Jaipur - RSPCB",28-03-2024 17:00:00,26.960669,75.771817,OZONE,4,49,39
India,Rajasthan,Jaipur,"Shastri Nagar, Jaipur - RSPCB",28-03-2024 17:00:00,26.9502929,75.730943,CO,12,106,43
India,Rajasthan,Jaisalmer,"Sadar Bazar, Jaisalmer - RSPCB",28-03-2024 17:00:00,26.912329,70.909168,PM2.5,17,228,95
India,Rajasthan,Jaisalmer,"Sadar Bazar, Jaisalmer - RSPCB",28-03-2024 17:00:00,26.912329,70.909168,SO2,4,12,7
India,Rajasthan,Jaisalmer,"Sadar Bazar, Jaisalmer - RSPCB",28-03-2024 17:00:00,26.912329,70.909168,OZONE,42,96,81
India,Rajasthan,Jhalawar,"Rajlaxmi Nagar, Jhalawar - RSPCB",28-03-2024 17:00:00,24.588397,76.172782,NH3,2,11,6
India,Rajasthan,Jhunjhunu,"Indra Nagar, Jhunjhunu - RSPCB",28-03-2024 17:00:00,28.108988,75.386577,PM2.5,24,181,60
India,Rajasthan,Jhunjhunu,"Indra Nagar, Jhunjhunu - RSPCB",28-03-2024 17:00:00,28.108988,75.386577,OZONE,4,90,69
India,Rajasthan,Jodhpur,"Collectorate, Jodhpur - RSPCB",28-03-2024 17:00:00,26.268249,73.0193853,NO2,36,40,38
India,Rajasthan,Jodhpur,"Jhalamand, Jodhpur - RSPCB",28-03-2024 17:00:00,26.215415,73.070156,NO2,4,42,33
India,Rajasthan,Jodhpur,"Mandor, Jodhpur - RSPCB",28-03-2024 17:00:00,26.358805,73.047444,PM10,94,188,127
India,Rajasthan,Jodhpur,"Mandor, Jodhpur - RSPCB",28-03-2024 17:00:00,26.358805,73.047444,OZONE,36,88,62
India,Rajasthan,Jodhpur,"Samrat Ashok Udhyan, Jodhpur - RSPCB",28-03-2024 17:00:00,26.253384,72.976571,PM2.5,15,244,58
India,Rajasthan,Jodhpur,"Samrat Ashok Udhyan, Jodhpur - RSPCB",28-03-2024 17:00:00,26.253384,72.976571,SO2,2,9,4
India,Rajasthan,Kota,"Dhanmandi, Kota - RSPCB",28-03-2024 17:00:00,25.164090,75.858137,NO2,16,144,64
India,Rajasthan,Kota,"Dhanmandi, Kota - RSPCB",28-03-2024 17:00:00,25.164090,75.858137,CO,19,123,27
India,Rajasthan,Kota,"Shrinath Puram, Kota - RSPCB",28-03-2024 17:00:00,25.14389,75.821256,PM2.5,78,307,156
India,Rajasthan,Nagaur,"Karni Colony, Nagaur - RSPCB",28-03-2024 17:00:00,27.213494,73.734444,NH3,NA,NA,NA
India,Rajasthan,Nagaur,"Karni Colony, Nagaur - RSPCB",28-03-2024 17:00:00,27.213494,73.734444,SO2,NA,NA,NA
India,Rajasthan,Pali,"Indira Colony Vistar, Pali - RSPCB",28-03-2024 17:00:00,25.771061, 73.340227,NO2,15,31,22
India,Rajasthan,Pali,"Indira Colony Vistar, Pali - RSPCB",28-03-2024 17:00:00,25.771061, 73.340227,OZONE,29,74,60
India,Rajasthan,Pratapgarh,"Pragati Nagar, Pratapgarh - RSPCB",28-03-2024 17:00:00,24.041198,74.780702,PM10,60,234,112
India,Rajasthan,Pratapgarh,"Pragati Nagar, Pratapgarh - RSPCB",28-03-2024 17:00:00,24.041198,74.780702,NH3,4,12,6
India,Rajasthan,Rajsamand,"Dhoinda, Rajsamand - RSPCB",28-03-2024 17:00:00,25.036360,73.883502,NO2,NA,NA,NA
India,Rajasthan,Sikar,"Radhakishan Pura, Sikar - RSPCB",28-03-2024 17:00:00,27.608912,75.153302,PM2.5,28,267,56
India,Rajasthan,Sikar,"Radhakishan Pura, Sikar - RSPCB",28-03-2024 17:00:00,27.608912,75.153302,PM10,72,382,128
India,Rajasthan,Sikar,"Radhakishan Pura, Sikar - RSPCB",28-03-2024 17:00:00,27.608912,75.153302,CO,16,92,28
India,Rajasthan,Sirohi,"Vedhaynath Colony, Sirohi - RSPCB",28-03-2024 17:00:00,24.885261,72.857549,SO2,5,12,8
India,Rajasthan,Sirohi,"Vedhaynath Colony, Sirohi - RSPCB",28-03-2024 17:00:00,24.885261,72.857549,OZONE,13,94,70
India,Rajasthan,Sri Ganganagar,"Old City, Sri Ganganagar - RSPCB",28-03-2024 17:00:00,29.931624,73.864511,PM2.5,12,120,44
India,Rajasthan,Tonk,"Shastri Nagar, Tonk - RSPCB",28-03-2024 17:00:00,26.159933,75.780517,PM2.5,50,120,78
India,Rajasthan,Tonk,"Shastri Nagar, Tonk - RSPCB",28-03-2024 17:00:00,26.159933,75.780517,NH3,3,20,8
India,Rajasthan,Udaipur,"Ashok Nagar, Udaipur - RSPCB",28-03-2024 17:00:00,24.5886166,73.6321397,PM2.5,53,198,108
India,TamilNadu,Ariyalur,"Keelapalur, Ariyalur - TNPCB",28-03-2024 17:00:00,11.06825,79.07033,SO2,33,37,35
India,TamilNadu,Chengalpattu,"Crescent University, Chengalpattu - TNPCB",28-03-2024 17:00:00,12.8777316,80.0834807,PM2.5,8,74,38
India,TamilNadu,Chengalpattu,"Crescent University, Chengalpattu - TNPCB",28-03-2024 17:00:00,12.8777316,80.0834807,NH3,23,24,24
India,TamilNadu,Chengalpattu,"Crescent University, Chengalpattu - TNPCB",28-03-2024 17:00:00,12.8777316,80.0834807,OZONE,6,6,6
India,TamilNadu,Chennai,"Alandur Bus Depot, Chennai - CPCB",28-03-2024 17:00:00,12.9099161,80.1076538,NH3,1,31,5
India,TamilNadu,Chennai,"Alandur Bus Depot, Chennai - CPCB",28-03-2024 17:00:00,12.9099161,80.1076538,OZONE,2,8,7
India,TamilNadu,Chennai,"Arumbakkam, Chennai - TNPCB",28-03-2024 17:00:00,13.0664,80.2112 ,NO2,9,27,15
India,TamilNadu,Chennai,"Arumbakkam, Chennai - TNPCB",28-03-2024 17:00:00,13.0664,80.2112 ,SO2,1,7,3
India,TamilNadu,Chennai,"Kodungaiyur, Chennai - TNPCB",28-03-2024 17:00:00,13.1278,80.2642,PM2.5,9,27,19
India,TamilNadu,Chennai,"Kodungaiyur, Chennai - TNPCB",28-03-2024 17:00:00,13.1278,80.2642,PM10,26,68,50
India,TamilNadu,Chennai,"Kodungaiyur, Chennai - TNPCB",28-03-2024 17:00:00,13.1278,80.2642,SO2,1,7,5
India,TamilNadu,Chennai,"Manali, Chennai - CPCB",28-03-2024 17:00:00,13.164544,80.26285,SO2,2,45,11
India,TamilNadu,Chennai,"Manali, Chennai - CPCB",28-03-2024 17:00:00,13.164544,80.26285,OZONE,6,22,12
India,TamilNadu,Chennai,"Perungudi, Chennai - TNPCB",28-03-2024 17:00:00,12.9533,80.2357,OZONE,3,6,4
India,TamilNadu,Chennai,"Royapuram, Chennai - TNPCB",28-03-2024 17:00:00,13.1036,80.2909,PM10,18,110,44
India,TamilNadu,Chennai,"Royapuram, Chennai - TNPCB",28-03-2024 17:00:00,13.1036,80.2909,NO2,10,23,14
India,TamilNadu,Chennai,"Royapuram, Chennai - TNPCB",28-03-2024 17:00:00,13.1036,80.2909,OZONE,8,11,10
India,TamilNadu,Chennai,"Velachery Res. Area, Chennai - CPCB",28-03-2024 17:00:00,13.0052189,80.2398125,NO2,8,32,14
India,TamilNadu,Chennai,"Velachery Res. Area, Chennai - CPCB",28-03-2024 17:00:00,13.0052189,80.2398125,NH3,7,12,10
India,TamilNadu,Coimbatore,"PSG College of Arts and Science, Coimbatore - TNPCB",28-03-2024 17:00:00,11.0328,77.0349,PM2.5,NA,NA,NA
India,TamilNadu,Cuddalore,"Kudikadu, Cuddalore - TNPCB",28-03-2024 17:00:00,11.6829898,79.7532099,SO2,13,19,15
India,TamilNadu,Cuddalore,"Semmandalam, Cuddalore - TNPCB",28-03-2024 17:00:00,11.7637683,79.7499835,NH3,1,3,2
India,TamilNadu,Kanchipuram,"Kilambi, Kanchipuram - TNPCB",28-03-2024 17:00:00,12.864618,79.659968,NH3,NA,NA,NA
India,TamilNadu,Kanchipuram,"Kilambi, Kanchipuram - TNPCB",28-03-2024 17:00:00,12.864618,79.659968,SO2,NA,NA,NA
India,TamilNadu,Ooty,"Bombay Castel, Ooty - TNPCB",28-03-2024 17:00:00,11.4068288,76.7138973,PM10,14,113,40
India,TamilNadu,Ooty,"Bombay Castel, Ooty - TNPCB",28-03-2024 17:00:00,11.4068288,76.7138973,NO2,1,61,15
India,TamilNadu,Ooty,"Bombay Castel, Ooty - TNPCB",28-03-2024 17:00:00,11.4068288,76.7138973,SO2,13,13,13
India,TamilNadu,Ramanathapuram,"Chalai Bazaar, Ramanathapuram - TNPCB",28-03-2024 17:00:00,9.36399,78.831977,NH3,1,1,1
India,TamilNadu,Ramanathapuram,"Chalai Bazaar, Ramanathapuram - TNPCB",28-03-2024 17:00:00,9.36399,78.831977,CO,2,6,5
India,TamilNadu,Ramanathapuram,"Chalai Bazaar, Ramanathapuram - TNPCB",28-03-2024 17:00:00,9.36399,78.831977,OZONE,12,14,14
India,TamilNadu,Salem,"Sona College of Technology, Salem - TNPCB",28-03-2024 17:00:00,11.679111,78.125052,NO2,NA,NA,NA
India,TamilNadu,Vellore,"Vasanthapuram, Vellore - TNPCB",28-03-2024 17:00:00,12.909494,79.131861,PM2.5,11,44,28
India,TamilNadu,Vellore,"Vasanthapuram, Vellore - TNPCB",28-03-2024 17:00:00,12.909494,79.131861,OZONE,2,2,2
India,Telangana,Hyderabad,"ECIL Kapra, Hyderabad - TSPCB",28-03-2024 17:00:00,17.470431,78.566959,NO2,8,11,8
India,Telangana,Hyderabad,"ECIL Kapra, Hyderabad - TSPCB",28-03-2024 17:00:00,17.470431,78.566959,NH3,4,9,5
India,Telangana,Hyderabad,"ICRISAT Patancheru, Hyderabad - TSPCB",28-03-2024 17:00:00,17.518400,78.278777,OZONE,16,148,92
India,Telangana,Hyderabad,"IITH Kandi, Hyderabad - TSPCB",28-03-2024 17:00:00,17.585705,78.126199,NH3,NA,NA,NA
India,Telangana,Hyderabad,"IITH Kandi, Hyderabad - TSPCB",28-03-2024 17:00:00,17.585705,78.126199,CO,14,16,15
India,Telangana,Hyderabad,"IITH Kandi, Hyderabad - TSPCB",28-03-2024 17:00:00,17.585705,78.126199,OZONE,36,36,36
India,Telangana,Hyderabad,"Nacharam_TSIIC IALA, Hyderabad - TSPCB",28-03-2024 17:00:00,17.429398,78.569354,PM2.5,47,55,54
India,Telangana,Hyderabad,"Nacharam_TSIIC IALA, Hyderabad - TSPCB",28-03-2024 17:00:00,17.429398,78.569354,CO,30,34,33
India,Telangana,Hyderabad,"New Malakpet, Hyderabad - TSPCB",28-03-2024 17:00:00,17.37206,78.50864,PM2.5,23,128,67
India,Telangana,Hyderabad,"New Malakpet, Hyderabad - TSPCB",28-03-2024 17:00:00,17.37206,78.50864,NH3,3,5,4
India,Telangana,Hyderabad,"New Malakpet, Hyderabad - TSPCB",28-03-2024 17:00:00,17.37206,78.50864,CO,6,36,19
India,Telangana,Hyderabad,"Ramachandrapuram, Hyderabad - TSPCB",28-03-2024 17:00:00,17.528544,78.286195,PM10,76,86,79
India,Telangana,Hyderabad,"Ramachandrapuram, Hyderabad - TSPCB",28-03-2024 17:00:00,17.528544,78.286195,SO2,1,33,15
India,Telangana,Hyderabad,"Ramachandrapuram, Hyderabad - TSPCB",28-03-2024 17:00:00,17.528544,78.286195,OZONE,8,68,47
India,Uttar_Pradesh,Agra,"Rohta, Agra - UPPCB",28-03-2024 17:00:00,27.106972,78.000111,PM2.5,11,168,76
India,Uttar_Pradesh,Agra,"Rohta, Agra - UPPCB",28-03-2024 17:00:00,27.106972,78.000111,SO2,4,21,12
India,Uttar_Pradesh,Agra,"Sanjay Palace, Agra - UPPCB",28-03-2024 17:00:00,27.19865833,78.00598056,PM10,35,98,67
India,Uttar_Pradesh,Agra,"Sanjay Palace, Agra - UPPCB",28-03-2024 17:00:00,27.19865833,78.00598056,SO2,6,10,8
India,Uttar_Pradesh,Agra,"Sector-3B Avas Vikas Colony, Agra - UPPCB",28-03-2024 17:00:00,27.19412,77.96237,PM2.5,5,144,40
India,Uttar_Pradesh,Agra,"Sector-3B Avas Vikas Colony, Agra - UPPCB",28-03-2024 17:00:00,27.19412,77.96237,OZONE,2,12,5
India,Uttar_Pradesh,Agra,"Shahjahan Garden, Agra - UPPCB",28-03-2024 17:00:00,27.169338,78.03582,PM10,46,118,78
India,Uttar_Pradesh,Agra,"Shastripuram, Agra - UPPCB",28-03-2024 17:00:00,27.19862,77.92066,PM10,58,176,109
India,Uttar_Pradesh,Baghpat,"Sardar Patel Inter College, Baghpat - UPPCB",28-03-2024 17:00:00,28.964949,77.278761,PM2.5,30,72,50
India,Uttar_Pradesh,Baghpat,"Sardar Patel Inter College, Baghpat - UPPCB",28-03-2024 17:00:00,28.964949,77.278761,PM10,71,133,99
India,Uttar_Pradesh,Bareilly,"Civil Lines, Bareilly - UPPCB",28-03-2024 17:00:00,28.359581,79.414455,PM2.5,4,12,8
India,Uttar_Pradesh,Bareilly,"Rajendra Nagar, Bareilly - UPPCB",28-03-2024 17:00:00,28.38910936,79.42963708,PM2.5,21,51,36
India,Uttar_Pradesh,Bareilly,"Rajendra Nagar, Bareilly - UPPCB",28-03-2024 17:00:00,28.38910936,79.42963708,PM10,47,98,70
India,Uttar_Pradesh,Bareilly,"Rajendra Nagar, Bareilly - UPPCB",28-03-2024 17:00:00,28.38910936,79.42963708,CO,12,34,29
India,Uttar_Pradesh,Bareilly,"Rajendra Nagar, Bareilly - UPPCB",28-03-2024 17:00:00,28.38910936,79.42963708,OZONE,71,174,119
India,Uttar_Pradesh,Firozabad,"Nagla Bhau, Firozabad - UPPCB",28-03-2024 17:00:00,27.168897,78.376960,NO2,17,17,17
India,Uttar_Pradesh,Firozabad,"Nagla Bhau, Firozabad - UPPCB",28-03-2024 17:00:00,27.168897,78.376960,SO2,20,26,22
India,Uttar_Pradesh,Firozabad,"Vibhab Nagar, Firozabad - UPPCB",28-03-2024 17:00:00,27.1594,78.3953,PM10,19,86,50
India,Uttar_Pradesh,Firozabad,"Vibhab Nagar, Firozabad - UPPCB",28-03-2024 17:00:00,27.1594,78.3953,NO2,14,14,14
India,Uttar_Pradesh,Firozabad,"Vibhab Nagar, Firozabad - UPPCB",28-03-2024 17:00:00,27.1594,78.3953,SO2,14,92,34
India,Uttar_Pradesh,Firozabad,"Vibhab Nagar, Firozabad - UPPCB",28-03-2024 17:00:00,27.1594,78.3953,OZONE,22,169,51
India,Uttar_Pradesh,Ghaziabad,"Sanjay Nagar, Ghaziabad - UPPCB",28-03-2024 17:00:00,28.685382,77.453839,PM2.5,57,118,87
India,Uttar_Pradesh,Ghaziabad,"Sanjay Nagar, Ghaziabad - UPPCB",28-03-2024 17:00:00,28.685382,77.453839,CO,11,96,39
India,Uttar_Pradesh,Ghaziabad,"Vasundhara, Ghaziabad - UPPCB",28-03-2024 17:00:00,28.6603346,77.3572563,PM10,86,133,112
India,Uttar_Pradesh,Ghaziabad,"Vasundhara, Ghaziabad - UPPCB",28-03-2024 17:00:00,28.6603346,77.3572563,SO2,1,117,54
India,Uttar_Pradesh,Gorakhpur,"Madan Mohan Malaviya University of Technology, Gorakhpur - UPPCB",28-03-2024 17:00:00,26.730136,83.433859,NO2,2,2,2
India,Uttar_Pradesh,Gorakhpur,"Madan Mohan Malaviya University of Technology, Gorakhpur - UPPCB",28-03-2024 17:00:00,26.730136,83.433859,NH3,2,2,2
India,Uttar_Pradesh,Gorakhpur,"Madan Mohan Malaviya University of Technology, Gorakhpur - UPPCB",28-03-2024 17:00:00,26.730136,83.433859,CO,12,18,13
India,Uttar_Pradesh,Gorakhpur,"Madan Mohan Malaviya University of Technology, Gorakhpur - UPPCB",28-03-2024 17:00:00,26.730136,83.433859,OZONE,10,47,37
India,Uttar_Pradesh,Greater Noida,"Knowledge Park - III, Greater Noida - UPPCB",28-03-2024 17:00:00,28.47272,77.482000,NO2,30,100,61
India,Uttar_Pradesh,Greater Noida,"Knowledge Park - III, Greater Noida - UPPCB",28-03-2024 17:00:00,28.47272,77.482000,OZONE,6,167,167
India,Uttar_Pradesh,Hapur,"Anand Vihar, Hapur - UPPCB",28-03-2024 17:00:00,28.725645,77.749675,NO2,24,136,51
India,Uttar_Pradesh,Jhansi,"Shivaji Nagar, Jhansi - UPPCB",28-03-2024 17:00:00,25.4547,78.6039,NO2,7,66,23
India,Uttar_Pradesh,Kanpur,"FTI Kidwai Nagar, Kanpur - UPPCB",28-03-2024 17:00:00,26.428282,80.327067,PM2.5,52,228,122
India,Uttar_Pradesh,Kanpur,"FTI Kidwai Nagar, Kanpur - UPPCB",28-03-2024 17:00:00,26.428282,80.327067,CO,29,71,41
India,Uttar_Pradesh,Kanpur,"NSI Kalyanpur, Kanpur - UPPCB",28-03-2024 17:00:00,26.509954,80.249612,SO2,18,22,20
India,Uttar_Pradesh,Kanpur,"NSI Kalyanpur, Kanpur - UPPCB",28-03-2024 17:00:00,26.509954,80.249612,CO,38,72,47
India,Uttar_Pradesh,Khurja,"Kalindi Kunj, Khurja - UPPCB",28-03-2024 17:00:00,28.2348927,77.8683002,SO2,44,55,47
India,Uttar_Pradesh,Khurja,"Kalindi Kunj, Khurja - UPPCB",28-03-2024 17:00:00,28.2348927,77.8683002,OZONE,26,33,29
India,Uttar_Pradesh,Lucknow,"B R Ambedkar University, Lucknow - UPPCB",28-03-2024 17:00:00,26.766433,80.927299,OZONE,1,88,67
India,Uttar_Pradesh,Lucknow,"Kukrail Picnic Spot-1, Lucknow - UPPCB",28-03-2024 17:00:00,26.90723,80.98579,NO2,8,8,8
India,Uttar_Pradesh,Lucknow,"Kukrail Picnic Spot-1, Lucknow - UPPCB",28-03-2024 17:00:00,26.90723,80.98579,NH3,2,2,2
India,Uttar_Pradesh,Lucknow,"Lalbagh, Lucknow - CPCB",28-03-2024 17:00:00,26.8458805,80.9365541,PM2.5,56,239,144
India,Uttar_Pradesh,Lucknow,"Lalbagh, Lucknow - CPCB",28-03-2024 17:00:00,26.8458805,80.9365541,OZONE,18,75,60
India,Uttar_Pradesh,Lucknow,"Talkatora District Industries Center, Lucknow - CPCB",28-03-2024 17:00:00,26.83399722,80.8917361,SO2,1,34,10
India,Uttar_Pradesh,Lucknow,"Talkatora District Industries Center, Lucknow - CPCB",28-03-2024 17:00:00,26.83399722,80.8917361,OZONE,2,81,48
India,Uttar_Pradesh,Meerut,"Ganga Nagar, Meerut - UPPCB",28-03-2024 17:00:00,28.999264,77.7590354,NH3,7,12,9
India,Uttar_Pradesh,Meerut,"Pallavpuram Phase 2, Meerut - UPPCB",28-03-2024 17:00:00,29.063510,77.709723,SO2,13,46,34
India,Uttar_Pradesh,Meerut,"Pallavpuram Phase 2, Meerut - UPPCB",28-03-2024 17:00:00,29.063510,77.709723,CO,44,88,52
India,Uttar_Pradesh,Moradabad,"Buddhi Vihar, Moradabad - UPPCB",28-03-2024 17:00:00,28.83526,78.74460,SO2,25,40,29
India,Uttar_Pradesh,Moradabad,"Buddhi Vihar, Moradabad - UPPCB",28-03-2024 17:00:00,28.83526,78.74460,OZONE,12,38,27
India,Uttar_Pradesh,Moradabad,"Kashiram Nagar, Moradabad - UPPCB",28-03-2024 17:00:00,28.849399,78.742362,NO2,1,4,1
India,Uttar_Pradesh,Moradabad,"Transport Nagar, Moradabad - UPPCB",28-03-2024 17:00:00,28.802625,78.753728,PM10,76,129,97
India,Uttar_Pradesh,Moradabad,"Transport Nagar, Moradabad - UPPCB",28-03-2024 17:00:00,28.802625,78.753728,SO2,45,56,49
India,Uttar_Pradesh,Muzaffarnagar,"New Mandi, Muzaffarnagar - UPPCB",28-03-2024 17:00:00,29.4723508,77.7194031,PM2.5,58,331,159
India,Uttar_Pradesh,Muzaffarnagar,"New Mandi, Muzaffarnagar - UPPCB",28-03-2024 17:00:00,29.4723508,77.7194031,NO2,2,47,19
India,Uttar_Pradesh,Muzaffarnagar,"New Mandi, Muzaffarnagar - UPPCB",28-03-2024 17:00:00,29.4723508,77.7194031,NH3,11,19,13
India,Uttar_Pradesh,Noida,"Sector - 125, Noida - UPPCB",28-03-2024 17:00:00,28.5447608,77.3231257,PM2.5,23,80,55
India,Uttar_Pradesh,Noida,"Sector - 125, Noida - UPPCB",28-03-2024 17:00:00,28.5447608,77.3231257,PM10,64,147,98
India,Uttar_Pradesh,Noida,"Sector - 62, Noida - IMD",28-03-2024 17:00:00,28.6245479,77.3577104,CO,57,71,64
India,Uttar_Pradesh,Noida,"Sector-1, Noida - UPPCB",28-03-2024 17:00:00,28.5898,77.3101,NO2,34,103,56
India,Uttar_Pradesh,Noida,"Sector-116, Noida - UPPCB",28-03-2024 17:00:00,28.569230,77.393848,CO,46,104,65
India,Uttar_Pradesh,Noida,"Sector-116, Noida - UPPCB",28-03-2024 17:00:00,28.569230,77.393848,OZONE,1,68,39
India,Uttar_Pradesh,Prayagraj,"Jhunsi, Prayagraj - UPPCB",28-03-2024 17:00:00,25.425602,81.917152,PM2.5,29,78,48
India,Uttar_Pradesh,Prayagraj,"Motilal Nehru NIT, Prayagraj - UPPCB",28-03-2024 17:00:00,25.494,81.863,PM10,43,284,132
India,Uttar_Pradesh,Prayagraj,"Nagar Nigam, Prayagraj - UPPCB",28-03-2024 17:00:00,25.44919916 ,81.82735986 ,PM2.5,23,115,51
India,Uttar_Pradesh,Prayagraj,"Nagar Nigam, Prayagraj - UPPCB",28-03-2024 17:00:00,25.44919916 ,81.82735986 ,NH3,4,12,8
India,Uttar_Pradesh,Varanasi,"Bhelupur, Varanasi - UPPCB",28-03-2024 17:00:00,25.301778,82.996789,PM10,NA,NA,NA
India,Uttar_Pradesh,Varanasi,"IESD Banaras Hindu University, Varanasi - UPPCB",28-03-2024 17:00:00,25.262326,82.995408,NH3,1,4,3
India,Uttar_Pradesh,Varanasi,"Maldahiya, Varanasi - UPPCB",28-03-2024 17:00:00,25.32393,82.99687,PM2.5,15,50,34
India,Uttar_Pradesh,Vrindavan,"Omex Eternity, Vrindavan - UPPCB",28-03-2024 17:00:00,27.5714090,77.6557570,PM2.5,18,95,44
India,Uttarakhand,Dehradun,"Doon University, Dehradun - UKPCB",28-03-2024 17:00:00,30.269444,78.044167,PM10,72,170,110
India,Uttarakhand,Dehradun,"Doon University, Dehradun - UKPCB",28-03-2024 17:00:00,30.269444,78.044167,SO2,2,6,3
India,Uttarakhand,Dehradun,"Doon University, Dehradun - UKPCB",28-03-2024 17:00:00,30.269444,78.044167,CO,40,56,43
India,Uttarakhand,Kashipur,"Govt. Girls Inter College, Kashipur - UKPCB",28-03-2024 17:00:00,29.2124114,78.9611753,PM10,72,114,95
India,Uttarakhand,Kashipur,"Govt. Girls Inter College, Kashipur - UKPCB",28-03-2024 17:00:00,29.2124114,78.9611753,SO2,7,9,8
India,Uttarakhand,Rishikesh,"Shivaji Nagar, Rishikesh - UKPCB",28-03-2024 17:00:00,30.075911,78.2859547,NH3,2,4,3
India,Uttarakhand,Rishikesh,"Shivaji Nagar, Rishikesh - UKPCB",28-03-2024 17:00:00,30.075911,78.2859547,OZONE,22,103,68
India,West_Bengal,Asansol,"Asansol Court Area, Asansol - WBPCB",28-03-2024 17:00:00,23.685297,86.945968,NO2,19,36,28
India,West_Bengal,Barrackpore,"SVSPA Campus, Barrackpore - WBPCB",28-03-2024 17:00:00,22.7605581,88.3617589,PM2.5,NA,NA,NA
India,West_Bengal,Haldia,"Priyambada Housing Estate, Haldia - WBPCB",28-03-2024 17:00:00,22.06047,88.109737,PM2.5,9,34,14
India,West_Bengal,Haldia,"Priyambada Housing Estate, Haldia - WBPCB",28-03-2024 17:00:00,22.06047,88.109737,PM10,23,63,43
India,West_Bengal,Haldia,"Priyambada Housing Estate, Haldia - WBPCB",28-03-2024 17:00:00,22.06047,88.109737,NH3,3,4,3
India,West_Bengal,Howrah,"Ghusuri, Howrah - WBPCB",28-03-2024 17:00:00,22.611968,88.347422,NO2,3,9,6
India,West_Bengal,Howrah,"Ghusuri, Howrah - WBPCB",28-03-2024 17:00:00,22.611968,88.347422,NH3,3,3,3
India,West_Bengal,Howrah,"Ghusuri, Howrah - WBPCB",28-03-2024 17:00:00,22.611968,88.347422,CO,2,24,12
India,West_Bengal,Howrah,"Ghusuri, Howrah - WBPCB",28-03-2024 17:00:00,22.611968,88.347422,OZONE,13,27,22
India,West_Bengal,Howrah,"Padmapukur, Howrah - WBPCB",28-03-2024 17:00:00,22.5687319,88.2797276,NH3,1,2,1
India,West_Bengal,Kolkata,"Fort William, Kolkata - WBPCB",28-03-2024 17:00:00,22.556640,88.342674,OZONE,28,53,44
India,West_Bengal,Kolkata,"Rabindra Bharati University, Kolkata - WBPCB",28-03-2024 17:00:00,22.627847,88.380669,SO2,1,43,8
India,West_Bengal,Kolkata,"Rabindra Sarobar, Kolkata - WBPCB",28-03-2024 17:00:00,22.51106,88.35142,NH3,4,9,6
India,West_Bengal,Kolkata,"Victoria, Kolkata - WBPCB",28-03-2024 17:00:00,22.5448082,88.3403691,SO2,4,10,6
India,West_Bengal,Kolkata,"Victoria, Kolkata - WBPCB",28-03-2024 17:00:00,22.5448082,88.3403691,CO,15,34,28
India,West_Bengal,Siliguri,"Ward-32 Bapupara, Siliguri - WBPCB",28-03-2024 17:00:00,26.6879226,88.4152495,PM2.5,31,48,41
India,West_Bengal,Siliguri,"Ward-32 Bapupara, Siliguri - WBPCB",28-03-2024 17:00:00,26.6879226,88.4152495,NO2,27,80,53
India,West_Bengal,Siliguri,"Ward-32 Bapupara, Siliguri - WBPCB",28-03-2024 17:00:00,26.6879226,88.4152495,NH3,5,15,11
India,Andhra_Pradesh,Amaravati,"Secretariat, Amaravati - APPCB",28-03-2024 17:00:00,16.5150833,80.5181667,NO2,4,10,6
India,Andhra_Pradesh,Amaravati,"Secretariat, Amaravati - APPCB",28-03-2024 17:00:00,16.5150833,80.5181667,NH3,3,5,5
India,Andhra_Pradesh,Amaravati,"Secretariat, Amaravati - APPCB",28-03-2024 17:00:00,16.5150833,80.5181667,CO,10,78,30
India,Andhra_Pradesh,Anantapur,"Gulzarpet, Anantapur - APPCB",28-03-2024 17:00:00,14.675886,77.593027,OZONE,2,63,41
India,Andhra_Pradesh,Chittoor,"Gangineni Cheruvu, Chittoor - APPCB",28-03-2024 17:00:00,13.204880,79.097889,OZONE,12,77,59
India,Andhra_Pradesh,Kadapa,"Yerramukkapalli, Kadapa - APPCB",28-03-2024 17:00:00,14.465052,78.824187,SO2,1,6,2
India,Andhra_Pradesh,Rajamahendravaram,"Anand Kala Kshetram, Rajamahendravaram - APPCB",28-03-2024 17:00:00,16.9872867,81.7363176,SO2,4,42,11
India,Andhra_Pradesh,Tirupati,"Tirumala, Tirupati - APPCB",28-03-2024 17:00:00,13.67,79.35,SO2,4,12,7
India,Andhra_Pradesh,Tirupati,"Vaikuntapuram, Tirupati - APPCB",28-03-2024 17:00:00,13.615387,79.409230,PM10,13,127,48
India,Andhra_Pradesh,Tirupati,"Vaikuntapuram, Tirupati - APPCB",28-03-2024 17:00:00,13.615387,79.409230,NH3,2,4,3
India,Andhra_Pradesh,Tirupati,"Vaikuntapuram, Tirupati - APPCB",28-03-2024 17:00:00,13.615387,79.409230,OZONE,1,42,24
India,Andhra_Pradesh,Vijayawada,"HB Colony, Vijayawada - APPCB",28-03-2024 17:00:00,16.536107,80.594233,PM10,47,65,56
India,Andhra_Pradesh,Vijayawada,"HB Colony, Vijayawada - APPCB",28-03-2024 17:00:00,16.536107,80.594233,NO2,5,12,8
India,Andhra_Pradesh,Vijayawada,"HB Colony, Vijayawada - APPCB",28-03-2024 17:00:00,16.536107,80.594233,CO,32,52,37
India,Andhra_Pradesh,Vijayawada,"Kanuru, Vijayawada - APPCB",28-03-2024 17:00:00,16.486692,80.699436,PM2.5,49,61,55
India,Andhra_Pradesh,Vijayawada,"Kanuru, Vijayawada - APPCB",28-03-2024 17:00:00,16.486692,80.699436,PM10,55,69,62
India,Andhra_Pradesh,Vijayawada,"Kanuru, Vijayawada - APPCB",28-03-2024 17:00:00,16.486692,80.699436,NH3,1,1,1
India,Andhra_Pradesh,Vijayawada,"Kanuru, Vijayawada - APPCB",28-03-2024 17:00:00,16.486692,80.699436,OZONE,28,28,28
India,Andhra_Pradesh,Vijayawada,"Rajiv Gandhi Park, Vijayawada - APPCB",28-03-2024 17:00:00,16.509717,80.612222,NO2,4,58,31
India,Andhra_Pradesh,Vijayawada,"Rajiv Nagar, Vijayawada - APPCB",28-03-2024 17:00:00,16.554731,80.649110,PM2.5,44,46,45
India,Andhra_Pradesh,Vijayawada,"Rajiv Nagar, Vijayawada - APPCB",28-03-2024 17:00:00,16.554731,80.649110,PM10,61,63,62
India,Andhra_Pradesh,Vijayawada,"Rajiv Nagar, Vijayawada - APPCB",28-03-2024 17:00:00,16.554731,80.649110,NO2,NA,NA,NA
India,Andhra_Pradesh,Vijayawada,"Rajiv Nagar, Vijayawada - APPCB",28-03-2024 17:00:00,16.554731,80.649110,NH3,NA,NA,NA
India,Andhra_Pradesh,Vijayawada,"Rajiv Nagar, Vijayawada - APPCB",28-03-2024 17:00:00,16.554731,80.649110,SO2,10,19,15
India,Andhra_Pradesh,Visakhapatnam,"GVM Corporation, Visakhapatnam - APPCB",28-03-2024 17:00:00,17.72,83.3,PM10,50,160,89
India,Andhra_Pradesh,Visakhapatnam,"GVM Corporation, Visakhapatnam - APPCB",28-03-2024 17:00:00,17.72,83.3,NO2,35,51,40
India,Assam,Byrnihat,"Central Academy for SFS, Byrnihat - PCBA",28-03-2024 17:00:00,26.071318,91.87488,CO,33,86,70
India,Assam,Guwahati,"IITG, Guwahati - PCBA",28-03-2024 17:00:00,26.2028636,91.70046436,PM10,38,81,63
India,Assam,Guwahati,"IITG, Guwahati - PCBA",28-03-2024 17:00:00,26.2028636,91.70046436,SO2,11,12,12
India,Assam,Guwahati,"Pan Bazaar, Guwahati - PCBA",28-03-2024 17:00:00,26.187500,91.744194,NO2,NA,NA,NA
India,Assam,Guwahati,"Pan Bazaar, Guwahati - PCBA",28-03-2024 17:00:00,26.187500,91.744194,SO2,NA,NA,NA
India,Assam,Guwahati,"Railway Colony, Guwahati - PCBA",28-03-2024 17:00:00,26.181742,91.78063,SO2,38,47,43
India,Assam,Nagaon,"Christianpatty, Nagaon - PCBA",28-03-2024 17:00:00,26.349082,92.68449,PM2.5,52,113,77
India,Assam,Nagaon,"Christianpatty, Nagaon - PCBA",28-03-2024 17:00:00,26.349082,92.68449,CO,16,70,45
India,Assam,Nalbari,"Bata Chowk, Nalbari - PCBA",28-03-2024 17:00:00,26.446912,91.439057,PM10,39,173,103
India,Assam,Nalbari,"Bata Chowk, Nalbari - PCBA",28-03-2024 17:00:00,26.446912,91.439057,NH3,1,2,1
India,Assam,Nalbari,"Bata Chowk, Nalbari - PCBA",28-03-2024 17:00:00,26.446912,91.439057,SO2,7,12,11
India,Assam,Nalbari,"Bata Chowk, Nalbari - PCBA",28-03-2024 17:00:00,26.446912,91.439057,CO,3,155,106
India,Assam,Sivasagar,"Girls College, Sivasagar - PCBA",28-03-2024 17:00:00,26.987634,94.636574,NO2,8,18,13
India,Bihar,Araria,"Kharahiya Basti, Araria - BSPCB",28-03-2024 17:00:00,26.146529,87.454184,CO,20,31,24
India,Bihar,Araria,"Kharahiya Basti, Araria - BSPCB",28-03-2024 17:00:00,26.146529,87.454184,OZONE,7,11,8
India,Bihar,Arrah,"New DM Office, Arrah - BSPCB",28-03-2024 17:00:00,25.5626095,84.663264,SO2,14,24,18
India,Bihar,Aurangabad,"Gurdeo Nagar, Aurangabad - BSPCB",28-03-2024 17:00:00,24.75746,84.366208,PM2.5,NA,NA,NA
India,Bihar,Bettiah,"Kamalnath Nagar, Bettiah - BSPCB",28-03-2024 17:00:00,26.80365,84.51954,NO2,8,8,8
India,Bihar,Bettiah,"Kamalnath Nagar, Bettiah - BSPCB",28-03-2024 17:00:00,26.80365,84.51954,OZONE,3,10,7
India,Bihar,Bhagalpur,"DM Office_Kachari Chowk, Bhagalpur - BSPCB",28-03-2024 17:00:00,25.251013,86.989001,PM10,NA,NA,NA
India,Bihar,Bihar Sharif,"D M Colony, Bihar Sharif - BSPCB",28-03-2024 17:00:00,25.204762,85.514960,NH3,2,2,2
India,Bihar,Buxar,"Charitra Van, Buxar - BSPCB (Formerly known as Central Jail)",28-03-2024 17:00:00,25.567520,83.966379,NO2,29,82,48
India,Bihar,Buxar,"Charitra Van, Buxar - BSPCB (Formerly known as Central Jail)",28-03-2024 17:00:00,25.567520,83.966379,NH3,1,2,1
India,Bihar,Chhapra,"Darshan Nagar, Chhapra - BSPCB",28-03-2024 17:00:00,25.7808257,84.7446768,PM10,61,148,96
India,Bihar,Gaya,"Collectorate, Gaya - BSPCB",28-03-2024 17:00:00,24.7955,84.9994,PM2.5,NA,NA,NA
India,Bihar,Gaya,"SFTI Kusdihra, Gaya - BSPCB",28-03-2024 17:00:00,24.762518,84.982348,NH3,1,5,4
India,Bihar,Gaya,"SFTI Kusdihra, Gaya - BSPCB",28-03-2024 17:00:00,24.762518,84.982348,CO,20,38,27
India,Bihar,Hajipur,"Industrial Area, Hajipur - BSPCB",28-03-2024 17:00:00,25.697189,85.245900,NH3,5,7,6
India,Bihar,Hajipur,"Industrial Area, Hajipur - BSPCB",28-03-2024 17:00:00,25.697189,85.245900,OZONE,10,52,39
India,Bihar,Katihar,"Mirchaibari, Katihar - BSPCB",28-03-2024 17:00:00,25.560083,87.553265,PM10,44,109,81
India,Bihar,Katihar,"Mirchaibari, Katihar - BSPCB",28-03-2024 17:00:00,25.560083,87.553265,NO2,13,28,17
India,Bihar,Kishanganj,"SDM Office_Khagra, Kishanganj - BSPCB",28-03-2024 17:00:00,26.0881305,87.93840336,PM2.5,NA,NA,NA
India,Bihar,Kishanganj,"SDM Office_Khagra, Kishanganj - BSPCB",28-03-2024 17:00:00,26.0881305,87.93840336,SO2,37,45,41
India,Bihar,Manguraha,"Forest Rest House, Manguraha - BSPCB",28-03-2024 17:00:00,27.308328,84.531742,NH3,1,3,2
India,Bihar,Manguraha,"Forest Rest House, Manguraha - BSPCB",28-03-2024 17:00:00,27.308328,84.531742,SO2,NA,NA,NA
India,Bihar,Manguraha,"Forest Rest House, Manguraha - BSPCB",28-03-2024 17:00:00,27.308328,84.531742,CO,22,78,46
India,Bihar,Motihari,"Gandak Colony, Motihari - BSPCB",28-03-2024 17:00:00,26.63086,84.90051,NO2,48,67,58
India,Bihar,Motihari,"Gandak Colony, Motihari - BSPCB",28-03-2024 17:00:00,26.63086,84.90051,SO2,3,10,6
India,Bihar,Motihari,"Gandak Colony, Motihari - BSPCB",28-03-2024 17:00:00,26.63086,84.90051,OZONE,18,42,31
India,Bihar,Muzaffarpur,"MIT-Daudpur Kothi, Muzaffarpur - BSPCB",28-03-2024 17:00:00,26.1403345,85.3650192,PM2.5,43,133,66
India,Bihar,Muzaffarpur,"MIT-Daudpur Kothi, Muzaffarpur - BSPCB",28-03-2024 17:00:00,26.1403345,85.3650192,PM10,65,149,95
India,Bihar,Muzaffarpur,"Muzaffarpur Collectorate, Muzaffarpur - BSPCB",28-03-2024 17:00:00,26.1209,85.3647,NO2,8,20,10
India,Bihar,Patna,"Govt. High School Shikarpur, Patna - BSPCB",28-03-2024 17:00:00,25.592539,85.227158,NO2,19,22,20
India,Bihar,Patna,"Govt. High School Shikarpur, Patna - BSPCB",28-03-2024 17:00:00,25.592539,85.227158,SO2,7,12,10
India,Bihar,Patna,"Govt. High School Shikarpur, Patna - BSPCB",28-03-2024 17:00:00,25.592539,85.227158,CO,34,64,45
India,Bihar,Patna,"Muradpur, Patna - BSPCB",28-03-2024 17:00:00,25.619651,85.147382,NO2,7,18,12
India,Bihar,Patna,"Muradpur, Patna - BSPCB",28-03-2024 17:00:00,25.619651,85.147382,NH3,2,5,3
India,Bihar,Patna,"Rajbansi Nagar, Patna - BSPCB",28-03-2024 17:00:00,25.599486,85.113666,NH3,4,10,5
India,Bihar,Purnia,"Mariam Nagar, Purnia - BSPCB",28-03-2024 17:00:00,25.366336,87.117468,SO2,6,10,8
India,Bihar,Purnia,"Mariam Nagar, Purnia - BSPCB",28-03-2024 17:00:00,25.366336,87.117468,CO,28,58,48
India,Bihar,Rajgir,"Dangi Tola, Rajgir - BSPCB",28-03-2024 17:00:00,25.03280,85.41948,PM2.5,28,320,129
India,Bihar,Samastipur,"DM Office_Kasipur, Samastipur - BSPCB",28-03-2024 17:00:00,25.859655,85.77944,OZONE,7,13,11
India,Bihar,Sasaram,"Dada Peer, Sasaram - BSPCB",28-03-2024 17:00:00,24.952822,84.002396,PM2.5,12,77,41
India,Bihar,Sasaram,"Dada Peer, Sasaram - BSPCB",28-03-2024 17:00:00,24.952822,84.002396,NO2,7,30,19
India,Bihar,Siwan,"Chitragupta Nagar, Siwan - BSPCB",28-03-2024 17:00:00,26.2271665,84.3570427,NO2,7,25,15
India,Chandigarh,Chandigarh,"Sector-25, Chandigarh - CPCC",28-03-2024 17:00:00,30.751462,76.762879,NO2,6,18,11
India,Chhattisgarh,Bhilai,"32Bungalows, Bhilai - CECB",28-03-2024 17:00:00,21.194815,81.314770,PM2.5,50,76,62
India,Chhattisgarh,Bhilai,"32Bungalows, Bhilai - CECB",28-03-2024 17:00:00,21.194815,81.314770,NH3,6,7,6
India,Chhattisgarh,Bhilai,"Civic Center, Bhilai - Bhilai Steel Plant",28-03-2024 17:00:00,21.185571,81.343175,NO2,15,17,16
India,Chhattisgarh,Bhilai,"Civic Center, Bhilai - Bhilai Steel Plant",28-03-2024 17:00:00,21.185571,81.343175,CO,14,112,85
India,Chhattisgarh,Bhilai,"Hathkhoj, Bhilai - CECB",28-03-2024 17:00:00,21.224231,81.408350,PM2.5,43,168,99
India,Chhattisgarh,Bhilai,"Hathkhoj, Bhilai - CECB",28-03-2024 17:00:00,21.224231,81.408350,NH3,7,8,8
India,Chhattisgarh,Chhal,"Nawapara SECL Colony, Chhal - CECB",28-03-2024 17:00:00,22.118125,83.140608,NH3,2,2,2
India,Chhattisgarh,Chhal,"Nawapara SECL Colony, Chhal - CECB",28-03-2024 17:00:00,22.118125,83.140608,CO,36,107,57
India,Chhattisgarh,Chhal,"Nawapara SECL Colony, Chhal - CECB",28-03-2024 17:00:00,22.118125,83.140608,OZONE,35,150,67
India,Chhattisgarh,Korba,"Rampur, Korba - CECB",28-03-2024 17:00:00,22.368195,82.746431,NO2,23,36,32
India,Chhattisgarh,Korba,"Urja Nagar, Korba - CECB",28-03-2024 17:00:00,22.348441,82.549611,NO2,33,76,63
India,Chhattisgarh,Milupara,"Govt. Higher Secondary School, Milupara - CECB",28-03-2024 17:00:00,22.1910172,83.5197009,PM10,NA,NA,NA
India,Chhattisgarh,Milupara,"Govt. Higher Secondary School, Milupara - CECB",28-03-2024 17:00:00,22.1910172,83.5197009,SO2,NA,NA,NA
India,Chhattisgarh,Raipur,"Siltara Phase-II, Raipur - CECB",28-03-2024 17:00:00,21.371751,81.664929,SO2,15,64,31
India,Chhattisgarh,Tumidih,"OP Jindal Industrial Park, Tumidih - CECB",28-03-2024 17:00:00,22.06631475,83.33820077,PM2.5,NA,NA,NA
India,Chhattisgarh,Tumidih,"OP Jindal Industrial Park, Tumidih - CECB",28-03-2024 17:00:00,22.06631475,83.33820077,SO2,NA,NA,NA
India,Chhattisgarh,Tumidih,"OP Jindal Industrial Park, Tumidih - CECB",28-03-2024 17:00:00,22.06631475,83.33820077,CO,NA,NA,NA
India,Delhi,Delhi,"Alipur, Delhi - DPCC",28-03-2024 17:00:00,28.815329,77.153010,PM2.5,33,296,122
India,Delhi,Delhi,"Anand Vihar, Delhi - DPCC",28-03-2024 17:00:00,28.647622,77.3158090,NH3,2,12,5
India,Delhi,Delhi,"Aya Nagar, Delhi - IMD",28-03-2024 17:00:00,28.4706914,77.1099364,PM10,117,196,144
India,Delhi,Delhi,"Aya Nagar, Delhi - IMD",28-03-2024 17:00:00,28.4706914,77.1099364,NO2,13,55,22
India,Delhi,Delhi,"Burari Crossing, Delhi - IMD",28-03-2024 17:00:00,28.7256504,77.2011573,CO,27,57,45
India,Delhi,Delhi,"CRRI Mathura Road, Delhi - IMD",28-03-2024 17:00:00,28.5512005,77.2735737,NO2,11,34,18
India,Delhi,Delhi,"DTU, Delhi - CPCB",28-03-2024 17:00:00,28.7500499,77.1112615,PM2.5,49,299,140
India,Delhi,Delhi,"DTU, Delhi - CPCB",28-03-2024 17:00:00,28.7500499,77.1112615,NH3,8,12,10
India,Delhi,Delhi,"DTU, Delhi - CPCB",28-03-2024 17:00:00,28.7500499,77.1112615,OZONE,27,153,72
India,Delhi,Delhi,"Dr. Karni Singh Shooting Range, Delhi - DPCC",28-03-2024 17:00:00,28.498571,77.264840,PM10,100,167,127
India,Delhi,Delhi,"Dr. Karni Singh Shooting Range, Delhi - DPCC",28-03-2024 17:00:00,28.498571,77.264840,CO,33,103,43
India,Delhi,Delhi,"IHBAS, Dilshad Garden, Delhi - CPCB",28-03-2024 17:00:00,28.6811736,77.3025234,NO2,25,92,53
India,Delhi,Delhi,"ITO, Delhi - CPCB",28-03-2024 17:00:00,28.628624,77.241060,NO2,2,166,71
India,Delhi,Delhi,"ITO, Delhi - CPCB",28-03-2024 17:00:00,28.628624,77.241060,SO2,7,40,25
India,Delhi,Delhi,"Jahangirpuri, Delhi - DPCC",28-03-2024 17:00:00,28.732820,77.170633,PM2.5,35,338,171
India,Delhi,Delhi,"Jahangirpuri, Delhi - DPCC",28-03-2024 17:00:00,28.732820,77.170633,OZONE,1,80,46
India,Delhi,Delhi,"Lodhi Road, Delhi - IITM",28-03-2024 17:00:00,28.588333,77.221667,PM10,75,500,224
India,Delhi,Delhi,"Lodhi Road, Delhi - IITM",28-03-2024 17:00:00,28.588333,77.221667,NH3,8,9,9
India,Delhi,Delhi,"Lodhi Road, Delhi - IMD",28-03-2024 17:00:00,28.5918245,77.2273074,PM10,70,157,109
India,Delhi,Delhi,"Lodhi Road, Delhi - IMD",28-03-2024 17:00:00,28.5918245,77.2273074,CO,9,21,17
India,Delhi,Delhi,"Major Dhyan Chand National Stadium, Delhi - DPCC",28-03-2024 17:00:00,28.611281,77.237738,NO2,39,107,68
India,Delhi,Delhi,"Major Dhyan Chand National Stadium, Delhi - DPCC",28-03-2024 17:00:00,28.611281,77.237738,NH3,7,9,8
India,Delhi,Delhi,"Major Dhyan Chand National Stadium, Delhi - DPCC",28-03-2024 17:00:00,28.611281,77.237738,OZONE,1,243,166
India,Delhi,Delhi,"NSIT Dwarka, Delhi - CPCB",28-03-2024 17:00:00,28.60909,77.0325413,NH3,9,14,11
India,Delhi,Delhi,"NSIT Dwarka, Delhi - CPCB",28-03-2024 17:00:00,28.60909,77.0325413,CO,27,85,38
India,Delhi,Delhi,"Nehru Nagar, Delhi - DPCC",28-03-2024 17:00:00,28.567890,77.250515,NH3,5,16,10
India,Delhi,Delhi,"New Moti Bagh, Delhi - MHUA",28-03-2024 17:00:00,28.57834,77.18400,CO,15,57,28
India,Delhi,Delhi,"North Campus, DU, Delhi - IMD",28-03-2024 17:00:00,28.6573814,77.1585447,OZONE,1,45,28
India,Delhi,Delhi,"Okhla Phase-2, Delhi - DPCC",28-03-2024 17:00:00,28.530785,77.271255,OZONE,10,249,141
India,Delhi,Delhi,"Patparganj, Delhi - DPCC",28-03-2024 17:00:00,28.623763,77.287209,NH3,6,9,8
India,Delhi,Delhi,"Pusa, Delhi - DPCC",28-03-2024 17:00:00,28.639652,77.146275,NO2,57,133,100
India,Delhi,Delhi,"Pusa, Delhi - DPCC",28-03-2024 17:00:00,28.639652,77.146275,SO2,15,49,28
India,Delhi,Delhi,"R K Puram, Delhi - DPCC",28-03-2024 17:00:00,28.563262,77.186937,PM10,108,180,130
India,Delhi,Delhi,"R K Puram, Delhi - DPCC",28-03-2024 17:00:00,28.563262,77.186937,OZONE,10,251,203
India,Delhi,Delhi,"Rohini, Delhi - DPCC",28-03-2024 17:00:00,28.732528,77.119920,SO2,11,52,22
India,Delhi,Delhi,"Sirifort, Delhi - CPCB",28-03-2024 17:00:00,28.5504249,77.2159377,PM10,6,227,124
India,Delhi,Delhi,"Sirifort, Delhi - CPCB",28-03-2024 17:00:00,28.5504249,77.2159377,NO2,NA,NA,NA
India,Delhi,Delhi,"Sonia Vihar, Delhi - DPCC",28-03-2024 17:00:00,28.710508,77.249485,NH3,6,8,7
India,Delhi,Delhi,"Sonia Vihar, Delhi - DPCC",28-03-2024 17:00:00,28.710508,77.249485,SO2,13,41,21
India,Delhi,Delhi,"Sonia Vihar, Delhi - DPCC",28-03-2024 17:00:00,28.710508,77.249485,CO,52,83,61
India,Delhi,Delhi,"Sri Aurobindo Marg, Delhi - DPCC",28-03-2024 17:00:00,28.531346,77.190156,PM2.5,45,200,92
India,Delhi,Delhi,"Sri Aurobindo Marg, Delhi - DPCC",28-03-2024 17:00:00,28.531346,77.190156,NO2,26,86,53
India,Delhi,Delhi,"Vivek Vihar, Delhi - DPCC",28-03-2024 17:00:00,28.672342,77.315260,PM2.5,42,240,112
India,Delhi,Delhi,"Vivek Vihar, Delhi - DPCC",28-03-2024 17:00:00,28.672342,77.315260,NH3,15,15,15
India,Delhi,Delhi,"Wazirpur, Delhi - DPCC",28-03-2024 17:00:00,28.699793,77.165453,NO2,55,149,93
India,Gujarat,Ahmedabad,"Chandkheda, Ahmedabad - IITM",28-03-2024 17:00:00,23.107969,72.574648,SO2,8,12,11
India,Gujarat,Ahmedabad,"Gyaspur, Ahmedabad - IITM",28-03-2024 17:00:00,22.977134,72.553024,SO2,4,5,4
India,Gujarat,Ahmedabad,"Gyaspur, Ahmedabad - IITM",28-03-2024 17:00:00,22.977134,72.553024,OZONE,7,25,14
India,Gujarat,Ahmedabad,"Maninagar, Ahmedabad - GPCB",28-03-2024 17:00:00,23.002657,72.591912,SO2,NA,NA,NA
India,Gujarat,Ahmedabad,"Raikhad, Ahmedabad - IITM",28-03-2024 17:00:00,23.020509,72.579261,NO2,13,134,49
India,Gujarat,Ahmedabad,"Rakhial, Ahmedabad - IITM",28-03-2024 17:00:00,23.016834,72.625775,OZONE,8,37,23
India,Gujarat,Ahmedabad,"SAC ISRO Satellite, Ahmedabad - IITM",28-03-2024 17:00:00,23.023389,72.515201,PM10,106,107,107
India,Gujarat,Ahmedabad,"SAC ISRO Satellite, Ahmedabad - IITM",28-03-2024 17:00:00,23.023389,72.515201,NO2,17,17,17
India,Gujarat,Ahmedabad,"SVPI Airport Hansol, Ahmedabad - IITM",28-03-2024 17:00:00,23.076793,72.627874,PM2.5,37,140,76
India,Gujarat,Ahmedabad,"SVPI Airport Hansol, Ahmedabad - IITM",28-03-2024 17:00:00,23.076793,72.627874,SO2,7,8,8
India,Gujarat,Ahmedabad,"Sardar Vallabhbhai Patel Stadium, Ahmedabad - IITM",28-03-2024 17:00:00,23.043070,72.562968,PM2.5,62,287,102
India,Gujarat,Ahmedabad,"Sardar Vallabhbhai Patel Stadium, Ahmedabad - IITM",28-03-2024 17:00:00,23.043070,72.562968,CO,34,107,38
India,Gujarat,Ankleshwar,"GIDC, Ankleshwar - GPCB",28-03-2024 17:00:00,21.613267,73.010555,SO2,9,42,21
India,Gujarat,Ankleshwar,"GIDC, Ankleshwar - GPCB",28-03-2024 17:00:00,21.613267,73.010555,OZONE,21,38,31
India,Gujarat,Gandhinagar,"GIFT City, Gandhinagar - IITM",28-03-2024 17:00:00,23.163798,72.677768,PM2.5,44,100,68
India,Gujarat,Gandhinagar,"GIFT City, Gandhinagar - IITM",28-03-2024 17:00:00,23.163798,72.677768,CO,6,24,13
India,Gujarat,Gandhinagar,"IIPHG Lekawada, Gandhinagar - IITM",28-03-2024 17:00:00,23.243639,72.68994,SO2,8,35,18
India,Gujarat,Gandhinagar,"IIPHG Lekawada, Gandhinagar - IITM",28-03-2024 17:00:00,23.243639,72.68994,CO,22,25,23
India,Gujarat,Gandhinagar,"Sector-10, Gandhinagar - GPCB",28-03-2024 17:00:00,23.221714,72.654328,PM10,44,82,64
India,Gujarat,Gandhinagar,"Sector-10, Gandhinagar - GPCB",28-03-2024 17:00:00,23.221714,72.654328,OZONE,2,18,13
India,Gujarat,Surat,"Science Center, Surat - SMC",28-03-2024 17:00:00,21.170046,72.795405,PM2.5,7,62,26
India,Gujarat,Vapi,"Phase-1 GIDC, Vapi - GPCB",28-03-2024 17:00:00,20.362421,72.918013,PM2.5,27,101,57
India,Gujarat,Vapi,"Phase-1 GIDC, Vapi - GPCB",28-03-2024 17:00:00,20.362421,72.918013,PM10,50,106,71
India,Gujarat,Vapi,"Phase-1 GIDC, Vapi - GPCB",28-03-2024 17:00:00,20.362421,72.918013,OZONE,1,1,1
India,Gujarat,Vatva,"Phase-4 GIDC, Vatva - GPCB",28-03-2024 17:00:00,22.969611,72.643500,CO,1,130,3
India,Haryana,Ambala,"Patti Mehar, Ambala - HSPCB",28-03-2024 17:00:00,30.379589,76.778328,NO2,7,21,14
India,Haryana,Ambala,"Patti Mehar, Ambala - HSPCB",28-03-2024 17:00:00,30.379589,76.778328,SO2,6,25,15
India,Haryana,Ballabgarh,"Nathu Colony, Ballabgarh - HSPCB",28-03-2024 17:00:00,28.3419248,77.319699,SO2,12,44,25
India,Haryana,Bhiwani,"H.B. Colony, Bhiwani - HSPCB",28-03-2024 17:00:00,28.806223,76.141105,OZONE,8,44,20
India,Haryana,Charkhi Dadri,"Mini Secretariat, Charkhi Dadri - HSPCB",28-03-2024 17:00:00,28.593883,76.270653,NO2,15,24,18
India,Haryana,Dharuhera,"Municipal Corporation Office, Dharuhera -  HSPCB",28-03-2024 17:00:00,28.206800,76.799700,NO2,45,111,69
India,Haryana,Dharuhera,"Municipal Corporation Office, Dharuhera -  HSPCB",28-03-2024 17:00:00,28.206800,76.799700,NH3,9,27,18
India,Haryana,Faridabad,"New Industrial Town, Faridabad - HSPCB",28-03-2024 17:00:00,28.39072,77.30059,SO2,NA,NA,NA
India,Haryana,Faridabad,"Sector 11, Faridabad - HSPCB",28-03-2024 17:00:00,28.376058,77.315741,PM10,137,201,168
India,Haryana,Faridabad,"Sector 11, Faridabad - HSPCB",28-03-2024 17:00:00,28.376058,77.315741,OZONE,4,113,40
India,Haryana,Faridabad,"Sector 30, Faridabad - HSPCB",28-03-2024 17:00:00,28.4417,77.3217,CO,21,64,34
India,Haryana,Faridabad,"Sector- 16A, Faridabad - HSPCB",28-03-2024 17:00:00,28.4088421,77.3099081,SO2,14,26,21
India,Haryana,Faridabad,"Sector- 16A, Faridabad - HSPCB",28-03-2024 17:00:00,28.4088421,77.3099081,OZONE,14,14,14
India,Haryana,Fatehabad,"Huda Sector, Fatehabad - HSPCB",28-03-2024 17:00:00,29.503664,75.467934,PM10,38,53,48
India,Haryana,Gurugram,"Sector-51, Gurugram - HSPCB",28-03-2024 17:00:00,28.4227,77.0667,PM2.5,32,310,136
India,Haryana,Gurugram,"Sector-51, Gurugram - HSPCB",28-03-2024 17:00:00,28.4227,77.0667,PM10,99,253,157
India,Haryana,Gurugram,"Teri Gram, Gurugram - HSPCB",28-03-2024 17:00:00,28.4275,77.1465,NH3,49,78,64
India,Haryana,Gurugram,"Teri Gram, Gurugram - HSPCB",28-03-2024 17:00:00,28.4275,77.1465,SO2,4,4,4
India,Haryana,Gurugram,"Vikas Sadan, Gurugram - HSPCB",28-03-2024 17:00:00,28.4501238,77.0263051,CO,54,150,112
India,Haryana,Jind,"Police Lines, Jind - HSPCB",28-03-2024 17:00:00,29.307814,76.337619,CO,1,82,25
India,Haryana,Kaithal,"Rishi Nagar, Kaithal - HSPCB",28-03-2024 17:00:00,29.8006,76.4155,PM2.5,36,68,51
India,Haryana,Kaithal,"Rishi Nagar, Kaithal - HSPCB",28-03-2024 17:00:00,29.8006,76.4155,PM10,66,90,76
India,Haryana,Kurukshetra,"Sector-7, Kurukshetra - HSPCB",28-03-2024 17:00:00,29.966942,76.875879,PM10,59,94,71
India,Haryana,Mandikhera,"General Hospital, Mandikhera - HSPCB",28-03-2024 17:00:00,27.9002,76.9938,PM2.5,24,84,43
India,Haryana,Mandikhera,"General Hospital, Mandikhera - HSPCB",28-03-2024 17:00:00,27.9002,76.9938,NO2,16,24,21
India,Haryana,Mandikhera,"General Hospital, Mandikhera - HSPCB",28-03-2024 17:00:00,27.9002,76.9938,OZONE,22,38,29
India,Haryana,Manesar,"Sector-2 IMT, Manesar - HSPCB",28-03-2024 17:00:00,28.360699,76.936090,PM2.5,43,87,66
India,Haryana,Manesar,"Sector-2 IMT, Manesar - HSPCB",28-03-2024 17:00:00,28.360699,76.936090,NH3,1,3,2
India,Haryana,Narnaul,"Shastri Nagar, Narnaul - HSPCB",28-03-2024 17:00:00,28.060249,76.113115,PM2.5,32,66,42
India,Haryana,Narnaul,"Shastri Nagar, Narnaul - HSPCB",28-03-2024 17:00:00,28.060249,76.113115,NH3,4,24,11
India,Haryana,Palwal,"Shyam Nagar, Palwal - HSPCB",28-03-2024 17:00:00,28.1485564,77.3320667,PM2.5,50,181,79
India,Haryana,Palwal,"Shyam Nagar, Palwal - HSPCB",28-03-2024 17:00:00,28.1485564,77.3320667,NH3,9,9,9
India,Haryana,Panchkula,"Sector-6, Panchkula - HSPCB ",28-03-2024 17:00:00,30.7057778,76.8531805555555,SO2,11,12,12
India,Haryana,Panipat,"Sector-18, Panipat - HSPCB",28-03-2024 17:00:00,29.497973,76.993331,NO2,NA,NA,NA
India,Haryana,Panipat,"Sector-18, Panipat - HSPCB",28-03-2024 17:00:00,29.497973,76.993331,SO2,NA,NA,NA
India,Haryana,Sonipat,"Murthal, Sonipat - HSPCB",28-03-2024 17:00:00,29.027200,77.062100,PM10,6,48,21
India,Himachal Pradesh,Baddi,"HIMUDA Complex Phase-1, Baddi - HPPCB",28-03-2024 17:00:00,30.943887,76.801991,PM10,67,174,117
India,Himachal Pradesh,Baddi,"HIMUDA Complex Phase-1, Baddi - HPPCB",28-03-2024 17:00:00,30.943887,76.801991,CO,10,68,18
India,Karnataka,Bengaluru,"BTM Layout, Bengaluru - CPCB",28-03-2024 17:00:00,12.9135218,77.5950804,NH3,4,4,4
India,Karnataka,Bengaluru,"Bapuji Nagar, Bengaluru - KSPCB",28-03-2024 17:00:00,12.951913,77.539784,PM2.5,87,233,112
India,Karnataka,Bengaluru,"Bapuji Nagar, Bengaluru - KSPCB",28-03-2024 17:00:00,12.951913,77.539784,PM10,71,110,88
India,Karnataka,Bengaluru,"Hombegowda Nagar, Bengaluru - KSPCB",28-03-2024 17:00:00,12.938539,77.590100,CO,10,16,12
India,Karnataka,Bengaluru,"Jayanagar 5th Block, Bengaluru - KSPCB",28-03-2024 17:00:00,12.920984,77.584908,NH3,4,5,4
India,Karnataka,Bengaluru,"Jigani, Bengaluru - KSPCB",28-03-2024 17:00:00,12.7816279,77.6299145,PM10,NA,NA,NA
India,Karnataka,Bengaluru,"Kasturi Nagar, Bengaluru - KSPCB",28-03-2024 17:00:00,13.003872,77.664217,PM2.5,86,136,106
India,Karnataka,Bengaluru,"Kasturi Nagar, Bengaluru - KSPCB",28-03-2024 17:00:00,13.003872,77.664217,NH3,3,4,4
India,Karnataka,Bengaluru,"Peenya, Bengaluru - CPCB",28-03-2024 17:00:00,13.0270199,77.494094,PM2.5,36,56,47
India,Karnataka,Bengaluru,"Peenya, Bengaluru - CPCB",28-03-2024 17:00:00,13.0270199,77.494094,NO2,5,31,15
India,Karnataka,Bengaluru,"RVCE-Mailasandra, Bengaluru - KSPCB",28-03-2024 17:00:00,12.921418,77.502466,NO2,16,17,17
India,Karnataka,Bengaluru,"Shivapura_Peenya, Bengaluru - KSPCB",28-03-2024 17:00:00,13.0246342,77.5080115,SO2,5,31,16
India,Karnataka,Bengaluru,"Shivapura_Peenya, Bengaluru - KSPCB",28-03-2024 17:00:00,13.0246342,77.5080115,CO,20,52,28
India,Karnataka,Bengaluru,"Silk Board, Bengaluru - KSPCB",28-03-2024 17:00:00,12.917348,77.622813,OZONE,29,30,30
India,Karnataka,Bidar,"Naubad, Bidar - KSPCB",28-03-2024 17:00:00,17.930306,77.482194,OZONE,21,51,42
India,Karnataka,Chamarajanagar,"Urban, Chamarajanagar - KSPCB",28-03-2024 17:00:00,11.55358,76.55521,PM2.5,25,56,36
India,Karnataka,Chamarajanagar,"Urban, Chamarajanagar - KSPCB",28-03-2024 17:00:00,11.55358,76.55521,NO2,23,40,31
India,Karnataka,Chamarajanagar,"Urban, Chamarajanagar - KSPCB",28-03-2024 17:00:00,11.55358,76.55521,CO,22,120,27
India,Karnataka,Chikkaballapur,"Chikkaballapur Rural, Chikkaballapur - KSPCB",28-03-2024 17:00:00,13.428828,77.731418,NH3,1,1,1
India,Karnataka,Chikkaballapur,"Chikkaballapur Rural, Chikkaballapur - KSPCB",28-03-2024 17:00:00,13.428828,77.731418,SO2,10,28,17
India,Karnataka,Chikkaballapur,"Chikkaballapur Rural, Chikkaballapur - KSPCB",28-03-2024 17:00:00,13.428828,77.731418,CO,12,26,16
India,Karnataka,Chikkamagaluru,"Kalyana Nagara, Chikkamagaluru - KSPCB",28-03-2024 17:00:00,13.328028,75.797056,NH3,3,5,4
India,Karnataka,Davanagere,"Devaraj Urs Badavane, Davanagere - KSPCB",28-03-2024 17:00:00,14.475800,75.905200,NH3,1,1,1
India,Karnataka,Davanagere,"Devaraj Urs Badavane, Davanagere - KSPCB",28-03-2024 17:00:00,14.475800,75.905200,OZONE,21,35,26
India,Karnataka,Dharwad,"Kalabhavan, Dharwad - KSPCB",28-03-2024 17:00:00,15.459706,75.008381,PM2.5,33,56,40
India,Karnataka,Dharwad,"Kalabhavan, Dharwad - KSPCB",28-03-2024 17:00:00,15.459706,75.008381,PM10,31,61,41
India,Karnataka,Gadag,"Panchal Nagar, Gadag - KSPCB",28-03-2024 17:00:00,15.411456,75.638133,NH3,2,3,2
India,Karnataka,Hassan,"B.Katihalli, Hassan - KSPCB",28-03-2024 17:00:00,13.008556,76.125258,PM2.5,40,77,57
India,Karnataka,Haveri,"Ashwini Nagar, Haveri - KSPCB",28-03-2024 17:00:00,14.791800,75.389600,PM2.5,34,137,57
India,Karnataka,Haveri,"Ashwini Nagar, Haveri - KSPCB",28-03-2024 17:00:00,14.791800,75.389600,NO2,30,41,32
India,Karnataka,Haveri,"Ashwini Nagar, Haveri - KSPCB",28-03-2024 17:00:00,14.791800,75.389600,SO2,14,14,14
India,Karnataka,Hubballi,"Lingaraj Nagar, Hubballi - KSPCB",28-03-2024 17:00:00,15.3714823,75.1160168,NH3,2,2,2
India,Karnataka,Hubballi,"Lingaraj Nagar, Hubballi - KSPCB",28-03-2024 17:00:00,15.3714823,75.1160168,OZONE,8,44,32
India,Karnataka,Kalaburagi,"Lal Bahadur Shastri Nagar, Kalaburagi - KSPCB",28-03-2024 17:00:00,17.321993,76.822628,PM2.5,24,77,44
India,Karnataka,Kalaburagi,"Lal Bahadur Shastri Nagar, Kalaburagi - KSPCB",28-03-2024 17:00:00,17.321993,76.822628,SO2,11,13,12
India,Karnataka,Karwar,"KHB Colony, Karwar - KSPCB",28-03-2024 17:00:00,14.816666,74.141003,SO2,17,18,18
India,Karnataka,Karwar,"KHB Colony, Karwar - KSPCB",28-03-2024 17:00:00,14.816666,74.141003,OZONE,21,22,21
India,Karnataka,Kolar,"Tamaka Ind. Area, Kolar - KSPCB",28-03-2024 17:00:00,13.1276288,78.1570122,SO2,11,17,14
India,Karnataka,Mysuru,"Hebbal 1st Stage, Mysuru - KSPCB",28-03-2024 17:00:00,12.21041,76.37376,NH3,1,3,2
India,Karnataka,Mysuru,"Hebbal 1st Stage, Mysuru - KSPCB",28-03-2024 17:00:00,12.21041,76.37376,SO2,1,9,4
India,Karnataka,Mysuru,"Hebbal 1st Stage, Mysuru - KSPCB",28-03-2024 17:00:00,12.21041,76.37376,CO,6,30,16
India,Karnataka,Raichur,"Haji Colony, Raichur - KSPCB",28-03-2024 17:00:00,16.208139,77.348417,PM2.5,7,58,27
India,Karnataka,Ramanagara,"Vijay Nagar, Ramanagara - KSPCB",28-03-2024 17:00:00,12.733409,77.298051,PM10,32,100,54
India,Karnataka,Shivamogga,"Vinoba Nagara, Shivamogga - KSPCB",28-03-2024 17:00:00,13.940000,75.555917,NO2,11,18,14
India,Karnataka,Shivamogga,"Vinoba Nagara, Shivamogga - KSPCB",28-03-2024 17:00:00,13.940000,75.555917,NH3,2,5,3
India,Karnataka,Udupi,"Brahmagiri, Udupi - KSPCB",28-03-2024 17:00:00,13.34194444,74.74694444,PM2.5,31,64,46
India,Karnataka,Udupi,"Brahmagiri, Udupi - KSPCB",28-03-2024 17:00:00,13.34194444,74.74694444,NH3,1,1,1
India,Karnataka,Udupi,"Brahmagiri, Udupi - KSPCB",28-03-2024 17:00:00,13.34194444,74.74694444,SO2,12,18,14
